timestamp(unix),attitude_roll(radians),attitude_pitch(radians),attitude_yaw(radians),rotation_rate_x(radians/s),rotation_rate_y(radians/s),rotation_rate_z(radians/s),gravity_x(G),gravity_y(G),gravity_z(G),user_acc_x(G),user_acc_y(G),user_acc_z(G),magnetic_field_x(microteslas),magnetic_field_y(microteslas),magnetic_field_z(microteslas),latitude(degree),longitude(degree),altitude(meter),speed(m/s),course(degree),timestamp(unix),User Mark
1523696444.700339,-0.690316,-0.050643,-1.362421,0.063544,0.200997,0.094415,-0.635964,0.050622,-0.770056,0.172418,0.046180,-0.173181,-0.573059,40.045284,7.599854,,,,,,,
1523696444.730307,-0.688617,-0.054832,-1.361068,-0.088556,-0.130263,0.108493,-0.634515,0.054804,-0.770965,0.118326,0.028875,-0.139893,-0.417816,40.569592,7.597839,,,,,,,
,,,,,,,,,,,,,,,,25.319053,51.454450,15.502039,6.890000,65.742188,1523696443.999724,
1523696444.760306,-0.689320,-0.054610,-1.359305,0.177507,0.001793,-0.025710,-0.635064,0.054583,-0.770528,0.121224,-0.054568,-0.114024,0.181259,40.566738,7.448120,,,,,,,
1523696444.790274,-0.686275,-0.044899,-1.353700,0.497250,0.028083,-0.100084,-0.633021,0.044884,-0.772832,0.104991,-0.111656,-0.126216,-0.723206,40.570065,6.697693,,,,,,,
1523696444.820242,-0.682081,-0.030774,-1.346948,0.479580,0.087918,-0.140648,-0.630112,0.030770,-0.775895,0.060318,-0.155083,-0.186691,-1.025146,40.645962,6.247253,,,,,,,
1523696444.850211,-0.678706,-0.022306,-1.342686,0.163775,0.084403,0.017885,-0.627630,0.022304,-0.778192,0.030203,-0.210490,-0.244940,-0.127136,40.716473,5.797424,,,,,,,
1523696444.880179,-0.678788,-0.026642,-1.340948,-0.222318,-0.090175,0.198914,-0.627627,0.026639,-0.778058,0.001605,-0.144711,-0.278918,-0.883102,40.119869,5.799438,,,,,,,
1523696444.910147,-0.685149,-0.038693,-1.341630,-0.369596,-0.254886,0.251187,-0.632315,0.038683,-0.773745,0.088568,-0.127596,-0.193601,0.169861,40.415142,5.798767,,,,,,,
1523696444.940115,-0.694206,-0.052101,-1.342380,-0.336932,-0.334747,0.264073,-0.638907,0.052077,-0.767519,0.172385,-0.080932,-0.104078,1.006500,41.087200,6.621521,,,,,,,
1523696444.970084,-0.702523,-0.062881,-1.344051,-0.296185,-0.202194,0.138230,-0.644868,0.062840,-0.761706,0.219026,-0.026631,-0.011777,0.633621,41.164104,6.846008,,,,,,,
1523696445.000052,-0.704615,-0.070523,-1.348132,-0.282598,0.039970,-0.003711,-0.646130,0.070465,-0.759967,0.226102,0.050659,-0.004528,1.458878,41.010693,7.147034,,,,,,,
1523696445.030020,-0.701251,-0.074959,-1.355626,-0.232167,0.170472,-0.144457,-0.643363,0.074889,-0.761890,0.171347,0.121141,-0.081402,2.217697,41.532864,7.745361,,,,,,,
,,,,,,,,,,,,,,,,25.319060,51.454491,15.498415,4.640000,63.632812,1523696444.999723,
1523696445.059988,-0.693689,-0.073082,-1.360866,0.095600,0.362251,-0.181700,-0.637671,0.073017,-0.766840,0.084860,0.144161,-0.174459,1.325378,42.212032,7.892151,,,,,,,
1523696445.089957,-0.677578,-0.063622,-1.358734,0.382330,0.586261,-0.102866,-0.625640,0.063579,-0.777517,0.067351,0.090443,-0.329493,1.473251,42.136150,7.667542,,,,,,,
1523696445.119925,-0.662200,-0.058289,-1.353243,0.087396,0.355632,0.158208,-0.613809,0.058256,-0.787302,0.117410,0.099688,-0.394048,0.800385,42.663647,7.140076,,,,,,,
1523696445.149893,-0.662287,-0.069490,-1.349531,-0.419679,-0.284558,0.409937,-0.613438,0.069434,-0.786684,0.237751,0.154778,-0.220564,1.478027,43.110287,6.838623,,,,,,,
1523696445.179861,-0.678427,-0.089339,-1.348884,-0.496357,-0.687260,0.433726,-0.625067,0.089221,-0.775456,0.255514,0.086347,-0.028667,2.223801,42.956493,6.389587,,,,,,,
1523696445.209830,-0.699751,-0.107488,-1.349480,-0.441974,-0.643818,0.280289,-0.640310,0.107281,-0.760588,0.170843,-0.037075,0.115080,3.876740,43.249050,6.389282,,,,,,,
1523696445.239794,-0.713226,-0.115726,-1.352511,-0.114065,-0.256758,-0.025667,-0.649901,0.115467,-0.751197,0.141234,-0.121159,0.168479,3.117310,43.026272,5.189758,,,,,,,
1523696445.269763,-0.709630,-0.108191,-1.353385,0.365333,0.382560,-0.294466,-0.647743,0.107980,-0.754168,0.138191,-0.152353,0.042070,2.584213,42.802700,4.215393,,,,,,,
1523696445.299731,-0.692499,-0.088471,-1.352504,0.579755,0.631763,-0.451179,-0.635966,0.088356,-0.766643,0.017298,-0.099571,-0.222157,1.691727,44.005962,3.460144,,,,,,,
1523696445.329700,-0.675314,-0.070393,-1.350428,0.421425,0.452511,-0.137857,-0.623594,0.070334,-0.778578,-0.033327,-0.137946,-0.462450,-0.339081,44.463360,1.732361,,,,,,,
1523696445.359668,-0.671151,-0.067997,-1.341385,0.131245,-0.111264,0.353698,-0.620451,0.067944,-0.781297,-0.077135,-0.140378,-0.528441,-0.566330,44.688641,0.981323,,,,,,,
1523696445.389636,-0.672182,-0.068900,-1.328471,0.399476,0.088390,0.274849,-0.621217,0.068846,-0.780608,-0.027388,-0.192610,-0.372559,-2.436172,45.521511,0.452026,,,,,,,
1523696445.419603,-0.666865,-0.058430,-1.318485,0.418895,0.115768,-0.150313,-0.617470,0.058397,-0.784424,0.105156,-0.167970,-0.116272,-3.632080,45.976818,0.374573,,,,,,,
1523696445.449573,-0.669481,-0.051391,-1.325878,-0.297816,-0.266284,-0.421101,-0.619760,0.051368,-0.783108,0.168680,-0.024315,0.076855,-4.374268,46.580471,0.671814,,,,,,,
1523696445.479540,-0.682059,-0.059384,-1.352653,-1.049707,-0.289723,-0.599584,-0.629281,0.059349,-0.774908,0.071573,0.143196,0.208883,-5.412964,46.811626,2.170349,,,,,,,
1523696445.509508,-0.687550,-0.079252,-1.390458,-1.442191,-0.042111,-0.464798,-0.632654,0.079169,-0.770377,0.025522,0.150369,0.262702,-7.276306,46.447567,4.720947,,,,,,,
1523696445.539477,-0.700025,-0.107359,-1.422089,-1.380473,-0.567891,-0.061456,-0.640528,0.107153,-0.760423,0.028452,0.075617,0.300111,-7.341660,46.149960,6.822083,,,,,,,
1523696445.569445,-0.721333,-0.142988,-1.450918,-1.604276,-0.461540,0.156703,-0.653647,0.142501,-0.743263,0.036276,0.011476,0.364250,-6.727539,45.400814,10.425354,,,,,,,
1523696445.599413,-0.730478,-0.183658,-1.475923,-1.427114,-0.007544,0.358831,-0.656004,0.182628,-0.732329,0.039503,0.000432,0.260771,-6.047745,44.799541,12.228149,,,,,,,
1523696445.629381,-0.729582,-0.211656,-1.490473,-0.630770,0.156878,0.117379,-0.651683,0.210079,-0.728818,-0.156620,0.019322,0.181439,-4.702271,43.894253,12.982422,,,,,,,
1523696445.659350,-0.729131,-0.210229,-1.493868,0.387633,0.000321,-0.192843,-0.651553,0.208684,-0.729335,-0.101056,-0.051168,-0.017797,-3.735519,42.840282,13.362122,,,,,,,
1523696445.689318,-0.723399,-0.187272,-1.482179,0.997509,0.229707,-0.240554,-0.650363,0.186179,-0.736454,-0.124036,-0.053168,-0.188915,-3.066406,42.611675,12.763367,,,,,,,
1523696445.719286,-0.707519,-0.161213,-1.469037,0.906130,0.613289,-0.202665,-0.641523,0.160516,-0.750122,-0.118609,-0.041283,-0.177414,-1.579971,42.153484,11.265930,,,,,,,
1523696445.749254,-0.688955,-0.141936,-1.454511,0.621721,0.359185,0.068033,-0.629338,0.141460,-0.764148,-0.089137,-0.013499,-0.226910,-1.359634,42.001965,10.741699,,,,,,,
1523696445.779223,-0.686509,-0.141457,-1.448730,-0.225579,-0.127194,0.176567,-0.627510,0.140986,-0.765738,-0.100105,-0.012201,-0.147287,-1.597046,41.027584,10.295471,,,,,,,
1523696445.809191,-0.697927,-0.158036,-1.456383,-0.779623,-0.425002,0.109328,-0.634622,0.157379,-0.756628,-0.101202,-0.013625,-0.028009,-1.151108,40.575665,10.372498,,,,,,,
1523696445.839159,-0.708880,-0.177632,-1.471763,-0.734207,-0.177891,0.008957,-0.640741,0.176700,-0.747147,-0.009131,-0.036441,0.030411,-0.173279,40.047604,11.725037,,,,,,,
1523696445.869128,-0.714191,-0.185495,-1.480945,-0.132842,-0.028684,-0.116474,-0.643770,0.184433,-0.742661,-0.100142,0.018982,0.075684,-0.549896,39.749523,11.951050,,,,,,,
1523696445.899096,-0.709585,-0.177332,-1.480369,0.439627,0.199752,-0.163169,-0.641302,0.176405,-0.746735,-0.096614,0.062869,-0.044967,0.051270,40.046520,11.650146,,,,,,,
1523696445.929065,-0.704935,-0.161840,-1.470211,0.677258,0.057709,0.006568,-0.639517,0.161134,-0.751701,-0.075297,0.018858,-0.053872,-0.406357,39.598064,11.126770,,,,,,,
1523696445.959033,-0.702468,-0.150458,-1.454728,0.570163,0.000122,0.224982,-0.638804,0.149891,-0.754627,-0.047368,-0.087376,-0.078442,-0.332275,39.822201,10.600891,,,,,,,
1523696445.989001,-0.700253,-0.145186,-1.441280,0.329569,0.066065,0.149090,-0.637631,0.144677,-0.756634,-0.101077,-0.065575,0.010983,1.023529,40.266323,10.824768,,,,,,,
1523696446.018970,-0.688890,-0.136973,-1.438981,0.271679,0.602188,-0.366143,-0.629727,0.136545,-0.764722,-0.128803,0.004263,-0.040011,-0.475983,40.497768,10.523071,,,,,,,
,,,,,,,,,,,,,,,,25.319059,51.454541,15.388594,3.690000,69.609375,1523696445.999723,
1523696446.048938,-0.668963,-0.116998,-1.444781,0.491504,0.583927,-0.566288,-0.615933,0.116732,-0.779102,0.078351,-0.138277,-0.187420,-1.835831,40.277615,9.248352,,,,,,,
1523696446.078905,-0.662548,-0.097977,-1.447612,0.323720,-0.000071,-0.420893,-0.612178,0.097820,-0.784646,-0.072286,0.033558,0.024758,-1.981491,40.803112,9.096130,,,,,,,
1523696446.108875,-0.667624,-0.089022,-1.451583,0.058177,-0.294748,-0.124593,-0.616671,0.088904,-0.782185,0.076662,-0.038611,0.088124,-2.513214,40.579769,8.346741,,,,,,,
1523696446.138842,-0.681842,-0.093740,-1.442829,0.025714,-0.679432,0.648273,-0.627457,0.093603,-0.773004,0.206544,-0.143011,0.195902,-2.444366,40.278927,7.822998,,,,,,,
1523696446.168810,-0.702081,-0.114182,-1.427300,-0.368025,-0.608823,0.870610,-0.641603,0.113934,-0.758528,0.115846,-0.117917,0.346190,-0.789780,40.422009,8.348267,,,,,,,
1523696446.198778,-0.711245,-0.141809,-1.417160,-0.498761,-0.247168,0.864818,-0.646225,0.141334,-0.749945,0.195068,0.000893,0.265067,-0.714783,40.197048,8.724182,,,,,,,
1523696446.228763,-0.714888,-0.166683,-1.412749,-0.589364,-0.012203,0.424448,-0.646447,0.165912,-0.744701,-0.079139,0.189053,0.264262,0.180099,39.368542,9.252991,,,,,,,
1523696446.258731,-0.720099,-0.189072,-1.422664,-0.888685,-0.360504,0.194420,-0.647707,0.187947,-0.738344,-0.054823,0.006618,-0.007857,0.857178,39.440731,9.478027,,,,,,,
1523696446.288700,-0.745692,-0.209951,-1.437501,-0.719370,-0.876292,0.041639,-0.663582,0.208412,-0.718487,-0.147286,-0.007286,0.063122,0.560226,38.843563,10.980225,,,,,,,
1523696446.318668,-0.765679,-0.215777,-1.440971,0.196516,-0.398535,0.079133,-0.676955,0.214107,-0.704194,-0.029771,0.114278,0.208986,0.332825,38.694439,10.830688,,,,,,,
1523696446.348636,-0.754801,-0.204858,-1.428157,0.672872,0.717741,-0.014341,-0.670817,0.203428,-0.713177,-0.130330,-0.016294,0.013088,1.238922,39.440136,10.603210,,,,,,,
1523696446.378604,-0.725200,-0.191719,-1.417560,0.429997,0.815178,-0.034858,-0.651133,0.190547,-0.734655,-0.130621,-0.056361,-0.255900,0.483261,39.143078,10.153992,,,,,,,
1523696446.408573,-0.710963,-0.184289,-1.412031,0.237320,0.237569,-0.030161,-0.641513,0.183248,-0.744903,-0.165722,-0.057760,-0.210892,0.781891,39.141521,9.929199,,,,,,,
1523696446.438541,-0.708462,-0.177947,-1.408621,0.266088,-0.074527,-0.084169,-0.640392,0.177010,-0.747372,-0.154286,0.055504,-0.121402,0.939972,39.816021,10.151550,,,,,,,
1523696446.468508,-0.712750,-0.167835,-1.405631,0.330385,-0.147231,-0.193804,-0.644728,0.167048,-0.745936,-0.097032,0.048314,-0.042822,0.114548,40.044292,9.700195,,,,,,,
1523696446.498477,-0.711950,-0.158134,-1.405075,0.206589,0.105935,-0.188817,-0.645160,0.157476,-0.747643,-0.096249,-0.059331,-0.000709,-0.112701,40.044933,9.325073,,,,,,,
1523696446.528445,-0.710203,-0.149814,-1.403371,0.402428,0.060260,-0.109773,-0.644684,0.149254,-0.749737,-0.088546,-0.088173,0.330624,0.565277,40.341885,9.324219,,,,,,,
1523696446.558414,-0.694448,-0.137731,-1.395091,0.451693,0.680038,-0.014468,-0.633901,0.137296,-0.761131,-0.034892,-0.036741,0.036796,-0.489944,40.270885,8.573975,,,,,,,
1523696446.588382,-0.675973,-0.132522,-1.388308,0.129754,0.489575,0.135727,-0.620171,0.132134,-0.773259,-0.068870,0.009239,-0.085079,-0.722443,39.971188,7.825073,,,,,,,
1523696446.618350,-0.670351,-0.137085,-1.385941,-0.173900,-0.109853,0.109462,-0.615433,0.136656,-0.776252,0.062713,-0.048841,-0.099999,0.024536,39.667828,7.826660,,,,,,,
