timestamp(unix),attitude_roll(radians),attitude_pitch(radians),attitude_yaw(radians),rotation_rate_x(radians/s),rotation_rate_y(radians/s),rotation_rate_z(radians/s),gravity_x(G),gravity_y(G),gravity_z(G),user_acc_x(G),user_acc_y(G),user_acc_z(G),magnetic_field_x(microteslas),magnetic_field_y(microteslas),magnetic_field_z(microteslas),latitude(degree),longitude(degree),altitude(meter),speed(m/s),course(degree),timestamp(unix),User Mark
,,,,,,,,,,,,,,,,25.322914,51.483472,21.260286,13.990000,279.140625,1523524113.997664,
1523524114.365047,-0.699396,-0.109923,1.659658,-0.129396,0.157454,0.023734,-0.639870,0.109702,-0.760613,-0.012077,-0.021369,-0.116630,-4.141342,-52.806808,2.280090,,,,,,,
1523524114.395015,-0.698907,-0.114038,1.657494,-0.115478,-0.068909,0.023965,-0.639202,0.113791,-0.760573,0.008267,-0.069052,-0.055940,-4.744003,-53.029175,2.205688,,,,,,,
1523524114.424983,-0.702933,-0.115284,1.657413,0.022805,-0.176616,0.029504,-0.642167,0.115029,-0.757884,0.016297,-0.045067,-0.001820,-5.195175,-53.326843,2.506714,,,,,,,
1523524114.454951,-0.706809,-0.114373,1.659126,0.044458,-0.124535,0.018820,-0.645168,0.114124,-0.755469,0.005962,0.005704,0.018714,-4.295517,-53.181198,2.206543,,,,,,,
1523524114.484920,-0.706819,-0.113708,1.658480,-0.042975,0.063161,-0.046433,-0.645224,0.113463,-0.755520,0.030127,-0.008925,-0.038425,-5.345169,-53.101532,2.130737,,,,,,,
1523524114.514888,-0.706038,-0.112922,1.655968,-0.034438,0.012431,-0.088995,-0.644691,0.112683,-0.756092,0.030052,-0.020092,-0.019466,-4.669617,-52.954727,1.980469,,,,,,,
1523524114.544856,-0.705725,-0.111891,1.653327,-0.036487,0.034739,-0.086891,-0.644530,0.111657,-0.756381,-0.012055,0.033179,-0.038067,-3.765457,-52.808350,2.430359,,,,,,,
1523524114.574824,-0.704625,-0.111674,1.650403,-0.060402,-0.017548,-0.048489,-0.643713,0.111442,-0.757109,0.005438,0.003899,-0.073198,-4.739059,-52.803741,2.654785,,,,,,,
1523524114.604793,-0.705834,-0.112579,1.649851,-0.023547,-0.036278,0.033602,-0.644562,0.112342,-0.756253,-0.019226,0.017282,0.005521,-4.369629,-52.731461,1.604736,,,,,,,
1523524114.634761,-0.705398,-0.113312,1.651116,0.043743,-0.007863,0.050662,-0.644179,0.113069,-0.756471,0.030119,-0.032701,-0.011122,-3.989990,-52.358017,1.753418,,,,,,,
1523524114.664729,-0.705922,-0.112856,1.653284,0.050109,-0.037492,0.031512,-0.644609,0.112617,-0.756172,0.029710,-0.032127,0.044441,-4.887589,-51.979202,1.526428,,,,,,,
1523524114.694697,-0.705158,-0.112367,1.653282,-0.017293,0.080077,-0.043236,-0.644067,0.112131,-0.756706,0.003350,0.018744,-0.036858,-4.434738,-51.831009,1.751099,,,,,,,
1523524114.724666,-0.702761,-0.112891,1.650302,-0.133928,0.020879,-0.045396,-0.642212,0.112651,-0.758203,0.044297,-0.015773,-0.098425,-3.610672,-51.834869,1.601501,,,,,,,
1523524114.754634,-0.706732,-0.115274,1.647677,-0.094331,-0.137877,0.002735,-0.645042,0.115019,-0.755441,0.002693,0.029603,0.050500,-4.886551,-51.604660,1.074890,,,,,,,
1523524114.784602,-0.707592,-0.116107,1.648063,0.040598,0.002774,0.049587,-0.645629,0.115846,-0.754813,0.032257,-0.000810,0.006644,-4.889099,-51.679947,0.775208,,,,,,,
1523524114.814570,-0.705900,-0.116576,1.650501,0.005384,0.039837,0.079365,-0.644316,0.116312,-0.755863,0.024412,-0.040476,-0.022015,-4.582794,-51.455658,1.449463,,,,,,,
1523524114.844539,-0.704616,-0.118431,1.651330,-0.025416,0.019029,0.028209,-0.643204,0.118154,-0.756524,0.025193,-0.043234,-0.058128,-5.563751,-51.826614,1.075439,,,,,,,
1523524114.874496,-0.704886,-0.119095,1.650530,-0.054217,-0.030504,-0.019712,-0.643357,0.118814,-0.756290,0.032456,-0.044977,-0.070919,-5.338150,-51.902405,1.300903,,,,,,,
1523524114.904464,-0.704566,-0.120147,1.648079,-0.108100,0.065442,-0.045420,-0.643034,0.119859,-0.756400,-0.023393,0.007217,-0.087670,-4.662155,-51.530899,0.849731,,,,,,,
1523524114.934464,-0.702611,-0.120863,1.644400,-0.080480,0.008160,-0.068786,-0.641499,0.120569,-0.757590,-0.001461,-0.047693,-0.137079,-4.221161,-51.983627,0.101807,,,,,,,
1523524114.964432,-0.706338,-0.120339,1.643127,0.012405,-0.166736,-0.013127,-0.644358,0.120049,-0.755242,0.022410,-0.040688,0.010125,-5.343262,-51.828354,0.325562,,,,,,,
1523524114.994401,-0.709039,-0.120333,1.643746,0.007462,-0.048964,0.013392,-0.646396,0.120043,-0.753500,0.025959,-0.039644,0.052465,-4.512787,-51.232162,0.248657,,,,,,,
1523524115.024369,-0.708114,-0.118981,1.643232,0.000840,0.035650,-0.078341,-0.645804,0.118701,-0.754220,0.012488,-0.038913,0.019250,-4.888504,-51.530106,0.624695,,,,,,,
1523524115.054337,-0.706770,-0.116974,1.639511,-0.060374,0.091669,-0.165814,-0.644943,0.116707,-0.755267,0.015350,-0.041451,-0.039014,-5.191025,-51.828659,0.700684,,,,,,,
,,,,,,,,,,,,,,,,25.322931,51.483317,21.488694,15.010000,280.195312,1523524114.997653,
1523524115.084305,-0.706391,-0.114025,1.634605,-0.025485,-0.016598,-0.194452,-0.644878,0.113778,-0.755769,-0.024113,0.002052,-0.003508,-4.065475,-51.683868,0.550659,,,,,,,
1523524115.114274,-0.706432,-0.110107,1.629060,-0.022817,0.071771,-0.220112,-0.645193,0.109885,-0.756076,-0.016321,0.010339,-0.043835,-4.663208,-51.456192,0.549500,,,,,,,
1523524115.144242,-0.705689,-0.106311,1.625519,0.039097,-0.033335,-0.103817,-0.644897,0.106111,-0.756867,0.005691,0.009612,-0.045730,-4.137924,-51.832870,1.226257,,,,,,,
1523524115.174210,-0.708003,-0.105213,1.626163,0.042327,-0.086499,0.050745,-0.646722,0.105019,-0.755461,0.020211,0.040916,0.051421,-3.613968,-51.985153,1.302124,,,,,,,
1523524115.204177,-0.708039,-0.105821,1.628814,0.054399,0.031155,0.088992,-0.646708,0.105623,-0.755389,0.074488,0.001325,0.035907,-4.511993,-52.055664,1.751953,,,,,,,
1523524115.234147,-0.704182,-0.106333,1.631292,0.023329,0.165564,0.023848,-0.643754,0.106133,-0.757837,0.009080,0.001701,-0.004355,-4.064102,-52.132904,1.527466,,,,,,,
1523524115.264114,-0.699745,-0.105625,1.630569,0.013816,0.074921,-0.076241,-0.640433,0.105429,-0.760743,0.048896,-0.034292,-0.095153,-3.540466,-52.135483,1.302734,,,,,,,
1523524115.294082,-0.701748,-0.104093,1.628688,-0.021189,-0.115179,-0.079271,-0.642060,0.103905,-0.759581,0.007294,-0.008294,-0.022844,-3.763382,-51.834625,1.151428,,,,,,,
1523524115.324050,-0.703834,-0.104152,1.626791,-0.048770,-0.020901,-0.029296,-0.643639,0.103964,-0.758235,-0.012352,0.045069,-0.038457,-3.166229,-52.212173,1.303223,,,,,,,
1523524115.354019,-0.703587,-0.104942,1.626948,-0.005730,-0.055739,0.077307,-0.643398,0.104750,-0.758331,0.045451,-0.000929,-0.059845,-3.393204,-52.136597,0.852844,,,,,,,
1523524115.383987,-0.704315,-0.106038,1.630070,0.060611,0.003436,0.100740,-0.643875,0.105839,-0.757775,0.006439,0.000850,0.007836,-3.918594,-52.358932,1.153442,,,,,,,
1523524115.413955,-0.702864,-0.107167,1.632988,0.013647,-0.007015,0.091134,-0.642697,0.106962,-0.758616,0.028210,-0.044737,-0.063268,-3.315765,-52.436050,1.754089,,,,,,,
1523524115.443923,-0.704009,-0.107775,1.634027,0.014992,-0.060506,-0.008974,-0.643523,0.107566,-0.757831,-0.014192,-0.032584,-0.032926,-3.843170,-52.134583,0.852600,,,,,,,
1523524115.473892,-0.704859,-0.106009,1.632247,-0.006734,-0.033129,-0.117698,-0.644289,0.105810,-0.757427,0.003130,-0.041693,-0.061100,-3.993896,-52.433533,1.228699,,,,,,,
1523524115.503860,-0.707395,-0.103739,1.629258,-0.022084,-0.106496,-0.104853,-0.646362,0.103553,-0.755971,-0.009659,-0.027244,0.028722,-4.517990,-52.431015,1.378479,,,,,,,
1523524115.533828,-0.707901,-0.102552,1.626559,-0.040724,0.060138,-0.070935,-0.646824,0.102373,-0.755737,-0.021175,-0.020280,-0.021363,-4.668274,-52.729889,1.829529,,,,,,,
1523524115.563797,-0.706689,-0.102894,1.625819,-0.025666,-0.019329,0.043165,-0.645885,0.102713,-0.756493,0.020153,-0.046453,-0.007240,-4.214966,-52.581635,2.129211,,,,,,,
1523524115.593765,-0.707528,-0.104675,1.627534,-0.012884,0.027061,0.090015,-0.646399,0.104484,-0.755811,-0.007806,-0.013527,0.029294,-2.941666,-53.111755,2.731934,,,,,,,
1523524115.623734,-0.704695,-0.105463,1.628872,0.016425,0.066718,0.031391,-0.644202,0.105268,-0.757576,0.029105,-0.040067,-0.061393,-3.471451,-53.409668,2.432861,,,,,,,
1523524115.653702,-0.705563,-0.104001,1.629643,0.054706,-0.055048,-0.044111,-0.644958,0.103814,-0.757133,0.012344,-0.020394,0.040932,-3.319046,-53.484833,2.958252,,,,,,,
1523524115.683671,-0.705699,-0.100937,1.628601,0.044783,0.039994,-0.107083,-0.645265,0.100766,-0.757284,0.022385,-0.019085,0.016211,-2.119095,-53.265610,2.582947,,,,,,,
1523524115.713639,-0.703984,-0.097908,1.627261,0.031757,0.037609,-0.066593,-0.644160,0.097752,-0.758618,0.036723,-0.024143,-0.004077,-2.571609,-53.788116,3.034851,,,,,,,
1523524115.743607,-0.702129,-0.097937,1.626688,-0.050678,0.091406,0.020656,-0.642749,0.097780,-0.759810,0.005191,0.015532,-0.063478,-1.825699,-53.792145,2.360229,,,,,,,
1523524115.773575,-0.700917,-0.099191,1.626143,-0.017058,-0.056240,-0.000474,-0.641749,0.099028,-0.760494,0.024790,-0.011901,-0.097080,-1.529312,-54.018707,2.136292,,,,,,,
1523524115.803544,-0.703502,-0.096154,1.626977,0.162525,-0.071169,-0.055739,-0.643904,0.096005,-0.759059,0.047453,0.012134,0.031169,-2.054291,-53.791733,1.760132,,,,,,,
1523524115.833512,-0.701990,-0.091550,1.629784,0.153281,0.056056,-0.013241,-0.643034,0.091422,-0.760361,0.027846,-0.028251,0.011993,-1.904617,-53.642700,1.459534,,,,,,,
1523524115.863512,-0.700533,-0.088683,1.631091,0.077333,-0.004114,-0.040954,-0.642091,0.088567,-0.761494,0.043901,-0.053761,0.043782,-1.600311,-52.894592,0.931763,,,,,,,
1523524115.893480,-0.698914,-0.087244,1.630880,-0.000044,0.114052,-0.045387,-0.640940,0.087133,-0.762629,-0.038931,-0.040685,-0.047368,-2.503708,-52.965973,0.481567,,,,,,,
1523524115.923448,-0.695056,-0.086621,1.628739,-0.041535,0.106954,-0.079506,-0.638027,0.086512,-0.765138,-0.056218,-0.036052,-0.137114,-3.175674,-52.662964,0.480042,,,,,,,
1523524115.953416,-0.695480,-0.084314,1.627273,0.071763,-0.079444,-0.057916,-0.638477,0.084214,-0.765019,-0.003826,-0.037446,-0.050304,-2.644882,-52.215118,0.703491,,,,,,,
1523524115.983385,-0.696718,-0.081836,1.629437,0.103564,-0.001640,0.050703,-0.639556,0.081745,-0.764385,0.020752,-0.003071,-0.055592,-3.700943,-53.184769,1.306885,,,,,,,
1523524116.013353,-0.697296,-0.080792,1.632677,0.089145,-0.105827,0.063581,-0.640052,0.080704,-0.764080,0.049782,-0.002670,-0.018436,-3.321030,-52.736404,1.380249,,,,,,,
1523524116.043321,-0.699896,-0.079511,1.635004,0.053597,-0.004382,0.005910,-0.642103,0.079428,-0.762492,0.035917,-0.003942,0.060130,-2.940781,-52.437744,1.754272,,,,,,,
,,,,,,,,,,,,,,,,25.322940,51.483157,21.695199,15.570000,280.546875,1523524115.997643,
1523524116.073289,-0.696424,-0.078041,1.634457,0.004601,0.170525,-0.068884,-0.639525,0.077962,-0.764806,0.009063,-0.042149,-0.076487,-2.722855,-53.188644,1.832336,,,,,,,
1523524116.103258,-0.694611,-0.077066,1.631250,-0.097528,-0.057253,-0.130528,-0.638186,0.076989,-0.766022,-0.042463,-0.035867,-0.112045,-3.023590,-53.262283,1.832458,,,,,,,
1523524116.133226,-0.697974,-0.077419,1.625498,-0.135001,-0.074211,-0.124141,-0.640741,0.077342,-0.763851,-0.048132,-0.008906,-0.062977,-1.748642,-52.818771,1.081360,,,,,,,
1523524116.163194,-0.699721,-0.077870,1.622638,-0.030017,-0.081744,0.004866,-0.642052,0.077791,-0.762703,-0.013465,-0.032702,-0.024254,-2.652664,-53.264633,1.157715,,,,,,,
1523524116.193163,-0.701759,-0.079094,1.625047,0.031382,-0.037173,0.143383,-0.643544,0.079011,-0.761320,0.012349,-0.029023,0.052534,-2.655670,-53.115372,0.407104,,,,,,,
1523524116.223131,-0.699936,-0.081168,1.629877,0.049763,0.062327,0.189130,-0.642047,0.081079,-0.762365,0.038898,-0.055230,-0.017100,-2.055374,-53.043152,0.332092,,,,,,,
1523524116.253099,-0.697194,-0.083972,1.633187,-0.059465,0.116417,0.092025,-0.639807,0.083873,-0.763945,-0.013392,-0.025173,-0.114031,-3.108810,-52.889236,-0.494019,,,,,,,
1523524116.283067,-0.696261,-0.085598,1.631320,-0.070216,-0.077978,-0.063361,-0.639005,0.085494,-0.764436,0.020810,-0.043990,-0.121504,-3.259262,-52.664001,-0.945007,,,,,,,
1523524116.313036,-0.701626,-0.083431,1.628936,0.030877,-0.202260,-0.105780,-0.643215,0.083334,-0.761136,0.019268,-0.029013,0.032880,-3.794449,-52.962784,-2.144104,,,,,,,
1523524116.343004,-0.703664,-0.081032,1.628228,0.024100,0.037394,-0.032506,-0.644893,0.080943,-0.759974,0.001536,-0.008525,0.024195,-4.701584,-53.409164,-2.592773,,,,,,,
1523524116.372972,-0.701025,-0.081334,1.628175,-0.046809,0.024316,0.039907,-0.642869,0.081245,-0.761655,0.000840,-0.029899,-0.023715,-5.599304,-53.404755,-2.218201,,,,,,,
1523524116.402940,-0.699014,-0.083719,1.627427,-0.086832,0.126547,0.022724,-0.641209,0.083621,-0.762796,-0.014186,-0.029880,-0.084907,-7.392944,-52.946381,-1.920959,,,,,,,
1523524116.432909,-0.698643,-0.084599,1.627049,0.008367,-0.096705,0.002782,-0.640878,0.084498,-0.762977,0.008020,-0.052866,-0.091805,-8.135406,-52.866913,-0.796631,,,,,,,
1523524116.462877,-0.704136,-0.083193,1.627386,0.048566,-0.221931,-0.034356,-0.645136,0.083097,-0.759535,0.017115,0.005969,-0.005404,-7.816940,-52.416031,1.526733,,,,,,,
1523524116.492845,-0.709243,-0.080653,1.628189,0.085171,-0.149770,-0.032279,-0.649142,0.080565,-0.756388,0.029254,-0.007293,0.019114,-6.684326,-52.195221,2.426392,,,,,,,
1523524116.522813,-0.711365,-0.078959,1.629221,0.008634,-0.032994,0.008052,-0.650834,0.078877,-0.755111,0.001237,-0.012043,0.033798,-5.621338,-51.748581,3.850159,,,,,,,
1523524116.552782,-0.707902,-0.080191,1.628764,-0.052457,0.155268,0.006735,-0.648151,0.080105,-0.757286,-0.012570,-0.058499,-0.120445,-4.651611,-52.053314,3.476868,,,,,,,
1523524116.582750,-0.707817,-0.080831,1.628406,0.000480,-0.168024,0.022034,-0.648053,0.080743,-0.757302,0.019529,-0.039300,-0.031165,-3.752701,-52.207275,3.552917,,,,,,,
1523524116.612718,-0.713808,-0.081756,1.629664,0.001436,-0.128033,0.077400,-0.652530,0.081665,-0.753349,0.026934,-0.006272,0.030937,-3.230103,-52.359787,3.403809,,,,,,,
1523524116.642686,-0.712087,-0.082475,1.631647,0.017526,0.100538,0.055872,-0.651194,0.082381,-0.754426,0.013422,-0.029693,-0.042541,-2.263123,-52.889587,2.956360,,,,,,,
1523524116.672655,-0.711120,-0.082168,1.632861,0.029857,-0.041652,0.024053,-0.650480,0.082075,-0.755075,0.026350,-0.039274,-0.015860,-2.261322,-52.664673,2.880493,,,,,,,
1523524116.702623,-0.710902,-0.082235,1.632922,-0.035678,0.053424,-0.022985,-0.650312,0.082142,-0.755212,-0.023257,-0.045033,-0.080161,-3.013535,-52.886292,2.881042,,,,,,,
1523524116.732591,-0.711863,-0.081844,1.630976,-0.019183,-0.109028,-0.048372,-0.651058,0.081753,-0.754611,0.019696,-0.056896,-0.035138,-2.712799,-52.588013,2.505005,,,,,,,
1523524116.762559,-0.714308,-0.082279,1.630400,-0.051286,-0.019282,0.044219,-0.652878,0.082187,-0.752990,-0.012558,-0.023959,0.000335,-1.891434,-52.816925,2.281250,,,,,,,
1523524116.792558,-0.713343,-0.084505,1.631221,-0.019368,0.006900,0.087901,-0.652030,0.084405,-0.753480,0.000510,-0.052056,-0.012115,-2.721344,-53.263275,2.207642,,,,,,,
1523524116.822527,-0.713212,-0.084840,1.633390,0.037452,0.019751,0.053832,-0.651913,0.084739,-0.753544,0.000439,-0.036948,0.017093,-3.244507,-53.260620,2.507385,,,,,,,
1523524116.852501,-0.710101,-0.084571,1.633405,-0.023551,0.105604,-0.046450,-0.649580,0.084470,-0.755585,0.007445,-0.055234,-0.110549,-2.646637,-53.563156,2.658875,,,,,,,
1523524116.882469,-0.712953,-0.081946,1.631982,0.066133,-0.188586,-0.098309,-0.651875,0.081855,-0.753895,0.054082,-0.034308,0.012104,-2.119705,-53.190826,2.357666,,,,,,,
1523524116.912437,-0.715888,-0.079190,1.630064,-0.030092,0.022017,-0.094326,-0.654230,0.079107,-0.752146,0.036585,0.054774,0.014826,-1.454330,-53.569794,1.384521,,,,,,,
1523524116.942406,-0.712268,-0.078731,1.627084,-0.071768,0.043193,-0.068805,-0.651527,0.078650,-0.754536,-0.014458,0.019144,-0.053737,-2.503235,-53.639786,1.684265,,,,,,,
1523524116.972374,-0.711675,-0.077592,1.624699,0.020156,0.053689,-0.081541,-0.651138,0.077514,-0.754990,-0.002274,-0.009231,-0.034530,-2.654144,-53.639252,1.534180,,,,,,,
1523524117.002342,-0.709805,-0.075991,1.624851,0.067606,0.010528,-0.004744,-0.649805,0.075918,-0.756300,-0.000906,-0.044530,-0.044390,-2.208344,-53.791702,1.085022,,,,,,,
1523524117.032310,-0.710094,-0.074960,1.625918,0.034545,0.027561,0.002672,-0.650074,0.074890,-0.756171,-0.015102,-0.012467,-0.007257,-3.176849,-53.636520,1.908936,,,,,,,
,,,,,,,,,,,,,,,,25.322959,51.482995,22.211156,16.459999,279.492188,1523524116.997633,
1523524117.062279,-0.709124,-0.075648,1.625584,-0.055328,0.001095,0.018625,-0.649307,0.075576,-0.756762,0.015609,-0.023223,-0.023878,-3.097672,-53.486420,2.358337,,,,,,,
1523524117.092247,-0.708494,-0.077231,1.624959,-0.067845,0.058588,0.008957,-0.648751,0.077154,-0.757079,0.003182,-0.004156,-0.008714,-3.025375,-53.487213,1.908386,,,,,,,
1523524117.122215,-0.705214,-0.078001,1.624136,-0.017229,0.129790,-0.011315,-0.646225,0.077922,-0.759157,0.014756,-0.018931,-0.080992,-2.873718,-53.412735,2.058167,,,,,,,
1523524117.152183,-0.704020,-0.077507,1.623649,0.012089,-0.006243,-0.018617,-0.645344,0.077429,-0.759957,0.012180,-0.033164,-0.022605,-2.269119,-53.040314,2.206970,,,,,,,
1523524117.182152,-0.704951,-0.077143,1.623881,0.007474,-0.047907,0.013396,-0.646069,0.077066,-0.759378,0.017071,-0.009805,-0.029303,-1.671829,-53.043457,1.757324,,,,,,,
1523524117.212120,-0.706548,-0.077573,1.623675,-0.031047,-0.082768,-0.001519,-0.647259,0.077496,-0.758320,0.030407,-0.009151,0.020695,-2.199341,-53.565613,2.209106,,,,,,,
1523524117.242088,-0.707302,-0.077697,1.623023,-0.021979,0.028838,-0.008026,-0.647825,0.077619,-0.757824,0.016019,-0.031125,0.045147,-2.352509,-53.340836,1.308167,,,,,,,
1523524117.272056,-0.703986,-0.077830,1.622483,-0.026877,0.123448,-0.011324,-0.645302,0.077752,-0.759960,-0.009346,-0.048897,-0.052036,-1.826614,-53.343048,1.458374,,,,,,,
1523524117.302025,-0.703325,-0.079446,1.621290,-0.095137,-0.058341,0.023976,-0.644717,0.079363,-0.760290,-0.008939,-0.046831,-0.066736,-2.427658,-53.041016,0.781921,,,,,,,
1523524117.331993,-0.705407,-0.082600,1.620630,-0.103754,-0.008782,0.081459,-0.646133,0.082506,-0.758751,-0.034348,-0.028337,-0.036598,-2.427658,-53.041016,0.781921,,,,,,,
1523524117.361961,-0.704235,-0.085401,1.621353,-0.032274,-0.006890,0.091090,-0.645091,0.085297,-0.759329,0.009456,-0.034318,-0.044459,-2.658081,-53.040894,-0.118164,,,,,,,
1523524117.391930,-0.705858,-0.085867,1.623926,0.074382,-0.059087,0.069922,-0.646296,0.085762,-0.758251,0.036647,-0.037758,0.030224,-3.557556,-53.261383,0.332214,,,,,,,
1523524117.421898,-0.706705,-0.084576,1.626822,0.086157,-0.080207,0.046513,-0.647010,0.084475,-0.757787,0.085776,-0.025210,0.024571,-3.478836,-53.111359,0.706665,,,,,,,
1523524117.451866,-0.708506,-0.083984,1.628543,-0.016874,0.006317,0.018645,-0.648406,0.083885,-0.756658,0.023299,0.000313,0.047506,-3.328079,-53.037048,0.706421,,,,,,,
1523524117.481834,-0.704505,-0.086266,1.626490,-0.148563,0.144903,0.002419,-0.645248,0.086159,-0.759098,0.010635,-0.040291,-0.095776,-3.998093,-53.033218,1.531067,,,,,,,
1523524117.511803,-0.702920,-0.088628,1.623760,-0.094735,-0.030352,-0.028260,-0.643911,0.088512,-0.759962,-0.040187,-0.045833,-0.075777,-3.696167,-52.659866,1.229736,,,,,,,
1523524117.541771,-0.706076,-0.089148,1.622633,0.006130,-0.112687,0.009193,-0.646275,0.089030,-0.757892,-0.009685,-0.057169,0.005206,-2.793945,-52.438919,1.229309,,,,,,,
1523524117.571739,-0.707563,-0.088971,1.625207,0.045437,-0.031693,0.114619,-0.647412,0.088854,-0.756941,-0.002124,-0.073977,0.056975,-3.311584,-52.060989,1.827515,,,,,,,
1523524117.601707,-0.704144,-0.092474,1.628249,-0.084509,0.115843,0.183638,-0.644615,0.092342,-0.758909,0.027397,-0.077480,-0.058123,-3.240479,-52.361465,1.678833,,,,,,,
1523524117.631676,-0.704394,-0.097476,1.630084,-0.095689,-0.070718,0.120959,-0.644498,0.097322,-0.758386,0.015668,-0.045930,-0.035117,-2.863098,-52.213013,1.828369,,,,,,,
1523524117.661644,-0.705570,-0.098613,1.629417,-0.026137,0.023713,-0.033595,-0.645317,0.098453,-0.757542,0.012337,-0.021167,-0.062602,-3.769958,-52.584457,1.304443,,,,,,,
1523524117.691612,-0.705120,-0.096322,1.627929,0.033451,-0.084432,-0.088851,-0.645120,0.096173,-0.758003,0.035745,-0.057828,-0.067376,-3.324936,-52.811905,0.855530,,,,,,,
1523524117.721580,-0.708810,-0.093031,1.627173,0.046207,-0.074020,-0.065395,-0.648115,0.092897,-0.755853,0.010435,-0.022813,0.055093,-2.574356,-52.890060,1.081238,,,,,,,
1523524117.751579,-0.705063,-0.093001,1.625711,-0.105647,0.179916,-0.006103,-0.645280,0.092867,-0.758279,-0.024138,-0.017229,-0.114386,-3.775360,-53.259201,1.532104,,,,,,,
1523524117.781547,-0.702734,-0.095881,1.622928,-0.133074,0.004728,-0.016603,-0.643337,0.095734,-0.759573,-0.070835,-0.022904,-0.071421,-3.401871,-53.410889,1.532898,,,,,,,
1523524117.811516,-0.703337,-0.095226,1.621074,0.065698,-0.016637,-0.070777,-0.643835,0.095082,-0.759232,0.014288,-0.073583,-0.042694,-2.352676,-53.265976,1.157837,,,,,,,
1523524117.841484,-0.705274,-0.091384,1.622845,0.131133,-0.107567,-0.005649,-0.645537,0.091257,-0.758256,0.031706,-0.010004,0.018906,-2.798294,-52.963745,1.381470,,,,,,,
1523524117.871453,-0.706168,-0.090645,1.623591,-0.037935,0.045845,-0.003789,-0.646258,0.090521,-0.757730,0.020770,0.034068,-0.017325,-2.577805,-53.190125,1.007446,,,,,,,
1523524117.901421,-0.703625,-0.090982,1.621519,-0.066411,0.059041,-0.058159,-0.644309,0.090856,-0.759347,0.004234,0.017786,-0.090278,-2.426453,-53.190567,1.232544,,,,,,,
1523524117.931390,-0.703176,-0.090948,1.618990,-0.034687,-0.010088,-0.060201,-0.643970,0.090823,-0.759639,-0.010662,-0.007571,-0.092916,-3.103699,-53.187897,0.857178,,,,,,,
1523524117.961358,-0.705161,-0.089226,1.618586,0.086570,-0.088090,-0.040858,-0.645577,0.089107,-0.758477,0.000313,-0.018337,-0.016181,-2.195770,-52.666534,1.305542,,,,,,,
1523524117.991326,-0.706719,-0.087061,1.620551,0.077970,-0.022679,0.028335,-0.646882,0.086951,-0.757615,0.009156,-0.010657,0.024644,-2.422562,-52.441193,0.629517,,,,,,,
1523524118.021295,-0.705098,-0.087782,1.621667,-0.037112,0.039161,0.038845,-0.645612,0.087669,-0.758615,-0.004244,-0.027778,-0.032035,-3.021347,-52.588058,1.079773,,,,,,,
1523524118.051263,-0.704260,-0.089013,1.621539,-0.031621,0.042537,0.011136,-0.644906,0.088895,-0.759073,-0.005774,-0.036573,-0.029441,-3.168045,-52.212463,1.003235,,,,,,,
,,,,,,,,,,,,,,,,25.322969,51.482823,22.457905,17.110001,279.140625,1523524117.997623,
1523524118.081231,-0.702788,-0.089145,1.621157,0.004665,0.008617,-0.014371,-0.643780,0.089027,-0.760012,0.006848,-0.054085,-0.095426,-2.866409,-51.914047,0.777161,,,,,,,
1523524118.111199,-0.705891,-0.086979,1.621319,0.093767,-0.166624,-0.056761,-0.646259,0.086869,-0.758156,0.017353,-0.033479,0.023720,-3.540939,-51.910950,0.851868,,,,,,,
1523524118.141168,-0.707954,-0.083545,1.621694,0.055063,0.000336,-0.063340,-0.648012,0.083448,-0.757043,0.014345,-0.002195,0.014291,-3.245438,-52.137650,0.477905,,,,,,,
1523524118.171136,-0.705590,-0.081932,1.621524,-0.003536,0.104142,0.003644,-0.646307,0.081840,-0.758675,-0.006113,-0.030098,-0.042717,-3.018219,-52.138290,0.853027,,,,,,,
1523524118.201104,-0.702149,-0.084632,1.620254,-0.153174,0.096883,0.030184,-0.643547,0.084531,-0.760723,-0.029793,-0.031629,-0.092823,-3.099655,-52.513367,0.404480,,,,,,,
1523524118.231072,-0.702524,-0.086375,1.618734,0.008547,-0.086979,-0.021728,-0.643737,0.086267,-0.760367,0.021727,-0.048517,-0.032800,-4.152328,-52.284470,-0.421997,,,,,,,
1523524118.261041,-0.705755,-0.083583,1.619861,0.106796,-0.080869,-0.019524,-0.646343,0.083486,-0.758464,0.024075,0.002360,0.027583,-2.273956,-52.217468,0.028687,,,,,,,
1523524118.291009,-0.704908,-0.081812,1.620581,0.005852,0.046804,-0.004821,-0.645796,0.081720,-0.759123,0.021711,-0.019571,-0.012880,-3.400238,-52.661865,0.554932,,,,,,,
1523524118.320977,-0.703808,-0.083422,1.620191,-0.095982,0.033846,0.061177,-0.644875,0.083325,-0.759731,0.013832,-0.023922,-0.020298,-3.779587,-52.511139,-0.420898,,,,,,,
1523524118.350945,-0.702008,-0.086866,1.620056,-0.060646,0.051852,0.056923,-0.643317,0.086757,-0.760667,-0.016077,-0.045177,-0.051726,-3.633621,-53.186340,0.031860,,,,,,,
1523524118.380914,-0.701794,-0.086565,1.620828,0.068475,-0.033052,-0.003631,-0.643171,0.086457,-0.760825,0.004529,-0.056610,-0.022363,-3.408493,-53.037582,-0.193604,,,,,,,
1523524118.410882,-0.703143,-0.085116,1.621969,0.017020,-0.052217,0.019792,-0.644277,0.085013,-0.760051,0.031896,-0.041907,-0.011922,-2.886200,-53.264999,-0.267395,,,,,,,
1523524118.440850,-0.704211,-0.086623,1.622010,-0.094066,-0.025635,0.054857,-0.645004,0.086515,-0.759265,0.008835,-0.012052,0.002841,-3.708313,-53.111084,-0.043457,,,,,,,
1523524118.470818,-0.702404,-0.088727,1.621221,-0.054976,0.101922,0.036632,-0.643512,0.088611,-0.760288,0.018909,-0.056048,-0.040844,-4.314133,-53.558578,-0.266968,,,,,,,
1523524118.500787,-0.699898,-0.089334,1.622173,0.008807,0.044349,0.041003,-0.641570,0.089216,-0.761857,-0.000108,-0.066282,-0.070846,-3.636902,-53.561249,0.108398,,,,,,,
1523524118.530755,-0.700117,-0.089272,1.622866,0.012866,-0.053129,-0.001512,-0.641740,0.089153,-0.761721,0.006792,-0.035198,-0.059782,-4.458115,-53.407181,0.482361,,,,,,,
1523524118.560723,-0.701922,-0.088425,1.621900,-0.016824,-0.058048,-0.046287,-0.643163,0.088310,-0.760618,0.013219,-0.021004,-0.006044,-4.607040,-53.705826,1.158447,,,,,,,
1523524118.590691,-0.701511,-0.087533,1.620724,-0.021637,0.064112,-0.040014,-0.642901,0.087421,-0.760943,-0.006879,-0.027561,-0.028456,-3.779556,-53.409637,1.082703,,,,,,,
1523524118.620660,-0.699456,-0.087228,1.619549,-0.016682,0.006569,-0.017582,-0.641353,0.087117,-0.762282,0.017696,-0.047735,-0.024323,-3.541672,-52.659805,1.979858,,,,,,,
1523524118.650628,-0.700296,-0.087845,1.619513,-0.031928,0.000916,0.035692,-0.641958,0.087732,-0.761702,-0.004801,-0.018884,-0.014329,-3.616653,-52.659470,1.979797,,,,,,,
1523524118.680627,-0.698343,-0.088983,1.618870,-0.039873,0.077793,-0.013410,-0.640405,0.088865,-0.762877,-0.023505,-0.028822,-0.066941,-1.514053,-52.443863,2.054993,,,,,,,
1523524118.710595,-0.699217,-0.087584,1.618284,0.046157,-0.047664,-0.034527,-0.641151,0.087472,-0.762412,-0.009087,-0.017922,-0.003915,-2.113571,-52.216461,1.753784,,,,,,,
1523524118.740563,-0.697944,-0.087418,1.618307,-0.021035,0.039204,0.027137,-0.640189,0.087307,-0.763239,0.020743,-0.039058,-0.097815,-1.819138,-52.368454,1.079529,,,,,,,
1523524118.770532,-0.700713,-0.088271,1.619669,0.013155,-0.142901,0.071037,-0.642252,0.088157,-0.761406,0.027201,-0.015448,0.031440,-1.072617,-52.447266,0.630249,,,,,,,
1523524118.800500,-0.700174,-0.088887,1.620971,0.006049,0.131568,0.030254,-0.641807,0.088770,-0.761710,0.009208,0.003149,-0.020929,-2.805496,-52.964920,0.181458,,,,,,,
1523524118.830468,-0.696752,-0.087956,1.620951,0.023063,0.019430,-0.049518,-0.639249,0.087842,-0.763965,0.003095,-0.038328,-0.077298,-2.733673,-53.190399,0.032349,,,,,,,
1523524118.860412,-0.698272,-0.085585,1.619880,0.046390,-0.048416,-0.079277,-0.640541,0.085481,-0.763150,0.031853,-0.022600,-0.008640,-2.807159,-53.040070,0.031738,,,,,,,
1523524118.890381,-0.698408,-0.083763,1.619919,0.003559,0.012823,-0.005862,-0.640744,0.083665,-0.763181,-0.003802,-0.006913,-0.027530,-3.334534,-53.187836,-0.117920,,,,,,,
1523524118.920349,-0.698244,-0.084356,1.619989,-0.024382,0.010509,0.029292,-0.640587,0.084256,-0.763248,-0.019554,0.003604,-0.007321,-2.586060,-53.341202,-0.116943,,,,,,,
1523524118.950317,-0.694441,-0.085157,1.620324,0.000823,0.135960,0.012131,-0.637636,0.085054,-0.765626,-0.006758,-0.043017,-0.097502,-2.880798,-53.039505,0.256714,,,,,,,
1523524118.980285,-0.695150,-0.082597,1.621516,0.144039,-0.132878,-0.040757,-0.638317,0.082503,-0.765338,0.046062,-0.035155,0.017642,-3.557861,-53.336304,0.407532,,,,,,,
1523524119.010254,-0.699291,-0.079551,1.623212,0.053277,-0.090403,-0.003579,-0.641639,0.079467,-0.762878,0.044562,-0.001021,0.068145,-3.482422,-53.561188,0.858459,,,,,,,
1523524119.040222,-0.697863,-0.080162,1.623720,-0.057285,0.086885,0.059029,-0.640518,0.080076,-0.763756,0.030899,-0.010023,0.018959,-2.575714,-52.890289,0.856262,,,,,,,
,,,,,,,,,,,,,,,,25.322987,51.482652,22.351603,17.830000,278.437500,1523524118.997612,
1523524119.070190,-0.694832,-0.083469,1.623297,-0.114951,0.096516,0.069633,-0.638027,0.083372,-0.765486,0.022213,-0.022153,-0.020418,-3.323120,-53.036255,1.531433,,,,,,,
1523524119.100158,-0.691497,-0.086198,1.623327,-0.033401,0.136990,0.027033,-0.635323,0.086091,-0.767431,-0.040840,-0.031846,-0.050913,-2.498917,-52.890320,1.156250,,,,,,,
1523524119.130127,-0.689054,-0.085143,1.623184,0.060192,-0.017927,-0.037740,-0.633503,0.085040,-0.769051,0.024861,-0.076617,-0.092231,-2.503555,-53.040833,0.631897,,,,,,,
1523524119.160095,-0.694657,-0.082655,1.624885,0.103608,-0.261829,0.026475,-0.637936,0.082561,-0.765650,0.078518,-0.034755,0.075449,-2.572556,-52.440521,0.629456,,,,,,,
1523524119.190063,-0.697037,-0.082810,1.627174,-0.020089,0.077057,0.083574,-0.639748,0.082716,-0.764119,0.070855,0.037157,0.077763,-2.729919,-53.040039,0.406738,,,,,,,
1523524119.220032,-0.691958,-0.085021,1.628271,-0.058194,0.144146,0.077081,-0.635740,0.084919,-0.767216,0.050947,-0.007221,-0.023265,-2.202530,-52.892258,0.556458,,,,,,,
1523524119.250000,-0.686274,-0.087915,1.628091,-0.079226,0.187916,0.054651,-0.631211,0.087802,-0.770624,0.028352,-0.062548,-0.175299,-3.484390,-53.262009,0.032288,,,,,,,
1523524119.279968,-0.685120,-0.090165,1.628497,-0.036419,-0.045844,0.037868,-0.630195,0.090043,-0.771197,-0.050912,-0.028794,-0.113187,-3.408493,-53.037582,-0.193604,,,,,,,
1523524119.309936,-0.688605,-0.089898,1.628031,0.040154,-0.193244,-0.032252,-0.632894,0.089777,-0.769014,0.023885,-0.036554,-0.014219,-2.653732,-52.740677,0.105591,,,,,,,
1523524119.339905,-0.692011,-0.088195,1.630053,0.065861,-0.060126,0.067796,-0.635606,0.088081,-0.766971,0.018861,-0.050437,0.058505,-3.629272,-52.886139,0.255737,,,,,,,
1523524119.369873,-0.689659,-0.090154,1.632111,-0.059445,0.137550,0.107993,-0.633689,0.090032,-0.768329,0.017143,-0.044560,-0.041333,-3.705170,-52.885956,0.105652,,,,,,,
1523524119.399841,-0.686494,-0.093234,1.632266,-0.078796,0.027608,0.035622,-0.631076,0.093099,-0.770113,0.021243,-0.056631,-0.080061,-3.630615,-52.661743,-0.345215,,,,,,,
1523524119.429809,-0.687544,-0.093545,1.631230,-0.012253,0.006778,-0.048483,-0.631866,0.093408,-0.769427,-0.012528,-0.012765,-0.062558,-3.479294,-52.437561,-0.495972,,,,,,,
1523524119.459778,-0.686820,-0.090840,1.629338,0.038125,-0.034298,-0.119786,-0.631467,0.090715,-0.770077,-0.002155,-0.030275,-0.074818,-2.731430,-52.516159,-0.720337,,,,,,,
1523524119.489746,-0.690500,-0.088332,1.628080,0.004158,-0.115630,-0.024904,-0.634439,0.088217,-0.767921,0.001047,-0.016776,0.039222,-3.786041,-52.886566,-0.869385,,,,,,,
1523524119.519714,-0.688804,-0.090317,1.628248,-0.058303,0.118625,0.078181,-0.633023,0.090194,-0.768859,-0.039661,-0.037780,-0.019868,-3.487411,-52.888123,-1.094238,,,,,,,
1523524119.549682,-0.685680,-0.091985,1.629053,-0.012407,0.074150,0.040961,-0.630521,0.091855,-0.770716,-0.028353,-0.060040,-0.049719,-2.888916,-52.816193,-1.469238,,,,,,,
1523524119.579651,-0.684519,-0.092418,1.629515,-0.002004,-0.021329,0.013371,-0.629601,0.092286,-0.771416,0.015145,-0.037370,-0.113868,-3.338303,-52.888962,-1.244141,,,,,,,
1523524119.609649,-0.687833,-0.092295,1.629800,0.009288,-0.132814,-0.000378,-0.632161,0.092164,-0.769334,0.034521,0.004409,-0.028746,-4.465500,-53.108871,-1.243835,,,,,,,
1523524119.639618,-0.690451,-0.091379,1.630595,0.028830,-0.037406,0.022995,-0.634227,0.091251,-0.767742,0.048701,0.039440,0.008724,-4.687485,-53.032516,-0.869202,,,,,,,
1523524119.669586,-0.688258,-0.091047,1.631575,0.027151,0.056126,0.018648,-0.632561,0.090922,-0.769154,0.031868,-0.009363,-0.015087,-4.758743,-52.657181,-0.870789,,,,,,,
1523524119.699554,-0.686931,-0.090622,1.631828,0.013643,0.061960,-0.049570,-0.631564,0.090498,-0.770022,-0.001645,-0.026243,-0.033933,-3.934525,-52.735901,-0.870056,,,,,,,
1523524119.729522,-0.686037,-0.088186,1.630886,0.084870,-0.057979,-0.094149,-0.631013,0.088072,-0.770755,-0.006438,-0.035551,-0.018002,-3.638733,-52.887680,-1.319275,,,,,,,
1523524119.759491,-0.686902,-0.085696,1.629486,-0.014236,0.001674,-0.079368,-0.631817,0.085591,-0.770376,0.012585,-0.005757,-0.022318,-4.239151,-53.109665,-1.018738,,,,,,,
1523524119.789459,-0.687991,-0.084950,1.628921,0.032913,-0.079900,0.020905,-0.632696,0.084848,-0.769736,0.041296,0.010932,0.038123,-4.836746,-52.732208,-1.245483,,,,,,,
1523524119.819427,-0.687898,-0.085553,1.631415,0.018043,0.053313,0.121988,-0.632591,0.085448,-0.769756,0.055153,0.012452,0.018764,-4.015213,-53.035980,-1.318909,,,,,,,
1523524119.849396,-0.685007,-0.087614,1.634330,-0.009361,0.097143,0.093160,-0.630251,0.087502,-0.771443,0.008608,-0.000084,-0.023036,-5.131454,-52.655136,-0.495972,,,,,,,
1523524119.879359,-0.682287,-0.089321,1.634765,-0.031540,0.057400,0.011133,-0.628055,0.089203,-0.773037,0.026004,-0.043472,-0.085529,-4.825928,-52.281219,-0.197327,,,,,,,
1523524119.909327,-0.683302,-0.088809,1.635303,0.070084,-0.142576,0.005013,-0.628868,0.088692,-0.772435,0.060905,-0.046913,-0.027202,-4.903793,-52.431076,-0.421814,,,,,,,
1523524119.939295,-0.687323,-0.087563,1.636841,0.034080,-0.062897,0.018766,-0.632038,0.087451,-0.769985,0.049107,0.018048,0.085277,-4.527451,-52.432556,-0.196533,,,,,,,
1523524119.969264,-0.685001,-0.088406,1.637789,-0.042288,0.111204,0.070738,-0.630202,0.088291,-0.771393,0.053023,-0.008960,0.010880,-4.302902,-52.658264,0.104431,,,,,,,
1523524119.999232,-0.681497,-0.091489,1.638411,-0.084181,0.082443,0.095246,-0.627321,0.091361,-0.773381,0.045290,-0.038901,-0.032100,-3.405655,-52.438126,-0.721008,,,,,,,
1523524120.029200,-0.679274,-0.094826,1.639200,-0.040337,0.058131,0.061207,-0.625405,0.094684,-0.774532,-0.005348,-0.062656,-0.091358,-4.531357,-52.732681,-0.345398,,,,,,,
1523524120.059168,-0.679712,-0.093810,1.639369,0.069623,-0.091096,-0.064288,-0.625805,0.093672,-0.774333,0.020382,-0.027144,-0.066808,-4.078201,-52.509567,-0.196045,,,,,,,
,,,,,,,,,,,,,,,,25.323012,51.482468,22.432263,18.360001,277.734375,1523524119.997601,
1523524120.089137,-0.683160,-0.090292,1.638543,0.024703,-0.126976,-0.082407,-0.628674,0.090169,-0.772421,0.042600,0.017512,-0.009943,-3.401154,-52.437393,0.028992,,,,,,,
1523524120.119105,-0.684111,-0.089519,1.636871,-0.052895,0.016232,-0.021864,-0.629453,0.089400,-0.771876,0.026838,0.005555,-0.018483,-4.002151,-52.584610,0.104309,,,,,,,
1523524120.149073,-0.682258,-0.091632,1.636470,-0.086241,0.075175,0.072868,-0.627901,0.091504,-0.772893,-0.017653,0.000140,-0.064600,-4.150223,-52.433868,0.178650,,,,,,,
1523524120.179041,-0.679319,-0.094435,1.636860,-0.016799,0.063425,0.055890,-0.625463,0.094295,-0.774533,-0.033412,-0.045756,-0.135791,-3.395920,-51.912415,0.026917,,,,,,,
1523524120.209010,-0.679916,-0.094145,1.637732,0.035341,-0.060501,-0.018539,-0.625943,0.094006,-0.774180,-0.035083,-0.014767,-0.120763,-3.772675,-52.360275,0.478516,,,,,,,
1523524120.238978,-0.683108,-0.092181,1.638263,0.076646,-0.137111,-0.019491,-0.628526,0.092050,-0.772320,0.007157,-0.012445,-0.068347,-3.620728,-52.210876,0.553040,,,,,,,
1523524120.268946,-0.685123,-0.090821,1.638844,0.025889,-0.019084,-0.012191,-0.630159,0.090696,-0.771148,-0.001829,0.027605,-0.067612,-3.246643,-52.212708,0.403198,,,,,,,
1523524120.298914,-0.685867,-0.089649,1.639119,0.053442,-0.069088,-0.014245,-0.630800,0.089529,-0.770761,0.027498,0.007822,-0.094336,-3.391083,-52.286011,1.453369,,,,,,,
1523524120.328883,-0.687678,-0.088438,1.638785,-0.007954,-0.003777,-0.061248,-0.632263,0.088323,-0.769701,-0.020752,0.034236,-0.063567,-3.092606,-52.212723,1.078247,,,,,,,
1523524120.358851,-0.689277,-0.087272,1.637613,0.017078,-0.107088,-0.036616,-0.633558,0.087161,-0.768767,-0.009203,-0.011722,-0.059052,-2.415833,-51.990845,1.002747,,,,,,,
1523524120.388819,-0.690036,-0.086651,1.636745,0.008013,0.013021,-0.037813,-0.634176,0.086543,-0.768328,-0.018519,-0.030360,-0.046766,-2.794388,-52.438995,1.154297,,,,,,,
1523524120.418787,-0.689834,-0.084802,1.637630,0.097637,0.028555,-0.012187,-0.634121,0.084701,-0.768579,-0.047749,-0.035491,-0.030906,-2.801300,-52.814484,0.630859,,,,,,,
1523524120.448756,-0.690132,-0.080914,1.639005,0.166627,-0.116882,-0.057799,-0.634555,0.080826,-0.768638,0.053927,-0.007339,0.015494,-2.723618,-52.814392,1.080811,,,,,,,
1523524120.478724,-0.694889,-0.077019,1.642103,0.106210,-0.123893,0.055103,-0.638401,0.076943,-0.765846,0.064793,0.019600,0.117348,-3.171616,-52.662292,1.155029,,,,,,,
1523524120.508723,-0.693290,-0.079246,1.643912,-0.086101,0.159853,0.119669,-0.637064,0.079163,-0.766733,0.066843,-0.011200,0.031015,-3.025711,-52.663635,0.480103,,,,,,,
1523524120.538691,-0.688701,-0.083101,1.645903,-0.024539,0.094754,0.135774,-0.633340,0.083005,-0.769407,0.047464,-0.058392,0.015058,-2.796204,-52.439285,0.854309,,,,,,,
1523524120.568659,-0.686231,-0.085144,1.647973,0.013147,0.072932,0.053769,-0.631329,0.085041,-0.770836,0.031674,-0.045567,-0.018456,-3.475693,-52.886230,0.855774,,,,,,,
1523524120.598628,-0.686150,-0.083647,1.649018,0.086739,-0.047762,-0.035559,-0.631347,0.083549,-0.770985,0.053832,-0.064933,0.037769,-3.548279,-52.735764,1.005188,,,,,,,
1523524120.628596,-0.687798,-0.082606,1.650042,-0.001224,-0.034349,0.053861,-0.632671,0.082512,-0.770010,0.099438,-0.040108,0.063864,-2.951004,-52.738892,0.555481,,,,,,,
1523524120.658564,-0.685669,-0.085499,1.650880,-0.072204,0.118641,0.081365,-0.630877,0.085395,-0.771167,0.061846,-0.026923,-0.002164,-3.547363,-52.510986,0.779236,,,,,,,
1523524120.688532,-0.682611,-0.087600,1.651327,-0.048761,0.072042,0.050531,-0.628401,0.087488,-0.772951,0.059660,-0.015619,-0.091947,-3.102356,-52.738434,0.330322,,,,,,,
1523524120.718501,-0.681360,-0.089352,1.650953,-0.063806,0.002225,0.010105,-0.627336,0.089233,-0.773617,0.035570,-0.008011,-0.126682,-3.777924,-52.885254,0.480591,,,,,,,
1523524120.748469,-0.683435,-0.088923,1.649931,0.021441,-0.111224,-0.055780,-0.628964,0.088805,-0.772343,0.024014,-0.034652,-0.031734,-4.154404,-53.033554,0.481018,,,,,,,
1523524120.778437,-0.684071,-0.086537,1.649192,0.051805,-0.022992,-0.070769,-0.629587,0.086429,-0.772105,0.001276,-0.037357,0.005611,-3.102661,-52.588730,0.029785,,,,,,,
1523524120.808405,-0.683551,-0.084761,1.648539,-0.014545,-0.010385,-0.028201,-0.629282,0.084660,-0.772550,0.006037,-0.028431,-0.011416,-3.102493,-52.663589,0.180054,,,,,,,
1523524120.838374,-0.683260,-0.086248,1.647371,-0.091358,0.060689,0.018540,-0.628977,0.086141,-0.772635,-0.036642,-0.015341,-0.039926,-4.004700,-53.109146,0.556396,,,,,,,
1523524120.868341,-0.680363,-0.088158,1.646140,-0.050901,0.040344,0.024992,-0.626631,0.088044,-0.774324,-0.010072,-0.030686,-0.120894,-4.605270,-53.031677,0.330750,,,,,,,
1523524120.898309,-0.681275,-0.088790,1.646764,0.012867,-0.024623,0.024036,-0.627302,0.088674,-0.773709,-0.015444,-0.001790,-0.065402,-4.225632,-52.658234,0.479492,,,,,,,
1523524120.928277,-0.682290,-0.087814,1.648379,0.081998,-0.073734,0.032660,-0.628141,0.087701,-0.773139,0.026670,-0.024560,-0.047906,-3.926102,-52.884277,0.780518,,,,,,,
1523524120.958246,-0.684488,-0.086572,1.650571,0.063768,-0.089658,0.035866,-0.629908,0.086464,-0.771840,0.054285,-0.021797,0.049611,-4.447037,-52.656631,1.079346,,,,,,,
1523524120.988214,-0.683581,-0.086695,1.651630,-0.042943,0.139187,0.018510,-0.629200,0.086586,-0.772403,-0.014706,-0.021050,-0.005215,-3.993286,-52.508301,1.453979,,,,,,,
1523524121.018183,-0.679132,-0.089096,1.649537,-0.127427,0.073723,-0.011321,-0.625625,0.088978,-0.775031,-0.010453,-0.054111,-0.118387,-3.316528,-52.286438,1.378479,,,,,,,
,,,,,,,,,,,,,,,,25.323032,51.482279,22.549774,18.440001,276.328125,1523524120.997591,
1523524121.048151,-0.679966,-0.090747,1.648118,-0.037461,-0.062724,0.019776,-0.626178,0.090622,-0.774393,-0.006436,-0.043412,-0.070288,-2.264206,-51.916382,1.152466,,,,,,,
1523524121.078120,-0.681495,-0.090916,1.649174,0.050194,-0.029022,0.030470,-0.627352,0.090791,-0.773423,-0.026289,0.024108,-0.061874,-3.018204,-52.362915,1.228882,,,,,,,
1523524121.108088,-0.681669,-0.088197,1.651176,0.139993,-0.050188,-0.012072,-0.627640,0.088082,-0.773503,0.043854,-0.011270,-0.027035,-3.096207,-52.437943,0.854187,,,,,,,
1523524121.138056,-0.683523,-0.084803,1.654420,0.132140,-0.071803,0.042287,-0.629258,0.084702,-0.772565,0.093979,-0.021744,0.045774,-2.271088,-52.291885,0.629028,,,,,,,
1523524121.168025,-0.683538,-0.084741,1.656685,0.000190,0.019948,0.036769,-0.629273,0.084640,-0.772560,0.053315,-0.008315,0.042930,-2.655670,-53.115372,0.407104,,,,,,,
1523524121.197993,-0.681051,-0.085183,1.655953,-0.049126,0.117308,-0.042204,-0.627326,0.085080,-0.774093,-0.006677,-0.021649,-0.019379,-2.805344,-53.039780,0.331726,,,,,,,
1523524121.227961,-0.677287,-0.085060,1.653199,-0.044774,0.087852,-0.084799,-0.624415,0.084957,-0.776457,-0.019613,-0.051296,-0.095415,-2.654770,-52.665985,-0.194702,,,,,,,
1523524121.257928,-0.679165,-0.082823,1.651981,0.086461,-0.144290,-0.062086,-0.625989,0.082728,-0.775429,0.005017,-0.048228,0.044747,-3.255203,-52.663345,-0.270020,,,,,,,
1523524121.287898,-0.683096,-0.080166,1.655018,0.143446,-0.102011,0.102002,-0.629169,0.080080,-0.773130,0.088321,-0.024446,0.110471,-3.336639,-53.038437,-0.718567,,,,,,,
1523524121.317865,-0.682214,-0.081361,1.661457,0.053920,0.087487,0.234935,-0.628426,0.081271,-0.773610,0.075478,-0.014514,0.091282,-3.184845,-53.038818,-0.418518,,,,,,,
1523524121.347833,-0.676168,-0.085182,1.665834,-0.051764,0.234950,0.154794,-0.623538,0.085079,-0.777147,0.061008,-0.023113,-0.076994,-4.463226,-53.333130,-0.492920,,,,,,,
1523524121.377801,-0.671319,-0.088466,1.666346,-0.074271,0.074350,0.032402,-0.619586,0.088351,-0.779939,0.029574,-0.055468,-0.169829,-5.210052,-53.104630,-0.344238,,,,,,,
1523524121.407800,-0.674759,-0.086997,1.665564,0.093812,-0.208918,-0.092909,-0.622346,0.086887,-0.777903,0.037461,-0.046085,-0.037877,-4.236603,-53.034393,-0.719055,,,,,,,
1523524121.437768,-0.678616,-0.083023,1.665375,0.066644,-0.049631,-0.068582,-0.625553,0.082928,-0.775760,0.015797,-0.021191,-0.004666,-5.059891,-53.404770,0.182068,,,,,,,
1523524121.467737,-0.677622,-0.082550,1.665162,-0.044598,0.028534,0.037808,-0.624806,0.082456,-0.776411,0.005147,-0.042661,-0.056749,-4.912460,-53.705353,0.258362,,,,,,,
1523524121.497705,-0.676319,-0.085449,1.665573,-0.069434,0.027168,0.090001,-0.623642,0.085345,-0.777035,-0.022828,-0.057101,-0.082187,-4.453796,-52.657730,-0.045654,,,,,,,
1523524121.527673,-0.676444,-0.086882,1.667530,0.051036,-0.031481,0.075241,-0.623661,0.086773,-0.776861,-0.011608,-0.080685,-0.068842,-5.351944,-52.878006,0.629822,,,,,,,
1523524121.557642,-0.677644,-0.085986,1.669324,0.053302,-0.092560,-0.003549,-0.624642,0.085880,-0.776172,0.028375,-0.049366,-0.025204,-5.129044,-53.178864,0.781128,,,,,,,
1523524121.587610,-0.680166,-0.083787,1.669543,0.023901,-0.025264,-0.042006,-0.626715,0.083689,-0.774740,-0.010385,-0.019526,-0.016932,-4.377731,-52.957382,0.630615,,,,,,,
1523524121.617579,-0.678654,-0.083939,1.668138,-0.068770,0.058672,-0.009120,-0.625534,0.083841,-0.775677,-0.027969,-0.028100,-0.105732,-4.676834,-52.731277,0.404541,,,,,,,
1523524121.647547,-0.677976,-0.084436,1.667322,0.001402,-0.012660,-0.014324,-0.624983,0.084335,-0.776068,-0.034029,-0.052765,-0.076822,-4.522049,-52.431671,0.703430,,,,,,,
1523524121.677516,-0.679740,-0.082803,1.668384,0.103378,-0.091762,0.016730,-0.626437,0.082708,-0.775070,0.025759,-0.040533,-0.019684,-3.775223,-52.435562,0.178833,,,,,,,
1523524121.707484,-0.680439,-0.081946,1.671210,0.029798,-0.002736,0.076254,-0.627022,0.081854,-0.774687,0.021584,-0.023276,-0.004900,-4.525803,-52.806656,0.704895,,,,,,,
1523524121.737452,-0.679721,-0.083670,1.672662,-0.047903,0.051643,0.077207,-0.626376,0.083572,-0.775026,0.030108,-0.046112,-0.009108,-4.304993,-52.958099,0.255676,,,,,,,
1523524121.767420,-0.678123,-0.084790,1.673047,0.004542,0.002051,0.009099,-0.625077,0.084688,-0.775953,0.026994,-0.053209,-0.031939,-3.855621,-52.660721,-0.345337,,,,,,,
1523524121.797389,-0.678179,-0.083422,1.672814,0.026170,-0.013492,-0.055861,-0.625193,0.083325,-0.776007,0.016673,-0.032697,-0.032739,-4.757385,-52.881592,-0.269897,,,,,,,
1523524121.827357,-0.678675,-0.080938,1.671301,0.008137,-0.013277,-0.079321,-0.625706,0.080850,-0.775856,0.001927,-0.016595,-0.017265,-4.980865,-52.955200,0.105286,,,,,,,
1523524121.857325,-0.677160,-0.082115,1.670309,-0.120467,0.059234,0.079288,-0.624470,0.082023,-0.776728,0.005116,-0.023536,-0.107946,-4.379684,-52.658218,-0.195557,,,,,,,
1523524121.887293,-0.676688,-0.085814,1.671402,-0.013208,-0.043203,0.101849,-0.623909,0.085709,-0.776781,-0.029076,-0.036118,-0.062575,-4.755585,-52.881302,0.030090,,,,,,,
1523524121.917262,-0.678002,-0.085071,1.674592,0.125788,-0.055933,0.050812,-0.624969,0.084968,-0.776010,0.035171,-0.051490,0.001947,-4.679092,-52.731644,0.029541,,,,,,,
1523524121.947230,-0.678563,-0.082993,1.677867,0.068245,-0.032429,0.051819,-0.625513,0.082898,-0.775795,0.072871,-0.045208,0.028023,-5.200607,-52.653854,0.479004,,,,,,,
1523524121.977198,-0.678633,-0.084330,1.677984,-0.117176,0.014986,0.023926,-0.625498,0.084230,-0.775664,0.040461,-0.012453,0.010496,-5.198349,-52.428864,0.478088,,,,,,,
1523524122.007166,-0.676212,-0.086297,1.675604,-0.082258,0.110958,-0.036877,-0.623513,0.086190,-0.777045,-0.024528,-0.020669,-0.093408,-4.901978,-52.655411,0.254150,,,,,,,
1523524122.037135,-0.674469,-0.083899,1.673722,0.087368,-0.015310,-0.121873,-0.622285,0.083800,-0.778290,-0.036147,-0.010100,-0.141143,-4.451233,-52.807053,0.630005,,,,,,,
1523524122.067103,-0.679324,-0.076139,1.674472,0.304089,-0.269748,-0.132105,-0.626446,0.076066,-0.775742,0.014569,-0.029038,-0.025268,-4.676834,-52.731277,0.404541,,,,,,,
,,,,,,,,,,,,,,,,25.323059,51.482092,22.416019,19.260000,275.273438,1523524121.997580,
1523524122.097071,-0.686351,-0.066930,1.679349,0.317720,-0.175035,-0.004334,-0.632299,0.066880,-0.771830,0.052816,-0.034715,0.057063,-4.596878,-52.506195,0.853699,,,,,,,
1523524122.127039,-0.685282,-0.063624,1.684435,0.098522,0.084201,0.078358,-0.631610,0.063581,-0.772673,0.019854,-0.046994,0.000563,-3.999313,-52.659027,0.704590,,,,,,,
1523524122.157008,-0.682320,-0.064649,1.685547,-0.070931,0.088186,0.023891,-0.629276,0.064604,-0.774489,0.010319,-0.040221,-0.083985,-4.524734,-53.105988,1.381165,,,,,,,
1523524122.186976,-0.681137,-0.067252,1.682812,-0.140432,0.001615,-0.031482,-0.628252,0.067201,-0.775100,0.011110,-0.012178,-0.111665,-4.453018,-53.256607,1.081726,,,,,,,
1523524122.216944,-0.683256,-0.068575,1.679891,-0.075625,-0.080299,-0.040942,-0.629836,0.068522,-0.773697,0.007506,0.016607,-0.041488,-4.528488,-53.031723,0.630859,,,,,,,
1523524122.246912,-0.684208,-0.068253,1.679364,0.030079,-0.018231,0.011282,-0.630587,0.068200,-0.773114,0.011126,0.019477,-0.002490,-4.748230,-52.730362,1.004517,,,,,,,
1523524122.276911,-0.683250,-0.068136,1.681193,0.019335,0.028188,0.063435,-0.629851,0.068083,-0.773724,-0.000017,-0.012480,-0.032901,-4.074448,-52.808456,0.930176,,,,,,,
1523524122.306880,-0.681686,-0.070142,1.681823,-0.071287,0.037007,0.048451,-0.628553,0.070084,-0.774600,-0.019976,-0.029603,-0.061551,-4.748825,-52.880203,1.155090,,,,,,,
1523524122.336848,-0.681642,-0.073002,1.681532,-0.061966,-0.015135,0.057028,-0.628390,0.072937,-0.774469,-0.017560,-0.041077,-0.039282,-4.448532,-52.806625,1.079956,,,,,,,
1523524122.366816,-0.682173,-0.073141,1.682456,0.065197,-0.046986,0.008140,-0.628794,0.073076,-0.774128,0.005931,-0.032259,-0.022381,-3.918304,-52.284027,1.078125,,,,,,,
1523524122.396784,-0.683666,-0.071742,1.683678,0.021315,-0.063938,0.015589,-0.630013,0.071681,-0.773267,0.055001,-0.006907,-0.009021,-4.000809,-52.809021,0.705200,,,,,,,
1523524122.426753,-0.685136,-0.071903,1.684804,0.015919,-0.032301,0.052841,-0.631142,0.071841,-0.772331,0.031227,-0.006564,0.019279,-4.674423,-52.805756,0.929871,,,,,,,
1523524122.456721,-0.683322,-0.071865,1.686196,0.015600,0.105975,0.031402,-0.629742,0.071804,-0.773477,0.010555,-0.021572,-0.053244,-4.822311,-52.729874,1.154480,,,,,,,
1523524122.486689,-0.681029,-0.071472,1.686557,0.034555,-0.012693,-0.022815,-0.627985,0.071412,-0.774940,-0.001852,-0.038621,-0.052406,-4.829361,-53.255142,0.856567,,,,,,,
1523524122.516657,-0.683475,-0.068165,1.686833,0.119851,-0.100730,-0.075938,-0.630024,0.068112,-0.773581,0.037967,-0.030163,-0.000009,-5.054947,-53.179337,0.631165,,,,,,,
1523524122.546626,-0.686188,-0.064496,1.688203,0.099196,-0.101197,-0.003488,-0.632274,0.064451,-0.772057,0.046551,0.016359,0.030358,-4.080139,-53.333511,0.857239,,,,,,,
1523524122.576594,-0.685043,-0.064185,1.689178,-0.033378,0.119996,0.018570,-0.631402,0.064141,-0.772796,0.008600,0.026862,-0.011704,-5.427231,-53.177216,1.080933,,,,,,,
1523524122.606562,-0.682219,-0.064022,1.688977,0.048446,-0.001140,-0.011079,-0.629224,0.063978,-0.774584,0.047651,-0.022490,-0.039625,-4.750305,-53.254822,1.531616,,,,,,,
1523524122.636530,-0.683300,-0.061965,1.690894,0.102649,-0.031163,0.009230,-0.630143,0.061926,-0.774004,0.052552,-0.008108,0.000170,-4.679657,-53.330734,0.931946,,,,,,,
1523524122.666499,-0.683946,-0.060721,1.691972,0.022797,-0.012702,-0.018555,-0.630691,0.060683,-0.773656,0.008499,0.013261,0.006001,-5.349075,-53.401672,1.981873,,,,,,,
1523524122.696467,-0.683381,-0.060624,1.691511,-0.024324,-0.004307,0.014426,-0.630258,0.060587,-0.774016,0.019601,-0.020548,0.013763,-5.650284,-53.250778,1.531128,,,,,,,
1523524122.726435,-0.680881,-0.062820,1.692546,-0.029637,0.101364,0.100623,-0.628235,0.062778,-0.775485,-0.001266,-0.069294,-0.053754,-4.447769,-52.956253,1.455566,,,,,,,
1523524122.756403,-0.680297,-0.065118,1.695422,0.018764,-0.042315,0.114662,-0.627690,0.065072,-0.775737,-0.002987,-0.032617,-0.013066,-5.195190,-52.877594,1.754883,,,,,,,
1523524122.786372,-0.681107,-0.065427,1.697989,0.042685,-0.015403,0.056053,-0.628305,0.065381,-0.775213,0.040720,-0.023739,-0.026942,-5.417633,-52.801285,2.054504,,,,,,,
1523524122.816340,-0.681231,-0.064905,1.699129,0.013853,-0.052294,0.024099,-0.628423,0.064860,-0.775161,0.081914,-0.019693,-0.000885,-4.445679,-52.656418,1.304382,,,,,,,
1523524122.846308,-0.682547,-0.064333,1.699936,0.009972,0.014795,0.005908,-0.629466,0.064289,-0.774362,0.041713,-0.004841,0.024515,-5.644882,-52.576019,1.303467,,,,,,,
1523524122.876284,-0.679535,-0.065379,1.698993,-0.099631,0.087352,0.000435,-0.627087,0.065332,-0.776202,0.000424,-0.024835,-0.090909,-4.821259,-52.579956,1.078857,,,,,,,
1523524122.906252,-0.677602,-0.066752,1.696218,-0.061146,0.009172,-0.077244,-0.625530,0.066702,-0.777342,-0.049626,-0.045340,-0.050966,-4.298401,-52.657532,0.854431,,,,,,,
1523524122.936220,-0.678869,-0.064599,1.694204,0.052842,-0.055868,-0.085621,-0.626603,0.064554,-0.776659,-0.017272,-0.054315,-0.014494,-5.200455,-52.953323,1.005188,,,,,,,
1523524122.966188,-0.679715,-0.061538,1.694637,0.092040,-0.051082,-0.023800,-0.627380,0.061499,-0.776279,0.027649,-0.028556,0.012973,-4.826797,-53.179840,1.156250,,,,,,,
1523524122.996157,-0.681060,-0.060318,1.695656,-0.008433,-0.011916,0.032564,-0.628471,0.060281,-0.775492,0.058448,0.044486,0.018564,-5.127975,-53.478195,1.457275,,,,,,,
1523524123.026125,-0.678812,-0.062383,1.695107,-0.100592,0.133991,0.018494,-0.626646,0.062343,-0.776804,0.013746,0.074620,-0.059622,-5.132339,-53.553772,0.857605,,,,,,,
,,,,,,,,,,,,,,,,25.323055,51.481902,22.809634,19.520000,273.164062,1523524122.997570,
1523524123.056093,-0.675472,-0.062784,1.692553,-0.039353,0.075184,-0.103931,-0.624032,0.062742,-0.778873,-0.011374,0.037447,-0.135021,-5.653870,-53.475983,1.307068,,,,,,,
1523524123.086061,-0.676665,-0.059724,1.689964,0.100865,-0.139468,-0.152626,-0.625079,0.059688,-0.778274,0.030612,-0.006237,-0.017197,-4.149155,-52.957825,1.230713,,,,,,,
1523524123.116060,-0.680042,-0.055380,1.689571,0.080594,-0.061241,-0.087722,-0.627860,0.055352,-0.776353,-0.027551,0.063118,0.004457,-4.675751,-53.255234,1.456604,,,,,,,
1523524123.146028,-0.679171,-0.053927,1.687584,-0.041795,0.037811,-0.077256,-0.627234,0.053901,-0.776961,-0.005578,0.041848,-0.054323,-4.673660,-53.180023,1.681335,,,,,,,
1523524123.175997,-0.678847,-0.054682,1.685869,-0.055138,0.013900,0.003738,-0.626956,0.054655,-0.777133,-0.025830,0.028765,-0.043287,-4.072784,-52.957932,1.455750,,,,,,,
1523524123.205965,-0.677511,-0.056132,1.686246,0.013001,0.032519,0.053838,-0.625867,0.056103,-0.777907,-0.011752,0.011768,-0.109361,-4.369186,-52.731384,1.679749,,,,,,,
1523524123.235933,-0.679338,-0.056314,1.688579,0.058217,-0.121700,0.056168,-0.627281,0.056284,-0.776754,0.010032,0.042242,-0.023523,-4.751953,-53.329956,1.381958,,,,,,,
1523524123.265901,-0.681630,-0.056413,1.690733,0.026691,-0.014277,0.052842,-0.629057,0.056383,-0.775310,-0.001437,0.022887,-0.009633,-4.753296,-53.554794,1.532776,,,,,,,
1523524123.295870,-0.680677,-0.057530,1.691279,-0.046745,0.002075,0.020800,-0.628277,0.057498,-0.775860,-0.004642,0.001340,-0.034809,-5.045349,-53.028046,1.980530,,,,,,,
1523524123.325838,-0.681430,-0.058249,1.691217,0.031143,-0.027771,0.005974,-0.628835,0.058216,-0.775354,0.024678,-0.043918,0.022516,-4.293442,-52.656738,1.679443,,,,,,,
1523524123.355806,-0.680750,-0.058067,1.692414,-0.005980,0.065602,0.038882,-0.628314,0.058034,-0.775790,-0.009580,0.000666,-0.039792,-4.595200,-53.104919,2.131104,,,,,,,
1523524123.385774,-0.679153,-0.060234,1.691452,-0.101109,-0.006114,-0.003742,-0.626994,0.060198,-0.776693,-0.009145,0.013853,-0.106974,-4.897308,-53.178787,1.906250,,,,,,,
1523524123.415743,-0.682544,-0.060607,1.689801,-0.019384,-0.155906,-0.038688,-0.629610,0.060570,-0.774544,0.011324,0.008827,-0.001869,-5.199234,-53.102875,1.455750,,,,,,,
1523524123.445711,-0.684571,-0.060032,1.689495,0.015248,-0.012816,-0.001501,-0.631201,0.059996,-0.773293,0.013525,-0.018645,-0.021110,-4.370087,-52.731537,1.529724,,,,,,,
1523524123.475679,-0.686579,-0.061288,1.688919,-0.092029,-0.111437,0.009167,-0.632704,0.061250,-0.771966,0.008024,0.005370,-0.012702,-4.823349,-53.104416,1.605957,,,,,,,
1523524123.505648,-0.688281,-0.064415,1.686590,-0.133009,0.021588,-0.003790,-0.633892,0.064370,-0.770736,-0.002659,0.030555,-0.049058,-5.121246,-53.027847,1.830505,,,,,,,
1523524123.535616,-0.687425,-0.065096,1.684493,-0.011148,-0.023951,-0.069711,-0.633204,0.065050,-0.771244,0.009470,0.043928,-0.010570,-4.452408,-53.331375,1.307068,,,,,,,
1523524123.565584,-0.689418,-0.061841,1.683661,0.108228,-0.082586,-0.083423,-0.634871,0.061801,-0.770140,0.075041,0.014782,0.039549,-4.446579,-52.881195,1.530273,,,,,,,
1523524123.595552,-0.690803,-0.059340,1.684855,0.056869,-0.009752,0.002781,-0.636034,0.059305,-0.769376,0.042116,0.040273,0.052000,-3.921448,-52.958405,1.680847,,,,,,,
1523524123.625521,-0.689314,-0.060640,1.684520,-0.084663,0.098970,0.005759,-0.634838,0.060603,-0.770263,-0.005421,0.043752,0.024413,-4.294937,-52.806717,1.680054,,,,,,,
1523524123.655489,-0.685058,-0.062293,1.682332,-0.046934,0.124707,-0.041122,-0.631489,0.062253,-0.772879,-0.000819,-0.014676,-0.041803,-4.596573,-52.880524,1.530151,,,,,,,
1523524123.685457,-0.684595,-0.060621,1.682337,0.101706,-0.052112,-0.033372,-0.631197,0.060584,-0.773251,0.011568,-0.015952,0.014584,-3.547821,-52.735687,1.080139,,,,,,,
1523524123.715425,-0.687596,-0.059077,1.683679,0.037157,-0.106486,0.014588,-0.633573,0.059043,-0.771424,0.047452,0.044000,0.076341,-4.745956,-52.954605,1.755432,,,,,,,
1523524123.745394,-0.687822,-0.059262,1.685013,0.009996,0.082406,0.061254,-0.633740,0.059227,-0.771273,0.072034,0.041329,0.090151,-4.592972,-52.655304,1.754333,,,,,,,
1523524123.775362,-0.682859,-0.062167,1.686627,-0.087029,0.188446,0.127137,-0.629794,0.062127,-0.774271,0.026568,0.013816,-0.020864,-4.442383,-52.730759,1.979675,,,,,,,
1523524123.805330,-0.679257,-0.066190,1.687402,-0.035128,0.036719,0.076185,-0.626838,0.066142,-0.776335,0.036964,-0.025980,-0.043276,-4.513794,-52.280594,1.827820,,,,,,,
1523524123.835298,-0.679771,-0.067337,1.689273,0.027592,-0.029279,0.070969,-0.627189,0.067286,-0.775953,0.034141,-0.027720,-0.007540,-4.292679,-52.581741,1.679138,,,,,,,
1523524123.865271,-0.679147,-0.068371,1.690833,-0.030609,0.056040,0.046339,-0.626661,0.068318,-0.776289,-0.034060,0.006496,-0.055849,-3.842392,-52.508835,1.604065,,,,,,,
1523524123.895239,-0.676116,-0.069177,1.689674,-0.013139,0.039627,-0.043140,-0.624270,0.069122,-0.778142,0.006442,-0.016586,-0.151591,-4.372025,-52.881592,1.455261,,,,,,,
1523524123.925207,-0.680464,-0.065168,1.690742,0.175705,-0.227538,-0.044868,-0.627817,0.065122,-0.775630,0.053324,-0.011167,-0.049718,-4.069336,-52.657883,1.529541,,,,,,,
1523524123.955206,-0.687073,-0.063710,1.693002,-0.015766,-0.176850,0.067886,-0.632989,0.063667,-0.771536,-0.018180,0.036461,0.031485,-3.694366,-52.659576,1.529724,,,,,,,
1523524123.985174,-0.685026,-0.067538,1.692140,-0.125330,0.112677,0.035549,-0.631249,0.067487,-0.772636,-0.014243,-0.010465,-0.061852,-4.296890,-52.732162,1.229736,,,,,,,
1523524124.015142,-0.683750,-0.067591,1.690971,0.006488,0.085538,-0.081530,-0.630261,0.067540,-0.773438,-0.094806,-0.026112,-0.051178,-4.371887,-52.731827,1.229736,,,,,,,
1523524124.045111,-0.681124,-0.064583,1.687850,0.042635,-0.036210,-0.158102,-0.628353,0.064538,-0.775245,-0.021138,-0.049722,-0.126016,-3.624771,-52.885422,1.005737,,,,,,,
1523524124.075079,-0.687603,-0.061384,1.686105,0.014515,-0.236625,-0.056694,-0.633490,0.061345,-0.771313,0.023947,0.019176,0.069104,-4.367218,-52.581314,1.754150,,,,,,,
,,,,,,,,,,,,,,,,25.323058,51.481708,23.112788,19.700001,273.515625,1523524123.997559,
1523524124.105047,-0.689328,-0.063092,1.686538,-0.073374,0.117369,0.106966,-0.634752,0.063051,-0.770137,-0.019132,0.090850,0.028804,-4.823059,-53.029495,1.530640,,,,,,,
1523524124.135016,-0.681542,-0.067346,1.686442,-0.124801,0.245429,0.047129,-0.628562,0.067295,-0.774840,-0.052880,0.036510,-0.121308,-3.929840,-53.259262,0.782043,,,,,,,
1523524124.164984,-0.680950,-0.065977,1.686669,0.153714,-0.120248,-0.033266,-0.628161,0.065929,-0.775283,0.020998,-0.036419,-0.123338,-4.301987,-53.107361,1.006287,,,,,,,
1523524124.194952,-0.685310,-0.063173,1.688689,0.076546,-0.173273,-0.021546,-0.631650,0.063131,-0.772677,0.009320,0.011301,-0.001707,-4.672455,-53.104950,1.756104,,,,,,,
1523524124.224920,-0.689127,-0.062585,1.688559,-0.025549,-0.064727,-0.006822,-0.634618,0.062544,-0.770289,-0.007136,0.038240,0.069667,-4.228317,-53.332535,1.157166,,,,,,,
1523524124.254889,-0.685974,-0.063746,1.687767,-0.051460,0.150783,0.030239,-0.632140,0.063702,-0.772230,0.024016,-0.028684,-0.023913,-4.675156,-53.105377,1.306091,,,,,,,
1523524124.284857,-0.683828,-0.065955,1.688950,-0.020362,0.006872,0.084749,-0.630390,0.065907,-0.773474,0.012348,-0.045536,-0.007227,-4.824402,-53.029709,1.305664,,,,,,,
1523524124.314825,-0.684631,-0.067972,1.690832,0.010543,-0.008053,0.081585,-0.630926,0.067920,-0.772863,0.020101,-0.010989,-0.011073,-3.850784,-53.258942,1.457031,,,,,,,
1523524124.344793,-0.684401,-0.069468,1.692900,-0.030122,-0.013377,0.096484,-0.630683,0.069412,-0.772928,0.017707,0.006104,-0.002753,-5.125290,-53.253128,1.531433,,,,,,,
1523524124.374762,-0.683283,-0.071151,1.694006,0.000349,0.053883,0.042089,-0.629744,0.071091,-0.773541,0.044279,-0.044525,0.001278,-4.602127,-53.031174,0.855774,,,,,,,
1523524124.404730,-0.682942,-0.069842,1.695447,0.069609,-0.025711,0.001737,-0.629539,0.069786,-0.773827,0.052802,-0.037956,0.011086,-3.850800,-53.034317,1.081177,,,,,,,
1523524124.434698,-0.682590,-0.070333,1.695472,-0.084913,0.056380,0.017526,-0.629245,0.070275,-0.774022,-0.003964,-0.008934,-0.035823,-4.825150,-53.329330,1.681885,,,,,,,
1523524124.464666,-0.680042,-0.073209,1.692421,-0.150791,0.060148,-0.041135,-0.627140,0.073144,-0.775463,-0.023678,-0.003243,-0.091221,-5.049850,-53.028778,1.230530,,,,,,,
1523524124.494635,-0.681599,-0.071499,1.690564,0.112360,-0.117680,-0.083369,-0.628425,0.071438,-0.774581,0.017967,-0.014401,0.025451,-4.147507,-52.658066,1.004578,,,,,,,
1523524124.524603,-0.682190,-0.067402,1.692047,0.087061,0.032807,-0.016414,-0.629062,0.067351,-0.774430,0.021442,0.002611,-0.014876,-4.295380,-52.806793,1.605042,,,,,,,
1523524124.554571,-0.681029,-0.067637,1.691322,-0.081653,0.025818,-0.019735,-0.628152,0.067585,-0.775148,0.006082,0.005138,-0.025618,-5.052383,-53.328674,1.306763,,,,,,,
