timestamp(unix),attitude_roll(radians),attitude_pitch(radians),attitude_yaw(radians),rotation_rate_x(radians/s),rotation_rate_y(radians/s),rotation_rate_z(radians/s),gravity_x(G),gravity_y(G),gravity_z(G),user_acc_x(G),user_acc_y(G),user_acc_z(G),magnetic_field_x(microteslas),magnetic_field_y(microteslas),magnetic_field_z(microteslas),latitude(degree),longitude(degree),altitude(meter),speed(m/s),course(degree),timestamp(unix),User Mark
1522136783.911868,-0.413145,0.033101,-1.981485,0.558210,-0.124083,-0.135248,-0.401271,-0.033095,-0.915361,0.019588,-0.032106,0.101075,-1.982635,3.178236,-7.999390,,,,,,,
,,,,,,,,,,,,,,,,25.315296,51.435403,12.115932,-1.000000,-1.000000,1522136593.111284,
1522136783.941836,-0.411936,0.046340,-1.977255,0.322372,0.090022,0.026318,-0.399954,-0.046323,-0.915363,0.017401,-0.049761,0.007999,-3.719284,2.734861,-9.198486,,,,,,,
1522136783.971804,-0.410517,0.049742,-1.973642,0.040329,0.070399,0.044248,-0.398589,-0.049722,-0.915780,0.002258,0.011254,0.019876,-5.905579,2.143797,-10.097229,,,,,,,
1522136784.001772,-0.404340,0.045429,-1.976388,-0.322320,0.279176,-0.050002,-0.393006,-0.045413,-0.918413,-0.003936,-0.010114,-0.046507,-6.506165,2.221281,-10.322815,,,,,,,
1522136784.031741,-0.394807,0.033302,-1.982622,-0.492091,0.309161,-0.022457,-0.384417,-0.033296,-0.922558,0.007571,0.005204,-0.061572,-10.771790,1.942488,-8.298828,,,,,,,
1522136784.061709,-0.389084,0.023810,-1.987186,-0.206912,0.092759,-0.025222,-0.379233,-0.023808,-0.924994,0.042594,-0.000088,-0.016809,-12.413773,2.026075,-7.099976,,,,,,,
1522136784.091677,-0.391158,0.026513,-1.987236,0.290540,-0.180412,-0.039489,-0.381125,-0.026510,-0.924143,0.043661,-0.045054,0.037455,-13.220245,1.808165,-3.649536,,,,,,,
1522136784.121645,-0.397547,0.039534,-1.983089,0.507198,-0.193721,-0.036122,-0.386855,-0.039524,-0.921293,0.015364,-0.046597,0.021970,-13.207932,1.959913,-1.850098,,,,,,,
1522136784.151614,-0.402650,0.051359,-1.979330,0.303538,-0.150610,-0.050170,-0.391341,-0.051336,-0.918812,-0.033708,-0.013911,0.006077,-13.123611,1.811323,-0.049500,,,,,,,
1522136784.181566,-0.404237,0.053137,-1.979782,-0.139037,0.025413,0.005808,-0.392762,-0.053112,-0.918105,-0.080611,0.009976,0.014769,-10.323364,2.401945,3.174561,,,,,,,
1522136784.211535,-0.399932,0.044914,-1.982487,-0.347651,0.177850,0.011886,-0.388962,-0.044898,-0.920158,-0.015655,0.037269,-0.029900,-10.319885,2.028135,4.376038,,,,,,,
1522136784.241503,-0.396375,0.037168,-1.986222,-0.210233,0.074662,-0.018816,-0.385810,-0.037159,-0.921829,0.006003,0.031498,-0.006592,-7.827286,2.618864,6.324951,,,,,,,
1522136784.271472,-0.396039,0.036518,-1.986996,0.086213,0.006897,-0.006806,-0.385510,-0.036510,-0.921981,0.027798,0.007960,0.004698,-6.170776,2.912016,6.924622,,,,,,,
1522136784.301440,-0.393639,0.039291,-1.985108,0.079111,0.141540,0.038874,-0.383256,-0.039281,-0.922806,0.024766,0.001011,-0.059845,-4.363022,3.054930,7.974915,,,,,,,
1522136784.331408,-0.388945,0.037274,-1.984951,-0.141789,0.132716,0.011019,-0.378949,-0.037266,-0.924666,0.012311,0.006290,-0.066072,-2.857086,3.423521,8.349243,,,,,,,
1522136784.361377,-0.388251,0.034523,-1.986429,-0.029390,-0.069289,-0.014262,-0.378345,-0.034516,-0.925020,0.019427,0.008241,-0.019148,-0.827988,3.789473,8.423767,,,,,,,
1522136784.391345,-0.392629,0.037242,-1.986175,0.159150,-0.173850,-0.020410,-0.382353,-0.037234,-0.923265,0.004485,0.013964,0.021684,0.667145,3.707075,7.749817,,,,,,,
1522136784.421313,-0.396623,0.041557,-1.984765,0.106216,-0.075937,-0.022682,-0.385972,-0.041545,-0.921574,0.031007,0.042400,-0.004391,3.439468,3.843916,7.075684,,,,,,,
1522136784.451281,-0.397018,0.041271,-1.985751,-0.102564,0.030825,-0.021871,-0.386340,-0.041260,-0.921432,0.034091,0.031448,0.010315,3.658447,3.692183,6.326355,,,,,,,
1522136784.481250,-0.394479,0.035983,-1.988346,-0.261404,0.104438,-0.006087,-0.384078,-0.035975,-0.922599,0.012222,-0.015279,-0.029336,3.649139,3.615797,4.901672,,,,,,,
1522136784.511218,-0.391571,0.027616,-1.990406,-0.269400,0.075264,0.067449,-0.381495,-0.027612,-0.923958,-0.016072,-0.017416,-0.026421,4.611771,4.133543,1.975098,,,,,,,
,,,,,,,,,,,,,,,,25.314970,51.435433,11.873924,-1.000000,-1.000000,1522136784.501939,
1522136784.541186,-0.388691,0.020373,-1.990442,-0.196750,0.111032,0.090920,-0.378898,-0.020372,-0.925214,-0.036705,-0.003020,-0.060672,4.525970,3.682875,0.926880,,,,,,,
1522136784.571153,-0.385557,0.015892,-1.990892,-0.080217,0.054994,0.011141,-0.376028,-0.015891,-0.926472,-0.038996,-0.017388,-0.119396,3.094238,4.362074,-1.326538,,,,,,,
1522136784.601123,-0.387023,0.017373,-1.991164,0.117934,-0.105581,-0.042887,-0.377376,-0.017373,-0.925896,-0.016239,0.005379,-0.055442,1.587234,4.292799,-2.377075,,,,,,,
1522136784.631090,-0.392029,0.022907,-1.989853,0.225235,-0.195277,-0.018212,-0.381964,-0.022905,-0.923893,-0.012491,0.022036,-0.003277,0.374512,4.371000,-4.627991,,,,,,,
1522136784.661058,-0.397467,0.030242,-1.987093,0.285072,-0.167888,-0.004347,-0.386906,-0.030238,-0.921623,0.008321,0.018076,0.045997,-0.450760,4.524412,-4.929016,,,,,,,
1522136784.691026,-0.401794,0.038553,-1.983396,0.306541,-0.125546,0.010546,-0.390780,-0.038543,-0.919676,0.006502,0.003448,0.054778,-1.355392,4.827208,-6.205627,,,,,,,
1522136784.720995,-0.403638,0.044958,-1.980377,0.171517,-0.013544,-0.002454,-0.392369,-0.044943,-0.918709,0.015233,0.020743,0.037986,-2.784973,4.458494,-6.354919,,,,,,,
1522136784.750963,-0.402772,0.045808,-1.980272,-0.070455,0.064670,-0.009103,-0.391559,-0.045792,-0.919012,0.000034,-0.004684,0.020453,-4.213959,4.239622,-6.654724,,,,,,,
1522136784.780931,-0.398043,0.040249,-1.982274,-0.273897,0.212618,0.026830,-0.387301,-0.040238,-0.921074,-0.013563,0.004411,-0.023994,-3.228958,4.835875,-5.981628,,,,,,,
1522136784.810899,-0.390662,0.030034,-1.985065,-0.396617,0.254223,0.049063,-0.380628,-0.030029,-0.924240,0.005964,0.026413,-0.081314,-4.800598,4.768614,-5.307190,,,,,,,
1522136784.840868,-0.384235,0.019779,-1.988348,-0.271924,0.144819,-0.001877,-0.374776,-0.019778,-0.926904,0.028112,0.013857,-0.073478,-5.178833,4.170774,-4.854980,,,,,,,
1522136784.870836,-0.385741,0.020786,-1.989644,0.217087,-0.183128,-0.082156,-0.376165,-0.020785,-0.926319,0.019353,0.002230,-0.003612,-5.476303,4.472029,-4.931335,,,,,,,
1522136784.900805,-0.393088,0.031977,-1.987833,0.406951,-0.229254,-0.087297,-0.382846,-0.031971,-0.923258,0.019321,0.005634,0.024897,-7.951920,3.734297,-3.804626,,,,,,,
1522136784.930773,-0.396890,0.041168,-1.986558,0.199358,-0.072644,-0.069505,-0.386224,-0.041157,-0.921486,0.035546,0.012989,0.008690,-9.446594,3.592146,-2.679810,,,,,,,
1522136784.960742,-0.396748,0.043944,-1.987432,0.038507,0.015873,-0.061176,-0.386048,-0.043930,-0.921432,0.008209,0.023270,0.023605,-10.242142,4.424253,0.841492,,,,,,,
1522136784.990710,-0.397958,0.045815,-1.988569,0.045523,-0.074518,-0.052561,-0.387130,-0.045799,-0.920886,-0.017365,0.033440,0.036243,-11.426773,4.656752,3.014954,,,,,,,
1522136785.020678,-0.398698,0.046180,-1.989735,-0.038535,0.022201,-0.025021,-0.387804,-0.046164,-0.920584,0.003237,0.047446,0.011405,-10.942719,5.633619,7.061279,,,,,,,
1522136785.050647,-0.397128,0.044540,-1.990716,-0.062009,0.049735,-0.003754,-0.386388,-0.044525,-0.921261,0.008046,0.013046,-0.005299,-9.794098,7.055021,8.631226,,,,,,,
1522136785.080615,-0.396574,0.043298,-1.990671,-0.015379,0.007975,0.026153,-0.385898,-0.043284,-0.921525,-0.004040,-0.017125,0.012330,-7.811493,8.698805,11.325623,,,,,,,
1522136785.110583,-0.396206,0.043384,-1.989459,0.049834,0.021637,0.022999,-0.385558,-0.043370,-0.921663,0.013289,-0.005153,0.017046,-5.921432,9.441557,12.598572,,,,,,,
1522136785.140551,-0.393304,0.043867,-1.989391,-0.024177,0.144270,-0.011282,-0.382873,-0.043853,-0.922759,-0.008408,-0.012467,-0.033403,-0.208908,10.241606,13.348267,,,,,,,
1522136785.170505,-0.388305,0.041903,-1.990851,-0.111552,0.165811,-0.024143,-0.378288,-0.041891,-0.924739,-0.020150,0.007696,-0.097477,2.185883,10.080229,12.750122,,,,,,,
1522136785.200473,-0.385445,0.038483,-1.992829,-0.132542,0.026588,-0.011244,-0.375693,-0.038473,-0.925945,0.015143,0.041830,-0.091847,4.950562,9.541975,11.928650,,,,,,,
1522136785.230442,-0.387923,0.037234,-1.994027,0.038694,-0.135273,-0.023735,-0.378005,-0.037225,-0.925054,0.026702,0.037653,0.005377,9.277420,8.844801,9.233582,,,,,,,
1522136785.260410,-0.393948,0.044225,-1.992199,0.382128,-0.241179,-0.045743,-0.383461,-0.044211,-0.922498,0.042489,0.020438,0.075223,9.402985,8.016539,6.536987,,,,,,,
1522136785.290378,-0.400913,0.057743,-1.987861,0.482578,-0.203273,-0.030794,-0.389608,-0.057711,-0.919170,0.034643,-0.018812,0.053585,9.062759,6.963133,1.591003,,,,,,,
1522136785.320346,-0.403308,0.065590,-1.985119,0.086380,0.028198,-0.017466,-0.391619,-0.065543,-0.917789,0.003649,-0.019098,-0.016140,9.131424,6.961775,0.541077,,,,,,,
1522136785.350315,-0.399640,0.059191,-1.987665,-0.396952,0.146034,0.020407,-0.388405,-0.059157,-0.919587,-0.016731,-0.033907,-0.026366,7.012161,6.518827,-1.933289,,,,,,,
1522136785.380283,-0.395142,0.046675,-1.992382,-0.437560,0.131275,0.016138,-0.384520,-0.046658,-0.921936,-0.023454,-0.030048,-0.020630,6.329849,6.370924,-2.907959,,,,,,,
1522136785.410251,-0.390357,0.035588,-1.996057,-0.359604,0.162802,0.039601,-0.380278,-0.035580,-0.924187,-0.018923,0.003888,-0.080284,3.630371,6.832396,-3.586182,,,,,,,
1522136785.440219,-0.387849,0.029715,-1.998332,-0.078091,0.009541,-0.025033,-0.378031,-0.029710,-0.925316,0.004435,0.038408,-0.086540,2.500320,6.686888,-4.186218,,,,,,,
1522136785.470188,-0.390343,0.032910,-1.997876,0.219052,-0.135848,-0.007608,-0.380300,-0.032904,-0.924277,0.009938,0.025809,-0.020913,-1.336197,5.803694,-4.634583,,,,,,,
1522136785.500156,-0.396020,0.042817,-1.993624,0.434293,-0.211921,0.007537,-0.385395,-0.042804,-0.921758,0.006596,0.003436,0.020268,-3.667679,4.839720,-4.106873,,,,,,,
1522136785.530123,-0.402374,0.053661,-1.988153,0.333980,-0.179916,0.025542,-0.391040,-0.053635,-0.918809,0.006656,-0.008758,0.004640,-7.268387,3.957273,-2.755188,,,,,,,
1522136785.560091,-0.404052,0.055928,-1.987372,-0.100336,0.045753,-0.028287,-0.392533,-0.055899,-0.918037,-0.005432,-0.030069,-0.006722,-9.124512,3.594374,0.995361,,,,,,,
1522136785.590060,-0.399893,0.049269,-1.991091,-0.307011,0.163049,-0.013639,-0.388848,-0.049249,-0.919984,-0.023277,-0.041083,-0.020033,-9.633102,3.524519,3.845398,,,,,,,
1522136785.620028,-0.395692,0.041376,-1.994530,-0.273085,0.128851,0.002401,-0.385117,-0.041364,-0.921940,-0.027267,-0.020373,-0.036343,-7.957321,3.221769,8.647461,,,,,,,
1522136785.649997,-0.392134,0.035027,-1.997259,-0.190946,0.111652,0.001414,-0.381926,-0.035020,-0.923529,-0.012940,-0.018111,-0.052302,-5.995392,3.289824,10.523193,,,,,,,
1522136785.679965,-0.390554,0.033482,-1.998094,0.041400,-0.006722,-0.021729,-0.380487,-0.033475,-0.924180,0.008539,-0.002200,-0.040145,-0.290649,3.040358,11.727051,,,,,,,
1522136785.709934,-0.393956,0.039266,-1.997249,0.283114,-0.185624,-0.052271,-0.383549,-0.039256,-0.922686,0.008839,-0.007817,0.014986,2.405182,3.027555,11.053467,,,,,,,
1522136785.739902,-0.401185,0.050545,-1.994464,0.433497,-0.241122,-0.070221,-0.390011,-0.050524,-0.919423,0.002102,0.008394,0.052342,8.527893,2.321623,7.684326,,,,,,,
1522136785.769870,-0.407047,0.062604,-1.991684,0.354937,-0.149533,-0.074619,-0.395124,-0.062563,-0.916495,0.008268,0.022463,0.043631,8.809265,1.942884,5.210938,,,,,,,
1522136785.799839,-0.407640,0.067077,-1.991482,-0.036221,0.063600,-0.021855,-0.395553,-0.067027,-0.915994,-0.008424,0.020671,-0.002250,8.553070,1.339842,1.013245,,,,,,,
1522136785.829807,-0.403219,0.059224,-1.993664,-0.389609,0.170118,0.067277,-0.391693,-0.059189,-0.918190,0.015716,0.024933,-0.034615,8.170715,1.415220,-0.337280,,,,,,,
1522136785.859775,-0.398552,0.047973,-1.996913,-0.325492,0.134134,0.024736,-0.387638,-0.047954,-0.920563,0.000934,0.005413,-0.002532,5.238190,1.202513,-1.237915,,,,,,,
1522136785.889743,-0.396177,0.044525,-1.997463,0.046757,0.047180,0.019768,-0.385511,-0.044510,-0.921628,-0.000155,-0.024963,0.001264,3.359055,1.060514,-1.688232,,,,,,,
1522136785.919712,-0.395427,0.049037,-1.996107,0.180412,0.017514,-0.041895,-0.384739,-0.049018,-0.921723,-0.008587,-0.009759,-0.040527,2.161652,1.141203,-1.389160,,,,,,,
1522136785.949680,-0.394692,0.052898,-1.996588,0.078052,0.017947,-0.067543,-0.383986,-0.052873,-0.921823,0.014723,-0.004759,-0.031561,1.492386,1.220030,-0.564819,,,,,,,
1522136785.979648,-0.396817,0.057648,-1.997206,0.207725,-0.136276,-0.090744,-0.385842,-0.057616,-0.920763,-0.007316,0.026625,0.021975,1.191650,1.146391,-0.564636,,,,,,,
1522136786.009616,-0.401964,0.066375,-1.996381,0.302534,-0.162153,-0.071465,-0.390365,-0.066326,-0.918267,-0.008256,0.028469,0.039117,2.090439,0.842649,-0.263000,,,,,,,
1522136786.039585,-0.404299,0.072342,-1.994440,0.093447,-0.016712,0.020940,-0.392345,-0.072279,-0.916973,0.028408,0.048827,-0.011280,1.631775,-0.204988,0.040955,,,,,,,
1522136786.069553,-0.402199,0.067994,-1.994689,-0.259553,0.111444,0.054644,-0.390538,-0.067941,-0.918076,0.021840,0.009973,-0.011215,2.826645,-0.810213,0.193970,,,,,,,
1522136786.099521,-0.400679,0.061858,-1.995743,-0.096560,-0.008771,0.018650,-0.389297,-0.061818,-0.919035,-0.002976,-0.000605,0.056974,4.696136,-0.819521,-0.705078,,,,,,,
1522136786.129488,-0.402272,0.064798,-1.995218,0.224844,-0.073986,-0.041767,-0.390689,-0.064752,-0.918242,-0.017713,-0.035635,0.068526,6.931213,-1.505922,-2.051147,,,,,,,
1522136786.159452,-0.402074,0.070511,-1.993853,0.089846,0.095082,-0.010072,-0.390355,-0.070452,-0.917964,-0.020335,-0.047529,-0.015752,8.349380,-1.288805,-3.551331,,,,,,,
1522136786.189420,-0.395713,0.065194,-1.994702,-0.372108,0.263592,0.067191,-0.384647,-0.065148,-0.920761,-0.010953,-0.005623,-0.106750,10.062454,-1.223619,-5.650757,,,,,,,
1522136786.219388,-0.388198,0.049522,-1.999543,-0.594300,0.196378,0.031935,-0.378057,-0.049502,-0.924457,-0.057002,0.011187,-0.143429,10.734192,0.794462,-9.558472,,,,,,,
1522136786.249356,-0.386715,0.039054,-2.003461,-0.166026,-0.044633,0.002663,-0.376860,-0.039045,-0.925446,0.026824,0.012922,-0.081268,10.353302,1.693693,-12.037292,,,,,,,
1522136786.279325,-0.390121,0.043493,-2.002204,0.364235,-0.165785,-0.030921,-0.379940,-0.043479,-0.923988,0.019146,0.028708,0.006691,8.093246,3.798674,-17.221863,,,,,,,
1522136786.309293,-0.398989,0.060357,-1.996764,0.698826,-0.356563,-0.068836,-0.387779,-0.060321,-0.919776,0.027580,-0.010419,0.064658,4.856812,3.736448,-19.023193,,,,,,,
1522136786.339261,-0.409365,0.079448,-1.991233,0.562497,-0.288207,-0.072193,-0.396771,-0.079365,-0.914479,0.022519,-0.038540,0.072973,-1.682800,3.763395,-21.501587,,,,,,,
1522136786.369230,-0.411889,0.085675,-1.989909,-0.066107,0.068964,-0.018685,-0.398872,-0.085571,-0.913005,-0.018395,-0.024857,0.025264,-4.152924,4.299421,-21.579956,,,,,,,
1522136786.399198,-0.405737,0.076248,-1.993707,-0.442467,0.235388,0.022417,-0.393549,-0.076174,-0.916142,-0.024114,0.019549,-0.009014,-10.206497,5.004057,-19.185852,,,,,,,
1522136786.429166,-0.399463,0.062908,-1.999161,-0.506589,0.184766,-0.009546,-0.388154,-0.062866,-0.919447,-0.023924,0.026535,-0.048098,-11.990067,5.613813,-17.464111,,,,,,,
1522136786.459134,-0.393044,0.049082,-2.005424,-0.488348,0.209127,-0.005292,-0.382540,-0.049062,-0.922635,-0.014463,0.039327,-0.116458,-13.758011,6.076338,-12.891907,,,,,,,
1522136786.489103,-0.390060,0.042125,-2.008575,-0.047281,-0.015024,-0.017530,-0.379907,-0.042113,-0.924065,0.007470,0.032530,-0.120689,-14.272781,6.155226,-11.317444,,,,,,,
1522136786.519071,-0.392385,0.047552,-2.007492,0.307907,-0.112512,-0.033139,-0.381960,-0.047534,-0.922955,-0.003751,0.019274,-0.002994,-13.286255,6.452208,-9.893188,,,,,,,
1522136786.549039,-0.397892,0.060528,-2.002935,0.560246,-0.243983,-0.012574,-0.386766,-0.060491,-0.920191,-0.013106,-0.001505,0.053187,-12.982971,6.376524,-9.217651,,,,,,,
1522136786.579007,-0.407375,0.076399,-1.995802,0.532074,-0.298330,0.019425,-0.395045,-0.076325,-0.915485,-0.027822,-0.007552,0.072727,-12.981155,6.152189,-8.541748,,,,,,,
1522136786.608976,-0.411844,0.083406,-1.992833,0.029695,0.001806,-0.021744,-0.398908,-0.083310,-0.913198,-0.012515,-0.002063,0.051977,-12.225784,6.374311,-8.017334,,,,,,,
1522136786.638944,-0.406582,0.077327,-1.996263,-0.346089,0.241862,-0.026529,-0.394290,-0.077250,-0.915733,-0.002026,-0.001455,0.036170,-12.298996,6.599577,-8.093201,,,,,,,
1522136786.668912,-0.400406,0.067062,-2.001242,-0.378743,0.145005,0.008702,-0.388916,-0.067012,-0.918832,0.018189,-0.013875,-0.000388,-13.644714,6.306822,-6.892761,,,,,,,
1522136786.698880,-0.397351,0.058289,-2.002551,-0.173384,0.084395,0.092033,-0.386320,-0.058256,-0.920523,0.017942,0.017882,0.025534,-13.566406,6.232145,-6.217346,,,,,,,
1522136786.728849,-0.395994,0.058969,-2.001287,0.161114,0.021710,-0.024877,-0.385054,-0.058935,-0.921010,-0.027681,0.022497,0.021123,-12.959793,5.182280,-3.362915,,,,,,,
1522136786.758817,-0.395195,0.066426,-2.001378,0.262065,0.017987,-0.138795,-0.384139,-0.066378,-0.920886,-0.011521,0.006487,0.028796,-12.429108,5.031096,-2.161987,,,,,,,
1522136786.788785,-0.395378,0.075439,-2.002068,0.250923,-0.047020,-0.106778,-0.384061,-0.075368,-0.920226,0.036527,-0.019023,-0.003572,-9.806107,3.746092,-0.355591,,,,,,,
1522136786.818753,-0.398699,0.079016,-2.001120,-0.016029,-0.109093,0.050784,-0.387008,-0.078933,-0.918691,0.026718,0.002990,-0.013011,-9.655762,3.146467,0.696899,,,,,,,
1522136786.848722,-0.398184,0.069207,-2.002249,-0.512749,0.124518,0.097070,-0.386817,-0.069151,-0.919559,-0.000298,0.018126,0.005558,-7.336411,2.086866,1.527283,,,,,,,
1522136786.878690,-0.389514,0.051036,-2.006800,-0.632331,0.351233,0.087154,-0.379244,-0.051014,-0.923889,-0.017057,0.002796,-0.039475,-6.662613,2.008757,1.452942,,,,,,,
1522136786.908658,-0.382772,0.038523,-2.011001,-0.239316,0.027904,-0.009195,-0.373216,-0.038513,-0.926944,0.003847,-0.023788,-0.192746,-5.771332,0.955046,1.757568,,,,,,,
1522136786.938627,-0.386355,0.039501,-2.012322,0.179778,-0.165000,-0.077940,-0.376520,-0.039491,-0.925566,0.017694,0.017930,-0.005907,-6.744461,0.735106,2.433044,,,,,,,
1522136786.968595,-0.393851,0.052878,-2.010412,0.616043,-0.321897,-0.133929,-0.383211,-0.052853,-0.922147,0.009553,0.018048,0.067411,-5.772217,0.281034,2.735352,,,,,,,
1522136786.998563,-0.405147,0.073222,-2.005473,0.633724,-0.347911,-0.066764,-0.393097,-0.073156,-0.916581,-0.023407,0.000555,0.073655,-4.789291,0.352812,3.935547,,,,,,,
1522136787.028531,-0.408022,0.077774,-2.003352,-0.253996,0.153957,0.050348,-0.395595,-0.077696,-0.915132,-0.028844,-0.032091,-0.042235,-3.887222,0.199354,4.536560,,,,,,,
1522136787.058500,-0.396345,0.053315,-2.010163,-1.085957,0.414842,0.116591,-0.385501,-0.053289,-0.921167,-0.085874,0.016287,-0.202490,-2.005844,0.341703,5.361938,,,,,,,
1522136787.088468,-0.392692,0.033819,-2.016699,-0.297489,-0.078279,-0.000602,-0.382458,-0.033812,-0.923353,-0.016498,0.012740,-0.090303,-1.925003,0.566938,5.961060,,,,,,,
1522136787.118436,-0.398564,0.038014,-2.015389,0.327826,-0.161618,-0.006443,-0.387815,-0.038005,-0.920953,-0.019244,0.027095,0.027719,-1.018311,1.687101,5.207031,,,,,,,
1522136787.148404,-0.399329,0.046642,-2.010947,0.295403,0.031584,0.031701,-0.388377,-0.046625,-0.920320,0.018840,0.005365,0.049790,-0.189468,2.432783,4.604492,,,,,,,
1522136787.178343,-0.399846,0.053497,-2.007703,0.208772,-0.035963,-0.000275,-0.388719,-0.053471,-0.919803,0.004167,-0.020595,0.092502,-1.525177,3.414534,5.349915,,,,,,,
1522136787.208311,-0.400937,0.057349,-2.006726,0.091584,-0.029034,-0.040844,-0.389640,-0.057317,-0.919181,-0.022393,-0.026164,0.093956,-1.966766,3.942045,5.872559,,,,,,,
1522136787.238279,-0.400551,0.058350,-2.007997,-0.060585,0.062874,-0.060236,-0.389262,-0.058317,-0.919279,-0.081960,0.013349,0.068052,-1.356476,4.839521,6.094299,,,,,,,
1522136787.268247,-0.395299,0.053400,-2.012060,-0.291549,0.232345,-0.052054,-0.384535,-0.053375,-0.921566,-0.069308,0.037338,-0.023777,-1.864487,5.368757,8.041931,,,,,,,
1522136787.298216,-0.389328,0.047028,-2.016813,-0.198994,0.136615,-0.071069,-0.379147,-0.047011,-0.924141,-0.010150,0.013762,-0.148827,-0.730682,5.889250,8.640381,,,,,,,
1522136787.328184,-0.388183,0.044768,-2.018648,-0.023951,0.001606,0.027223,-0.378128,-0.044753,-0.924670,0.052505,0.016967,-0.108945,1.285828,5.579268,7.742615,,,,,,,
1522136787.358152,-0.389688,0.046031,-2.016037,0.151569,-0.086338,0.077536,-0.379498,-0.046014,-0.924047,0.024639,0.008188,0.020864,1.655563,5.052610,7.744934,,,,,,,
1522136787.388120,-0.392592,0.049503,-2.011283,0.137561,-0.074833,0.110537,-0.382116,-0.049482,-0.922788,-0.052516,-0.000414,0.071546,1.259155,3.852827,6.174561,,,,,,,
1522136787.418089,-0.390775,0.048907,-2.010798,-0.105239,0.144572,-0.026258,-0.380450,-0.048887,-0.923508,-0.054899,-0.019487,0.009003,1.252563,3.327635,5.951660,,,,,,,
1522136787.448057,-0.386621,0.044880,-2.012888,-0.138710,0.099775,0.007867,-0.376681,-0.044865,-0.925255,-0.034070,-0.024043,-0.000343,0.266403,1.757826,6.707397,,,,,,,
1522136787.478025,-0.387145,0.043783,-2.013246,0.044208,-0.079057,-0.009941,-0.377184,-0.043769,-0.925103,0.005206,-0.013512,0.033150,1.311600,0.778959,7.536865,,,,,,,
1522136787.507993,-0.391991,0.048233,-2.012543,0.202019,-0.170579,-0.048082,-0.381584,-0.048214,-0.923075,0.003365,0.002346,0.096964,4.225510,0.389647,6.339844,,,,,,,
1522136787.537962,-0.394833,0.054539,-2.010776,0.175798,-0.005124,0.005012,-0.384082,-0.054512,-0.921688,-0.007062,-0.000175,0.045269,4.816772,0.235792,5.140747,,,,,,,
1522136787.567930,-0.391386,0.053002,-2.009079,-0.192320,0.182033,0.119608,-0.380934,-0.052977,-0.923083,-0.044283,0.029021,-0.061674,5.858902,0.304670,3.716003,,,,,,,
1522136787.597898,-0.388136,0.044408,-2.009043,-0.247317,0.014511,0.082461,-0.378091,-0.044393,-0.924703,-0.036277,0.016744,-0.118998,7.183029,0.144667,-0.332642,,,,,,,
1522136787.627836,-0.389933,0.039284,-2.009342,-0.093828,-0.073838,0.052815,-0.379833,-0.039274,-0.924221,-0.045262,-0.022723,-0.077183,6.124634,0.297773,-1.983826,,,,,,,
1522136787.657804,-0.392044,0.039670,-2.007823,0.118887,-0.048704,0.028448,-0.381777,-0.039660,-0.923402,-0.024580,-0.014265,0.028764,2.732346,0.459883,-5.136169,,,,,,,
1522136787.687773,-0.392543,0.044567,-2.005394,0.180147,0.015060,0.006051,-0.382160,-0.044553,-0.923021,-0.005765,-0.028842,0.021227,1.829834,0.837904,-6.188110,,,,,,,
1522136787.717741,-0.390398,0.045404,-2.004204,-0.063157,0.095052,0.050540,-0.380164,-0.045389,-0.923804,-0.010690,-0.071997,-0.041726,-0.715714,1.149580,-5.965637,,,,,,,
1522136787.747709,-0.389761,0.041556,-2.004029,-0.120300,-0.032300,0.047431,-0.379639,-0.041544,-0.924201,-0.043502,-0.049093,-0.042856,-1.160446,1.227324,-5.216187,,,,,,,
1522136787.777677,-0.390865,0.039137,-2.004052,-0.043244,-0.025922,0.018717,-0.380697,-0.039127,-0.923871,-0.050898,-0.014996,-0.015048,-0.698761,1.676451,-4.017700,,,,,,,
1522136787.807646,-0.391881,0.038566,-2.004313,-0.031435,-0.038537,-0.004704,-0.381643,-0.038556,-0.923504,-0.022165,0.035779,-0.018955,0.876923,1.744352,-4.017212,,,,,,,
1522136787.837614,-0.392915,0.038066,-2.005457,-0.019357,-0.010667,-0.044145,-0.382606,-0.038057,-0.923127,-0.007592,0.027071,0.084809,2.447189,1.811384,-4.916748,,,,,,,
1522136787.867582,-0.392794,0.040178,-2.005828,0.110929,0.018631,-0.024900,-0.382462,-0.040167,-0.923097,-0.020981,-0.011820,0.073808,1.991501,1.737623,-5.741638,,,,,,,
1522136787.897550,-0.391465,0.041890,-2.004991,-0.003274,0.071781,0.013318,-0.381208,-0.041877,-0.923539,-0.014132,0.024055,-0.006987,1.686554,1.962782,-6.942688,,,,,,,
1522136787.927519,-0.388984,0.038658,-2.005958,-0.141961,0.091282,0.008934,-0.378965,-0.038648,-0.924603,-0.019732,0.011183,-0.012332,0.933578,1.890806,-7.317749,,,,,,,
1522136787.957487,-0.387932,0.037012,-2.006600,0.019923,-0.009994,-0.001500,-0.378015,-0.037004,-0.925059,-0.048514,0.024095,-0.010259,1.608093,2.112318,-7.768311,,,,,,,
1522136787.987455,-0.389105,0.039154,-2.005579,0.090275,-0.017709,0.013476,-0.379069,-0.039144,-0.924539,-0.032338,0.014821,-0.005820,-0.187347,2.570387,-7.771057,,,,,,,
1522136788.017423,-0.387911,0.039260,-2.004607,-0.046054,0.072844,0.028204,-0.377964,-0.039249,-0.924987,0.016025,0.018528,-0.015213,0.786697,2.790480,-8.296448,,,,,,,
1522136788.047392,-0.387224,0.036993,-2.004327,-0.044332,-0.000576,0.043190,-0.377361,-0.036984,-0.925327,0.016018,-0.001117,0.056140,0.333405,2.866850,-8.971985,,,,,,,
1522136788.077360,-0.387461,0.037454,-2.002674,0.096617,0.001183,0.043303,-0.377574,-0.037445,-0.925221,0.003993,-0.037643,0.086888,0.560944,3.390379,-9.423950,,,,,,,
1522136788.107328,-0.386581,0.040194,-2.000938,0.087552,0.060021,-0.010038,-0.376720,-0.040183,-0.925455,-0.000295,-0.019204,0.066583,1.305481,3.835371,-11.075378,,,,,,,
1522136788.137296,-0.384182,0.041258,-2.001299,-0.014848,0.082600,-0.010143,-0.374482,-0.041246,-0.926316,-0.010741,-0.014570,-0.000702,0.178116,3.914915,-11.601257,,,,,,,
1522136788.167278,-0.383305,0.039889,-2.001164,-0.049743,-0.016518,0.044274,-0.373690,-0.039878,-0.926695,-0.020643,0.008308,-0.048128,0.029572,4.964079,-13.105530,,,,,,,
1522136788.197246,-0.384829,0.038286,-1.999705,-0.028670,-0.039107,0.077337,-0.375125,-0.038276,-0.926183,-0.025281,0.015586,-0.054393,-0.201279,5.188765,-14.456543,,,,,,,
1522136788.227214,-0.385105,0.036166,-1.998567,-0.077362,0.013311,0.043157,-0.375410,-0.036158,-0.926153,-0.014330,0.014536,-0.055903,-2.527557,5.872877,-15.810486,,,,,,,
1522136788.257183,-0.384038,0.033567,-1.998147,-0.049538,0.042926,0.054861,-0.374456,-0.033560,-0.926636,0.006292,-0.017923,-0.004974,-3.578003,6.551405,-17.013733,,,,,,,
1522136788.287151,-0.384435,0.034242,-1.996043,0.116678,-0.047758,0.044435,-0.374815,-0.034236,-0.926467,-0.004168,-0.017904,0.059615,-4.257339,6.703489,-17.989624,,,,,,,
1522136788.317119,-0.386290,0.038456,-1.993395,0.174497,-0.037101,0.021019,-0.376475,-0.038446,-0.925628,-0.026128,-0.031973,0.089996,-5.612976,6.633772,-18.815063,,,,,,,
1522136788.347087,-0.384621,0.040612,-1.992043,-0.014712,0.137692,0.012183,-0.374899,-0.040601,-0.926176,-0.046397,-0.007327,-0.015917,-7.415604,6.416792,-18.890076,,,,,,,
1522136788.377056,-0.380200,0.037491,-1.993460,-0.165131,0.118163,-0.028401,-0.370845,-0.037482,-0.927937,-0.046986,0.008033,-0.142528,-7.270996,5.741377,-18.662292,,,,,,,
1522136788.407024,-0.379849,0.032758,-1.996311,-0.165867,-0.030662,-0.017606,-0.370581,-0.032752,-0.928222,-0.039728,0.012321,-0.082734,-8.999939,5.074614,-18.210449,,,,,,,
1522136788.436992,-0.383076,0.032351,-1.996203,0.088623,-0.133595,0.024240,-0.373579,-0.032345,-0.927033,-0.016374,0.026714,0.001725,-9.828796,4.778196,-18.359741,,,,,,,
1522136788.466960,-0.384423,0.034927,-1.994778,0.050015,0.042998,0.006997,-0.374795,-0.034920,-0.926449,-0.005118,0.007439,0.009655,-11.406158,4.859755,-18.885864,,,,,,,
1522136788.496929,-0.381494,0.034902,-1.994737,-0.004043,0.109142,-0.011224,-0.372081,-0.034895,-0.927543,-0.021428,-0.029695,-0.056267,-11.924210,4.788374,-17.610840,,,,,,,
1522136788.526897,-0.381136,0.035315,-1.995539,-0.019625,-0.055369,-0.032385,-0.371743,-0.035308,-0.927664,-0.027855,-0.016084,-0.071009,-12.150238,4.190214,-16.783508,,,,,,,
1522136788.556865,-0.383339,0.034027,-1.996121,-0.024199,-0.067384,0.015574,-0.373803,-0.034020,-0.926883,-0.056220,0.007943,0.070530,-12.134644,4.716871,-15.060669,,,,,,,
1522136788.586833,-0.385476,0.035931,-1.994580,0.133703,-0.087984,0.018905,-0.375757,-0.035924,-0.926021,-0.029242,0.015797,0.072734,-13.632294,4.274733,-13.934631,,,,,,,
1522136788.616802,-0.385956,0.037633,-1.993542,-0.037471,0.072871,0.020754,-0.376178,-0.037624,-0.925783,-0.009961,-0.002003,-0.004256,-14.154388,3.753431,-12.582764,,,,,,,
1522136788.646770,-0.382519,0.033232,-1.994485,-0.167557,0.104063,0.014228,-0.373052,-0.033226,-0.927215,0.005285,-0.008995,-0.041261,-12.644669,3.373884,-10.330505,,,,,,,
1522136788.676738,-0.382535,0.031123,-1.995451,0.010032,-0.069486,0.000681,-0.373093,-0.031118,-0.927271,-0.041245,-0.020243,0.050151,-12.716492,3.150114,-9.429688,,,,,,,
1522136788.706706,-0.384706,0.033883,-1.994158,0.134092,-0.024094,-0.000339,-0.375071,-0.033877,-0.926376,-0.048818,-0.015119,0.096557,-12.414978,2.400267,-7.926514,,,,,,,
1522136788.736675,-0.382469,0.036648,-1.993275,0.040956,0.153632,-0.004854,-0.372961,-0.036640,-0.927122,-0.039896,-0.016263,-0.065355,-11.587296,2.172361,-7.100159,,,,,,,
1522136788.766643,-0.377534,0.033084,-1.994563,-0.261349,0.141514,0.013042,-0.368427,-0.033078,-0.929067,-0.007519,-0.001224,-0.170390,-12.618484,2.255003,-4.101013,,,,,,,
1522136788.796611,-0.375569,0.025342,-1.996934,-0.186194,-0.010604,0.007933,-0.366684,-0.025339,-0.930000,0.005905,0.030863,0.011253,-12.682968,2.406782,-2.601624,,,,,,,
1522136788.826579,-0.380457,0.028539,-1.997022,0.290453,-0.239699,-0.072452,-0.371193,-0.028535,-0.928116,-0.010551,-0.006224,0.133317,-13.333618,2.863020,0.696167,,,,,,,
1522136788.856548,-0.386734,0.040382,-1.993218,0.428123,-0.158785,0.008546,-0.376858,-0.040371,-0.925390,0.014645,-0.038181,0.148016,-13.469498,3.240355,2.419678,,,,,,,
1522136788.886516,-0.387361,0.047399,-1.989741,0.065211,0.109861,0.015454,-0.377322,-0.047381,-0.924869,0.020266,0.004413,0.050479,-10.885422,4.357542,6.241455,,,,,,,
1522136788.916484,-0.380027,0.038641,-1.993326,-0.535017,0.269887,-0.013923,-0.370669,-0.038631,-0.927961,-0.005430,0.018490,-0.039660,-8.843094,5.100004,7.889526,,,,,,,
1522136788.946453,-0.377454,0.026525,-1.998772,-0.274905,-0.060139,-0.017661,-0.368425,-0.026522,-0.929278,-0.078337,-0.009778,-0.064435,-7.179962,5.693724,9.087952,,,,,,,
1522136788.976421,-0.381502,0.027121,-1.999325,0.142294,-0.128082,-0.024733,-0.372178,-0.027118,-0.927765,-0.056869,0.027621,-0.095047,-2.292145,6.797026,9.385986,,,,,,,
1522136789.006389,-0.382359,0.030579,-1.998759,0.056616,0.045369,-0.029235,-0.372936,-0.030575,-0.927353,-0.001881,0.067241,-0.042069,0.783737,7.606977,8.184265,,,,,,,
1522136789.036357,-0.382063,0.032002,-1.998986,0.072085,-0.065270,-0.018447,-0.372644,-0.031997,-0.927422,0.009165,0.020782,0.072960,3.029099,8.943861,5.180054,,,,,,,
1522136789.066326,-0.385841,0.035916,-1.997776,0.173203,-0.128255,-0.012979,-0.376096,-0.035908,-0.925884,-0.010348,-0.023677,0.152431,4.142471,9.086683,3.005066,,,,,,,
1522136789.096294,-0.387206,0.040371,-1.996132,0.114181,0.056730,-0.002567,-0.377294,-0.040360,-0.925213,-0.047007,-0.000381,0.120678,4.203598,10.356977,-1.424988,,,,,,,
1522136789.126262,-0.381049,0.039275,-1.996805,-0.130484,0.232796,-0.022099,-0.371607,-0.039265,-0.927559,-0.046606,0.012592,-0.111153,3.816147,10.281767,-3.374878,,,,,,,
1522136789.156230,-0.377388,0.035515,-1.999799,-0.128119,0.015150,-0.049583,-0.368261,-0.035508,-0.929043,-0.044749,0.011933,-0.170596,0.799744,10.442350,-6.377075,,,,,,,
1522136789.186182,-0.380651,0.035600,-2.000460,0.077886,-0.171690,0.004032,-0.371289,-0.035592,-0.927834,-0.019244,0.031610,-0.053001,-1.235214,9.401579,-6.298889,,,,,,,
1522136789.216150,-0.384393,0.038081,-1.998480,0.086744,-0.056165,0.043348,-0.374724,-0.038071,-0.926354,0.012847,0.041703,0.038536,-3.953049,7.838438,-6.669006,,,,,,,
1522136789.246118,-0.383283,0.038834,-1.997447,0.004353,0.094156,0.002643,-0.373685,-0.038824,-0.926742,0.020734,0.008001,0.058669,-4.185959,6.640165,-5.989319,,,,,,,
1522136789.276086,-0.380299,0.038766,-1.997267,0.023361,0.077979,0.029314,-0.370919,-0.038757,-0.927855,-0.002052,-0.059434,0.026717,-3.818298,5.589048,-5.459900,,,,,,,
1522136789.306055,-0.380754,0.039840,-1.994652,0.077978,-0.064905,0.079583,-0.371326,-0.039829,-0.927647,-0.049679,-0.039028,0.000340,-4.058670,3.416182,-4.401367,,,,,,,
1522136789.336023,-0.382487,0.038838,-1.993027,-0.100014,-0.035529,0.045322,-0.372948,-0.038828,-0.927039,-0.051216,-0.029532,-0.069558,-4.362701,2.742994,-3.948792,,,,,,,
1522136789.365991,-0.381706,0.033274,-1.994933,-0.245596,0.065047,-0.000710,-0.372298,-0.033267,-0.927516,-0.021638,-0.009747,-0.080846,-3.999664,1.316755,-3.567932,,,,,,,
1522136789.395959,-0.380925,0.028779,-1.996633,-0.077332,-0.017301,0.012297,-0.371626,-0.028775,-0.927936,0.008527,-0.004444,0.005771,-4.458176,0.194273,-3.113708,,,,,,,
1522136789.425928,-0.382666,0.030104,-1.995755,0.115715,-0.061326,0.011409,-0.373225,-0.030100,-0.927252,0.019450,-0.018560,0.084020,-3.342941,-0.785753,-3.109253,,,,,,,
1522136789.455896,-0.382700,0.033168,-1.993878,0.096916,0.054415,0.030455,-0.373221,-0.033162,-0.927149,0.001852,-0.033961,0.094843,-4.094681,-1.456545,-2.281921,,,,,,,
1522136789.485864,-0.379662,0.034128,-1.992248,0.005455,0.135380,0.032441,-0.370391,-0.034121,-0.928248,-0.008149,-0.041883,-0.005864,-3.348297,-2.358995,-1.377930,,,,,,,
1522136789.515833,-0.377271,0.032686,-1.992429,-0.085656,0.017906,-0.001612,-0.368187,-0.032680,-0.929176,-0.045158,-0.005284,-0.152519,-2.519730,-2.137499,-1.153381,,,,,,,
1522136789.545801,-0.378159,0.028365,-1.994086,-0.195879,-0.024455,0.013284,-0.369061,-0.028362,-0.928971,-0.028949,0.025157,-0.127120,-4.240143,-2.353624,-0.028381,,,,,,,
1522136789.575769,-0.379164,0.025625,-1.995343,0.012269,-0.066215,-0.014227,-0.370022,-0.025622,-0.928669,-0.010822,0.015811,0.012745,-3.785645,-2.130297,0.345947,,,,,,,
1522136789.605737,-0.382202,0.030144,-1.994167,0.207529,-0.105909,-0.026842,-0.372794,-0.030139,-0.927424,0.012672,-0.001049,0.072092,-3.090897,-1.007006,1.766785,,,,,,,
1522136789.635706,-0.382988,0.033492,-1.993141,0.019034,0.046218,0.013363,-0.373483,-0.033486,-0.927031,0.006677,-0.034111,0.047591,-2.332520,-0.709520,2.666016,,,,,,,
1522136789.665674,-0.380300,0.030074,-1.993689,-0.168715,0.088107,0.017438,-0.371031,-0.030069,-0.928133,-0.010316,0.015848,-0.035353,-1.267288,0.186735,3.712952,,,,,,,
1522136789.695642,-0.379674,0.026985,-1.994679,-0.029347,-0.040722,0.002760,-0.370483,-0.026982,-0.928446,-0.041825,0.001942,-0.055868,1.142914,1.974607,2.432007,,,,,,,
1522136789.725610,-0.382555,0.028696,-1.994150,0.078190,-0.103695,0.005032,-0.373138,-0.028693,-0.927331,-0.046830,0.004675,-0.101325,0.996796,2.500044,2.204834,,,,,,,
1522136789.755579,-0.384913,0.028139,-1.993993,-0.112621,-0.035218,0.005886,-0.375330,-0.028136,-0.926463,-0.004049,0.049269,-0.049245,0.856186,4.523863,0.396667,,,,,,,
1522136789.785547,-0.383628,0.023407,-1.996731,-0.162071,0.060932,-0.050718,-0.374184,-0.023405,-0.927058,0.027352,0.039579,0.084224,1.235794,5.571180,-0.582336,,,,,,,
1522136789.815515,-0.384447,0.025312,-1.998756,0.197230,-0.114905,-0.105682,-0.374926,-0.025309,-0.926708,0.022052,0.022898,0.137920,0.349579,7.224714,-1.039368,,,,,,,
1522136789.845483,-0.389529,0.037034,-1.997297,0.463945,-0.144344,-0.092672,-0.379492,-0.037026,-0.924453,-0.003107,0.021065,0.184157,-0.172256,7.676832,-1.266479,,,,,,,
1522136789.875452,-0.387885,0.047371,-1.994900,0.141787,0.228977,-0.028287,-0.377807,-0.047353,-0.924672,-0.013916,0.033422,-0.076808,-0.021545,8.649641,-2.770325,,,,,,,
1522136789.905420,-0.380117,0.040322,-1.997573,-0.492924,0.190792,0.036272,-0.370728,-0.040311,-0.927866,-0.037903,0.030820,-0.253363,-1.292603,8.955519,-2.622131,,,,,,,
1522136789.935388,-0.378206,0.028382,-2.001070,-0.202550,-0.055397,0.035676,-0.369105,-0.028378,-0.928953,-0.045797,0.033078,-0.067537,-1.598740,8.656370,-3.146118,,,,,,,
1522136789.965356,-0.383090,0.031977,-1.998514,0.297722,-0.158654,0.036152,-0.373597,-0.031972,-0.927039,-0.013137,0.002995,0.029838,-1.539627,7.829832,-4.417786,,,,,,,
1522136789.995325,-0.382938,0.037333,-1.994596,0.086391,0.117988,0.058097,-0.373387,-0.037324,-0.926924,0.018956,-0.000152,0.035200,-1.999191,6.782057,-4.263855,,,,,,,
1522136790.025262,-0.378044,0.035387,-1.994426,-0.104474,0.131471,0.021713,-0.368872,-0.035379,-0.928806,0.042075,-0.019674,0.037830,-2.014450,4.982573,-3.806641,,,,,,,
1522136790.055231,-0.377690,0.033828,-1.993496,0.023590,-0.048848,0.081659,-0.368563,-0.033821,-0.928987,-0.002882,-0.076500,0.068757,-1.421051,4.230055,-3.653320,,,,,,,
1522136790.085199,-0.379440,0.033354,-1.990408,-0.025431,-0.010571,0.096498,-0.370194,-0.033348,-0.928355,-0.039367,-0.019615,-0.001821,-1.510834,1.981749,-2.369385,,,,,,,
1522136790.115167,-0.376541,0.027939,-1.991126,-0.280366,0.168194,0.000230,-0.367562,-0.027935,-0.929579,-0.008140,0.034512,-0.070467,-0.841095,1.453733,-2.366943,,,,,,,
1522136790.145135,-0.372775,0.022930,-1.995228,-0.064804,0.024947,-0.103894,-0.364105,-0.022928,-0.931075,0.011002,0.027292,0.073302,0.722473,0.621183,-2.887817,,,,,,,
1522136790.175095,-0.378350,0.030486,-1.995002,0.393843,-0.242298,-0.041473,-0.369216,-0.030481,-0.928843,0.011520,-0.060492,0.140177,0.718246,0.470747,-3.337219,,,,,,,
1522136790.205063,-0.381175,0.038326,-1.989710,0.149706,0.055583,0.146643,-0.371738,-0.038317,-0.927546,0.013111,-0.032744,0.054026,2.580856,0.535200,-5.511536,,,,,,,
1522136790.235031,-0.374777,0.031308,-1.985816,-0.333284,0.257309,0.191892,-0.365886,-0.031303,-0.930132,-0.002507,0.020561,-0.145200,2.278458,0.835646,-6.412903,,,,,,,
1522136790.265000,-0.369602,0.020128,-1.987764,-0.335224,0.106527,0.024758,-0.361171,-0.020126,-0.932282,-0.038274,-0.028213,-0.166214,1.742218,0.836195,-8.288147,,,,,,,
1522136790.294968,-0.368907,0.015307,-1.988273,-0.010201,-0.004937,0.046419,-0.360553,-0.015307,-0.932612,-0.061352,-0.024732,0.041850,0.456604,0.540693,-9.562622,,,,,,,
1522136790.324936,-0.369645,0.018855,-1.985866,0.213969,-0.037249,0.027445,-0.361220,-0.018853,-0.932289,-0.011171,-0.003974,0.067970,0.075012,0.691069,-10.913452,,,,,,,
1522136790.354904,-0.369622,0.022982,-1.984208,0.042845,0.071937,-0.026068,-0.361168,-0.022980,-0.932217,0.050041,-0.020904,0.023754,-4.127365,0.634672,-11.215271,,,,,,,
1522136790.384873,-0.365863,0.020745,-1.985835,-0.148231,0.115780,0.003574,-0.357678,-0.020743,-0.933614,0.022549,-0.034539,-0.049922,-5.624893,0.566938,-10.690735,,,,,,,
1522136790.414841,-0.365287,0.017071,-1.986469,-0.084979,-0.042855,0.022969,-0.357165,-0.017070,-0.933884,-0.022596,-0.004857,-0.059051,-6.962845,0.874464,-9.192627,,,,,,,
1522136790.444809,-0.367771,0.016698,-1.986239,0.029182,-0.092890,-0.004598,-0.359486,-0.016697,-0.933000,-0.047237,0.029102,-0.006178,-7.717316,0.427855,-9.191223,,,,,,,
1522136790.474777,-0.368388,0.018908,-1.986932,0.062122,0.026543,-0.076085,-0.360047,-0.018907,-0.932742,-0.011550,0.042207,-0.011808,-8.171463,0.054823,-9.264954,,,,,,,
1522136790.504746,-0.367122,0.021889,-1.989156,0.067744,0.045932,-0.114464,-0.358845,-0.021887,-0.933140,0.025287,0.028463,0.016590,-9.831100,-1.361956,-8.510132,,,,,,,
1522136790.534714,-0.366631,0.025007,-1.990249,0.113893,-0.018667,-0.011007,-0.358360,-0.025004,-0.933248,-0.000832,0.005122,0.033071,-11.335327,-3.003145,-6.479370,,,,,,,
1522136790.564682,-0.365026,0.026871,-1.987955,0.028957,0.176532,0.065449,-0.356844,-0.026867,-0.933777,-0.038023,0.012784,-0.058106,-12.460846,-3.821810,-5.201599,,,,,,,
1522136790.594650,-0.356395,0.021635,-1.986774,-0.246180,0.294867,0.106687,-0.348816,-0.021634,-0.936941,-0.079941,0.034695,-0.162745,-11.550644,-4.647829,-2.122864,,,,,,,
1522136790.624619,-0.349698,0.015226,-1.986311,-0.122441,0.196199,0.041875,-0.342574,-0.015225,-0.939367,-0.029466,0.032803,-0.121867,-11.771713,-5.245180,-0.470581,,,,,,,
1522136790.654587,-0.345662,0.014426,-1.985308,0.051092,0.101107,0.054885,-0.338784,-0.014425,-0.940753,0.001015,-0.003763,0.022281,-10.565903,-5.025011,0.129150,,,,,,,
1522136790.684555,-0.343182,0.017234,-1.982433,0.176996,0.089067,0.060318,-0.336435,-0.017233,-0.941548,0.045953,0.004782,0.153600,-9.878799,-4.352205,1.026794,,,,,,,
1522136790.714523,-0.342594,0.026122,-1.977874,0.417968,-0.010183,0.036089,-0.335816,-0.026119,-0.941565,0.024476,-0.011371,0.152288,-9.651855,-4.203142,1.101318,,,,,,,
1522136790.744492,-0.339384,0.034481,-1.973178,0.161642,0.256873,0.078251,-0.332708,-0.034474,-0.942399,-0.005854,-0.008251,0.090012,-8.372406,-4.432772,2.227844,,,,,,,
1522136790.774460,-0.325642,0.028665,-1.972363,-0.386827,0.556869,0.072215,-0.319785,-0.028661,-0.947056,-0.074654,0.023717,-0.077755,-8.961716,-4.128847,3.501343,,,,,,,
1522136790.804428,-0.313572,0.016335,-1.974887,-0.364648,0.242434,0.051234,-0.308417,-0.016334,-0.951110,-0.042107,0.000709,-0.172547,-6.255188,-4.738924,5.605164,,,,,,,
1522136790.834397,-0.312012,0.012143,-1.974264,0.041892,-0.043407,0.057159,-0.306951,-0.012143,-0.951647,-0.001124,-0.020313,-0.109083,-4.977692,-4.669374,5.905518,,,,,,,
1522136790.864365,-0.311071,0.013667,-1.972892,0.005512,0.121718,0.010082,-0.306049,-0.013666,-0.951917,0.015644,0.012522,0.041150,-0.999420,-3.937960,5.229553,,,,,,,
1522136790.894333,-0.305065,0.013131,-1.972755,0.030487,0.207761,0.004689,-0.300329,-0.013131,-0.953745,0.042746,0.023949,0.100839,0.872620,-3.422731,3.878479,,,,,,,
1522136790.924301,-0.306284,0.021509,-1.971741,0.443147,-0.231614,-0.068082,-0.301448,-0.021507,-0.953239,0.030925,-0.044456,0.127479,2.975021,-1.559893,1.172058,,,,,,,
1522136790.954270,-0.311503,0.034715,-1.967443,0.384638,-0.034705,0.059531,-0.306305,-0.034708,-0.951300,0.025711,-0.062124,0.097311,2.447922,-1.183504,0.195312,,,,,,,
1522136790.984238,-0.307377,0.034220,-1.963959,-0.314616,0.299144,0.128999,-0.302382,-0.034213,-0.952572,0.006576,0.010165,-0.004841,1.323074,-0.354799,-1.158630,,,,,,,
1522136791.014206,-0.291048,0.012079,-1.968705,-0.895403,0.630884,0.001439,-0.286935,-0.012078,-0.957873,-0.018057,0.034646,-0.193692,1.327255,0.244886,-1.460999,,,,,,,
1522136791.044174,-0.279291,-0.006220,-1.974635,-0.355087,0.153619,-0.015796,-0.275669,0.006220,-0.961232,-0.036373,-0.003962,-0.179424,-0.838364,1.004927,-1.165161,,,,,,,
1522136791.074143,-0.283184,-0.003415,-1.974383,0.304144,-0.228365,-0.026637,-0.279412,0.003415,-0.960165,-0.014579,0.015582,-0.015101,-1.564529,2.809156,-0.197693,,,,,,,
1522136791.104111,-0.287885,0.007076,-1.972939,0.331485,-0.128275,-0.065078,-0.283918,-0.007076,-0.958822,0.014631,0.016017,0.083059,-0.954361,3.781492,-0.126282,,,,,,,
1522136791.134079,-0.290253,0.013900,-1.972652,0.124729,-0.029062,-0.049340,-0.286167,-0.013900,-0.958078,0.008961,-0.013093,0.095102,0.871780,5.499769,1.367737,,,,,,,
1522136791.164047,-0.288207,0.011402,-1.974168,-0.238939,0.119212,-0.000751,-0.284215,-0.011402,-0.958692,-0.006251,0.003330,-0.051394,1.853317,6.469816,0.839355,,,,,,,
1522136791.194014,-0.284303,0.003667,-1.976062,-0.188753,0.128611,0.005666,-0.280486,-0.003667,-0.959850,-0.032471,0.048574,-0.091068,4.178162,7.582487,-1.038879,,,,,,,
1522136791.223982,-0.284762,0.005643,-1.976676,0.210862,-0.126907,-0.067294,-0.280925,-0.005643,-0.959713,-0.004659,0.031553,-0.011464,3.424576,8.034513,-2.391113,,,,,,,
1522136791.253950,-0.289083,0.013464,-1.976937,0.216324,-0.113008,-0.080096,-0.285047,-0.013464,-0.958418,0.004988,0.005407,0.085387,1.465317,8.640776,-4.944519,,,,,,,
1522136791.283918,-0.289430,0.016295,-1.977410,0.014947,0.044351,-0.022862,-0.285368,-0.016294,-0.958279,0.023451,0.016966,0.108700,0.717148,8.869078,-5.020813,,,,,,,
1522136791.313887,-0.285663,0.014167,-1.977870,-0.105366,0.160222,0.013160,-0.281765,-0.014166,-0.959378,0.039593,-0.004938,-0.017337,-2.421906,8.660368,-2.846497,,,,,,,
1522136791.343855,-0.281569,0.010924,-1.978074,-0.098210,0.115415,0.035588,-0.277846,-0.010924,-0.960563,-0.016129,-0.011079,-0.155297,-2.643265,8.212721,-1.494873,,,,,,,
1522136791.373823,-0.280819,0.009970,-1.976968,0.046259,-0.039062,0.042240,-0.277129,-0.009970,-0.960780,-0.030534,0.013769,-0.160588,-1.884293,8.435423,-0.370361,,,,,,,
1522136791.403791,-0.281961,0.011196,-1.976394,0.012515,-0.015185,-0.017477,-0.278222,-0.011196,-0.960451,-0.002815,0.021221,-0.020979,-0.906906,7.907316,0.907288,,,,,,,
1522136791.433760,-0.282810,0.011776,-1.977931,0.013822,-0.041278,-0.085642,-0.279035,-0.011776,-0.960208,0.021482,0.019726,0.123096,0.366837,8.051130,0.457336,,,,,,,
1522136791.463728,-0.284138,0.014686,-1.980093,0.149361,-0.053319,-0.084458,-0.280300,-0.014686,-0.959800,0.025325,-0.022744,0.163306,1.189682,8.421446,-0.518799,,,,,,,
1522136791.493696,-0.285447,0.021248,-1.977925,0.235185,-0.018507,0.072206,-0.281522,-0.021246,-0.959319,0.040144,-0.025766,0.116393,0.362915,8.424864,-0.819214,,,,,,,
1522136791.523665,-0.283134,0.021259,-1.974733,-0.196504,0.175759,0.101522,-0.279303,-0.021257,-0.959967,0.015158,0.012240,-0.014291,0.965424,8.946699,-1.270996,,,,,,,
1522136791.553633,-0.277459,0.009371,-1.976176,-0.467433,0.168331,0.044853,-0.273901,-0.009371,-0.961712,-0.023813,0.009676,-0.167057,1.490860,8.719786,-0.819824,,,,,,,
1522136791.583601,-0.274522,0.001066,-1.978255,-0.088720,0.024357,-0.017574,-0.271086,-0.001066,-0.962554,-0.040498,0.010236,-0.110719,2.086304,9.165617,-2.321289,,,,,,,
1522136791.613569,-0.277182,0.006068,-1.977902,0.279101,-0.114549,-0.037411,-0.273642,-0.006068,-0.961812,0.012350,-0.012212,0.005757,2.520691,8.636930,-4.043945,,,,,,,
1522136791.643538,-0.278587,0.012944,-1.977409,0.136800,0.032592,-0.057913,-0.274974,-0.012944,-0.961364,0.050059,0.006352,0.029205,1.156906,8.790525,-6.595215,,,,,,,
1522136791.673506,-0.276069,0.013561,-1.978558,-0.034027,0.069987,-0.026113,-0.272550,-0.013560,-0.962045,0.049009,-0.004079,0.010248,-0.724319,8.797926,-7.646240,,,,,,,
1522136791.703474,-0.275985,0.012724,-1.978942,-0.033652,-0.037627,0.014489,-0.272472,-0.012723,-0.962079,0.005398,-0.007281,-0.020358,-2.907028,8.432081,-8.320862,,,,,,,
1522136791.733442,-0.276747,0.011465,-1.978320,-0.016535,-0.012269,0.029392,-0.273209,-0.011464,-0.961886,-0.022155,0.027944,-0.037336,-7.400665,8.303572,-7.047607,,,,,,,
1522136791.763411,-0.276969,0.012802,-1.978436,0.070267,-0.034244,-0.050433,-0.273419,-0.012802,-0.961809,-0.006061,0.028015,-0.059538,-9.117493,8.088026,-5.322632,,,,,,,
1522136791.793379,-0.278459,0.015192,-1.979720,0.047772,-0.058570,-0.057888,-0.274843,-0.015191,-0.961369,0.032625,-0.004554,-0.023144,-9.853455,7.195158,-1.494385,,,,,,,
1522136791.823347,-0.279918,0.015180,-1.980205,-0.044329,-0.030207,0.020867,-0.276245,-0.015179,-0.960967,0.021911,-0.004306,-0.022752,-9.314178,7.045362,1.131470,,,,,,,
1522136791.853315,-0.279126,0.012111,-1.979650,-0.098444,0.070706,0.044171,-0.275495,-0.012110,-0.961226,0.006391,0.016764,-0.044496,-6.680511,5.836973,4.587646,,,,,,,
1522136791.883284,-0.277030,0.010979,-1.980059,0.021411,0.034889,-0.040955,-0.273484,-0.010979,-0.961814,-0.003662,0.031060,-0.098504,-4.353806,5.377546,5.640625,,,,,,,
1522136791.913252,-0.277185,0.014063,-1.981795,0.113307,-0.020167,-0.102628,-0.273622,-0.014063,-0.961734,0.019792,0.013422,0.015384,-0.774780,3.860487,4.673523,,,,,,,
1522136791.943220,-0.278908,0.018411,-1.983326,0.123532,-0.083143,-0.068449,-0.275259,-0.018410,-0.961193,0.023489,0.010643,0.096951,0.936966,2.802336,4.228577,,,,,,,
1522136791.973188,-0.280449,0.020955,-1.983393,0.060541,-0.013250,-0.009972,-0.276727,-0.020954,-0.960720,0.066354,0.022449,0.065929,3.612091,1.887678,1.608582,,,,,,,
1522136792.003157,-0.277424,0.019010,-1.984180,-0.190738,0.158360,0.004581,-0.273830,-0.019009,-0.961590,0.051875,0.026119,-0.110798,2.852707,1.215635,1.160889,,,,,,,
1522136792.033125,-0.273176,0.011677,-1.985741,-0.205960,0.100975,0.008897,-0.269773,-0.011677,-0.962853,0.017072,0.033528,-0.077827,2.548523,1.066557,0.711304,,,,,,,
1522136792.063093,-0.273869,0.012081,-1.985816,0.160552,-0.098483,-0.015132,-0.270438,-0.012080,-0.962661,0.001319,-0.002080,0.033737,1.630692,0.318968,-1.011108,,,,,,,
1522136792.093061,-0.275573,0.017889,-1.985078,0.164251,-0.002745,-0.029087,-0.272054,-0.017888,-0.962115,0.025167,-0.002437,0.055301,-0.021027,0.101484,-0.936096,,,,,,,
1522136792.123030,-0.273177,0.018888,-1.985718,-0.077428,0.141355,-0.035805,-0.269744,-0.018887,-0.962747,0.077559,-0.004322,-0.044990,-2.873306,-0.260469,-0.711060,,,,,,,
1522136792.152998,-0.269189,0.014451,-1.986864,-0.145355,0.079344,0.039872,-0.265922,-0.014450,-0.963886,0.069053,0.005295,-0.071560,-3.091980,-0.258425,0.338806,,,,,,,
1522136792.182957,-0.271027,0.013958,-1.985047,0.077592,-0.159477,0.075436,-0.267695,-0.013957,-0.963402,0.010828,-0.027012,-0.112739,-3.073334,-0.554918,3.940002,,,,,,,
1522136792.212926,-0.274610,0.013011,-1.982671,-0.115246,-0.052836,0.089039,-0.271149,-0.013011,-0.962449,-0.003372,-0.021245,-0.102340,-1.113235,0.186720,4.388000,,,,,,,
1522136792.242894,-0.272522,0.006835,-1.982656,-0.204830,0.115823,0.011021,-0.269154,-0.006835,-0.963072,0.036061,0.019225,0.016463,4.518692,1.510328,3.335510,,,,,,,
1522136792.272862,-0.271763,0.006233,-1.984477,0.109810,-0.064953,-0.082326,-0.268425,-0.006233,-0.963280,0.064507,0.005638,0.112435,5.411285,1.804579,1.609802,,,,,,,
1522136792.302830,-0.274917,0.014269,-1.985092,0.303917,-0.106896,-0.078946,-0.271439,-0.014269,-0.962349,0.054398,-0.028730,0.128167,7.494186,2.615995,-2.592407,,,,,,,
1522136792.332799,-0.275437,0.019590,-1.984808,0.030890,0.046252,-0.002578,-0.271915,-0.019589,-0.962121,0.032657,-0.004062,-0.011649,8.088272,3.061598,-4.318848,,,,,,,
1522136792.362767,-0.273257,0.015924,-1.984767,-0.162665,0.039987,0.050560,-0.269834,-0.015923,-0.962775,0.015303,0.059197,-0.153604,6.434448,3.218138,-5.220337,,,,,,,
1522136792.392735,-0.275119,0.012678,-1.983800,-0.018266,-0.114592,0.071067,-0.271639,-0.012678,-0.962315,-0.031644,0.023039,-0.112956,4.475815,3.300383,-6.796631,,,,,,,
1522136792.422703,-0.277840,0.013055,-1.981690,0.006810,-0.028433,0.047567,-0.274256,-0.013054,-0.961568,0.003901,0.024911,-0.023738,4.543304,2.999327,-7.545410,,,,,,,
1522136792.452672,-0.275534,0.010941,-1.981680,-0.087302,0.116677,-0.002735,-0.272044,-0.010940,-0.962222,0.030406,0.013443,0.043887,2.441284,2.933561,-7.771179,,,,,,,
1522136792.482640,-0.273171,0.010273,-1.982232,0.033071,0.041020,-0.015355,-0.269772,-0.010273,-0.962869,0.070599,-0.053798,0.054178,1.985306,2.560240,-8.144897,,,,,,,
1522136792.512608,-0.272265,0.012934,-1.980842,0.111626,0.025430,0.058242,-0.268891,-0.012934,-0.963083,0.036927,-0.080755,-0.009420,0.855408,2.339872,-8.594604,,,,,,,
1522136792.542576,-0.270314,0.012311,-1.978198,-0.081489,0.080994,0.081490,-0.267014,-0.012311,-0.963614,0.016648,0.008557,-0.071924,0.778610,2.339918,-8.894653,,,,,,,
1522136792.572545,-0.268976,0.009766,-1.978780,-0.075912,-0.015848,-0.049477,-0.265732,-0.009766,-0.963997,0.035461,0.023575,-0.028038,-0.958481,1.896467,-10.168762,,,,,,,
1522136792.602513,-0.270957,0.011192,-1.981555,0.079982,-0.089126,-0.113207,-0.267636,-0.011191,-0.963455,0.019818,0.024894,0.104324,-2.466202,1.302946,-10.467163,,,,,,,
1522136792.632481,-0.273722,0.015897,-1.981681,0.167914,-0.089185,0.016846,-0.270282,-0.015896,-0.962649,0.051838,0.002301,0.122562,-7.116730,0.574995,-9.341553,,,,,,,
1522136792.662449,-0.272519,0.015358,-1.979152,-0.156240,0.138194,0.133588,-0.269126,-0.015358,-0.962982,0.065620,-0.013008,-0.025025,-9.212738,0.435331,-8.442017,,,,,,,
1522136792.692387,-0.267485,0.005404,-1.977000,-0.327161,0.131100,0.145189,-0.264303,-0.005404,-0.964424,0.027288,-0.009855,-0.190742,-9.656845,0.213682,-7.091370,,,,,,,
1522136792.722355,-0.266932,-0.002029,-1.976166,-0.153525,-0.055761,0.060268,-0.263772,0.002029,-0.964582,0.003976,-0.047913,-0.183611,-12.552872,0.680769,-3.044678,,,,,,,
1522136792.752324,-0.267276,-0.004323,-1.976491,-0.021233,0.051886,-0.032445,-0.264103,0.004323,-0.964484,0.009312,-0.008702,0.040717,-13.214783,0.910536,-1.245972,,,,,,,
1522136792.782292,-0.266347,-0.000779,-1.979200,0.179877,-0.008293,-0.159034,-0.263209,0.000779,-0.964738,0.056178,-0.019639,0.159791,-12.735977,1.362440,2.802551,,,,,,,
1522136792.812260,-0.267323,0.009166,-1.980855,0.376943,-0.045306,-0.103439,-0.264139,-0.009166,-0.964441,0.069299,-0.053487,0.107599,-10.991409,2.106611,4.825378,,,,,,,
1522136792.842229,-0.268523,0.017006,-1.979910,0.079663,-0.026171,0.001803,-0.265269,-0.017005,-0.964024,0.084590,0.005912,-0.044704,-6.013412,3.286909,7.523193,,,,,,,
1522136792.872197,-0.267617,0.011538,-1.980077,-0.275870,0.040188,0.059014,-0.264416,-0.011538,-0.964339,0.025281,0.063403,-0.138383,-4.279175,3.355528,8.948730,,,,,,,
1522136792.902165,-0.269463,0.006061,-1.980381,-0.066259,-0.165158,0.021023,-0.266208,-0.006061,-0.963896,-0.003704,0.053348,-0.165727,1.205475,4.230986,9.098022,,,,,,,
1522136792.932133,-0.275503,0.007891,-1.980558,0.108324,-0.136353,-0.058783,-0.272023,-0.007891,-0.962258,-0.033565,0.052905,0.011376,4.352921,4.740553,7.822510,,,,,,,
1522136792.962102,-0.275795,0.012158,-1.982164,0.141285,0.030653,-0.094097,-0.272291,-0.012157,-0.962138,-0.004823,0.019497,0.083384,7.781738,4.422132,4.825500,,,,,,,
1522136792.992070,-0.275357,0.017207,-1.983105,0.131435,0.007122,-0.068509,-0.271850,-0.017206,-0.962185,0.062424,0.002466,0.066220,8.666565,4.116117,2.802246,,,,,,,
1522136793.022038,-0.273794,0.018141,-1.983954,-0.051114,0.095261,0.003726,-0.270341,-0.018140,-0.962593,0.040224,0.005978,-0.016014,9.849533,3.808470,0.479004,,,,,,,
1522136793.052006,-0.272053,0.015289,-1.982891,-0.082951,-0.012508,0.078399,-0.268678,-0.015288,-0.963108,0.026308,0.018248,-0.138210,8.755630,1.934202,-3.714050,,,,,,,
1522136793.081975,-0.274798,0.013593,-1.981146,0.006319,-0.132650,0.055150,-0.271327,-0.013592,-0.962391,-0.010213,0.009381,-0.159497,7.006882,0.590361,-5.434509,,,,,,,
1522136793.111943,-0.278326,0.015990,-1.981603,0.075648,-0.087121,-0.097217,-0.274711,-0.015989,-0.961393,0.023032,0.001127,-0.117220,3.307907,-1.044268,-6.704834,,,,,,,
1522136793.141911,-0.279191,0.017562,-1.985188,0.005791,0.011004,-0.127190,-0.275536,-0.017561,-0.961130,0.074501,0.025893,0.009851,1.508286,-1.185869,-6.405212,,,,,,,
1522136793.171888,-0.279307,0.020108,-1.987713,0.094958,-0.051142,-0.083384,-0.275634,-0.020107,-0.961052,0.108703,0.036022,0.050560,0.908630,-1.782122,-5.353149,,,,,,,
1522136793.201857,-0.280577,0.022384,-1.988332,0.033824,-0.010201,0.007111,-0.276841,-0.022382,-0.960655,0.068009,0.016156,0.061225,1.804245,-1.861757,-5.952332,,,,,,,
1522136793.231825,-0.280425,0.022584,-1.986141,0.027989,-0.023515,0.090228,-0.276693,-0.022582,-0.960692,0.024847,0.017852,-0.038377,1.589264,-0.586245,-6.407532,,,,,,,
1522136793.261793,-0.281547,0.020920,-1.983904,-0.064868,-0.046467,0.063539,-0.277781,-0.020918,-0.960416,-0.014745,-0.010896,-0.025607,1.669785,0.687193,-7.612610,,,,,,,
1522136793.291761,-0.282169,0.020411,-1.984263,0.060618,-0.046015,-0.045054,-0.278381,-0.020409,-0.960253,-0.050354,-0.042533,-0.006971,0.923050,2.188597,-9.568970,,,,,,,
1522136793.321730,-0.284405,0.025670,-1.984035,0.187507,-0.061352,-0.025758,-0.280494,-0.025667,-0.959512,-0.035546,-0.042799,-0.099677,-0.726318,2.795118,-10.472229,,,,,,,
1522136793.351698,-0.282777,0.026346,-1.985396,-0.152928,0.172436,-0.058214,-0.278927,-0.026343,-0.959950,-0.001652,0.042884,-0.094340,-3.413193,4.830992,-11.681702,,,,,,,
1522136793.381666,-0.275042,0.017722,-1.988712,-0.346032,0.251266,-0.017947,-0.271545,-0.017721,-0.962262,0.056640,0.049231,-0.038287,-4.377838,5.960188,-11.836670,,,,,,,
1522136793.411634,-0.270910,0.011850,-1.990601,-0.097280,0.062262,0.026112,-0.267590,-0.011850,-0.963460,0.014095,0.012582,0.102009,-6.097824,5.968748,-11.012634,,,,,,,
1522136793.441603,-0.270029,0.012179,-1.988141,0.130674,-0.010853,0.065788,-0.266739,-0.012179,-0.963691,0.045624,0.000918,0.137931,-8.109512,6.354368,-9.440186,,,,,,,
1522136793.471571,-0.271646,0.019589,-1.986110,0.325239,-0.072239,-0.036305,-0.268266,-0.019588,-0.963145,0.048509,-0.037022,0.138194,-8.410385,5.681700,-8.462585,,,,,,,
1522136793.501539,-0.274441,0.029891,-1.984369,0.349648,-0.104223,-0.033043,-0.270888,-0.029887,-0.962146,0.081953,-0.029393,0.123523,-11.335831,4.421904,-6.434082,,,,,,,
1522136793.531508,-0.278557,0.038931,-1.982385,0.239417,-0.113768,0.006296,-0.274760,-0.038921,-0.960724,0.071497,-0.041798,0.146180,-12.384399,3.977598,-5.457764,,,,,,,
1522136793.561476,-0.275956,0.037360,-1.981988,-0.314161,0.271037,0.030008,-0.272277,-0.037351,-0.961493,0.074019,0.002088,0.008368,-13.713440,3.687544,-1.482300,,,,,,,
1522136793.591444,-0.261149,0.015999,-1.986922,-0.887296,0.521279,0.003769,-0.258158,-0.015999,-0.965970,0.061594,0.036857,-0.305225,-13.476120,3.613661,0.693115,,,,,,,
1522136793.621412,-0.253948,-0.002111,-1.992185,-0.327866,0.017441,-0.017695,-0.251227,0.002111,-0.967925,0.081625,-0.018071,-0.293046,-13.147751,3.616896,5.418335,,,,,,,
1522136793.651381,-0.260457,0.002680,-1.991512,0.445756,-0.338197,-0.035945,-0.257521,-0.002680,-0.966268,0.044356,0.003229,-0.027491,-11.864365,3.238157,7.445435,,,,,,,
1522136793.681349,-0.272045,0.019618,-1.988434,0.557805,-0.363910,-0.046487,-0.268650,-0.019617,-0.963037,0.028629,0.003000,0.107813,-9.013245,1.728025,10.152893,,,,,,,
1522136793.711317,-0.279209,0.030730,-1.986940,0.206565,-0.133431,-0.057639,-0.275465,-0.030725,-0.960819,0.032897,0.010736,0.108555,-7.738556,1.198118,10.980652,,,,,,,
1522136793.741285,-0.277677,0.029648,-1.988815,-0.229863,0.175676,-0.041213,-0.274002,-0.029643,-0.961272,-0.004303,0.032787,0.075423,-4.744675,0.360029,11.360535,,,,,,,
1522136793.771254,-0.270851,0.019027,-1.992346,-0.371068,0.152444,-0.010402,-0.267503,-0.019026,-0.963369,-0.015883,0.059843,-0.121714,-0.635971,-1.907396,12.421631,,,,,,,
1522136793.801222,-0.271435,0.010862,-1.992605,-0.193464,-0.101744,0.109330,-0.268099,-0.010862,-0.963330,-0.019087,-0.000735,-0.266361,1.604645,-2.667772,12.125793,,,,,,,
1522136793.831190,-0.273978,0.006728,-1.991023,-0.066781,-0.031407,0.035829,-0.270557,-0.006728,-0.962680,-0.015835,0.066176,-0.173932,5.263290,-2.911562,9.803589,,,,,,,
1522136793.861158,-0.273623,0.008335,-1.992774,0.107201,0.014945,-0.119657,-0.270212,-0.008335,-0.962764,-0.001456,0.018116,0.037242,5.554993,-2.390123,7.551636,,,,,,,
1522136793.891127,-0.274105,0.014611,-1.994999,0.229750,-0.037434,-0.119509,-0.270657,-0.014610,-0.962564,0.069454,0.009987,0.094339,7.194977,-1.500658,4.398926,,,,,,,
1522136793.921095,-0.274071,0.019929,-1.995377,0.064036,0.053533,0.000672,-0.270598,-0.019928,-0.962485,0.081145,0.002929,-0.022912,6.291382,-1.047945,3.046631,,,,,,,
1522136793.951063,-0.271685,0.016594,-1.993521,-0.149043,0.061688,0.125173,-0.268318,-0.016594,-0.963187,0.054695,0.009346,-0.085229,5.378784,-0.821321,0.570312,,,,,,,
1522136793.981031,-0.273004,0.013567,-1.990288,0.002894,-0.111852,0.118007,-0.269600,-0.013566,-0.962876,-0.002266,-0.003142,-0.121490,4.994644,-0.746233,-1.080200,,,,,,,
1522136794.011000,-0.275333,0.012193,-1.988116,-0.080692,-0.031404,0.041142,-0.271847,-0.012193,-0.962263,0.029186,-0.000716,-0.034960,3.333145,-1.040178,-2.504822,,,,,,,
1522136794.040968,-0.273243,0.008637,-1.989702,-0.124542,0.085125,-0.046368,-0.269846,-0.008636,-0.962864,0.040750,-0.026505,0.091450,2.058792,-0.659975,-3.032043,,,,,,,
1522136794.070936,-0.272590,0.007698,-1.991418,0.012690,-0.021501,-0.042962,-0.269219,-0.007698,-0.963048,0.060845,-0.032310,0.187810,1.756989,-0.658922,-3.332153,,,,,,,
1522136794.100905,-0.272975,0.009710,-1.992242,0.059797,0.008159,-0.044034,-0.269584,-0.009710,-0.962927,0.044059,-0.046275,0.169470,0.863159,0.094877,-3.560608,,,,,,,
1522136794.130873,-0.269814,0.009616,-1.993471,-0.049488,0.161424,-0.042133,-0.266540,-0.009615,-0.963775,0.045348,0.025225,0.081314,1.313278,0.467253,-4.161926,,,,,,,
1522136794.160841,-0.266522,0.010256,-1.993984,0.052190,0.028053,-0.000367,-0.263364,-0.010256,-0.964641,0.005689,0.049547,-0.201832,1.618042,1.440046,-4.990662,,,,,,,
1522136794.190790,-0.268311,0.011720,-1.993476,0.028241,-0.083416,-0.007728,-0.265085,-0.011720,-0.964153,0.032907,0.037125,-0.272007,-0.405701,1.748854,-5.292908,,,,,,,
1522136794.220759,-0.269446,0.011988,-1.994319,0.020191,-0.017249,-0.045096,-0.266178,-0.011988,-0.963849,0.020161,0.051432,-0.061420,-1.381882,2.352034,-6.495789,,,,,,,
1522136794.250727,-0.270567,0.015298,-1.994857,0.134293,-0.034619,-0.033271,-0.267246,-0.015298,-0.963506,0.073963,-0.018378,0.092031,-1.679184,3.027708,-7.173645,,,,,,,
1522136794.280695,-0.269875,0.017447,-1.993817,-0.006501,0.073647,0.033644,-0.266570,-0.017446,-0.963657,0.095534,-0.010905,0.052448,-3.482574,2.960371,-7.624268,,,,,,,
1522136794.310663,-0.266948,0.012272,-1.993330,-0.244737,0.095178,0.079258,-0.263768,-0.012272,-0.964507,0.058507,-0.023479,0.074539,-4.009048,2.812742,-7.623962,,,,,,,
