timestamp(unix),attitude_roll(radians),attitude_pitch(radians),attitude_yaw(radians),rotation_rate_x(radians/s),rotation_rate_y(radians/s),rotation_rate_z(radians/s),gravity_x(G),gravity_y(G),gravity_z(G),user_acc_x(G),user_acc_y(G),user_acc_z(G),magnetic_field_x(microteslas),magnetic_field_y(microteslas),magnetic_field_z(microteslas),latitude(degree),longitude(degree),altitude(meter),speed(m/s),course(degree),timestamp(unix),User Mark
1523695094.858602,-0.603369,-0.056229,-1.522352,0.041864,0.149025,-0.074900,-0.566522,0.056199,-0.822126,0.111810,0.013702,-0.105365,3.761536,21.650105,12.971069,,,,,,,
,,,,,,,,,,,,,,,,25.300965,51.443852,11.697007,4.570000,53.789062,1523695093.994512,
1523695094.888570,-0.602154,-0.060007,-1.524560,-0.202922,-0.000062,0.057197,-0.565398,0.059971,-0.822633,0.126952,0.005627,-0.079910,3.763779,21.875095,12.970154,,,,,,,
1523695094.918538,-0.601952,-0.065733,-1.526980,-0.192825,0.061831,0.016651,-0.565028,0.065686,-0.822450,0.093776,0.054538,-0.123137,4.440857,21.947269,13.195251,,,,,,,
1523695094.948507,-0.600419,-0.068910,-1.529936,-0.092475,-0.006018,-0.040749,-0.563646,0.068856,-0.823139,0.076204,0.054023,-0.127087,3.543732,22.101536,13.419189,,,,,,,
1523695094.978475,-0.600476,-0.067360,-1.531026,0.108401,-0.001050,-0.064040,-0.563753,0.067310,-0.823194,0.089830,0.049985,-0.068270,3.543304,21.876835,13.720032,,,,,,,
1523695095.008443,-0.599543,-0.062025,-1.529060,0.205474,0.020801,-0.030966,-0.563179,0.061985,-0.824004,0.107995,0.054379,-0.103852,3.920074,22.100071,13.644409,,,,,,,
1523695095.038411,-0.598173,-0.058511,-1.526372,0.110187,0.029138,0.026492,-0.562169,0.058477,-0.824950,0.097157,0.035258,-0.127137,3.466187,22.026585,13.119446,,,,,,,
,,,,,,,,,,,,,,,,25.300992,51.443889,11.638666,4.380000,53.085938,1523695094.994498,
1523695095.068372,-0.597424,-0.057577,-1.524461,0.035373,0.007027,0.023266,-0.561581,0.057545,-0.825416,0.072750,-0.005223,-0.114007,3.238800,21.877460,12.969910,,,,,,,
1523695095.098340,-0.597640,-0.057724,-1.525088,-0.042395,-0.033718,-0.047084,-0.561755,0.057692,-0.825288,0.044054,-0.034910,-0.039748,4.060318,21.798313,12.520691,,,,,,,
1523695095.128308,-0.597143,-0.057754,-1.528034,-0.053564,0.026190,-0.102548,-0.561344,0.057722,-0.825565,0.034305,-0.069303,-0.011379,3.758698,21.499897,12.746704,,,,,,,
1523695095.158276,-0.596748,-0.056714,-1.531567,-0.034460,-0.016258,-0.117408,-0.561051,0.056684,-0.825836,0.013596,-0.082318,-0.000626,3.306473,21.276936,12.747375,,,,,,,
1523695095.188245,-0.596822,-0.055549,-1.534254,-0.014303,0.024718,-0.057767,-0.561148,0.055521,-0.825849,-0.003518,-0.094797,0.013562,3.982040,21.423740,12.597107,,,,,,,
1523695095.218213,-0.593644,-0.056449,-1.535258,-0.107105,0.153938,0.035794,-0.558493,0.056419,-0.827586,-0.011926,-0.085487,-0.049886,3.605713,21.200581,12.747803,,,,,,,
1523695095.248181,-0.589876,-0.060589,-1.536206,-0.157829,0.060377,0.060363,-0.555236,0.060552,-0.829484,-0.002076,-0.065877,-0.101776,3.457809,21.276478,12.972412,,,,,,,
1523695095.278149,-0.591378,-0.063490,-1.537362,-0.065427,-0.112664,0.004133,-0.556381,0.063447,-0.828499,0.019394,-0.026597,-0.036140,4.436371,21.497303,13.197021,,,,,,,
1523695095.308118,-0.595517,-0.061790,-1.537657,0.087522,-0.116896,-0.052225,-0.559865,0.061751,-0.826277,0.031407,-0.008864,0.001936,3.610809,21.351170,13.347168,,,,,,,
1523695095.338086,-0.596264,-0.057676,-1.536731,0.131786,0.011438,-0.034203,-0.560620,0.057644,-0.826062,0.022580,0.024067,-0.034122,3.236420,21.502705,13.196411,,,,,,,
1523695095.368054,-0.594518,-0.057600,-1.535314,-0.119504,0.104518,0.117877,-0.559180,0.057568,-0.827043,0.045798,0.009250,-0.100692,4.136383,21.498646,13.196899,,,,,,,
1523695095.398022,-0.587464,-0.073400,-1.536273,-0.687858,0.325127,0.377227,-0.552759,0.073334,-0.830106,-0.025244,0.054611,-0.332309,3.692245,21.726246,13.795715,,,,,,,
1523695095.427991,-0.576642,-0.103188,-1.537475,-0.891757,0.335885,0.583769,-0.542311,0.103005,-0.833838,-0.033266,0.062645,-0.485483,3.845413,21.276829,15.072632,,,,,,,
1523695095.457959,-0.572886,-0.128755,-1.534669,-0.433645,-0.032030,0.456621,-0.537572,0.128400,-0.833382,0.023015,0.012149,-0.415046,5.126511,21.571598,15.597046,,,,,,,
1523695095.487927,-0.576737,-0.134487,-1.529343,0.150228,-0.236114,0.105645,-0.540367,0.134082,-0.830676,0.103340,-0.083636,-0.163602,4.376846,21.649891,15.521423,,,,,,,
1523695095.517895,-0.584577,-0.126794,-1.525658,0.332870,-0.260388,-0.133941,-0.547416,0.126455,-0.827249,0.125495,-0.100957,-0.024405,4.151382,21.875462,15.070374,,,,,,,
1523695095.547864,-0.590413,-0.113480,-1.525920,0.380451,-0.133625,-0.346078,-0.553122,0.113237,-0.825366,0.143165,-0.050584,0.055087,3.323715,21.878727,14.619934,,,,,,,
1523695095.577832,-0.592357,-0.097488,-1.531639,0.278407,-0.003564,-0.523155,-0.555666,0.097334,-0.825686,0.097688,-0.003447,0.123340,2.573288,22.106663,14.168640,,,,,,,
1523695095.607800,-0.592559,-0.084729,-1.546397,-0.125583,0.051488,-0.805873,-0.556481,0.084627,-0.826537,-0.130973,0.098860,0.249541,2.349197,22.107807,14.318542,,,,,,,
1523695095.637769,-0.588323,-0.075416,-1.579095,-0.304750,0.252587,-1.082188,-0.553388,0.075345,-0.829506,0.090543,0.011966,0.114296,2.053101,22.409290,14.467163,,,,,,,
1523695095.667737,-0.591686,-0.063400,-1.599856,0.065351,-0.219278,-0.597687,-0.556640,0.063358,-0.828332,0.154784,0.321454,0.209054,0.474716,22.116322,14.392578,,,,,,,
1523695095.697705,-0.599910,-0.055091,-1.607767,0.100155,-0.365381,-0.232038,-0.563710,0.055063,-0.824133,0.153401,0.229742,0.284063,0.917511,21.663883,13.944641,,,,,,,
1523695095.727673,-0.610477,-0.048793,-1.608294,0.171384,-0.267711,-0.091442,-0.572575,0.048774,-0.818398,0.239826,0.090402,0.387978,1.068695,21.962894,13.643494,,,,,,,
1523695095.757642,-0.612639,-0.042420,-1.608188,0.235317,0.107634,-0.150369,-0.574511,0.042407,-0.817396,0.254763,0.027646,0.458646,0.462280,21.590183,13.194702,,,,,,,
1523695095.787610,-0.602844,-0.024167,-1.603945,0.843663,0.365333,-0.292955,-0.566821,0.024165,-0.823484,0.193194,0.034490,0.347837,1.063889,21.887241,12.968750,,,,,,,
1523695095.817578,-0.594472,0.006745,-1.594923,1.073195,0.297154,-0.349192,-0.560057,-0.006745,-0.828424,0.153365,0.024735,0.271402,1.209381,21.885838,12.218872,,,,,,,
1523695095.847546,-0.581561,0.034820,-1.587088,0.705202,0.487586,-0.251625,-0.548995,-0.034813,-0.835098,0.029159,-0.009865,0.122955,0.981979,21.961338,11.693481,,,,,,,
1523695095.877545,-0.570261,0.037066,-1.587540,-0.465660,0.282895,0.109977,-0.539480,-0.037058,-0.841181,-0.037867,-0.102987,-0.222845,2.335678,22.105625,12.068542,,,,,,,
1523695095.907513,-0.564753,0.006160,-1.595195,-1.253304,0.081305,0.495326,-0.535196,-0.006160,-0.844704,-0.090018,-0.151539,-0.269127,2.259796,21.881184,12.294373,,,,,,,
1523695095.937482,-0.563131,-0.031347,-1.596179,-0.799515,0.089386,0.699161,-0.533573,0.031341,-0.845171,-0.137295,-0.206970,-0.276045,2.862320,21.729160,12.970276,,,,,,,
1523695095.967450,-0.554664,-0.049140,-1.583455,0.094185,0.459749,0.601435,-0.526021,0.049120,-0.849050,-0.132121,-0.350069,-0.273814,3.688919,22.249836,12.368652,,,,,,,
1523695095.997418,-0.546101,-0.040929,-1.565509,0.780266,0.105078,0.172892,-0.518924,0.040917,-0.853839,-0.054090,-0.300591,-0.189954,3.912857,22.323521,12.068481,,,,,,,
1523695096.027386,-0.542712,-0.019013,-1.554476,0.754467,0.105645,-0.202193,-0.516366,0.019012,-0.856155,-0.046988,-0.216797,-0.249329,3.232925,22.325764,11.243103,,,,,,,
1523695096.057369,-0.544259,-0.003209,-1.555965,0.104950,-0.157300,-0.357978,-0.517780,0.003209,-0.855506,-0.074840,-0.203755,-0.345712,2.861694,22.477802,11.617310,,,,,,,
,,,,,,,,,,,,,,,,25.301011,51.443914,11.451165,3.130000,56.601562,1523695095.994483,
1523695096.087337,-0.549562,-0.014711,-1.572011,-1.174286,-0.171631,-0.134086,-0.522256,0.014711,-0.852660,-0.132971,-0.108034,-0.423402,2.196609,22.931690,12.515198,,,,,,,
1523695096.117305,-0.556514,-0.059065,-1.599336,-1.923730,-0.171112,0.058214,-0.527307,0.059031,-0.847620,-0.182226,0.142233,-0.187720,2.203369,22.932789,13.640198,,,,,,,
1523695096.147274,-0.559183,-0.101109,-1.624220,-1.287533,0.157431,-0.042875,-0.527784,0.100937,-0.843358,-0.401308,0.403793,-0.118755,2.287552,22.859058,15.290527,,,,,,,
1523695096.177242,-0.550974,-0.111941,-1.644927,-0.138073,0.367777,-0.596299,-0.520240,0.111707,-0.846681,-0.422783,0.362307,-0.374053,1.390274,22.863544,15.740051,,,,,,,
1523695096.207210,-0.558649,-0.093903,-1.651372,0.518235,-0.606742,-0.357226,-0.527705,0.093765,-0.844235,-0.096700,0.402954,-0.129246,0.932938,22.714634,14.765442,,,,,,,
1523695096.237178,-0.576303,-0.087744,-1.650137,-0.049323,-0.444956,0.107829,-0.542831,0.087631,-0.835256,0.072280,0.241531,0.157842,1.687714,23.236164,14.688721,,,,,,,
1523695096.267147,-0.578003,-0.098896,-1.648312,-0.376582,0.151550,0.320095,-0.543682,0.098735,-0.833461,0.160549,-0.055934,0.182125,1.902969,22.484821,14.316833,,,,,,,
1523695096.297115,-0.571633,-0.111491,-1.645711,-0.229934,0.175982,0.269034,-0.537646,0.111260,-0.835796,0.066851,-0.132287,0.172573,1.830811,22.635365,14.541199,,,,,,,
1523695096.327083,-0.564746,-0.119090,-1.643191,-0.126340,0.293398,0.158170,-0.531410,0.118809,-0.838740,-0.005852,-0.091831,0.199702,1.752655,22.410572,14.392090,,,,,,,
1523695096.357051,-0.553026,-0.121524,-1.641848,0.029620,0.375854,0.011167,-0.521390,0.121225,-0.844662,-0.058322,-0.089228,0.066601,2.352798,22.333027,14.542664,,,,,,,
1523695096.387020,-0.546532,-0.114797,-1.641286,0.342187,0.101199,-0.177997,-0.516306,0.114545,-0.848708,-0.013083,-0.109754,0.122176,2.649048,21.956684,14.544312,,,,,,,
1523695096.416988,-0.545625,-0.095783,-1.637990,0.778701,-0.035313,-0.262771,-0.516573,0.095636,-0.850884,0.075029,-0.125635,0.191902,3.251541,22.703144,13.716614,,,,,,,
1523695096.446956,-0.549227,-0.067572,-1.630607,0.998038,-0.203557,-0.291203,-0.520836,0.067521,-0.850981,0.167518,-0.073823,0.229567,2.649918,22.630711,13.566650,,,,,,,
1523695096.476924,-0.556893,-0.037678,-1.623008,0.939889,-0.312847,-0.292207,-0.528176,0.037669,-0.848297,0.213570,-0.029765,0.276917,2.641205,22.479542,12.367188,,,,,,,
1523695096.506893,-0.565485,-0.012115,-1.616126,0.761701,-0.226719,-0.238079,-0.535785,0.012115,-0.844266,0.260044,0.044846,0.315457,3.088928,22.701786,11.616516,,,,,,,
1523695096.536861,-0.568021,0.005910,-1.612166,0.450603,-0.013814,-0.182054,-0.537955,-0.005910,-0.842951,0.256949,0.069935,0.250864,2.562134,22.703846,11.316284,,,,,,,
1523695096.566829,-0.570167,0.014423,-1.611832,0.070709,-0.122836,-0.108702,-0.539715,-0.014422,-0.841722,0.215664,0.080187,0.230531,1.960373,22.481632,11.391907,,,,,,,
1523695096.596797,-0.574019,0.010384,-1.616019,-0.346021,-0.070497,0.000682,-0.542981,-0.010384,-0.839679,0.120999,0.091911,0.226642,2.561554,22.329380,11.842773,,,,,,,
1523695096.626766,-0.572198,-0.000288,-1.621391,-0.380758,0.114039,0.064401,-0.541480,0.000288,-0.840712,-0.012948,0.052416,0.129301,1.439911,22.260105,12.517517,,,,,,,
1523695096.656734,-0.565993,-0.009394,-1.624320,-0.232989,0.245205,0.096349,-0.536229,0.009394,-0.844018,-0.164881,-0.060023,-0.059653,1.294861,22.486210,12.966492,,,,,,,
1523695096.686702,-0.560620,-0.014943,-1.622433,-0.087771,0.127290,0.193527,-0.531651,0.014942,-0.846830,-0.234325,-0.139225,-0.238223,1.524506,22.860325,13.115112,,,,,,,
1523695096.716670,-0.559745,-0.025052,-1.619810,-0.397717,-0.071325,0.289399,-0.530803,0.025049,-0.847123,-0.220342,-0.137186,-0.352919,0.619751,22.339466,13.191772,,,,,,,
1523695096.746639,-0.564277,-0.043928,-1.620854,-0.594932,-0.205994,0.319222,-0.534288,0.043914,-0.844159,-0.179030,-0.154739,-0.262271,0.625153,22.564976,13.715820,,,,,,,
1523695096.776607,-0.575530,-0.060150,-1.620153,-0.301296,-0.453157,0.305839,-0.543295,0.060114,-0.837385,-0.149424,-0.182093,-0.129778,1.526917,22.785831,13.640442,,,,,,,
1523695096.806575,-0.584673,-0.067988,-1.614473,0.019077,-0.210558,0.297309,-0.550651,0.067936,-0.831964,-0.167077,-0.236195,-0.103765,1.148331,22.562321,13.416138,,,,,,,
1523695096.836544,-0.587125,-0.068165,-1.605869,0.206235,-0.022211,0.193898,-0.552682,0.068112,-0.830602,-0.201316,-0.256924,-0.080668,1.219727,22.336765,13.192078,,,,,,,
1523695096.866512,-0.582306,-0.068934,-1.600582,-0.085917,0.242381,0.144407,-0.548644,0.068879,-0.833212,-0.276521,-0.186173,-0.146616,1.295609,22.561207,12.966187,,,,,,,
1523695096.896480,-0.574205,-0.080569,-1.603039,-0.563052,0.288108,0.158912,-0.541404,0.080482,-0.836900,-0.302544,-0.065208,-0.176223,1.070938,22.187885,13.642639,,,,,,,
1523695096.926448,-0.567622,-0.100242,-1.609623,-0.656425,0.182049,0.162153,-0.534928,0.100074,-0.838948,-0.245849,0.029061,-0.124278,2.270615,22.107563,13.718506,,,,,,,
1523695096.956417,-0.565579,-0.112830,-1.614521,-0.253788,0.037577,0.013423,-0.532496,0.112591,-0.838909,-0.193655,0.114017,-0.033833,3.174606,22.104176,14.393982,,,,,,,
1523695096.986385,-0.564125,-0.108812,-1.618081,0.299890,0.064830,-0.283461,-0.531514,0.108598,-0.840057,-0.028331,0.190917,-0.035370,2.347549,22.032673,14.168823,,,,,,,
1523695097.016384,-0.567224,-0.086528,-1.614271,0.967746,-0.253644,-0.259213,-0.535281,0.086420,-0.840239,0.198428,0.295462,0.046141,1.970612,22.108921,13.718323,,,,,,,
1523695097.046352,-0.576568,-0.053388,-1.599173,1.274015,-0.343706,-0.102259,-0.544372,0.053363,-0.837143,0.146561,0.210996,0.221908,2.568161,22.405323,12.817505,,,,,,,
,,,,,,,,,,,,,,,,25.301027,51.443945,11.509210,3.330000,57.656250,1523695096.994469,
1523695097.076307,-0.583361,-0.027833,-1.582899,0.709506,-0.123287,0.032421,-0.550618,0.027829,-0.834291,0.144292,0.088931,0.221453,2.715744,22.479145,12.292236,,,,,,,
1523695097.106275,-0.580752,-0.026413,-1.579033,-0.332551,0.195488,0.101640,-0.548460,0.026410,-0.835757,0.083235,0.029284,0.145831,2.339554,22.630375,11.841431,,,,,,,
1523695097.136244,-0.570754,-0.046735,-1.588810,-0.938764,0.470155,0.091325,-0.539676,0.046718,-0.840574,0.008502,0.062657,0.066892,2.120422,22.632343,12.816345,,,,,,,
1523695097.166212,-0.556152,-0.070427,-1.601223,-0.729243,0.468920,0.041404,-0.526613,0.070368,-0.847186,-0.070021,0.039541,-0.129682,2.350983,22.557346,13.866760,,,,,,,
1523695097.196180,-0.551770,-0.076256,-1.606538,0.092055,-0.132360,-0.119347,-0.522671,0.076182,-0.849122,-0.064350,-0.052714,-0.192855,2.872223,22.180012,13.868530,,,,,,,
1523695097.226148,-0.566642,-0.058808,-1.602595,0.783604,-0.600656,-0.259004,-0.535873,0.058774,-0.842248,-0.026489,-0.080365,0.044458,1.751144,22.709827,13.640869,,,,,,,
1523695097.256117,-0.579691,-0.038227,-1.597476,0.539990,-0.326386,-0.190197,-0.547364,0.038218,-0.836019,-0.005126,-0.039607,0.094625,1.743927,22.708652,12.440857,,,,,,,
1523695097.286085,-0.588511,-0.026688,-1.594137,0.300436,-0.259751,-0.059392,-0.554924,0.026685,-0.831471,-0.009254,-0.046659,0.088719,1.599182,23.234318,12.438660,,,,,,,
