timestamp(unix),attitude_roll(radians),attitude_pitch(radians),attitude_yaw(radians),rotation_rate_x(radians/s),rotation_rate_y(radians/s),rotation_rate_z(radians/s),gravity_x(G),gravity_y(G),gravity_z(G),user_acc_x(G),user_acc_y(G),user_acc_z(G),magnetic_field_x(microteslas),magnetic_field_y(microteslas),magnetic_field_z(microteslas),latitude(degree),longitude(degree),altitude(meter),speed(m/s),course(degree),timestamp(unix),User Mark
1523521530.916395,-0.816928,-0.113684,1.790538,-0.394049,-0.201139,0.054853,-0.724338,0.113440,-0.680044,0.042361,-0.057608,-0.311793,-15.090134,-22.396111,-1.310303,,,,,,,
,,,,,,,,,,,,,,,,25.319928,51.452763,13.837948,7.750000,268.593750,1523521529.999645,
1523521530.946364,-0.821319,-0.124073,1.784493,-0.326834,-0.092595,0.159220,-0.726415,0.123755,-0.676017,0.190969,-0.064521,-0.053643,-13.965500,-22.026848,-1.986206,,,,,,,
1523521530.976332,-0.826713,-0.131937,1.783585,-0.128863,-0.216450,0.172286,-0.729312,0.131554,-0.671409,0.201511,-0.090417,0.014060,-14.573868,-22.549629,-2.509460,,,,,,,
1523521531.006300,-0.831139,-0.135934,1.786652,0.094944,-0.103096,0.142501,-0.731883,0.135515,-0.667814,0.172145,-0.102160,-0.015947,-14.944366,-21.873360,-2.887390,,,,,,,
1523521531.036268,-0.832405,-0.132105,1.793815,0.374694,-0.013603,0.010490,-0.733106,0.131722,-0.667232,0.157377,-0.109932,-0.057302,-14.189453,-21.651283,-2.437866,,,,,,,
,,,,,,,,,,,,,,,,25.319924,51.452699,13.969296,6.560000,268.945312,1523521530.999658,
1523521531.066237,-0.830447,-0.122695,1.802796,0.389034,0.016546,-0.051329,-0.732681,0.122387,-0.669472,0.140960,-0.142346,-0.184364,-14.940598,-22.172234,-1.761169,,,,,,,
1523521531.096205,-0.829025,-0.120258,1.806347,-0.088772,0.062408,0.094245,-0.731945,0.119968,-0.670713,0.124401,-0.114536,-0.217546,-14.639709,-22.173439,-1.610962,,,,,,,
1523521531.126143,-0.827508,-0.130599,1.802665,-0.405630,0.014558,0.211266,-0.729975,0.130228,-0.670948,0.121256,-0.058023,-0.214245,-14.191238,-22.100838,-1.986023,,,,,,,
1523521531.156111,-0.826744,-0.139634,1.800191,-0.110645,-0.005841,0.135857,-0.728566,0.139181,-0.670681,0.156087,-0.046301,-0.201573,-14.869797,-22.098381,-2.586426,,,,,,,
1523521531.186079,-0.830321,-0.138730,1.804456,0.230187,-0.287689,0.051155,-0.731053,0.138285,-0.668155,0.202229,-0.046122,-0.120206,-15.174744,-22.322456,-3.035645,,,,,,,
1523521531.216047,-0.837524,-0.133673,1.810854,0.248930,-0.208791,0.006340,-0.736358,0.133275,-0.663331,0.210662,-0.039708,-0.090545,-14.567719,-22.249138,-1.985657,,,,,,,
1523521531.246016,-0.836475,-0.130725,1.814497,0.062305,0.071196,-0.000482,-0.735950,0.130353,-0.664364,0.172626,-0.031873,-0.188313,-14.798386,-22.773186,-2.058655,,,,,,,
1523521531.275984,-0.832729,-0.130493,1.814826,-0.010303,0.061844,-0.005849,-0.733478,0.130123,-0.667136,0.134998,-0.044628,-0.277535,-15.097031,-22.771614,-1.833862,,,,,,,
1523521531.305952,-0.831425,-0.129691,1.815014,0.047123,-0.009379,-0.022780,-0.732684,0.129328,-0.668163,0.129199,-0.061778,-0.238759,-14.797180,-22.698112,-1.983948,,,,,,,
1523521531.335921,-0.831255,-0.127538,1.817482,0.107578,-0.054391,0.012461,-0.732775,0.127193,-0.668473,0.135607,-0.044780,-0.169952,-15.322464,-22.995308,-1.533020,,,,,,,
1523521531.365889,-0.831580,-0.125889,1.820238,0.091792,0.001914,0.018792,-0.733146,0.125556,-0.668375,0.093238,-0.047584,-0.227178,-15.253754,-23.221275,-2.207153,,,,,,,
1523521531.395857,-0.831761,-0.123575,1.822421,0.118374,-0.084904,-0.035444,-0.733480,0.123261,-0.668436,0.064642,-0.078980,-0.300222,-15.546829,-23.069054,-1.307861,,,,,,,
1523521531.425825,-0.838695,-0.120348,1.824904,0.129885,-0.336999,-0.003214,-0.738389,0.120057,-0.663597,0.140839,-0.094438,-0.201179,-15.325150,-23.220360,-1.607117,,,,,,,
1523521531.455794,-0.846506,-0.118066,1.828967,0.169889,-0.166374,0.047788,-0.743753,0.117792,-0.657989,0.204370,-0.072641,-0.085419,-15.323959,-23.145287,-1.532410,,,,,,,
1523521531.485762,-0.842595,-0.114185,1.835309,0.306264,0.245564,0.049607,-0.741509,0.113937,-0.661192,0.206826,-0.104096,-0.115526,-15.322296,-23.294777,-1.006836,,,,,,,
1523521531.515730,-0.832920,-0.107924,1.844239,0.351011,0.221023,0.047537,-0.735591,0.107715,-0.668802,0.148601,-0.151569,-0.220434,-15.624802,-23.593330,-0.930786,,,,,,,
1523521531.545698,-0.827812,-0.105626,1.849433,0.024583,0.077160,0.071937,-0.732346,0.105430,-0.672716,0.134889,-0.146369,-0.253294,-14.644165,-23.297295,-0.481506,,,,,,,
1523521531.575675,-0.827996,-0.108062,1.848297,-0.140287,-0.100479,0.004867,-0.732279,0.107852,-0.672406,0.137888,-0.090625,-0.193607,-15.173019,-23.595070,-0.630615,,,,,,,
1523521531.605644,-0.831985,-0.109343,1.844870,-0.107266,-0.178820,-0.048307,-0.734853,0.109126,-0.669386,0.118855,-0.052866,-0.089266,-15.995148,-23.441139,-0.406555,,,,,,,
1523521531.635612,-0.835428,-0.108663,1.842866,-0.016049,-0.072837,-0.043007,-0.737208,0.108449,-0.666902,0.106104,-0.058889,-0.056792,-15.996490,-23.441368,-0.631592,,,,,,,
1523521531.665580,-0.833402,-0.108640,1.843216,0.022666,0.092217,0.045292,-0.735857,0.108426,-0.668395,0.081606,-0.064328,-0.088441,-15.696075,-23.442635,-0.556458,,,,,,,
1523521531.695518,-0.828842,-0.109836,1.845796,-0.001079,0.147930,0.141109,-0.732705,0.109616,-0.671656,0.045831,-0.074826,-0.146001,-15.920593,-23.441551,-0.481567,,,,,,,
1523521531.725486,-0.823686,-0.115493,1.847884,-0.112774,0.059658,0.191197,-0.728766,0.115237,-0.674993,0.125846,-0.047900,-0.113582,-15.318985,-23.369118,-0.331604,,,,,,,
1523521531.755455,-0.824437,-0.117159,1.851383,0.174301,-0.102835,0.076500,-0.729131,0.116891,-0.674314,0.152257,-0.047204,-0.058855,-16.151596,-24.040504,-0.479248,,,,,,,
1523521531.785423,-0.823843,-0.113167,1.857414,0.211358,0.028000,0.044429,-0.729067,0.112926,-0.675059,0.143267,-0.034938,-0.099615,-16.671616,-23.588097,-0.406311,,,,,,,
1523521531.815391,-0.822839,-0.111814,1.861752,0.081615,-0.061173,0.076399,-0.728500,0.111582,-0.675894,0.164947,-0.032984,0.034338,-15.840958,-23.515999,0.418762,,,,,,,
1523521531.845359,-0.825748,-0.110979,1.865128,0.129453,-0.155538,0.031767,-0.730531,0.110751,-0.673835,0.241670,-0.061114,0.155341,-16.066238,-23.589928,0.493958,,,,,,,
1523521531.875328,-0.830877,-0.108157,1.870940,0.217450,-0.227334,0.087306,-0.734205,0.107946,-0.670287,0.234267,-0.032857,0.257918,-17.575470,-24.558052,0.572083,,,,,,,
1523521531.905296,-0.840166,-0.107627,1.876108,0.027787,-0.370404,0.097977,-0.740443,0.107419,-0.663476,0.159342,-0.056409,0.338571,-17.576218,-24.408424,0.196472,,,,,,,
1523521531.935264,-0.848734,-0.113850,1.878655,-0.103647,-0.289271,0.394015,-0.745584,0.113604,-0.656653,0.302667,-0.199694,0.237342,-19.230331,-24.776054,0.122131,,,,,,,
1523521531.965233,-0.859355,-0.143921,1.895627,-0.508004,-0.388667,1.682026,-0.749589,0.143425,-0.646174,0.383286,0.031884,0.352747,-20.201569,-24.396675,0.120117,,,,,,,
1523521531.995201,-0.823040,-0.200371,1.900260,-1.068029,2.988986,1.023979,-0.718545,0.199033,-0.666389,0.270577,1.036639,-0.159462,-21.853775,-23.266502,-2.135254,,,,,,,
1523521532.025169,-0.658234,-0.085693,1.983291,8.047086,4.576489,-1.148747,-0.609475,0.085588,-0.788170,-0.727423,-0.617097,-1.844109,-21.016159,-24.166664,1.468811,,,,,,,
1523521532.055136,-0.567589,0.042458,2.062202,0.860620,2.105304,0.586233,-0.537116,-0.042445,-0.842438,-0.604028,-0.355473,-1.576858,-20.607086,-23.638710,6.266907,,,,,,,
,,,,,,,,,,,,,,,,25.319922,51.452649,13.812679,5.220000,268.242188,1523521531.999675,
1523521532.085106,-0.508525,-0.030571,2.043141,-3.235721,1.836633,0.498222,-0.486662,0.030566,-0.873054,0.494276,0.072003,-0.099953,-20.847733,-23.041237,2.664368,,,,,,,
1523521532.115073,-0.502441,-0.112505,2.018588,-2.143786,-0.199821,0.637468,-0.478521,0.112268,-0.870868,0.148779,-0.205575,0.015171,-21.392975,-23.266777,-0.335022,,,,,,,
1523521532.145041,-0.459039,-0.137652,2.029406,0.305464,2.203858,0.667779,-0.438895,0.137218,-0.887998,-0.032663,-0.270717,-0.356798,-21.923416,-22.142174,-3.114746,,,,,,,
1523521532.175009,-0.412772,-0.099138,2.057589,2.421939,-0.295487,0.081570,-0.399180,0.098976,-0.911514,0.059870,-0.353767,-0.294266,-20.939926,-21.920555,-2.065186,,,,,,,
1523521532.204978,-0.480218,-0.024633,2.084740,2.318682,-2.403487,-0.366041,-0.461832,0.024631,-0.886625,-0.129507,-0.396609,0.689649,-20.152695,-21.843025,4.009949,,,,,,,
1523521532.234946,-0.477061,0.012482,2.110306,0.871553,1.726703,0.623934,-0.459134,-0.012482,-0.888278,-0.050967,-0.437393,0.533389,-19.539490,-21.469200,5.583740,,,,,,,
1523521532.264884,-0.417780,0.011560,2.128204,-0.049992,1.646112,0.170473,-0.405705,-0.011560,-0.913930,0.124409,-0.120444,0.304906,-19.541306,-21.020241,4.531921,,,,,,,
1523521532.294852,-0.400746,0.036610,2.121221,1.647239,0.011988,-0.758952,-0.389844,-0.036602,-0.920152,-0.036135,-0.497166,0.432939,-19.093719,-21.397026,4.758667,,,,,,,
1523521532.324821,-0.452478,0.059079,2.131118,-0.557107,-2.377808,0.781491,-0.436433,-0.059044,-0.897797,-0.182220,-0.615775,-0.109131,-19.075699,-21.394112,7.758667,,,,,,,
1523521532.354789,-0.489225,0.023860,2.118675,-1.892585,-0.895375,-0.427163,-0.469808,-0.023857,-0.882445,0.077199,-0.150718,-0.145158,-18.404480,-21.098259,6.632812,,,,,,,
1523521532.384758,-0.528236,-0.044283,2.050846,-3.577350,-1.600937,-1.042520,-0.503516,0.044269,-0.862850,0.194953,0.040799,-0.092213,-17.843521,-22.305275,2.137939,,,,,,,
1523521532.414726,-0.562477,-0.091423,1.968598,-2.276525,-0.055383,-2.034044,-0.531056,0.091296,-0.842403,-0.526348,0.246778,0.069194,-15.912674,-22.691505,-0.409546,,,,,,,
1523521532.444694,-0.591474,-0.105244,1.904476,-0.841639,-1.541788,-1.053326,-0.554499,0.105050,-0.825526,-0.165014,-0.100411,0.087366,-13.595291,-22.778069,-1.533020,,,,,,,
1523521532.474662,-0.672565,-0.130015,1.892232,-1.279322,-3.691432,1.374713,-0.617735,0.129649,-0.775623,1.445082,0.021398,-0.620434,-15.170059,-22.621208,-1.759460,,,,,,,
1523521532.504631,-0.738792,-0.202686,1.892373,-2.160559,-0.590980,1.265453,-0.659609,0.201301,-0.724148,0.256746,0.331230,0.339672,-17.343674,-21.712715,-3.039185,,,,,,,
1523521532.534599,-0.739517,-0.250762,1.851691,-1.797838,0.528983,-0.374192,-0.652851,0.248142,-0.715686,-0.391002,0.061642,0.134662,-17.360367,-21.041527,-6.941895,,,,,,,
1523521532.564567,-0.736648,-0.278523,1.843408,-0.161646,-0.092809,1.038416,-0.645918,0.274936,-0.712177,-0.083300,0.134717,0.099369,-18.416794,-21.187599,-7.766846,,,,,,,
1523521532.594517,-0.747630,-0.287938,1.893325,1.471023,-1.222620,1.253875,-0.651911,0.283976,-0.703112,0.344889,0.108679,0.055986,-21.401642,-20.797295,-5.894897,,,,,,,
1523521532.624486,-0.774042,-0.273188,1.935836,0.944956,-1.428951,0.405534,-0.673107,0.269803,-0.688571,0.057460,-0.110989,0.208285,-21.612534,-20.419624,-4.171448,,,,,,,
1523521532.654454,-0.818240,-0.269438,1.959294,0.434147,-1.874782,0.519620,-0.703606,0.266190,-0.658845,0.077004,-0.225953,0.213593,-24.147690,-20.555519,-1.472229,,,,,,,
1523521532.684422,-0.854161,-0.275505,1.988645,0.731437,-0.718619,1.015204,-0.725582,0.272033,-0.632078,0.405346,-0.234985,0.275862,-24.819046,-21.001152,-0.120789,,,,,,,
1523521532.714391,-0.822245,-0.287533,2.031444,0.614784,1.137894,1.035631,-0.702595,0.283588,-0.652636,0.636356,0.126279,-0.193601,-26.982864,-20.240807,0.475098,,,,,,,
1523521532.744359,-0.801597,-0.290139,2.047599,0.065529,-0.006290,0.135997,-0.688437,0.286085,-0.666487,0.289679,0.106844,-0.098924,-28.107834,-20.011131,0.098633,,,,,,,
1523521532.774327,-0.809251,-0.303236,2.040973,-0.684845,-0.133404,0.193108,-0.690746,0.298610,-0.658556,0.112911,0.086308,-0.096846,-27.957397,-19.562477,-0.578125,,,,,,,
1523521532.804295,-0.813284,-0.307949,2.046262,0.850994,-0.329112,0.129453,-0.692367,0.303104,-0.654790,-0.187226,0.446941,-0.669245,-28.708237,-20.008507,0.023315,,,,,,,
1523521532.834233,-0.805987,-0.250271,2.093096,3.261616,-0.032098,-0.804579,-0.699034,0.247667,-0.670826,-0.292879,0.315413,-0.849651,-28.247131,-20.158470,2.124146,,,,,,,
1523521532.864201,-0.796083,-0.162510,2.128730,1.970384,0.304076,-1.461189,-0.705204,0.161796,-0.690293,-0.489116,-0.086692,-0.236404,-24.624451,-20.545357,6.552490,,,,,,,
1523521532.894170,-0.769541,-0.137523,2.106513,-1.004667,1.307133,-0.702562,-0.689235,0.137089,-0.711447,-0.399937,-0.363530,-0.308054,-23.283646,-20.927269,5.654663,,,,,,,
1523521532.924138,-0.749577,-0.159722,2.068892,-1.399641,0.398713,-0.273607,-0.672655,0.159043,-0.722659,-0.007078,-0.468690,-0.195356,-23.004547,-20.857140,2.054565,,,,,,,
1523521532.954106,-0.750725,-0.182734,2.046308,-0.832194,0.041603,0.140608,-0.670810,0.181719,-0.719019,0.001758,-0.398973,0.036005,-22.261169,-21.161079,1.456177,,,,,,,
1523521532.984074,-0.744924,-0.205750,2.033148,-0.958791,0.466419,0.216810,-0.663616,0.204302,-0.719632,0.026607,-0.289461,0.169003,-22.271408,-20.788368,-0.870361,,,,,,,
1523521533.014043,-0.729421,-0.232511,2.019270,-0.866915,0.550743,0.280732,-0.648503,0.230422,-0.725496,0.066121,-0.303481,0.129839,-22.722916,-20.262459,-1.997681,,,,,,,
1523521533.044011,-0.725048,-0.247923,2.016458,-0.153350,-0.055779,0.299978,-0.642893,0.245391,-0.725581,-0.000036,-0.331405,0.147883,-21.673889,-19.818077,-2.898926,,,,,,,
,,,,,,,,,,,,,,,,25.319923,51.452605,13.176449,3.630000,255.937500,1523521532.999695,
1523521533.073979,-0.726376,-0.249542,2.027032,0.357833,-0.169295,0.245059,-0.643591,0.246960,-0.724429,0.025427,-0.266690,0.069461,-22.721878,-19.887901,-2.449158,,,,,,,
1523521533.103947,-0.730625,-0.243812,2.040330,0.434621,-0.306923,0.144036,-0.647598,0.241404,-0.722729,0.127883,-0.150782,-0.053958,-22.712570,-19.811531,-1.024475,,,,,,,
1523521533.133916,-0.746735,-0.235815,2.053145,0.518526,-0.868266,0.154258,-0.660446,0.233636,-0.713598,0.251480,-0.111932,0.029439,-22.631729,-19.586296,-0.425293,,,,,,,
1523521533.163884,-0.764919,-0.231669,2.070960,0.477048,-0.481337,0.454303,-0.673977,0.229602,-0.702163,0.306531,-0.113208,0.076629,-22.699219,-19.509865,0.699341,,,,,,,
1523521533.193852,-0.758691,-0.232706,2.095099,0.503537,0.396044,0.640990,-0.669427,0.230611,-0.706174,0.247384,-0.052618,-0.061099,-24.266800,-19.351830,1.672913,,,,,,,
1523521533.223820,-0.733858,-0.241450,2.118558,0.083018,0.631775,0.815179,-0.650310,0.239111,-0.721054,0.186473,0.059946,-0.240036,-25.466141,-18.971962,1.145752,,,,,,,
1523521533.253789,-0.730002,-0.262494,2.132805,-0.414750,-0.450328,0.742371,-0.644026,0.259490,-0.719646,0.221480,0.121796,-0.076191,-26.727783,-17.766075,1.365356,,,,,,,
1523521533.283757,-0.745090,-0.287892,2.134676,-0.748511,-0.450695,0.457632,-0.650132,0.283932,-0.704774,0.147339,0.315250,0.220247,-27.929214,-17.686043,0.989441,,,,,,,
1523521533.313725,-0.752649,-0.311997,2.120036,-0.932970,0.287075,0.023079,-0.650572,0.306960,-0.694642,0.089750,0.395539,0.157914,-27.859665,-17.013374,-1.038269,,,,,,,
1523521533.343694,-0.739173,-0.319859,2.103696,-0.111347,0.685131,-0.359238,-0.639506,0.314433,-0.701541,0.076030,0.354009,-0.156339,-28.313995,-17.086937,-1.638184,,,,,,,
1523521533.373662,-0.718715,-0.291001,2.110632,1.574669,0.568129,-0.487850,-0.630735,0.286911,-0.721007,0.058805,0.215454,-0.327592,-27.117477,-18.066277,-0.583679,,,,,,,
1523521533.403600,-0.692541,-0.232236,2.147067,2.548366,0.539968,-0.302759,-0.621352,0.230154,-0.748964,0.151183,0.039316,-0.154769,-25.987854,-18.370079,0.693115,,,,,,,
1523521533.433568,-0.670376,-0.175180,2.187662,1.855630,0.422908,-0.031452,-0.611771,0.174286,-0.771594,0.044709,-0.188065,-0.189267,-26.197037,-18.815758,4.069824,,,,,,,
1523521533.463536,-0.656398,-0.161528,2.204255,-0.109182,0.193219,0.234763,-0.602322,0.160826,-0.781882,-0.123172,-0.272459,-0.409204,-26.494034,-18.514412,4.068481,,,,,,,
1523521533.493504,-0.663675,-0.183959,2.193462,-1.092095,-0.569602,0.110132,-0.605621,0.182923,-0.774441,-0.025422,-0.446503,-0.400882,-25.823135,-18.293480,3.017883,,,,,,,
1523521533.523473,-0.691354,-0.203434,2.176952,-0.549157,-0.742348,-0.147152,-0.624431,0.202034,-0.754496,-0.005558,-0.357399,-0.207296,-26.949890,-18.288719,2.717285,,,,,,,
1523521533.553441,-0.700249,-0.205966,2.167193,-0.206971,0.071880,-0.157297,-0.630786,0.204513,-0.748518,0.082462,-0.123076,0.033705,-26.502167,-18.291100,2.342529,,,,,,,
1523521533.583393,-0.698832,-0.213187,2.157923,-0.514082,0.056944,-0.039241,-0.628758,0.211576,-0.748261,0.125890,-0.018156,0.130829,-25.531113,-18.146370,1.442505,,,,,,,
1523521533.613361,-0.705013,-0.224936,2.147830,-0.444319,-0.290997,0.001658,-0.631717,0.223044,-0.742415,0.123325,-0.007208,0.149581,-25.982605,-18.069725,1.066956,,,,,,,
1523521533.643330,-0.720222,-0.231599,2.140913,-0.267771,-0.512030,-0.058727,-0.641940,0.229534,-0.731589,0.016605,-0.051617,0.036643,-26.056244,-17.844536,0.915955,,,,,,,
1523521533.673298,-0.734502,-0.234009,2.137631,0.016764,-0.314520,0.010549,-0.651949,0.231879,-0.721935,0.006899,-0.141486,-0.053074,-25.310776,-18.073280,0.542297,,,,,,,
1523521533.703266,-0.732099,-0.231139,2.144405,0.251462,0.268413,0.141198,-0.650655,0.229086,-0.723992,-0.090404,-0.196585,-0.082557,-25.827362,-17.770042,1.440796,,,,,,,
1523521533.733234,-0.726527,-0.234739,2.150644,-0.172481,-0.066166,0.273332,-0.646058,0.232589,-0.726985,-0.088546,-0.206756,-0.046636,-26.202209,-17.618584,1.214966,,,,,,,
1523521533.763203,-0.735198,-0.248380,2.148373,-0.547342,-0.391104,0.221183,-0.650149,0.245834,-0.718935,-0.089978,-0.193359,0.007204,-26.428391,-17.468025,0.764282,,,,,,,
1523521533.793171,-0.747972,-0.261985,2.140889,-0.443630,-0.272491,0.090079,-0.656944,0.258999,-0.708054,-0.045357,-0.145855,0.027588,-26.581711,-17.392998,0.088928,,,,,,,
1523521533.823139,-0.749083,-0.265850,2.138102,0.003192,0.199983,-0.013420,-0.657043,0.262730,-0.706585,-0.044068,-0.041981,0.017697,-25.831894,-17.321526,-0.060974,,,,,,,
1523521533.853107,-0.738388,-0.259783,2.139247,0.207729,0.381275,-0.178607,-0.650510,0.256871,-0.714738,0.021604,0.037395,-0.057052,-25.607346,-17.322624,-0.135864,,,,,,,
1523521533.883076,-0.730374,-0.246618,2.140318,0.478917,0.192610,-0.342311,-0.646961,0.244126,-0.722385,0.040668,0.050384,-0.041089,-26.353119,-17.168816,0.313171,,,,,,,
1523521533.913044,-0.724253,-0.222345,2.144186,0.743489,0.183574,-0.512583,-0.646265,0.220518,-0.730555,0.136575,-0.019117,0.036524,-25.225891,-17.622749,1.440552,,,,,,,
1523521533.943012,-0.714497,-0.201525,2.148532,0.480131,0.405089,-0.185887,-0.641976,0.200164,-0.740134,0.218010,-0.037383,0.049353,-24.102890,-17.777885,1.366699,,,,,,,
1523521533.972950,-0.703028,-0.196703,2.154231,0.058692,0.262134,0.044098,-0.634062,0.195437,-0.748175,0.068083,-0.007601,-0.020990,-24.555099,-18.225471,1.743286,,,,,,,
1523521534.002918,-0.697431,-0.199091,2.154025,-0.116956,0.135087,0.039834,-0.629563,0.197779,-0.751352,-0.029174,-0.015238,-0.090536,-25.076645,-17.923058,1.816833,,,,,,,
1523521534.032886,-0.693379,-0.200459,2.152910,-0.030094,0.108980,-0.055974,-0.626340,0.199120,-0.753688,-0.063006,-0.006004,-0.140629,-24.631744,-18.300270,1.593506,,,,,,,
1523521534.062855,-0.695337,-0.199382,2.151116,-0.021589,-0.170313,-0.084451,-0.627951,0.198063,-0.752625,-0.070642,-0.044941,-0.082626,-24.707642,-18.300087,1.443481,,,,,,,
,,,,,,,,,,,,,,,,25.319921,51.452571,13.506283,3.270000,251.718750,1523521533.999711,
1523521534.092823,-0.704216,-0.198278,2.147666,-0.071214,-0.369409,-0.161017,-0.634750,0.196982,-0.747186,-0.072662,-0.099158,-0.012595,-23.809036,-18.304359,1.218933,,,,,,,
1523521534.122791,-0.718845,-0.194244,2.142547,0.048591,-0.425422,-0.249297,-0.646130,0.193025,-0.738412,-0.048572,-0.064119,0.028803,-24.033112,-18.527824,1.744751,,,,,,,
1523521534.152760,-0.727390,-0.187316,2.139747,0.111170,-0.213457,-0.191927,-0.653290,0.186223,-0.733846,0.013703,-0.036977,-0.149104,-23.729675,-18.453728,2.194580,,,,,,,
1523521534.182728,-0.738150,-0.182148,2.141056,0.211930,-0.435692,-0.053119,-0.661787,0.181142,-0.727476,0.021894,0.044093,-0.097139,-23.730560,-18.678505,2.420471,,,,,,,
1523521534.212696,-0.751281,-0.173397,2.145664,0.327019,-0.560905,-0.118969,-0.672338,0.172529,-0.719855,0.052709,0.016893,0.050879,-23.504364,-18.829079,2.871216,,,,,,,
1523521534.242664,-0.769472,-0.165576,2.149302,0.197588,-0.564101,-0.073237,-0.686239,0.164821,-0.708453,0.044790,-0.059871,0.186023,-23.572159,-18.602928,3.695312,,,,,,,
1523521534.272633,-0.776382,-0.162153,2.153575,0.174552,-0.057171,0.075419,-0.691509,0.161444,-0.704093,0.036403,-0.131262,0.114905,-23.349564,-19.203346,4.297791,,,,,,,
1523521534.302601,-0.774603,-0.160715,2.159017,0.132274,0.019618,0.053978,-0.690417,0.160024,-0.705487,-0.005261,-0.113546,-0.027774,-23.496704,-18.827843,4.146179,,,,,,,
1523521534.332569,-0.778638,-0.157605,2.162752,0.172884,-0.286083,-0.009603,-0.693604,0.156954,-0.703046,-0.020965,-0.105318,-0.090655,-23.719894,-18.826530,4.446106,,,,,,,
1523521534.362537,-0.787283,-0.155185,2.166535,0.084000,-0.262948,0.058489,-0.699923,0.154563,-0.697290,-0.034940,-0.053015,0.013025,-23.343399,-18.902840,4.821594,,,,,,,
1523521534.392506,-0.792781,-0.153734,2.171228,0.225268,-0.167804,0.077682,-0.703905,0.153129,-0.693588,-0.022352,-0.035728,-0.025833,-24.313568,-18.598167,5.119873,,,,,,,
1523521534.422474,-0.797488,-0.147155,2.180443,0.386269,-0.269887,0.031021,-0.707868,0.146625,-0.690955,-0.004000,0.003064,-0.106805,-24.232712,-18.597557,6.094910,,,,,,,
1523521534.452442,-0.805823,-0.140539,2.190925,0.372725,-0.334235,0.118460,-0.714287,0.140077,-0.685688,-0.039940,0.024474,-0.175655,-23.248444,-18.300941,7.144165,,,,,,,
1523521534.482410,-0.816116,-0.136997,2.199958,0.212072,-0.459129,0.105675,-0.721664,0.136569,-0.678635,-0.003983,-0.064060,-0.014770,-23.774323,-18.523354,7.369873,,,,,,,
1523521534.512379,-0.835011,-0.137374,2.203982,0.005858,-0.783443,0.058962,-0.734318,0.136942,-0.664845,0.047917,-0.087198,0.154759,-23.921005,-18.372398,7.669189,,,,,,,
1523521534.542316,-0.854601,-0.135759,2.204270,0.042615,-0.388212,-0.096977,-0.747367,0.135342,-0.650477,0.044990,-0.085003,0.128718,-24.146149,-18.521172,7.894653,,,,,,,
1523521534.572278,-0.851891,-0.130912,2.205299,0.190966,0.306367,-0.098624,-0.746086,0.130538,-0.652925,-0.012367,-0.135879,-0.089965,-23.690628,-18.147911,8.193420,,,,,,,
1523521534.602246,-0.848456,-0.127065,2.209105,0.105258,-0.084282,0.028499,-0.744211,0.126723,-0.655810,-0.054846,-0.075179,-0.012387,-23.540787,-18.073738,8.043152,,,,,,,
1523521534.632214,-0.849978,-0.129896,2.208822,-0.201605,0.091616,0.057918,-0.744935,0.129531,-0.654438,-0.048934,-0.114134,-0.037594,-23.241257,-17.850533,7.592407,,,,,,,
1523521534.662182,-0.840919,-0.134157,2.206533,-0.107405,0.392014,0.068352,-0.738558,0.133755,-0.660786,-0.179701,-0.162975,-0.213604,-23.920258,-18.297401,7.668884,,,,,,,
1523521534.692151,-0.835782,-0.138206,2.208577,-0.029817,-0.012875,0.196685,-0.734746,0.137767,-0.664202,-0.173366,-0.149287,-0.138471,-23.545441,-17.999611,7.142822,,,,,,,
1523521534.722119,-0.836822,-0.144178,2.214783,0.057833,-0.065050,0.334245,-0.734812,0.143679,-0.662875,-0.062001,-0.112688,0.080798,-23.168213,-17.776314,7.142151,,,,,,,
1523521534.752087,-0.836651,-0.149300,2.226285,0.242509,-0.034969,0.370598,-0.734143,0.148746,-0.662499,0.036801,-0.073520,0.216881,-24.212936,-17.471230,7.515381,,,,,,,
1523521534.782056,-0.832915,-0.146816,2.242396,0.590848,0.080052,0.210907,-0.731934,0.146289,-0.665483,0.115067,-0.011707,0.107072,-24.882797,-17.092995,7.738586,,,,,,,
1523521534.812024,-0.831084,-0.134658,2.261498,0.774553,-0.108316,0.035419,-0.731974,0.134251,-0.667972,0.155695,0.050274,0.008548,-24.047043,-16.421089,8.411316,,,,,,,
1523521534.841992,-0.827830,-0.119721,2.277111,0.638836,0.277052,-0.017279,-0.731192,0.119435,-0.671632,0.041037,-0.062154,-0.078231,-24.722458,-17.092003,9.463623,,,,,,,
1523521534.871960,-0.813516,-0.111776,2.290712,0.357380,0.368772,0.186996,-0.722170,0.111543,-0.682659,-0.016813,-0.122728,-0.141209,-24.869736,-16.866249,9.537659,,,,,,,
1523521534.901929,-0.814251,-0.116256,2.297487,-0.138283,-0.300046,0.273609,-0.722301,0.115994,-0.681778,-0.017964,-0.052258,-0.027389,-24.268127,-16.793816,9.687683,,,,,,,
1523521534.931897,-0.821423,-0.122860,2.299402,0.006168,-0.147505,0.139302,-0.726596,0.122551,-0.676044,-0.032132,-0.032860,-0.059201,-24.867325,-16.716118,9.687073,,,,,,,
1523521534.961865,-0.826064,-0.119777,2.305857,0.235536,-0.301483,0.042671,-0.730000,0.119491,-0.672918,-0.007153,-0.064315,0.016668,-25.235718,-16.189247,9.909790,,,,,,,
1523521534.991833,-0.835920,-0.117674,2.310555,0.093414,-0.282288,0.083038,-0.736781,0.117402,-0.665857,0.016704,-0.038438,0.079370,-24.410019,-16.117958,9.909912,,,,,,,
1523521535.021802,-0.834644,-0.120015,2.316299,0.080861,0.173677,0.223223,-0.735725,0.119727,-0.666611,0.070747,0.022851,0.034347,-25.303833,-16.038033,10.809143,,,,,,,
1523521535.051770,-0.828421,-0.121036,2.324467,0.224091,0.171452,0.188160,-0.731472,0.120741,-0.671093,0.047116,0.036776,0.029843,-25.455765,-16.187431,10.734680,,,,,,,
1523521535.081738,-0.822977,-0.117784,2.333940,0.317279,0.108246,0.076414,-0.728093,0.117512,-0.675328,-0.001018,-0.021168,-0.100062,-25.000244,-15.814171,11.033386,,,,,,,
,,,,,,,,,,,,,,,,25.319909,51.452545,13.724636,2.480000,246.445312,1523521534.999725,
1523521535.111676,-0.820670,-0.113248,2.341583,0.219852,0.014100,0.048741,-0.726915,0.113006,-0.677363,-0.059859,-0.056121,-0.154729,-25.671631,-15.585930,11.257141,,,,,,,
1523521535.141644,-0.824450,-0.114125,2.342791,-0.169739,-0.227009,0.022048,-0.729397,0.113878,-0.674543,-0.104953,-0.075502,-0.079287,-25.377472,-16.037483,11.034119,,,,,,,
1523521535.171612,-0.832478,-0.120567,2.336682,-0.347048,-0.257288,0.009156,-0.734231,0.120275,-0.668158,-0.027106,-0.171316,0.061820,-24.556564,-16.041847,10.359558,,,,,,,
1523521535.201581,-0.837851,-0.127917,2.331428,-0.244133,-0.069023,0.095366,-0.737133,0.127568,-0.663594,-0.028125,-0.116201,0.135838,-25.301010,-15.438576,10.281738,,,,,,,
1523521535.231549,-0.836206,-0.130982,2.332463,0.117648,0.135185,0.094350,-0.735748,0.130608,-0.664540,-0.059800,-0.048195,-0.027080,-25.303406,-15.588722,10.132324,,,,,,,
1523521535.261517,-0.831998,-0.127821,2.342432,0.345120,0.003329,0.176708,-0.733246,0.127473,-0.667905,0.022949,-0.027879,0.003370,-24.551483,-15.442024,10.207092,,,,,,,
1523521535.291485,-0.832454,-0.127699,2.350972,0.075094,0.030530,0.181807,-0.733562,0.127353,-0.667581,0.007732,-0.068057,0.054193,-26.046921,-15.209923,10.580444,,,,,,,
1523521535.321454,-0.826238,-0.129603,2.356838,0.144495,0.249381,0.164585,-0.729219,0.129241,-0.671962,0.003556,-0.011153,-0.076466,-25.824783,-15.361137,10.356201,,,,,,,
1523521535.351422,-0.818972,-0.128189,2.365007,0.237266,0.176085,0.126380,-0.724450,0.127839,-0.677368,0.009285,0.014266,-0.059098,-25.668793,-14.986473,10.729736,,,,,,,
1523521535.381390,-0.815696,-0.126683,2.371582,0.109529,0.005445,0.109406,-0.722366,0.126345,-0.679869,-0.006546,0.013426,0.039045,-25.893646,-14.835686,10.504028,,,,,,,
1523521535.411359,-0.816006,-0.127573,2.375370,0.056278,0.005772,0.082721,-0.722494,0.127227,-0.679568,-0.001245,0.008393,0.059298,-25.512665,-14.237389,10.501831,,,,,,,
1523521535.441327,-0.814474,-0.126195,2.380112,0.202784,0.044807,0.071069,-0.721579,0.125861,-0.680793,-0.014245,-0.046622,0.036002,-25.365067,-14.612846,10.728394,,,,,,,
1523521535.471295,-0.810778,-0.122670,2.388650,0.303374,0.124070,0.096640,-0.719375,0.122362,-0.683757,-0.023621,-0.068117,-0.013463,-25.885849,-14.460045,11.177551,,,,,,,
1523521535.501263,-0.807714,-0.118113,2.397815,0.326339,0.011364,0.098898,-0.717673,0.117839,-0.686336,-0.017603,-0.082896,-0.027745,-26.334457,-14.233177,11.026428,,,,,,,
1523521535.531232,-0.809603,-0.115583,2.405788,0.131305,-0.128549,0.117013,-0.719181,0.115326,-0.685183,-0.016521,-0.043488,-0.007765,-26.478622,-14.006935,11.625427,,,,,,,
1523521535.561200,-0.812276,-0.115957,2.408518,-0.000479,-0.079866,0.041209,-0.720979,0.115697,-0.683228,-0.064696,-0.003164,-0.051971,-26.629654,-14.156166,11.700928,,,,,,,
1523521535.591167,-0.815314,-0.115609,2.408531,0.001935,-0.118599,-0.043986,-0.723080,0.115352,-0.681062,-0.101321,-0.031841,-0.079665,-24.906219,-14.313927,11.702454,,,,,,,
1523521535.621135,-0.819224,-0.116208,2.406411,-0.155251,-0.151253,-0.028093,-0.725688,0.115947,-0.678182,-0.115361,-0.086039,0.079030,-26.182068,-14.308342,11.551819,,,,,,,
1523521535.651104,-0.825450,-0.119839,2.404503,-0.090886,-0.190488,0.087082,-0.729582,0.119553,-0.673361,-0.055223,-0.042923,0.158789,-25.957672,-14.234566,11.326599,,,,,,,
1523521535.681041,-0.828747,-0.121647,2.407241,0.087969,-0.077148,0.076436,-0.731637,0.121348,-0.670805,-0.003760,-0.016199,0.167601,-25.057144,-13.864143,10.800598,,,,,,,
1523521535.711010,-0.827894,-0.118158,2.412330,0.265177,0.074816,0.010362,-0.731372,0.117883,-0.671711,-0.015164,-0.074167,0.071537,-25.730453,-14.010597,11.325806,,,,,,,
1523521535.740978,-0.825207,-0.113563,2.419168,0.194412,0.056675,0.048673,-0.729955,0.113319,-0.674034,-0.056376,-0.068595,0.046288,-25.952133,-13.859306,11.625061,,,,,,,
1523521535.770946,-0.822894,-0.114176,2.422081,-0.018026,0.117421,0.097476,-0.728343,0.113928,-0.675673,-0.096471,-0.061956,-0.015870,-26.401825,-13.782356,11.549622,,,,,,,
1523521535.800914,-0.822158,-0.116917,2.424415,-0.032947,-0.096245,0.113668,-0.727614,0.116650,-0.675994,-0.057832,-0.061765,0.051208,-25.727310,-13.785454,11.474915,,,,,,,
1523521535.830883,-0.824683,-0.121211,2.424706,-0.158293,0.048596,0.113418,-0.728944,0.120915,-0.673809,-0.056625,-0.025242,0.147015,-25.802170,-13.635353,11.249268,,,,,,,
1523521535.860851,-0.817271,-0.124987,2.424673,-0.039280,0.360887,0.085501,-0.723592,0.124662,-0.678876,-0.136073,-0.068387,-0.026523,-25.729721,-13.486351,10.573730,,,,,,,
1523521535.890819,-0.808697,-0.126873,2.428367,0.052305,0.156142,0.157160,-0.717573,0.126533,-0.684891,-0.182680,-0.085471,-0.067001,-26.630432,-13.781914,10.949463,,,,,,,
1523521535.920787,-0.808504,-0.129583,2.434752,0.112436,-0.150582,0.235294,-0.717190,0.129221,-0.684791,-0.113178,-0.111689,0.043296,-26.701065,-13.481377,11.173218,,,,,,,
1523521535.950756,-0.818120,-0.131738,2.442153,0.110251,-0.455178,0.184445,-0.723537,0.131357,-0.677670,0.038982,-0.079782,0.261441,-25.872391,-12.885490,10.796265,,,,,,,
1523521535.980724,-0.825074,-0.132657,2.448664,0.179694,-0.024683,0.139315,-0.728143,0.132268,-0.672540,0.079797,-0.017598,0.326715,-27.446243,-13.177727,11.471619,,,,,,,
1523521536.010692,-0.816675,-0.126801,2.456371,0.397139,0.391521,-0.043135,-0.723021,0.126462,-0.679151,-0.123811,-0.009061,-0.048144,-27.142532,-12.804100,11.470276,,,,,,,
1523521536.040660,-0.805791,-0.117326,2.465142,0.344837,0.177960,-0.026982,-0.716419,0.117057,-0.687779,-0.193127,-0.040427,-0.174907,-26.017883,-12.659462,11.170288,,,,,,,
1523521536.070629,-0.807970,-0.116652,2.465486,-0.228277,-0.207636,0.006012,-0.717972,0.116388,-0.686271,-0.172927,-0.105874,0.035438,-26.318893,-13.032646,11.621582,,,,,,,
,,,,,,,,,,,,,,,,25.319900,51.452521,13.745693,2.310000,237.304688,1523521535.999739,
1523521536.100597,-0.817200,-0.126235,2.460029,-0.366187,-0.290297,0.174349,-0.723429,0.125900,-0.678821,-0.121084,-0.086228,0.230777,-26.623398,-13.256660,11.247314,,,,,,,
1523521536.130565,-0.818653,-0.135193,2.460485,-0.021834,0.136708,0.228508,-0.723563,0.134781,-0.676971,-0.073328,-0.142624,0.093780,-26.324905,-12.958748,10.496277,,,,,,,
1523521536.160534,-0.812694,-0.134609,2.471627,0.385646,0.060194,0.235288,-0.719573,0.134203,-0.681324,-0.086427,-0.144075,0.003513,-26.922348,-12.880760,10.795715,,,,,,,
1523521536.190502,-0.810007,-0.132525,2.484555,0.326992,0.069945,0.229904,-0.717940,0.132137,-0.683447,-0.061265,-0.183056,-0.015330,-26.991043,-12.654778,11.469788,,,,,,,
1523521536.220470,-0.808030,-0.133432,2.495322,0.096596,-0.042599,0.296982,-0.716500,0.133037,-0.684782,0.000116,-0.113429,0.090330,-26.765762,-12.356255,11.018677,,,,,,,
1523521536.250438,-0.808816,-0.139024,2.498283,-0.125159,0.045353,0.107067,-0.716489,0.138576,-0.683694,-0.030551,-0.030681,-0.018973,-27.658524,-11.901772,11.466431,,,,,,,
1523521536.280376,-0.806713,-0.138889,2.499673,0.116172,-0.030160,0.032727,-0.715064,0.138442,-0.685212,-0.154336,-0.050964,-0.074447,-27.811050,-12.201012,11.542542,,,,,,,
1523521536.310344,-0.811558,-0.138451,2.502607,-0.013862,-0.172529,0.074338,-0.718419,0.138009,-0.681781,-0.129771,-0.042245,0.100681,-26.984161,-12.054665,11.617371,,,,,,,
1523521536.340313,-0.812912,-0.141656,2.504414,-0.026064,0.058617,0.152930,-0.719016,0.141183,-0.680500,-0.116921,-0.039285,0.179753,-27.358521,-12.127754,11.842468,,,,,,,
1523521536.370281,-0.808530,-0.142474,2.511861,0.302827,0.120137,0.201077,-0.715944,0.141993,-0.683565,-0.045973,-0.013743,0.101640,-27.657486,-11.751854,11.390808,,,,,,,
1523521536.400249,-0.804160,-0.137800,2.526010,0.476809,0.117523,0.208670,-0.713420,0.137365,-0.687140,0.001597,0.047724,0.114767,-27.425735,-11.302528,11.764160,,,,,,,
1523521536.430217,-0.797748,-0.129827,2.542205,0.648504,0.246086,0.151120,-0.709761,0.129462,-0.692443,-0.036073,0.038857,-0.052308,-28.247849,-11.373222,12.364014,,,,,,,
1523521536.460186,-0.787105,-0.121114,2.559942,0.474879,0.216067,0.251177,-0.703124,0.120818,-0.700727,-0.086717,0.031801,-0.074831,-28.319107,-11.222542,12.738342,,,,,,,
1523521536.490154,-0.786148,-0.123392,2.570142,0.046146,-0.116765,0.284232,-0.702256,0.123080,-0.701203,-0.008849,0.026746,0.031953,-27.942780,-10.999382,12.587708,,,,,,,
1523521536.520122,-0.790818,-0.129163,2.575358,-0.059710,-0.229720,0.216071,-0.705006,0.128805,-0.697405,0.059254,0.007762,0.161196,-29.062637,-10.619118,12.810547,,,,,,,
1523521536.550090,-0.793890,-0.131645,2.579820,0.173683,0.021254,0.105176,-0.706915,0.131266,-0.695010,0.023947,-0.051157,0.154925,-28.615952,-10.771431,12.511414,,,,,,,
1523521536.580060,-0.789689,-0.127044,2.589314,0.391744,0.092879,0.118051,-0.704410,0.126702,-0.698392,-0.032620,-0.104669,0.034177,-29.134644,-10.543419,13.185242,,,,,,,
1523521536.610029,-0.789059,-0.122940,2.600930,0.294279,-0.115746,0.202370,-0.704333,0.122630,-0.699196,-0.003705,-0.132625,0.023811,-29.209457,-10.617928,13.335510,,,,,,,
1523521536.639997,-0.792967,-0.125034,2.608061,0.015519,-0.161667,0.181967,-0.706876,0.124709,-0.696256,0.018262,-0.145217,0.081220,-29.131485,-10.542915,13.710266,,,,,,,
1523521536.669965,-0.796415,-0.125744,2.610520,0.070299,-0.089163,-0.023715,-0.709209,0.125413,-0.693753,-0.105610,-0.118394,0.017422,-28.533585,-10.620827,13.485840,,,,,,,
1523521536.699934,-0.794797,-0.123136,2.610091,-0.042388,0.196244,-0.074162,-0.708317,0.122825,-0.695126,-0.121746,-0.210716,-0.142201,-28.608612,-10.395866,13.109924,,,,,,,
1523521536.729902,-0.789346,-0.125871,2.605981,-0.241666,0.135612,0.005665,-0.704276,0.125539,-0.698737,-0.189477,-0.180181,-0.263482,-28.691696,-10.846092,12.511658,,,,,,,
1523521536.759870,-0.789979,-0.131167,2.603301,-0.126714,-0.066193,0.103980,-0.704236,0.130792,-0.697813,-0.204776,-0.147286,-0.069246,-28.016891,-10.774269,12.361694,,,,,,,
1523521536.789839,-0.789450,-0.135924,2.608508,0.114107,0.099465,0.337342,-0.703417,0.135506,-0.697739,-0.127073,-0.144936,0.138551,-28.536758,-10.396706,12.584961,,,,,,,
1523521536.819807,-0.779119,-0.141337,2.625299,0.352043,0.377515,0.606815,-0.695646,0.140867,-0.704437,-0.021929,-0.090223,0.077316,-29.061310,-10.169640,12.283813,,,,,,,
1523521536.849775,-0.763404,-0.143028,2.648389,0.584227,0.369162,0.503638,-0.684324,0.142541,-0.715109,0.120619,-0.019280,-0.154169,-30.181610,-10.014076,12.807617,,,,,,,
1523521536.879713,-0.757218,-0.136401,2.668580,0.552861,-0.043261,0.228072,-0.680522,0.135978,-0.719999,0.145579,-0.066810,-0.039599,-30.178177,-9.714027,12.881409,,,,,,,
1523521536.909681,-0.759608,-0.132009,2.680489,0.266631,-0.129272,0.170402,-0.682645,0.131626,-0.718797,0.124647,-0.016635,0.105943,-29.117554,-9.192909,13.779907,,,,,,,
1523521536.939648,-0.759560,-0.130062,2.689015,0.255888,0.027355,0.113763,-0.682786,0.129696,-0.719014,0.065049,0.056202,0.014042,-30.390396,-9.111946,14.003906,,,,,,,
1523521536.969618,-0.756261,-0.122656,2.698003,0.440264,0.061660,0.004124,-0.681051,0.122349,-0.721941,0.015112,0.041744,-0.065046,-30.090271,-9.188148,14.154358,,,,,,,
1523521536.999585,-0.754624,-0.114908,2.705596,0.269243,0.019598,0.002966,-0.680497,0.114656,-0.723724,-0.055420,0.063445,-0.052231,-29.940109,-9.039055,13.928833,,,,,,,
1523521537.029553,-0.751341,-0.111736,2.710761,0.143264,0.143475,0.110373,-0.678362,0.111504,-0.726217,-0.019896,0.006340,-0.052271,-29.863464,-9.188866,14.454468,,,,,,,
1523521537.059521,-0.747048,-0.117610,2.715840,-0.191209,0.070684,0.306248,-0.674781,0.117339,-0.728629,0.083305,0.035508,0.105445,-30.462570,-8.736778,13.852356,,,,,,,
,,,,,,,,,,,,,,,,25.319892,51.452502,13.983273,2.390000,227.812500,1523521536.999745,
1523521537.089490,-0.744360,-0.126868,2.717886,-0.024557,0.182735,0.179458,-0.672055,0.126528,-0.729610,0.062329,0.038221,0.118083,-30.990219,-8.959480,13.778015,,,,,,,
1523521537.119458,-0.732380,-0.122655,2.727193,0.445470,0.416725,0.131635,-0.663617,0.122348,-0.737998,-0.018481,-0.075595,-0.046868,-30.992020,-8.959770,13.477966,,,,,,,
1523521537.149426,-0.721379,-0.118683,2.738494,0.257396,0.232825,0.208397,-0.655775,0.118405,-0.745613,-0.084322,-0.069577,-0.201500,-30.989349,-8.510078,13.176147,,,,,,,
1523521537.179394,-0.722318,-0.119149,2.745561,0.050347,-0.298561,0.142711,-0.656438,0.118867,-0.744955,-0.001658,-0.123841,0.008459,-30.461838,-8.212532,13.100220,,,,,,,
1523521537.209363,-0.735937,-0.124140,2.745923,-0.257869,-0.501561,0.106458,-0.666116,0.123821,-0.735498,0.142343,-0.083172,0.331674,-30.687256,-8.436211,13.401062,,,,,,,
1523521537.239331,-0.744542,-0.132552,2.742438,-0.192346,0.013933,0.065494,-0.671690,0.132164,-0.728947,0.098784,-0.007042,0.168247,-30.988281,-8.584785,13.476440,,,,,,,
1523521537.269300,-0.731338,-0.124180,2.748596,0.754769,0.568390,-0.086732,-0.662723,0.123861,-0.738549,-0.073758,-0.085500,-0.378638,-30.239532,-8.438606,13.026306,,,,,,,
1523521537.299268,-0.723883,-0.106302,2.763077,0.487981,-0.201210,0.044915,-0.658560,0.106102,-0.745010,-0.130197,-0.079597,-0.330064,-30.910904,-8.434990,13.625916,,,,,,,
1523521537.329237,-0.735142,-0.110094,2.764198,-0.379071,-0.373799,0.115818,-0.666631,0.109872,-0.737245,-0.075098,-0.116235,-0.029113,-31.056549,-8.134102,13.849609,,,,,,,
1523521537.359205,-0.747535,-0.124530,2.755151,-0.603166,-0.364632,0.100722,-0.674568,0.124208,-0.727688,0.014839,-0.084184,0.171276,-29.864700,-8.590065,13.252075,,,,,,,
1523521537.389173,-0.753453,-0.135850,2.748381,-0.251147,0.006596,0.072910,-0.677858,0.135432,-0.722611,0.022523,-0.118770,0.143341,-30.389526,-8.437935,13.026245,,,,,,,
1523521537.419141,-0.748677,-0.135645,2.750925,0.240887,0.173436,0.046481,-0.674418,0.135229,-0.725860,-0.052954,-0.183752,-0.027177,-30.846863,-8.811470,12.427429,,,,,,,
1523521537.449079,-0.744637,-0.130918,2.758570,0.221571,-0.001293,0.119099,-0.671905,0.130544,-0.729041,-0.021851,-0.205084,-0.106531,-29.793320,-8.366356,12.276245,,,,,,,
1523521537.479047,-0.749457,-0.135503,2.762229,-0.213588,-0.244327,0.230896,-0.674997,0.135088,-0.725348,0.053491,-0.163577,0.028036,-30.839828,-8.061577,12.349426,,,,,,,
1523521537.509016,-0.751905,-0.142798,2.763572,0.003794,0.023579,0.134893,-0.676079,0.142314,-0.722954,-0.024101,-0.115931,-0.103996,-30.764374,-8.061852,12.424500,,,,,,,
1523521537.538984,-0.750367,-0.139346,2.770808,0.286656,-0.052205,0.082969,-0.675297,0.138896,-0.724348,-0.056804,-0.105036,-0.135652,-29.867569,-8.291023,12.275879,,,,,,,
1523521537.568952,-0.753247,-0.137878,2.776138,0.047127,-0.107040,0.107356,-0.677519,0.137442,-0.722549,-0.062517,-0.020422,-0.031342,-30.766754,-8.436607,12.651001,,,,,,,
1523521537.598928,-0.754282,-0.137967,2.778956,0.072214,-0.058855,0.046589,-0.678258,0.137530,-0.721838,-0.070033,-0.023791,-0.020273,-30.540741,-8.287697,12.575562,,,,,,,
1523521537.628896,-0.756676,-0.137305,2.781314,0.051741,-0.093919,0.053005,-0.680047,0.136874,-0.720278,-0.003211,0.011487,0.018862,-30.084320,-7.914299,13.024292,,,,,,,
1523521537.658864,-0.759048,-0.137344,2.784655,0.111431,-0.064617,0.096703,-0.681749,0.136913,-0.718659,-0.011488,0.047078,-0.005416,-31.212723,-7.984673,12.573975,,,,,,,
1523521537.688832,-0.754305,-0.135071,2.790753,0.244286,0.251829,0.078377,-0.678545,0.134660,-0.722109,-0.064314,0.014250,-0.155561,-30.983658,-7.985039,13.249084,,,,,,,
1523521537.718801,-0.749331,-0.132467,2.797260,0.128446,-0.045744,0.126534,-0.675181,0.132080,-0.725730,-0.028981,-0.009369,-0.057626,-30.385193,-7.688484,12.498230,,,,,,,
1523521537.748769,-0.756359,-0.135258,2.800725,-0.055499,-0.343905,0.130955,-0.680009,0.134846,-0.720696,0.093172,-0.043980,0.124947,-31.207474,-7.684334,12.947815,,,,,,,
1523521537.778737,-0.766486,-0.139109,2.800910,-0.085865,-0.297625,0.057367,-0.686908,0.138661,-0.713393,0.162326,-0.044636,0.209227,-31.057175,-7.610085,12.872559,,,,,,,
1523521537.808705,-0.770177,-0.139098,2.801440,0.113665,0.055211,-0.021682,-0.689537,0.138650,-0.710854,0.101631,-0.057351,0.134545,-30.379211,-7.313133,12.871704,,,,,,,
1523521537.838674,-0.762051,-0.130981,2.807026,0.440575,0.283202,-0.069623,-0.684492,0.130607,-0.717224,-0.070223,-0.099311,-0.170029,-30.604202,-7.312126,12.871582,,,,,,,
1523521537.868642,-0.761830,-0.124948,2.811438,-0.013967,-0.279357,0.003060,-0.684865,0.124623,-0.717932,-0.055522,-0.150288,-0.122827,-30.604050,-7.386971,13.021912,,,,,,,
1523521537.898610,-0.774828,-0.133967,2.805811,-0.506087,-0.390374,0.097640,-0.693324,0.133567,-0.708139,0.082331,0.005242,0.096887,-30.758987,-7.611717,12.572693,,,,,,,
1523521537.928578,-0.777492,-0.140152,2.802362,0.133501,0.248249,0.023945,-0.694615,0.139694,-0.705686,0.001958,0.091187,0.007398,-30.607941,-7.687096,12.873108,,,,,,,
1523521537.958547,-0.765556,-0.127049,2.815047,0.760375,0.215186,-0.030953,-0.687352,0.126708,-0.715185,-0.037776,0.054032,-0.122232,-30.374252,-7.087700,13.320801,,,,,,,
1523521537.988515,-0.767027,-0.115581,2.823919,0.236519,-0.207294,-0.058625,-0.689367,0.115324,-0.715172,0.040151,0.032793,0.025536,-30.225449,-7.163445,13.246155,,,,,,,
1523521538.018483,-0.774203,-0.113048,2.822039,-0.079135,-0.233469,-0.153666,-0.694683,0.112807,-0.710414,0.133572,-0.023681,0.152598,-31.051468,-7.309654,13.321350,,,,,,,
1523521538.048421,-0.778883,-0.109932,2.817007,0.037618,0.000512,-0.226261,-0.698244,0.109710,-0.707402,0.102418,-0.044876,0.138646,-30.677078,-7.461189,13.472107,,,,,,,
,,,,,,,,,,,,,,,,25.319873,51.452487,14.092587,2.550000,216.914062,1523521537.999748,
1523521538.078389,-0.773925,-0.098742,2.818064,0.466851,0.242815,-0.229392,-0.695542,0.098581,-0.711688,0.032166,-0.061701,-0.011288,-30.303909,-7.463173,13.172302,,,,,,,
1523521538.108357,-0.771596,-0.087850,2.821613,0.092250,-0.066276,-0.115344,-0.694590,0.087737,-0.714034,0.042521,-0.093719,-0.032625,-30.900894,-7.385109,13.546692,,,,,,,
1523521538.138326,-0.773205,-0.092701,2.811858,-0.575802,-0.013509,-0.129746,-0.695433,0.092568,-0.712602,-0.156694,-0.168389,-0.219847,-30.679947,-7.386772,12.871826,,,,,,,
1523521538.168294,-0.781987,-0.105562,2.797415,-0.667128,-0.462623,0.001697,-0.700767,0.105366,-0.705564,-0.141518,-0.175480,-0.149401,-30.086136,-7.689980,12.348328,,,,,,,
1523521538.198262,-0.800623,-0.119289,2.784469,-0.537281,-0.507854,0.041265,-0.712689,0.119006,-0.691311,-0.056065,-0.136493,0.118618,-30.316055,-7.914391,11.899170,,,,,,,
1523521538.228231,-0.809088,-0.127785,2.779208,-0.143855,-0.101133,0.089102,-0.717757,0.127437,-0.684531,-0.006105,-0.099010,0.164374,-29.788101,-7.616768,11.898254,,,,,,,
1523521538.258199,-0.807131,-0.126784,2.784152,0.326828,0.104886,0.092438,-0.716508,0.126445,-0.686022,-0.027862,-0.083537,-0.024168,-31.288483,-7.834709,12.198364,,,,,,,
1523521538.288167,-0.803695,-0.118150,2.796605,0.568976,0.020548,0.061807,-0.714906,0.117875,-0.689211,-0.079757,-0.078691,-0.245496,-30.533112,-7.612587,12.722778,,,,,,,
1523521538.318135,-0.803414,-0.109369,2.808780,0.387743,-0.118412,0.092706,-0.715429,0.109151,-0.690105,-0.071054,-0.096257,-0.255437,-30.604935,-7.162498,12.495972,,,,,,,
1523521538.348104,-0.808898,-0.107602,2.814409,0.055417,-0.202470,0.074432,-0.719342,0.107395,-0.686303,-0.035450,-0.030079,-0.055686,-30.748032,-7.010948,13.395325,,,,,,,
1523521538.378072,-0.813573,-0.107396,2.817225,0.122872,-0.197089,0.041442,-0.722558,0.107190,-0.682948,-0.004203,-0.042019,0.034495,-30.445953,-6.937080,13.620178,,,,,,,
1523521538.408040,-0.819841,-0.105081,2.820246,0.110486,-0.148967,0.001963,-0.727004,0.104888,-0.678573,-0.001695,-0.106444,0.087157,-30.293106,-6.787544,13.844604,,,,,,,
1523521538.438008,-0.818169,-0.102790,2.824489,0.195683,0.120241,0.071013,-0.726042,0.102609,-0.679950,-0.033449,-0.154703,-0.068753,-31.190842,-6.558510,13.843262,,,,,,,
1523521538.467977,-0.815357,-0.101716,2.829956,0.087281,0.014130,0.088087,-0.724207,0.101540,-0.682064,-0.078192,-0.109338,-0.231602,-30.967484,-6.634666,13.693726,,,,,,,
1523521538.497945,-0.821836,-0.100661,2.833070,0.146283,-0.448990,0.042775,-0.728689,0.100491,-0.677430,-0.005854,-0.107815,-0.149215,-29.989075,-6.338982,13.768005,,,,,,,
1523521538.527913,-0.840034,-0.097148,2.839952,0.284078,-0.639752,0.071846,-0.741153,0.096996,-0.664290,0.102817,-0.033092,0.109846,-31.110870,-6.558037,14.668335,,,,,,,
1523521538.557881,-0.849619,-0.092314,2.847649,0.328688,-0.062370,0.000973,-0.747830,0.092183,-0.657457,0.081677,0.038356,0.125535,-30.574646,-6.109337,15.791809,,,,,,,
1523521538.587830,-0.844641,-0.082878,2.853953,0.338376,0.209892,-0.187890,-0.745165,0.082783,-0.661720,0.078402,-0.001317,0.059028,-30.276611,-6.036125,15.341614,,,,,,,
1523521538.617798,-0.839636,-0.072288,2.851950,0.045392,0.099494,-0.403233,-0.742455,0.072225,-0.665989,0.017174,-0.022070,0.009892,-30.426163,-6.260002,15.792480,,,,,,,
1523521538.647766,-0.841455,-0.065146,2.840428,-0.228543,-0.059110,-0.420314,-0.744031,0.065100,-0.664964,0.050733,-0.059027,0.057893,-30.129166,-6.336708,15.417908,,,,,,,
1523521538.677704,-0.834483,-0.061275,2.827505,-0.212420,0.485703,-0.381433,-0.739558,0.061236,-0.670300,0.095072,-0.053973,0.021786,-29.233246,-6.566048,15.119263,,,,,,,
1523521538.707672,-0.819465,-0.052519,2.818509,0.121012,0.491646,-0.437666,-0.729772,0.052495,-0.681670,-0.038462,-0.022435,-0.115571,-29.541458,-7.165031,14.746521,,,,,,,
1523521538.737640,-0.810462,-0.036713,2.815274,0.369332,0.129895,-0.459493,-0.724117,0.036704,-0.688698,-0.115605,-0.102561,-0.265525,-29.166321,-7.241570,14.897034,,,,,,,
1523521538.767609,-0.815062,-0.019796,2.816005,0.355879,-0.361743,-0.352458,-0.727625,0.019794,-0.685688,-0.087042,-0.140644,-0.298519,-27.739883,-7.322609,15.273071,,,,,,,
1523521538.797577,-0.835421,-0.008812,2.812809,0.032421,-0.833749,-0.359681,-0.741549,0.008811,-0.670839,-0.033384,-0.038307,-0.181899,-28.489838,-7.768486,16.024475,,,,,,,
1523521538.827545,-0.860304,-0.001946,2.802347,-0.192235,-0.772145,-0.427043,-0.758038,0.001946,-0.652205,0.014279,0.024757,-0.085679,-27.214142,-7.923836,16.400757,,,,,,,
1523521538.857513,-0.881168,0.006240,2.786229,-0.236523,-0.689568,-0.669044,-0.771467,-0.006240,-0.636237,0.043088,0.005615,-0.007088,-25.641449,-8.155922,16.402466,,,,,,,
1523521538.887482,-0.902484,0.022438,2.768297,-0.038170,-0.768196,-0.893631,-0.784670,-0.022436,-0.619506,0.075014,-0.036295,0.066374,-24.969757,-8.758492,16.855164,,,,,,,
1523521538.917450,-0.927416,0.049542,2.752292,0.243348,-0.916873,-1.158582,-0.799090,-0.049521,-0.599167,0.103671,-0.023904,0.093795,-23.925476,-9.737511,17.534668,,,,,,,
1523521538.947418,-0.957008,0.085953,2.737723,0.312867,-1.079511,-1.324600,-0.814453,-0.085847,-0.573841,0.133408,-0.009078,0.157322,-20.246109,-9.977943,18.662476,,,,,,,
1523521538.977387,-0.985339,0.124476,2.720251,0.216226,-0.849014,-1.429325,-0.827010,-0.124154,-0.548304,0.167647,0.057824,0.207148,-19.646866,-10.504890,19.414856,,,,,,,
1523521539.007355,-1.002191,0.165551,2.700203,0.172009,-0.642809,-1.574472,-0.831131,-0.164796,-0.531094,0.111084,-0.027419,0.070599,-17.101151,-11.116035,19.718567,,,,,,,
1523521539.037323,-1.029707,0.206893,2.676495,0.157784,-1.163623,-1.549454,-0.838867,-0.205420,-0.504085,-0.083069,-0.034295,0.220653,-14.178955,-11.578880,20.021851,,,,,,,
,,,,,,,,,,,,,,,,25.319842,51.452463,14.354702,3.650000,219.726562,1523521538.999752,
1523521539.067291,-1.047040,0.249107,2.670482,0.801086,-0.236771,-1.058689,-0.839216,-0.246539,-0.484698,-0.074648,-0.149686,0.242663,-12.819107,-11.583351,21.672607,,,,,,,
1523521539.097260,-1.047844,0.282029,2.686905,1.032071,0.281382,-0.477262,-0.832119,-0.278305,-0.479708,-0.085788,-0.069000,0.054506,-12.065079,-11.361443,21.972046,,,,,,,
1523521539.127228,-1.042188,0.302264,2.707961,0.819656,0.469645,-0.122800,-0.824361,-0.297682,-0.481467,-0.050242,-0.058489,-0.066186,-11.232773,-10.989586,22.570984,,,,,,,
1523521539.157196,-1.029060,0.310886,2.721459,0.256732,0.603758,0.043939,-0.815740,-0.305903,-0.490906,-0.052668,-0.109930,-0.170883,-12.048599,-10.385399,23.093201,,,,,,,
1523521539.187164,-1.017117,0.306030,2.722821,-0.210236,0.230787,0.208064,-0.811073,-0.301276,-0.501388,0.020515,-0.118295,-0.144578,-12.725372,-10.382652,22.792847,,,,,,,
1523521539.217133,-1.011746,0.295455,2.718575,-0.338835,0.140726,0.218701,-0.811024,-0.291175,-0.507399,0.074146,-0.094399,-0.060670,-12.951721,-10.381859,22.567688,,,,,,,
1523521539.247101,-1.005987,0.288458,2.712951,-0.181008,0.080234,-0.000614,-0.809790,-0.284475,-0.513139,0.052832,-0.108607,-0.050460,-12.955170,-10.457298,22.117981,,,,,,,
1523521539.277039,-1.006368,0.289913,2.709588,-0.017726,-0.098771,-0.140960,-0.809635,-0.285869,-0.512608,0.038867,-0.103276,0.016225,-12.355499,-10.310295,21.817688,,,,,,,
1523521539.307007,-1.005474,0.292995,2.706774,-0.063912,0.122091,-0.101792,-0.808428,-0.288821,-0.512858,0.059237,-0.089857,0.062663,-11.828293,-10.087669,21.817078,,,,,,,
1523521539.336975,-0.997193,0.292607,2.701184,-0.245213,0.222065,-0.051937,-0.804248,-0.288449,-0.519595,0.056857,-0.100253,0.055377,-13.028244,-10.082268,21.816467,,,,,,,
1523521539.366943,-0.989869,0.289215,2.693831,-0.242835,0.125941,0.019537,-0.801234,-0.285200,-0.526006,0.033015,-0.097430,0.042775,-12.361191,-10.610710,21.368896,,,,,,,
1523521539.396912,-0.988282,0.285282,2.692063,-0.060347,0.027804,0.158301,-0.801329,-0.281428,-0.527889,0.039991,-0.067235,0.028408,-12.586349,-10.534859,21.218506,,,,,,,
1523521539.426880,-0.986506,0.278809,2.695680,-0.038339,0.159236,0.349976,-0.801892,-0.275211,-0.530306,0.072171,-0.015332,-0.003935,-13.262222,-10.531960,21.068115,,,,,,,
1523521539.456848,-0.978266,0.265390,2.699543,-0.267666,0.404094,0.517909,-0.800487,-0.262285,-0.538909,0.074382,0.024462,-0.037430,-13.486908,-10.456017,20.992676,,,,,,,
1523521539.486816,-0.967331,0.245594,2.699015,-0.457490,0.242871,0.542444,-0.798665,-0.243133,-0.550470,-0.009913,0.000259,-0.066123,-14.767273,-10.451164,20.092102,,,,,,,
1523521539.516785,-0.966513,0.225536,2.696172,-0.426892,-0.117156,0.504464,-0.802068,-0.223629,-0.553782,-0.046809,-0.022022,0.028330,-14.997650,-10.675652,19.567810,,,,,,,
1523521539.546753,-0.968316,0.206962,2.697042,-0.247355,-0.008588,0.566289,-0.806348,-0.205488,-0.554594,-0.052325,-0.049990,0.054990,-15.224915,-10.450386,18.816833,,,,,,,
1523521539.576734,-0.967574,0.190869,2.702885,-0.094184,0.079326,0.550343,-0.808556,-0.189712,-0.556996,-0.050133,-0.064362,0.018162,-15.525497,-10.598885,18.967285,,,,,,,
1523521539.606703,-0.966542,0.177003,2.712290,0.049776,0.066097,0.569630,-0.810067,-0.176080,-0.559271,-0.025931,-0.084402,-0.042399,-17.544571,-9.914940,18.813538,,,,,,,
1523521539.636671,-0.969647,0.165319,2.724513,0.128374,-0.071957,0.529340,-0.813441,-0.164567,-0.557878,-0.005162,-0.086700,-0.040541,-17.388901,-9.390572,18.886536,,,,,,,
1523521539.666639,-0.974085,0.155627,2.735247,0.065765,-0.080823,0.450462,-0.817190,-0.155000,-0.555133,-0.006846,-0.086257,-0.030682,-17.834518,-9.088341,19.110046,,,,,,,
1523521539.696607,-0.975849,0.143423,2.741159,-0.176459,-0.031437,0.465144,-0.819674,-0.142931,-0.554710,-0.020780,-0.079175,-0.059640,-18.283600,-9.086174,19.259827,,,,,,,
1523521539.726576,-0.981004,0.129010,2.744144,-0.159222,-0.241847,0.460047,-0.824149,-0.128652,-0.551566,-0.028115,-0.090235,-0.002328,-18.133347,-8.562675,18.432800,,,,,,,
1523521539.756544,-0.990048,0.115617,2.752342,0.099256,-0.283893,0.607317,-0.830469,-0.115360,-0.544986,-0.004568,-0.067563,0.058307,-18.655594,-8.784508,19.258484,,,,,,,
1523521539.786512,-1.000511,0.102297,2.768780,0.236470,-0.280705,0.709710,-0.837346,-0.102119,-0.537049,0.036625,-0.032296,0.123475,-19.326233,-8.256630,19.105957,,,,,,,
1523521539.816480,-1.006095,0.088240,2.787503,0.292907,-0.011336,0.765952,-0.841461,-0.088125,-0.533081,0.023239,0.003897,0.087463,-19.620529,-7.954857,19.554626,,,,,,,
1523521539.846449,-1.005557,0.075070,2.810092,0.451418,0.133640,0.795757,-0.842081,-0.075000,-0.534109,0.008463,0.046512,-0.034495,-20.511490,-7.275475,19.926453,,,,,,,
1523521539.876386,-1.001409,0.063496,2.836564,0.563044,0.255603,0.789327,-0.840533,-0.063453,-0.538030,0.004351,0.089424,-0.129069,-21.629272,-6.595375,19.998230,,,,,,,
1523521539.906355,-0.997422,0.054007,2.863375,0.563798,0.122088,0.735124,-0.838850,-0.053981,-0.541678,0.038679,0.039424,-0.074288,-22.070709,-5.918098,20.295288,,,,,,,
1523521539.936323,-0.997409,0.046169,2.890138,0.631012,-0.006987,0.631943,-0.839172,-0.046153,-0.541902,0.066086,0.050670,0.003984,-24.153992,-4.782829,21.189697,,,,,,,
1523521539.966291,-1.000048,0.043523,2.912022,0.496606,-0.060000,0.359125,-0.840699,-0.043510,-0.539750,0.126893,0.038474,0.021882,-23.999954,-4.558220,21.488892,,,,,,,
1523521539.996259,-0.995278,0.040768,2.923678,0.074152,0.402748,0.283760,-0.838212,-0.040757,-0.543817,0.049654,-0.060348,-0.028555,-23.391907,-3.661110,21.335571,,,,,,,
1523521540.026228,-0.975343,0.030170,2.925023,-0.276869,0.766586,0.347067,-0.827517,-0.030165,-0.560629,-0.052824,-0.145540,-0.113718,-24.669846,-3.730736,20.960205,,,,,,,
1523521540.056196,-0.952636,0.014365,2.923173,-0.370297,0.739708,0.425867,-0.814861,-0.014364,-0.579477,-0.040562,-0.173288,-0.051703,-25.950073,-3.576103,19.833923,,,,,,,
,,,,,,,,,,,,,,,,25.319815,51.452445,14.593472,3.510000,214.101562,1523521539.999753,
1523521540.086164,-0.932238,0.001093,2.924389,-0.075913,0.581213,0.345265,-0.802955,-0.001093,-0.596038,-0.016808,-0.128820,-0.029664,-25.726883,-3.352776,19.158203,,,,,,,
1523521540.116132,-0.923511,-0.000131,2.933379,0.381884,0.074528,0.157516,-0.797723,0.000131,-0.603023,0.002206,-0.129281,-0.008885,-26.695999,-3.122826,19.756836,,,,,,,
1523521540.146101,-0.923806,0.004933,2.946592,0.391258,0.013976,0.151195,-0.797891,-0.004933,-0.602780,0.003961,-0.060482,-0.028125,-26.619202,-3.122871,20.056824,,,,,,,
1523521540.176069,-0.919389,0.004258,2.953897,0.019448,0.234609,0.186925,-0.795224,-0.004258,-0.606300,-0.012821,0.015977,-0.100304,-26.165771,-2.600197,19.755005,,,,,,,
1523521540.206037,-0.913566,-0.001216,2.955317,-0.099461,0.123500,0.164562,-0.791686,0.001216,-0.610926,0.006011,0.048619,-0.098654,-27.519333,-2.819344,19.530151,,,,,,,
1523521540.236005,-0.913674,-0.002591,2.958775,0.176654,-0.087964,0.064836,-0.791750,0.002591,-0.610839,0.025896,0.029391,0.046080,-27.366943,-2.669884,19.679626,,,,,,,
1523521540.265974,-0.916392,0.003372,2.967027,0.443097,-0.081475,-0.044728,-0.793406,-0.003372,-0.608683,0.052286,-0.029694,0.104853,-26.238525,-2.374886,19.754028,,,,,,,
1523521540.295942,-0.916541,0.013808,2.978745,0.534268,0.044534,-0.014948,-0.793425,-0.013808,-0.608510,0.055693,-0.130983,0.000463,-26.605865,-2.147331,20.652893,,,,,,,
1523521540.325910,-0.912044,0.017901,2.990173,0.206130,0.240275,0.222219,-0.790629,-0.017900,-0.612032,0.005244,-0.143065,-0.065412,-27.054352,-1.995308,20.652100,,,,,,,
1523521540.355879,-0.902877,0.007436,2.993617,-0.327047,0.352996,0.398591,-0.785090,-0.007436,-0.619336,0.007868,-0.131816,-0.111041,-26.680130,-1.622749,19.900757,,,,,,,
1523521540.385847,-0.896633,-0.002979,2.996001,0.029871,0.027925,0.260658,-0.781225,0.002979,-0.624241,0.046225,-0.087024,-0.091381,-28.477203,-1.464439,20.124268,,,,,,,
1523521540.415815,-0.902446,-0.003312,3.002636,0.171701,-0.227218,0.074559,-0.784840,0.003312,-0.619689,0.008946,-0.034135,-0.000062,-28.027054,-1.541313,20.274780,,,,,,,
1523521540.445783,-0.898294,0.001383,3.007572,0.261485,0.402244,-0.014445,-0.782264,-0.001383,-0.622944,-0.109704,-0.055532,-0.304790,-27.648178,-1.242867,20.423828,,,,,,,
1523521540.475752,-0.892272,0.003896,3.015336,0.168490,-0.170176,0.124576,-0.778493,-0.003896,-0.627640,0.063863,0.010305,-0.192291,-28.322708,-1.239754,20.498474,,,,,,,
1523521540.505689,-0.904332,0.001545,3.017675,-0.047889,-0.357542,0.099033,-0.786011,-0.001545,-0.618210,0.164719,0.020786,0.128998,-28.098022,-1.315697,20.573853,,,,,,,
1523521540.535658,-0.904986,0.000933,3.019107,0.099254,0.190063,-0.004767,-0.786416,-0.000933,-0.617696,0.183403,0.032915,0.132818,-28.020767,-1.091042,20.572998,,,,,,,
1523521540.565626,-0.899866,0.006474,3.022862,0.323796,0.124467,-0.124939,-0.783227,-0.006474,-0.621702,0.085015,0.095921,-0.020556,-28.172562,-1.539909,21.024719,,,,,,,
1523521540.595561,-0.889909,0.020227,3.034680,0.741718,0.541613,-0.056851,-0.776855,-0.020225,-0.629354,-0.141297,-0.060662,-0.448176,-28.250122,-1.390236,20.349060,,,,,,,
1523521540.625529,-0.877389,0.026453,3.048778,0.122390,0.173334,0.252055,-0.768803,-0.026450,-0.638937,-0.190487,-0.165567,-0.445993,-27.568542,-1.092705,20.948181,,,,,,,
1523521540.655498,-0.881613,0.011150,3.044854,-0.652582,-0.203398,0.305134,-0.771717,-0.011150,-0.635867,-0.065212,-0.128010,-0.061292,-28.622849,-1.388176,20.723877,,,,,,,
1523521540.685466,-0.885298,-0.001410,3.039068,-0.169815,-0.109976,0.146633,-0.774102,0.001410,-0.633058,0.128182,-0.124945,0.116181,-29.147675,-1.236046,20.498047,,,,,,,
1523521540.715434,-0.892519,-0.004619,3.044119,0.136215,-0.367234,0.204660,-0.778646,0.004619,-0.627445,0.258245,-0.026134,0.223652,-28.619705,-1.163048,20.872986,,,,,,,
1523521540.745402,-0.904180,-0.003533,3.050594,0.297984,-0.277814,-0.027592,-0.785912,0.003533,-0.618326,0.190698,-0.006799,0.126489,-28.163727,-0.789726,21.246765,,,,,,,
1523521540.775371,-0.900624,0.008255,3.062153,0.606255,0.376996,-0.020561,-0.783687,-0.008254,-0.621099,-0.035710,-0.055359,-0.196344,-28.013733,-0.565773,20.870911,,,,,,,
1523521540.805339,-0.892472,0.009757,3.070454,-0.052921,0.077361,0.210469,-0.778587,-0.009757,-0.627459,-0.068046,-0.068124,-0.332990,-29.138824,-0.710487,21.095947,,,,,,,
1523521540.835307,-0.895968,0.002332,3.069653,-0.171223,-0.204473,0.133956,-0.780811,-0.002332,-0.624761,-0.024364,-0.147326,-0.145884,-28.461624,-0.488533,21.095398,,,,,,,
1523521540.865275,-0.904975,-0.003691,3.067846,-0.200481,-0.358104,0.081870,-0.786403,0.003691,-0.617701,0.136226,-0.100492,0.111902,-27.940536,-0.566399,20.570923,,,,,,,
1523521540.895244,-0.910583,-0.005588,3.066657,0.084651,0.016966,-0.015257,-0.789848,0.005588,-0.613275,0.161156,-0.132220,0.117776,-27.636810,-0.417397,20.945496,,,,,,,
1523521540.925212,-0.903800,-0.001057,3.072490,0.251241,0.311664,0.027187,-0.785682,0.001057,-0.618628,0.082069,-0.195363,-0.054575,-28.839020,-0.412361,20.569824,,,,,,,
1523521540.955180,-0.893618,-0.003156,3.075044,-0.151764,0.353189,0.157908,-0.779339,0.003156,-0.626593,-0.031406,-0.224378,-0.238840,-27.938599,-0.416344,20.645325,,,,,,,
1523521540.985149,-0.886252,-0.014161,3.072117,-0.372196,0.113997,0.250688,-0.774629,0.014160,-0.632256,-0.136397,-0.224732,-0.296821,-28.619446,-0.414253,19.669983,,,,,,,
1523521541.015117,-0.889387,-0.027776,3.068202,-0.406734,-0.207849,0.246716,-0.776385,0.027772,-0.629645,-0.011335,-0.105775,-0.101938,-28.694412,-0.638542,20.045837,,,,,,,
1523521541.045085,-0.894758,-0.036951,3.063890,-0.157560,-0.074470,0.079479,-0.779524,0.036943,-0.625280,0.086226,0.003234,0.032522,-28.018860,-0.267097,19.519714,,,,,,,
,,,,,,,,,,,,,,,,25.319787,51.452436,14.267300,3.480000,195.468750,1523521540.999754,
