timestamp(unix),attitude_roll(radians),attitude_pitch(radians),attitude_yaw(radians),rotation_rate_x(radians/s),rotation_rate_y(radians/s),rotation_rate_z(radians/s),gravity_x(G),gravity_y(G),gravity_z(G),user_acc_x(G),user_acc_y(G),user_acc_z(G),magnetic_field_x(microteslas),magnetic_field_y(microteslas),magnetic_field_z(microteslas),latitude(degree),longitude(degree),altitude(meter),speed(m/s),course(degree),timestamp(unix),User Mark
,,,,,,,,,,,,,,,,25.319916,51.452578,14.698098,5.840000,267.890625,1523696170.998141,
1523696171.204859,-0.653351,0.026925,1.692741,1.270378,1.532580,-0.660397,-0.607630,-0.026922,-0.793764,-0.176290,-0.349650,-0.460494,1.109421,-24.800014,16.062927,,,,,,,
1523696171.234828,-0.625033,0.045440,1.695479,0.163166,0.434929,0.033536,-0.584520,-0.045424,-0.810107,-0.072920,-0.302354,-0.377942,1.194000,-23.975170,16.284607,,,,,,,
1523696171.264796,-0.619781,0.034544,1.700692,-0.362720,0.119589,0.487374,-0.580510,-0.034537,-0.813520,0.100102,-0.245782,-0.184420,1.270035,-23.600964,15.833130,,,,,,,
1523696171.294764,-0.624489,0.016099,1.710984,-0.151939,-0.446864,0.728903,-0.584607,-0.016099,-0.811157,0.148007,-0.183318,0.083603,0.141327,-23.521633,15.082275,,,,,,,
1523696171.324732,-0.647008,0.004309,1.731999,0.223170,-0.749105,0.811541,-0.602797,-0.004309,-0.797883,0.142790,-0.198129,0.287980,0.221573,-23.221615,15.456116,,,,,,,
1523696171.354731,-0.655494,-0.001481,1.755021,0.359987,0.053951,0.653122,-0.609550,0.001481,-0.792746,-0.004021,-0.052918,0.279944,0.533844,-22.172726,15.752136,,,,,,,
1523696171.384699,-0.654113,-0.000210,1.771938,0.350008,-0.002860,0.269597,-0.608455,0.000210,-0.793588,-0.053196,0.099964,0.366205,-0.660889,-21.642361,15.749390,,,,,,,
1523696171.414668,-0.650369,0.006245,1.777354,0.183639,0.233414,-0.178293,-0.605468,-0.006245,-0.795845,-0.029099,0.182530,0.274193,-0.732742,-21.416882,15.898438,,,,,,,
1523696171.444636,-0.639649,0.005948,1.768322,-0.481731,0.429468,-0.171519,-0.596904,-0.005948,-0.802291,0.096934,-0.119662,0.078292,-0.131393,-21.419369,16.123779,,,,,,,
1523696171.474604,-0.621849,-0.012955,1.756481,-0.929220,0.786324,0.163436,-0.582490,0.012955,-0.812735,-0.038726,-0.108750,0.004019,-1.791992,-21.937786,15.224976,,,,,,,
1523696171.504572,-0.600905,-0.049944,1.740699,-1.477455,0.442967,0.376483,-0.564684,0.049923,-0.823796,0.073000,0.204792,-0.381954,-2.625351,-22.459560,14.701660,,,,,,,
1523696171.534541,-0.602847,-0.085963,1.727162,-0.981200,-0.257403,0.218781,-0.564897,0.085857,-0.820683,-0.029113,0.594502,-0.197597,-1.878372,-22.538296,14.327332,,,,,,,
1523696171.564509,-0.611332,-0.106771,1.721837,-0.525920,-0.091051,0.276492,-0.570690,0.106569,-0.814221,0.022549,0.408568,0.203640,-2.792419,-23.360149,13.355164,,,,,,,
1523696171.594477,-0.603129,-0.120549,1.715854,-0.435446,0.311878,0.064115,-0.563105,0.120258,-0.817588,0.053614,0.024731,0.239051,-3.095261,-23.509014,13.130676,,,,,,,
1523696171.624445,-0.594892,-0.127326,1.714600,-0.021980,0.365081,0.057979,-0.555883,0.126982,-0.821505,0.088475,-0.080077,0.181078,-2.654724,-24.186443,12.683594,,,,,,,
1523696171.654414,-0.581250,-0.120676,1.718535,0.531258,0.495303,-0.069605,-0.545076,0.120383,-0.829699,0.093935,0.028390,-0.078093,-3.257370,-24.633434,12.985046,,,,,,,
1523696171.684382,-0.566021,-0.090200,1.729188,1.412068,0.365678,-0.383155,-0.534098,0.090078,-0.840610,-0.040930,-0.003942,-0.173977,-1.901291,-24.339016,13.509583,,,,,,,
1523696171.714350,-0.551076,-0.049210,1.744216,1.128498,0.498568,-0.142676,-0.522970,0.049190,-0.850930,-0.199335,-0.079998,-0.451774,-2.423691,-24.485989,14.184875,,,,,,,
1523696171.744318,-0.549616,-0.040199,1.751393,-0.085382,-0.252189,0.217317,-0.521938,0.040188,-0.852036,-0.139302,-0.160488,-0.241897,-3.169617,-24.257336,14.483582,,,,,,,
1523696171.774287,-0.568200,-0.051568,1.756997,-0.196421,-0.742066,0.409526,-0.537400,0.051545,-0.841751,0.019105,-0.152405,0.107131,-2.648544,-24.559826,14.335022,,,,,,,
1523696171.804255,-0.591338,-0.057661,1.767564,0.184579,-0.840370,0.353429,-0.556546,0.057629,-0.828816,0.135556,-0.124646,0.307514,-2.637009,-23.809200,15.007080,,,,,,,
1523696171.834223,-0.611513,-0.053012,1.779899,0.486341,-0.410694,0.189144,-0.573301,0.052988,-0.817630,0.184293,-0.160562,0.464221,-2.633270,-23.434216,15.005554,,,,,,,
1523696171.864192,-0.605236,-0.034317,1.789583,0.837026,0.605336,-0.260225,-0.568621,0.034311,-0.821884,0.199618,-0.286615,0.419387,-2.325333,-23.134777,15.829468,,,,,,,
1523696171.894160,-0.574636,-0.011174,1.796257,0.619373,1.224678,-0.161909,-0.543495,0.011174,-0.839338,-0.039314,-0.295201,0.077787,-3.300598,-23.205318,15.904297,,,,,,,
1523696171.924128,-0.535756,-0.005306,1.802351,-0.013082,1.139411,0.250071,-0.510484,0.005306,-0.859871,-0.156127,-0.221477,-0.449745,-3.528275,-23.204754,15.454163,,,,,,,
1523696171.954096,-0.525788,-0.019999,1.809212,-0.448132,-0.304506,0.532499,-0.501794,0.019997,-0.864756,-0.187034,-0.235100,-0.465780,-3.901321,-22.828365,15.152466,,,,,,,
1523696171.984077,-0.545998,-0.040426,1.816304,-0.396627,-0.732791,0.522311,-0.518847,0.040415,-0.853911,-0.097456,-0.225565,-0.028321,-5.024628,-22.748165,15.301636,,,,,,,
1523696172.014045,-0.562669,-0.051910,1.825323,0.013220,-0.435411,0.397654,-0.532727,0.051887,-0.844695,0.008862,-0.214591,0.203475,-4.873138,-22.598843,15.301086,,,,,,,
1523696172.044013,-0.565619,-0.052891,1.835946,0.215035,0.120820,0.257653,-0.535189,0.052866,-0.843077,0.055910,-0.257105,0.169645,-4.417770,-22.150753,15.449524,,,,,,,
,,,,,,,,,,,,,,,,25.319897,51.452577,14.698098,3.460000,260.859375,1523696171.998131,
1523696172.073981,-0.557846,-0.052240,1.843980,0.081530,0.289384,0.208374,-0.528638,0.052216,-0.847240,-0.013278,-0.158234,0.051616,-5.615173,-21.845440,15.372742,,,,,,,
1523696172.103950,-0.549760,-0.058161,1.848197,-0.210346,0.223022,0.228471,-0.521599,0.058129,-0.851208,-0.060066,-0.094658,-0.075809,-6.214386,-21.992367,15.748047,,,,,,,
1523696172.133918,-0.544353,-0.068855,1.849699,-0.276704,0.164878,0.209301,-0.516638,0.068800,-0.853435,-0.094278,-0.099516,-0.140324,-6.368286,-22.067196,15.223206,,,,,,,
1523696172.163886,-0.541312,-0.075327,1.851256,-0.073050,0.017185,0.135018,-0.513799,0.075256,-0.854603,-0.101130,-0.113464,-0.126552,-7.045349,-22.363995,15.374084,,,,,,,
1523696172.193854,-0.542838,-0.078910,1.854425,-0.063147,-0.105353,0.178841,-0.514960,0.078828,-0.853582,-0.104867,-0.060823,-0.113291,-6.820953,-22.290234,15.148865,,,,,,,
1523696172.223823,-0.546260,-0.083754,1.858656,-0.054717,-0.088590,0.211850,-0.517674,0.083656,-0.851478,-0.100093,-0.009666,-0.059106,-6.367386,-22.067043,15.373230,,,,,,,
1523696172.253791,-0.547401,-0.087893,1.864646,0.029514,-0.066780,0.253450,-0.518461,0.087780,-0.850584,-0.006884,0.015873,-0.014391,-6.671707,-22.365902,15.149231,,,,,,,
1523696172.283759,-0.548795,-0.088308,1.872959,0.214226,-0.096821,0.228050,-0.519627,0.088193,-0.849829,0.041050,-0.034192,0.069022,-7.046997,-22.439144,15.224365,,,,,,,
1523696172.313727,-0.552925,-0.083502,1.882552,0.334979,-0.139207,0.169572,-0.523349,0.083405,-0.848027,0.079074,-0.059312,0.142750,-6.665573,-21.840786,15.297180,,,,,,,
1523696172.343696,-0.550572,-0.078735,1.891996,0.263605,0.165749,0.196913,-0.521554,0.078654,-0.849585,0.047112,-0.106349,-0.001092,-7.559845,-21.536312,15.745544,,,,,,,
1523696172.373664,-0.545706,-0.076893,1.899767,0.132174,0.106765,0.168112,-0.517488,0.076818,-0.852235,-0.048735,-0.098744,-0.124526,-8.308319,-21.382946,15.744568,,,,,,,
1523696172.403632,-0.543133,-0.076053,1.904948,0.090545,0.041385,0.110612,-0.515327,0.075980,-0.853619,-0.040688,-0.140921,-0.185581,-7.629745,-21.160778,15.968994,,,,,,,
1523696172.433601,-0.544061,-0.075530,1.908283,0.064537,-0.090028,0.070233,-0.516139,0.075458,-0.853174,-0.067449,-0.195621,-0.119192,-8.380020,-21.232327,16.043884,,,,,,,
1523696172.463569,-0.549060,-0.075750,1.910321,-0.000218,-0.241824,0.071399,-0.520389,0.075677,-0.850569,-0.059338,-0.225763,-0.014345,-8.456192,-21.307049,15.969116,,,,,,,
1523696172.493537,-0.553118,-0.080313,1.913085,-0.132719,-0.062079,0.246930,-0.523650,0.080227,-0.848148,-0.070939,-0.227886,-0.031659,-7.630341,-21.310619,16.119568,,,,,,,
1523696172.523505,-0.555854,-0.087547,1.919875,-0.026978,-0.174636,0.348354,-0.525648,0.087436,-0.846197,-0.061662,-0.205554,0.018255,-8.527771,-21.006664,16.042908,,,,,,,
1523696172.553474,-0.561201,-0.090329,1.930726,0.211141,-0.166734,0.349587,-0.530034,0.090206,-0.843165,0.030659,-0.183575,0.088984,-8.600815,-21.080883,16.493164,,,,,,,
1523696172.583442,-0.564815,-0.085847,1.943381,0.331200,-0.153688,0.266543,-0.533288,0.085742,-0.841577,0.039636,-0.110827,0.120294,-7.989746,-20.108410,16.714600,,,,,,,
1523696172.613410,-0.564577,-0.078530,1.954182,0.324271,0.119892,0.197016,-0.533409,0.078450,-0.842211,0.066765,-0.065464,0.056384,-9.409744,-19.876568,17.162964,,,,,,,
1523696172.643378,-0.562021,-0.074168,1.962411,0.170288,0.004835,0.142673,-0.531432,0.074100,-0.843853,0.029388,-0.072300,0.066342,-9.253906,-19.427044,17.386230,,,,,,,
1523696172.673377,-0.560681,-0.075364,1.966743,-0.054640,0.097755,0.155197,-0.530254,0.075292,-0.844489,-0.038777,-0.089239,0.076774,-10.301758,-19.347103,17.610413,,,,,,,
1523696172.703345,-0.554552,-0.082423,1.969207,-0.199665,0.221899,0.230626,-0.524775,0.082330,-0.847250,-0.067785,-0.150262,-0.033548,-10.306702,-19.572536,17.161316,,,,,,,
1523696172.733314,-0.555472,-0.089485,1.973132,-0.082238,-0.232248,0.249278,-0.525235,0.089366,-0.846252,-0.053409,-0.128428,0.007552,-10.160614,-19.873348,17.012512,,,,,,,
1523696172.763282,-0.563465,-0.091657,1.979800,0.110012,-0.233658,0.232364,-0.531877,0.091529,-0.841861,0.001313,-0.051001,0.092120,-9.630096,-19.500423,17.311279,,,,,,,
1523696172.793250,-0.568315,-0.089150,1.987841,0.192878,-0.124238,0.204625,-0.536075,0.089032,-0.839462,0.056980,-0.030362,0.097198,-9.928864,-19.648632,17.761780,,,,,,,
1523696172.823218,-0.568492,-0.086536,1.996049,0.190595,0.040727,0.169289,-0.536348,0.086428,-0.839560,0.005021,-0.013094,0.053290,-10.302643,-19.571880,17.836304,,,,,,,
1523696172.853187,-0.564329,-0.085375,2.002087,0.114499,0.191910,0.153105,-0.532901,0.085272,-0.841870,-0.006924,0.008173,-0.033725,-10.299500,-19.346737,17.985413,,,,,,,
1523696172.883155,-0.561035,-0.083589,2.008319,0.191480,-0.037663,0.135267,-0.530205,0.083491,-0.843748,-0.020118,-0.019816,0.034773,-10.449356,-19.420925,18.135559,,,,,,,
1523696172.913123,-0.563973,-0.079638,2.015874,0.276614,-0.071000,0.160939,-0.532854,0.079554,-0.842459,-0.026609,-0.030131,0.086233,-10.974167,-19.493404,18.285645,,,,,,,
1523696172.943091,-0.562136,-0.075868,2.025178,0.271756,0.085973,0.204464,-0.531461,0.075795,-0.843685,-0.056094,-0.076634,0.024089,-11.044067,-19.117870,18.509094,,,,,,,
1523696172.973060,-0.557866,-0.072021,2.034928,0.274054,0.143223,0.222522,-0.528004,0.071959,-0.846187,-0.070506,-0.096129,-0.081288,-11.267136,-18.966793,18.583374,,,,,,,
1523696173.003006,-0.555323,-0.069596,2.043647,0.158466,0.039604,0.188451,-0.525942,0.069540,-0.847673,-0.059996,-0.117407,-0.139983,-10.889450,-18.743420,18.657654,,,,,,,
1523696173.032974,-0.556800,-0.068497,2.049331,0.116493,-0.102258,0.128889,-0.527233,0.068444,-0.846959,-0.007572,-0.177010,-0.074092,-10.735123,-18.219265,18.505615,,,,,,,
,,,,,,,,,,,,,,,,25.319912,51.452548,14.693355,3.470000,248.906250,1523696172.998120,
1523696173.062943,-0.560544,-0.066843,2.054503,0.132272,-0.160704,0.123632,-0.530459,0.066793,-0.845075,-0.025601,-0.209646,0.003964,-10.956497,-17.993038,18.729675,,,,,,,
1523696173.092911,-0.564365,-0.064583,2.059867,0.169926,-0.105500,0.117213,-0.533765,0.064539,-0.843167,-0.027637,-0.165140,0.057522,-11.182098,-18.141872,18.880127,,,,,,,
1523696173.122879,-0.566825,-0.060456,2.066848,0.246598,-0.117585,0.146054,-0.535976,0.060419,-0.842069,-0.055455,-0.114557,0.040418,-11.022644,-17.467144,19.327515,,,,,,,
1523696173.152847,-0.571939,-0.053578,2.075511,0.331672,-0.156252,0.175985,-0.540487,0.053553,-0.839647,-0.056010,-0.031885,0.074815,-11.025055,-17.841915,19.553955,,,,,,,
1523696173.182816,-0.570413,-0.046194,2.086652,0.345820,0.207766,0.235303,-0.539404,0.046177,-0.840780,-0.079111,-0.054051,-0.034952,-10.793335,-16.943325,19.175476,,,,,,,
1523696173.212784,-0.562711,-0.042275,2.096725,0.197976,0.314498,0.220170,-0.533005,0.042263,-0.845056,-0.103546,-0.051464,-0.177893,-11.540146,-16.939449,19.700134,,,,,,,
1523696173.242752,-0.554134,-0.044063,2.102333,-0.073566,0.176354,0.166824,-0.525696,0.044049,-0.849531,-0.088210,-0.105511,-0.223879,-11.326828,-17.616222,18.877930,,,,,,,
1523696173.272720,-0.555826,-0.051212,2.103613,-0.204280,-0.165497,0.167083,-0.526954,0.051190,-0.848351,-0.048287,-0.122159,-0.077873,-11.177917,-17.542202,18.577698,,,,,,,
1523696173.302689,-0.560819,-0.057444,2.106136,-0.066666,-0.159636,0.192745,-0.531003,0.057413,-0.845423,-0.064059,-0.121423,-0.021154,-11.771423,-17.164074,19.025940,,,,,,,
1523696173.332657,-0.564050,-0.061220,2.111691,0.019826,-0.088011,0.252406,-0.533612,0.061182,-0.843513,-0.043964,-0.107034,-0.079857,-11.700012,-17.614254,19.177734,,,,,,,
1523696173.362625,-0.568029,-0.064373,2.118176,-0.004019,-0.216216,0.208827,-0.536857,0.064329,-0.841217,-0.013527,-0.134489,-0.053177,-11.545700,-17.090099,19.025757,,,,,,,
1523696173.392593,-0.577218,-0.068014,2.122496,-0.004446,-0.358349,0.170621,-0.544433,0.067962,-0.836046,0.057480,-0.161147,0.077242,-11.393738,-17.165325,19.476135,,,,,,,
1523696173.422562,-0.582908,-0.068791,2.127780,0.087499,-0.066498,0.191697,-0.549152,0.068737,-0.832891,0.048419,-0.204220,0.119192,-11.394196,-17.165401,19.401123,,,,,,,
1523696173.452530,-0.579948,-0.068401,2.134657,0.095899,0.170247,0.219171,-0.546699,0.068348,-0.834535,-0.016015,-0.226001,0.060853,-10.792435,-16.943188,19.325500,,,,,,,
1523696173.482498,-0.573151,-0.069637,2.141286,0.010218,0.134152,0.242598,-0.540968,0.069581,-0.838160,-0.035387,-0.180543,-0.032293,-12.057327,-16.336819,19.997437,,,,,,,
1523696173.512466,-0.575182,-0.072601,2.146654,-0.050769,-0.128149,0.242806,-0.542554,0.072538,-0.836883,0.005048,-0.114759,0.041778,-11.535507,-16.564312,19.848633,,,,,,,
1523696173.542435,-0.579101,-0.074205,2.153080,0.105141,-0.140102,0.225882,-0.545766,0.074137,-0.834652,-0.008418,-0.017679,0.060833,-11.455276,-16.039684,19.846619,,,,,,,
1523696173.572403,-0.579999,-0.072535,2.161665,0.190279,0.047681,0.237482,-0.546582,0.072472,-0.834264,-0.000613,0.031242,-0.008952,-12.351807,-15.735577,19.919861,,,,,,,
1523696173.602371,-0.577018,-0.072229,2.169709,0.105990,0.024743,0.205472,-0.544105,0.072166,-0.835908,0.026755,0.034432,0.017991,-13.026321,-15.732464,19.994568,,,,,,,
1523696173.632340,-0.580332,-0.072154,2.175988,0.149104,-0.174803,0.158818,-0.546875,0.072092,-0.834105,0.068726,-0.004068,0.114668,-12.119003,-15.136318,20.217651,,,,,,,
1523696173.662308,-0.584161,-0.068585,2.183056,0.284319,-0.083418,0.108758,-0.550204,0.068531,-0.832214,0.029604,0.011989,0.160369,-12.632309,-14.458187,21.039612,,,,,,,
1523696173.692276,-0.580698,-0.063094,2.188887,0.184799,0.243636,0.025243,-0.547516,0.063052,-0.834417,-0.052277,0.058011,0.030202,-12.636200,-14.758327,20.890869,,,,,,,
1523696173.722244,-0.571287,-0.063677,2.188998,-0.138558,0.288998,0.035611,-0.539619,0.063634,-0.839501,0.010872,0.094737,-0.134818,-12.795471,-15.283276,20.217896,,,,,,,
1523696173.752213,-0.571712,-0.069221,2.187729,-0.157080,-0.222329,0.073401,-0.539777,0.069166,-0.838962,0.024106,0.112246,-0.051923,-13.466705,-15.129879,20.591980,,,,,,,
1523696173.782181,-0.581581,-0.071653,2.187588,-0.003568,-0.334998,0.022489,-0.547936,0.071592,-0.833451,0.023430,0.083849,0.126435,-13.326447,-16.105511,20.595947,,,,,,,
1523696173.812149,-0.585838,-0.071135,2.189026,0.062974,0.032182,0.067985,-0.551500,0.071075,-0.831142,-0.027098,0.021164,0.031306,-12.349533,-15.959835,20.670776,,,,,,,
1523696173.842117,-0.581186,-0.072241,2.191253,-0.009333,0.129905,0.097675,-0.547584,0.072178,-0.833632,-0.060006,-0.073399,-0.109865,-13.632263,-16.554363,20.372559,,,,,,,
1523696173.872086,-0.584920,-0.075499,2.193047,-0.028389,-0.303603,0.100223,-0.550560,0.075427,-0.831381,-0.004478,-0.044132,-0.004511,-13.333481,-16.630779,20.297974,,,,,,,
1523696173.902054,-0.594719,-0.076138,2.195546,0.085054,-0.274985,0.071502,-0.558653,0.076064,-0.825906,-0.003969,-0.068832,0.121545,-13.475235,-16.254391,21.046387,,,,,,,
1523696173.932022,-0.597285,-0.072560,2.199887,0.220132,0.090181,0.076562,-0.560920,0.072497,-0.824690,-0.032296,-0.014284,0.086179,-13.774765,-16.252972,21.121277,,,,,,,
1523696173.962021,-0.587915,-0.066405,2.207240,0.357962,0.370215,0.096637,-0.553405,0.066356,-0.830265,-0.030564,-0.028865,-0.020855,-13.480911,-16.779446,20.973572,,,,,,,
1523696173.992002,-0.577959,-0.057341,2.217444,0.454447,0.261340,0.131982,-0.545417,0.057310,-0.836203,-0.076928,-0.065199,-0.080835,-13.998093,-16.176815,21.270874,,,,,,,
1523696174.021970,-0.575786,-0.048945,2.226143,0.338251,-0.004656,0.071424,-0.543842,0.048925,-0.837760,-0.040768,-0.064642,-0.013269,-13.848846,-16.252483,21.271240,,,,,,,
,,,,,,,,,,,,,,,,25.319902,51.452521,14.750927,3.390000,238.007812,1523696173.998109,
1523696174.051939,-0.575538,-0.042892,2.233657,0.284727,0.029084,0.127824,-0.543786,0.042879,-0.838128,-0.059379,-0.137422,-0.010810,-14.068176,-15.726421,21.344055,,,,,,,
1523696174.081907,-0.573279,-0.039999,2.241532,0.152291,0.109641,0.204358,-0.541956,0.039988,-0.839455,-0.100271,-0.197550,-0.058387,-13.471039,-15.879330,21.119934,,,,,,,
1523696174.111875,-0.568859,-0.040263,2.249045,0.132071,0.133018,0.211777,-0.538235,0.040252,-0.841833,-0.117252,-0.209380,-0.135553,-14.368301,-15.650219,21.193542,,,,,,,
1523696174.141843,-0.565211,-0.040945,2.256597,0.092325,0.112688,0.243745,-0.535145,0.040934,-0.843768,-0.079936,-0.259531,-0.145002,-14.739532,-15.273556,21.191895,,,,,,,
1523696174.171812,-0.563167,-0.043564,2.264197,0.056337,-0.028681,0.264098,-0.533360,0.043550,-0.844767,-0.061367,-0.277620,-0.102545,-14.734589,-14.823513,21.265076,,,,,,,
1523696174.201780,-0.565693,-0.045771,2.271534,0.064657,-0.109264,0.236479,-0.535439,0.045755,-0.843333,-0.011329,-0.265725,0.011485,-14.732056,-14.523586,21.188843,,,,,,,
1523696174.231748,-0.568248,-0.049635,2.277688,-0.051713,-0.094192,0.249168,-0.537493,0.049615,-0.841807,0.011019,-0.247491,0.071742,-14.585052,-14.599621,20.814270,,,,,,,
1523696174.261717,-0.571062,-0.055618,2.281612,-0.134632,-0.079787,0.193688,-0.539690,0.055590,-0.840027,-0.006041,-0.154238,0.069565,-15.257950,-14.521374,21.038574,,,,,,,
1523696174.291685,-0.568210,-0.061866,2.282674,-0.279464,0.218245,0.174097,-0.537095,0.061827,-0.841253,-0.023574,-0.101850,-0.121577,-14.811707,-14.898388,21.040283,,,,,,,
1523696174.321653,-0.565172,-0.072095,2.280896,-0.414985,-0.038368,0.144425,-0.534170,0.072033,-0.842303,-0.014109,-0.071377,-0.179456,-14.220261,-15.351711,20.367432,,,,,,,
1523696174.351621,-0.573062,-0.084233,2.277430,-0.406779,-0.342342,0.151131,-0.540285,0.084134,-0.837266,0.011309,-0.058392,-0.046096,-14.897186,-15.723370,20.668579,,,,,,,
1523696174.381590,-0.582599,-0.094933,2.276007,-0.301069,-0.307707,0.176739,-0.547719,0.094790,-0.831276,0.022893,-0.029223,0.074760,-14.747635,-15.724117,20.593689,,,,,,,
1523696174.411558,-0.589142,-0.102720,2.277743,-0.086801,-0.125604,0.194833,-0.552719,0.102540,-0.827035,0.019501,-0.007523,0.128976,-14.221756,-15.726330,20.743896,,,,,,,
1523696174.441526,-0.589748,-0.105219,2.282822,0.090074,0.012228,0.176707,-0.553076,0.105025,-0.826485,0.031500,0.001008,0.167763,-15.345947,-15.870907,21.118958,,,,,,,
1523696174.471494,-0.585885,-0.104008,2.290360,0.230571,0.163740,0.188388,-0.549949,0.103821,-0.828720,0.037253,0.030365,0.138459,-15.044922,-15.722332,21.043457,,,,,,,
1523696174.501463,-0.578236,-0.099055,2.299218,0.349977,0.272375,0.110583,-0.543868,0.098893,-0.833323,-0.053635,0.066802,0.089122,-14.895401,-15.498455,20.592712,,,,,,,
1523696174.531431,-0.563873,-0.090140,2.307150,0.416698,0.569023,0.061319,-0.532294,0.090018,-0.841760,-0.023416,0.033425,-0.069632,-15.568115,-15.495052,20.967346,,,,,,,
1523696174.561399,-0.548228,-0.081479,2.317071,0.402377,0.331504,0.145725,-0.519447,0.081389,-0.850618,-0.057885,0.069109,-0.185225,-16.167480,-15.117886,20.440552,,,,,,,
1523696174.591367,-0.547266,-0.071810,2.328021,0.564039,-0.231309,0.187964,-0.519013,0.071749,-0.851750,0.060212,0.005674,-0.080898,-15.189392,-14.897137,20.590149,,,,,,,
1523696174.621336,-0.556409,-0.057966,2.345439,0.749007,-0.382851,0.213835,-0.527253,0.057934,-0.847731,0.053132,0.063221,0.118590,-16.151749,-14.216839,21.561951,,,,,,,
1523696174.651304,-0.564556,-0.039093,2.360552,0.821294,-0.142936,0.070862,-0.534632,0.039083,-0.844181,0.094507,0.058237,0.260471,-16.144104,-13.766338,22.085144,,,,,,,
1523696174.681272,-0.563222,-0.022913,2.374815,0.677592,0.190022,0.070419,-0.533773,0.022911,-0.845317,-0.046305,0.076698,0.106609,-15.536209,-13.019009,22.157410,,,,,,,
1523696174.711240,-0.551826,-0.008200,2.385231,0.519795,0.427646,0.030645,-0.524225,0.008200,-0.851540,-0.040319,-0.067297,-0.051017,-16.435410,-12.939953,22.156677,,,,,,,
1523696174.741209,-0.541107,0.000691,2.392057,0.217085,0.341056,0.061401,-0.515085,-0.000691,-0.857139,-0.017767,-0.096873,-0.113137,-16.590210,-13.239559,21.857788,,,,,,,
1523696174.771177,-0.535414,-0.003671,2.393051,-0.310045,0.019874,0.135920,-0.510194,0.003671,-0.860051,0.018129,-0.120645,-0.085566,-16.222427,-13.467037,21.033875,,,,,,,
1523696174.801145,-0.541262,-0.015086,2.390297,-0.345332,-0.292043,0.079729,-0.515159,0.015086,-0.856962,-0.080559,-0.109110,0.017683,-17.047104,-13.613033,21.334106,,,,,,,
1523696174.831113,-0.547980,-0.019862,2.387917,-0.076197,-0.122243,0.011585,-0.520861,0.019861,-0.853410,-0.099897,-0.176172,-0.023817,-16.308502,-14.441875,20.812744,,,,,,,
1523696174.861082,-0.549202,-0.020107,2.389779,0.076336,-0.057295,0.092602,-0.521901,0.020106,-0.852769,-0.121425,-0.198908,-0.022994,-15.861649,-14.669033,20.663879,,,,,,,
1523696174.891050,-0.551698,-0.019609,2.394506,0.096443,-0.027973,0.149049,-0.524033,0.019608,-0.851472,-0.061050,-0.196412,0.080842,-16.088440,-14.892941,20.739685,,,,,,,
1523696174.921018,-0.547750,-0.018659,2.401111,0.142082,0.177842,0.177658,-0.520677,0.018658,-0.853550,-0.023940,-0.204403,0.016605,-16.610275,-14.665447,20.888489,,,,,,,
1523696174.950987,-0.544024,-0.017540,2.407306,0.069226,0.155510,0.206394,-0.517503,0.017540,-0.855501,-0.028014,-0.229484,0.018129,-17.358444,-14.437145,20.812195,,,,,,,
1523696174.980955,-0.536668,-0.021730,2.412954,-0.197316,0.334082,0.291268,-0.511155,0.021729,-0.859214,-0.052596,-0.227982,-0.153100,-17.210266,-14.438122,20.512329,,,,,,,
1523696175.010915,-0.525620,-0.037724,2.414915,-0.540237,0.326259,0.318711,-0.501392,0.037715,-0.864398,-0.117733,-0.165798,-0.342588,-17.663239,-14.511456,20.137390,,,,,,,
1523696175.040883,-0.523096,-0.053629,2.414699,-0.337930,-0.148520,0.218111,-0.498846,0.053603,-0.865031,-0.077051,-0.116286,-0.292897,-16.690552,-14.516201,19.762878,,,,,,,
,,,,,,,,,,,,,,,,25.319873,51.452488,14.837803,3.510000,226.054688,1523696174.998098,
1523696175.070852,-0.534725,-0.058565,2.417218,0.074098,-0.500709,0.137796,-0.508731,0.058532,-0.858934,0.026416,-0.122252,0.135118,-17.738693,-14.286572,19.686401,,,,,,,
1523696175.100820,-0.549297,-0.054693,2.424801,0.280466,-0.413160,0.155981,-0.521307,0.054666,-0.851617,0.065588,-0.160989,0.295907,-17.206528,-13.838512,20.134888,,,,,,,
1523696175.130788,-0.551800,-0.053163,2.432754,0.093576,0.118205,0.213908,-0.523480,0.053138,-0.850379,0.045285,-0.155875,0.203132,-16.529465,-13.541714,19.984009,,,,,,,
1523696175.160756,-0.543962,-0.057074,2.437419,-0.111705,0.259164,0.186979,-0.516687,0.057043,-0.854272,0.014048,-0.086630,-0.017463,-18.400650,-13.382915,20.357483,,,,,,,
1523696175.190725,-0.540393,-0.063936,2.438837,-0.195985,-0.004951,0.149885,-0.513422,0.063892,-0.855755,0.014169,-0.047184,-0.087025,-17.509521,-13.912518,19.760071,,,,,,,
1523696175.220693,-0.545137,-0.070855,2.440870,-0.108686,-0.236132,0.203461,-0.517234,0.070795,-0.852911,-0.008965,0.014669,-0.098581,-17.953964,-13.535229,20.058289,,,,,,,
1523696175.250692,-0.548721,-0.073990,2.445339,-0.000567,-0.060314,0.095745,-0.520170,0.073923,-0.850858,-0.215747,0.127066,-0.012134,-18.394943,-13.082485,20.806274,,,,,,,
1523696175.280660,-0.541982,-0.073704,2.443310,0.005839,0.413947,-0.107173,-0.514435,0.073637,-0.854362,-0.050049,0.119860,-0.024682,-18.110107,-13.835049,19.534424,,,,,,,
1523696175.310628,-0.535161,-0.070734,2.448033,0.311687,0.008892,0.267464,-0.508704,0.070675,-0.858035,0.180930,0.166691,-0.011319,-19.080261,-13.530376,19.832764,,,,,,,
1523696175.340596,-0.540738,-0.064696,2.465726,0.542355,-0.302890,0.399013,-0.513692,0.064651,-0.855535,0.032643,0.222275,0.217810,-18.779221,-13.606441,20.133179,,,,,,,
1523696175.370565,-0.540700,-0.053730,2.483651,0.709039,0.302165,0.280244,-0.513994,0.053704,-0.856111,0.120470,0.079917,0.325578,-18.104874,-13.310070,19.532288,,,,,,,
1523696175.400533,-0.517189,-0.034684,2.501505,0.877486,1.032738,0.140051,-0.494141,0.034677,-0.868690,0.007722,0.012946,0.035148,-18.699432,-12.857250,19.680237,,,,,,,
1523696175.430501,-0.485338,-0.020105,2.512434,0.321207,0.921077,0.047047,-0.466413,0.020104,-0.884339,-0.009219,-0.107552,-0.321167,-21.096817,-12.097286,18.850952,,,,,,,
1523696175.460470,-0.472495,-0.020166,2.513550,-0.084066,0.048761,0.027378,-0.455017,0.020164,-0.890254,0.042282,-0.065269,-0.151112,-20.652084,-12.399670,18.477417,,,,,,,
1523696175.490438,-0.480789,-0.019417,2.514147,0.151128,-0.409528,-0.014595,-0.462392,0.019416,-0.886463,-0.006785,-0.057777,0.116474,-20.798935,-12.173855,18.626465,,,,,,,
1523696175.520406,-0.490688,-0.015510,2.516838,0.070452,-0.187909,0.083135,-0.471177,0.015509,-0.881903,-0.141861,-0.113913,0.103719,-21.021530,-12.022701,18.775696,,,,,,,
1523696175.550374,-0.488731,-0.022045,2.519830,-0.263050,0.172907,0.266869,-0.469392,0.022043,-0.882715,-0.173995,-0.199548,-0.127814,-19.978470,-12.402920,18.252747,,,,,,,
1523696175.580343,-0.489451,-0.031867,2.524403,-0.132353,-0.178194,0.285422,-0.469902,0.031862,-0.882143,-0.100822,-0.223863,-0.007048,-21.548904,-12.170483,18.626038,,,,,,,
1523696175.610311,-0.491501,-0.035307,2.531005,0.116689,0.040524,0.220402,-0.471655,0.035300,-0.881076,-0.029840,-0.257742,0.094333,-21.619415,-11.720165,18.624207,,,,,,,
1523696175.640279,-0.488164,-0.031009,2.539446,0.233886,0.169141,0.173474,-0.468779,0.031005,-0.882771,0.039702,-0.231246,0.060002,-20.568573,-11.275494,18.022949,,,,,,,
1523696175.670247,-0.483987,-0.029924,2.544349,-0.083369,0.108469,0.149854,-0.465104,0.029919,-0.884750,0.077744,-0.201138,-0.079056,-21.839615,-11.194256,18.546997,,,,,,,
1523696175.700216,-0.482451,-0.036649,2.545097,-0.303675,0.025062,0.149782,-0.463640,0.036640,-0.885266,0.033388,-0.166249,-0.181812,-21.846054,-11.569668,18.098511,,,,,,,
1523696175.730184,-0.488688,-0.045803,2.544537,-0.199435,-0.365826,0.091647,-0.468976,0.045787,-0.882023,-0.022892,-0.061046,-0.117107,-21.472717,-11.646496,17.949036,,,,,,,
1523696175.760152,-0.492676,-0.048258,2.544819,-0.063773,0.080373,0.056142,-0.472434,0.048240,-0.880045,-0.046349,-0.028968,-0.016211,-22.889877,-11.264446,18.621765,,,,,,,
1523696175.790120,-0.489561,-0.051520,2.545979,-0.119117,-0.044241,0.118020,-0.469615,0.051497,-0.881368,-0.056478,0.017015,-0.026118,-22.893173,-11.414730,18.322388,,,,,,,
1523696175.820089,-0.494906,-0.056870,2.547943,-0.099676,-0.185893,0.157602,-0.474181,0.056840,-0.878590,-0.029176,0.027236,0.061604,-22.144104,-11.418255,18.172729,,,,,,,
1523696175.850057,-0.499635,-0.058999,2.553194,0.112670,-0.160194,0.204624,-0.478272,0.058965,-0.876230,0.014191,0.029094,0.097788,-22.961716,-11.038982,18.770813,,,,,,,
1523696175.880025,-0.500803,-0.055501,2.562080,0.340223,0.094364,0.191744,-0.479391,0.055472,-0.875847,0.029149,0.005670,0.125129,-22.436905,-10.966488,18.620789,,,,,,,
1523696175.909993,-0.495232,-0.049285,2.571575,0.306738,0.207318,0.158573,-0.474659,0.049265,-0.878790,0.001347,-0.030130,0.011816,-22.508438,-10.666088,18.694580,,,,,,,
1523696175.939962,-0.488610,-0.045164,2.577605,0.156697,0.227359,0.080661,-0.468920,0.045149,-0.882086,-0.017225,-0.028471,-0.132303,-23.258270,-10.512951,18.468567,,,,,,,
1523696175.969930,-0.487614,-0.044470,2.581650,0.053170,-0.195555,0.117236,-0.468056,0.044455,-0.882580,-0.042365,0.015421,-0.093693,-23.485077,-10.736843,18.544373,,,,,,,
1523696175.999895,-0.498221,-0.045193,2.585932,0.063906,-0.368042,0.162172,-0.477375,0.045178,-0.877537,-0.000347,0.032780,0.149525,-22.502304,-10.140972,18.842468,,,,,,,
1523696176.029863,-0.505684,-0.044718,2.593718,0.208541,-0.152263,0.252632,-0.483921,0.044703,-0.873969,-0.001445,-0.005305,0.193747,-23.539230,-9.460262,19.889160,,,,,,,
,,,,,,,,,,,,,,,,25.319854,51.452473,14.620223,3.630000,217.265625,1523696175.998088,
1523696176.059832,-0.503360,-0.040366,2.605552,0.372288,0.206271,0.283297,-0.481978,0.040355,-0.875253,-0.050141,-0.081935,0.075800,-23.837570,-9.159145,19.662842,,,,,,,
1523696176.089800,-0.492717,-0.036149,2.617222,0.231205,0.383172,0.260639,-0.472712,0.036141,-0.880475,-0.060613,-0.103829,-0.116580,-23.166519,-9.013058,18.762573,,,,,,,
1523696176.119768,-0.484917,-0.033537,2.624994,0.216816,0.115309,0.126641,-0.465873,0.033531,-0.884216,0.057334,-0.128868,-0.105210,-23.833847,-8.559536,19.285461,,,,,,,
1523696176.149737,-0.485890,-0.027075,2.630494,0.287652,-0.130855,0.049162,-0.466824,0.027072,-0.883936,0.130749,-0.156039,0.101282,-24.354767,-8.331890,19.584290,,,,,,,
1523696176.179705,-0.490447,-0.024232,2.634185,0.002510,-0.099584,0.087267,-0.470882,0.024230,-0.881863,0.052395,-0.150221,0.076810,-23.600021,-7.810360,19.507568,,,,,,,
1523696176.209673,-0.492345,-0.031323,2.634744,-0.308396,-0.086424,0.139233,-0.472462,0.031318,-0.880795,-0.128643,-0.120628,-0.270161,-25.023590,-8.028362,20.107727,,,,,,,
1523696176.239641,-0.496039,-0.042568,2.632876,-0.350332,-0.177557,0.117985,-0.475515,0.042555,-0.878678,-0.126673,-0.087309,-0.325195,-24.806686,-8.704556,19.885559,,,,,,,
1523696176.269610,-0.507061,-0.050946,2.632023,-0.219190,-0.460488,0.111969,-0.484980,0.050924,-0.873041,-0.078985,-0.075063,-0.049246,-24.877502,-8.553799,20.334900,,,,,,,
1523696176.299578,-0.521769,-0.057759,2.633364,-0.119369,-0.505839,0.178159,-0.497584,0.057727,-0.865493,0.002772,-0.045581,0.191985,-24.649200,-8.404522,20.634399,,,,,,,
1523696176.329545,-0.532242,-0.061877,2.637681,-0.011491,-0.234224,0.199274,-0.506495,0.061838,-0.860023,0.014750,-0.039301,0.238486,-24.199661,-8.631237,20.935608,,,,,,,
1523696176.359514,-0.531829,-0.064100,2.642811,0.056725,0.189728,0.178655,-0.506069,0.064056,-0.860111,0.015041,-0.033157,0.100742,-24.420151,-8.404873,21.309570,,,,,,,
1523696176.389482,-0.522442,-0.062884,2.648593,0.181528,0.318481,0.108298,-0.498012,0.062842,-0.864890,-0.023045,0.001718,-0.048715,-24.569855,-8.329281,21.234192,,,,,,,
1523696176.419451,-0.508048,-0.060255,2.653968,0.149382,0.563828,0.136792,-0.485590,0.060219,-0.872110,-0.011343,-0.032753,-0.220633,-24.876602,-8.329021,20.109009,,,,,,,
1523696176.449419,-0.498095,-0.058268,2.659375,0.151806,0.124075,0.111667,-0.476942,0.058235,-0.877003,-0.044268,-0.041634,-0.217723,-24.199371,-8.107067,20.108459,,,,,,,
1523696176.479387,-0.498577,-0.054607,2.665392,0.231947,-0.070746,0.135363,-0.477464,0.054579,-0.876955,-0.074843,-0.029723,-0.095686,-25.017288,-7.802715,20.781860,,,,,,,
1523696176.509356,-0.500324,-0.051119,2.672051,0.192404,-0.090796,0.127904,-0.479083,0.051096,-0.876281,-0.101834,-0.011698,-0.021745,-24.937653,-7.427929,20.930420,,,,,,,
1523696176.539354,-0.503965,-0.045587,2.679985,0.391652,-0.142491,0.157927,-0.482399,0.045572,-0.874765,-0.002052,0.052039,0.068430,-25.075790,-6.826336,21.902893,,,,,,,
1523696176.569323,-0.503628,-0.033966,2.692678,0.629623,0.124313,0.210059,-0.482328,0.033960,-0.875332,0.061491,0.047827,0.127682,-25.741348,-5.923260,21.973999,,,,,,,
1523696176.599291,-0.495978,-0.019057,2.707666,0.701026,0.290182,0.171577,-0.475805,0.019056,-0.879344,0.114248,0.041827,0.106944,-24.317001,-5.630276,21.373474,,,,,,,
1523696176.629259,-0.487732,-0.006443,2.719825,0.454278,0.221966,0.136306,-0.468614,0.006443,-0.883380,0.102449,0.005489,0.084735,-25.507065,-4.949398,21.895203,,,,,,,
1523696176.659227,-0.481550,0.000053,2.726358,0.188871,0.249643,0.073207,-0.463154,-0.000053,-0.886278,0.023472,-0.024315,0.002001,-25.804825,-4.498440,21.518250,,,,,,,
1523696176.689196,-0.475496,0.001447,2.728707,-0.003642,0.136662,0.039080,-0.457779,-0.001447,-0.889065,-0.011322,-0.063235,-0.057514,-24.833176,-4.653103,21.219360,,,,,,,
1523696176.719164,-0.474235,-0.002917,2.728469,-0.231022,-0.053231,0.074269,-0.456656,0.002917,-0.889638,-0.039834,-0.113345,-0.091013,-24.903366,-4.577114,21.893982,,,,,,,
1523696176.749132,-0.480353,-0.013275,2.726471,-0.377739,-0.334775,0.120258,-0.462052,0.013274,-0.886754,-0.074203,-0.078735,-0.055309,-26.111267,-5.097134,21.445435,,,,,,,
1523696176.779101,-0.491202,-0.021182,2.726055,-0.175896,-0.302478,0.139560,-0.471580,0.021181,-0.881569,-0.056038,-0.091478,0.042137,-25.813049,-5.323391,21.521545,,,,,,,
1523696176.809069,-0.499605,-0.024830,2.729985,0.008164,-0.384043,0.190916,-0.478931,0.024828,-0.877501,-0.005093,-0.096758,0.124282,-25.736862,-5.473293,21.972168,,,,,,,
1523696176.839037,-0.512956,-0.025050,2.734774,0.047974,-0.404882,0.116388,-0.490601,0.025047,-0.871024,0.058746,-0.082390,0.234489,-24.913834,-5.851696,22.274109,,,,,,,
1523696176.869004,-0.517920,-0.026685,2.737381,-0.027995,0.008807,0.095669,-0.494898,0.026682,-0.868541,0.031397,-0.086588,0.154094,-23.785889,-5.556759,22.273499,,,,,,,
1523696176.898974,-0.507928,-0.030865,2.738140,-0.203793,0.567119,0.096035,-0.486136,0.030860,-0.873338,-0.069284,-0.074637,-0.147048,-24.905441,-5.326199,22.796997,,,,,,,
1523696176.928941,-0.492362,-0.040279,2.736626,-0.302248,0.281504,0.098382,-0.472326,0.040269,-0.880504,-0.088969,-0.025178,-0.439488,-25.290771,-6.000072,22.199463,,,,,,,
1523696176.958910,-0.497735,-0.045072,2.736373,-0.016674,-0.349134,0.070458,-0.476951,0.045057,-0.877774,-0.054863,0.012316,-0.054248,-23.794128,-6.157101,21.900879,,,,,,,
1523696176.988875,-0.504785,-0.043926,2.741218,0.175971,-0.140899,0.159890,-0.483153,0.043912,-0.874434,-0.080796,-0.024320,0.056410,-25.357513,-5.624020,22.947937,,,,,,,
1523696177.018844,-0.504910,-0.042086,2.748837,0.155382,0.098827,0.224647,-0.483300,0.042074,-0.874443,-0.014030,-0.089666,0.029762,-24.682373,-5.477276,22.722717,,,,,,,
1523696177.048812,-0.501734,-0.040560,2.757082,0.224727,0.043684,0.185322,-0.480551,0.040548,-0.876029,0.009619,-0.103293,-0.002282,-23.920303,-4.580196,23.244507,,,,,,,
,,,,,,,,,,,,,,,,25.319822,51.452452,14.538536,3.990000,206.718750,1523696176.998077,
1523696177.078780,-0.503492,-0.033540,2.765164,0.419805,-0.134672,0.091887,-0.482215,0.033533,-0.875410,0.039924,-0.095301,0.074782,-24.888382,-3.975689,23.391602,,,,,,,
1523696177.108748,-0.504458,-0.022714,2.773075,0.346183,0.108872,0.088391,-0.483208,0.022712,-0.875211,0.012124,-0.123145,-0.005633,-24.588394,-3.977032,23.391785,,,,,,,
1523696177.138717,-0.499560,-0.020496,2.778507,-0.048211,0.106114,0.166949,-0.478939,0.020495,-0.877609,-0.080632,-0.109515,-0.194199,-23.688431,-3.531841,22.640442,,,,,,,
1523696177.168685,-0.499155,-0.028506,2.780904,-0.244603,-0.054231,0.221305,-0.478489,0.028502,-0.877631,-0.085720,-0.093016,-0.212091,-24.806488,-3.151287,23.163391,,,,,,,
1523696177.198653,-0.506989,-0.036232,2.784643,-0.091395,-0.394762,0.236686,-0.485228,0.036224,-0.873637,-0.041749,-0.082199,0.003886,-24.431961,-3.153042,23.088562,,,,,,,
1523696177.228621,-0.520661,-0.038791,2.790158,0.070966,-0.453142,0.170798,-0.497079,0.038782,-0.866838,0.013299,-0.078058,0.178514,-23.080811,-3.084042,23.163940,,,,,,,
1523696177.258590,-0.526662,-0.039565,2.795521,0.054844,-0.012052,0.161814,-0.502257,0.039555,-0.863813,0.051512,-0.085545,0.139875,-24.647934,-2.701321,23.836609,,,,,,,
1523696177.288558,-0.522355,-0.040318,2.799240,0.005881,0.168173,0.085951,-0.498517,0.040307,-0.865942,0.056973,-0.116815,-0.015680,-24.056808,-3.454205,23.614929,,,,,,,
1523696177.318526,-0.521863,-0.041994,2.800848,0.012339,-0.068703,0.073398,-0.498056,0.041982,-0.866128,0.069544,-0.026876,-0.027229,-24.347946,-2.702679,23.836792,,,,,,,
1523696177.348495,-0.521928,-0.040086,2.805289,0.212428,0.066572,0.107509,-0.498152,0.040075,-0.866163,-0.030245,0.080500,0.064939,-24.498260,-2.776928,23.912048,,,,,,,
1523696177.378463,-0.514496,-0.035681,2.811028,0.179453,0.300619,0.080608,-0.491783,0.035673,-0.869986,-0.113243,0.139544,-0.081643,-24.873550,-2.625530,23.611206,,,,,,,
1523696177.408431,-0.507170,-0.033083,2.814902,0.121979,0.156976,0.127596,-0.485439,0.033077,-0.873644,0.006634,0.077549,-0.174268,-23.825256,-2.480770,23.086182,,,,,,,
1523696177.438399,-0.508915,-0.031772,2.824249,0.276542,-0.190921,0.284695,-0.486984,0.031767,-0.872833,-0.017304,0.045717,-0.061798,-24.867996,-2.474880,24.285645,,,,,,,
1523696177.468368,-0.517391,-0.026495,2.837089,0.462860,-0.327269,0.266854,-0.494440,0.026492,-0.868808,0.056422,0.021237,0.153506,-24.419830,-2.252575,23.609924,,,,,,,
1523696177.498336,-0.524171,-0.015116,2.851480,0.631930,-0.092327,0.192154,-0.500438,0.015115,-0.865640,0.089824,-0.011300,0.272150,-23.510147,-1.281673,23.606506,,,,,,,
1523696177.528304,-0.520437,-0.003624,2.864964,0.431707,0.254582,0.191658,-0.497256,0.003624,-0.867596,0.047121,-0.080849,0.147305,-24.180008,-0.903454,23.829651,,,,,,,
1523696177.558272,-0.512427,-0.001368,2.871285,-0.027117,0.227564,0.115692,-0.490294,0.001368,-0.871556,-0.036455,-0.111094,-0.051311,-24.254242,-0.828121,23.829346,,,,,,,
1523696177.588241,-0.505752,-0.008227,2.870546,-0.268025,0.262449,0.073931,-0.484449,0.008227,-0.874780,-0.033373,-0.091234,-0.220434,-24.553497,-0.751766,23.828857,,,,,,,
1523696177.618209,-0.501082,-0.013022,2.870059,-0.049082,0.014479,0.050901,-0.480334,0.013022,-0.876989,-0.088041,-0.106939,-0.258326,-24.558884,-1.201885,23.680664,,,,,,,
1523696177.648177,-0.505808,-0.014737,2.872165,-0.028207,-0.239010,0.127888,-0.484461,0.014736,-0.874688,-0.053380,-0.112225,-0.132010,-24.406647,-0.977581,23.679810,,,,,,,
1523696177.678145,-0.514932,-0.018506,2.875933,-0.035322,-0.318108,0.196159,-0.492391,0.018505,-0.870177,-0.020472,-0.121807,0.060317,-25.221588,-0.373241,24.351990,,,,,,,
1523696177.708114,-0.520161,-0.021248,2.881668,0.041597,-0.083400,0.186394,-0.496907,0.021246,-0.867543,-0.032649,-0.137915,0.136937,-25.297180,-0.298122,24.126709,,,,,,,
1523696177.738082,-0.518467,-0.022204,2.885897,0.007875,0.171184,0.112576,-0.495427,0.022202,-0.868365,0.019170,-0.198197,0.017947,-24.027924,-0.604290,23.678528,,,,,,,
1523696177.768081,-0.512066,-0.027443,2.886836,-0.217597,0.129220,0.114587,-0.489795,0.027440,-0.871406,0.000903,-0.162175,-0.104348,-24.408615,-0.903027,23.229553,,,,,,,
1523696177.798049,-0.514086,-0.033059,2.885845,-0.169323,-0.109680,0.070115,-0.491471,0.033053,-0.870266,0.053879,-0.162249,-0.030368,-24.786591,-1.425930,23.606445,,,,,,,
1523696177.828017,-0.520924,-0.035476,2.886836,-0.079924,-0.370483,0.104542,-0.497368,0.035469,-0.866814,0.018166,-0.127708,0.059670,-25.011108,-1.424847,23.681335,,,,,,,
1523696177.857985,-0.527896,-0.039183,2.888190,-0.156636,-0.025370,0.165933,-0.503330,0.039173,-0.863206,-0.007641,-0.094593,0.038087,-24.787323,-1.950176,24.358521,,,,,,,
1523696177.887954,-0.526003,-0.043360,2.891663,-0.086239,-0.012981,0.191552,-0.501608,0.043346,-0.864008,-0.069925,-0.080516,-0.072470,-24.639862,-2.026134,24.058899,,,,,,,
1523696177.917922,-0.522994,-0.045274,2.896256,0.061650,0.098268,0.184098,-0.498964,0.045259,-0.865440,-0.028136,-0.012315,-0.240182,-24.407684,-1.576733,24.507263,,,,,,,
1523696177.947890,-0.526690,-0.041060,2.903009,0.337131,-0.251273,0.080223,-0.502251,0.041049,-0.863747,0.010674,0.049039,-0.080650,-24.926071,-1.049191,24.729858,,,,,,,
1523696177.977859,-0.532339,-0.031218,2.910840,0.457486,-0.107950,0.055662,-0.507302,0.031213,-0.861202,0.039254,0.087531,0.063992,-25.071548,-0.823162,25.103882,,,,,,,
1523696178.007821,-0.532115,-0.021412,2.919745,0.369300,0.070276,0.127877,-0.507241,0.021410,-0.861538,-0.015205,0.061582,0.033978,-24.100647,-1.052837,24.805298,,,,,,,
1523696178.037789,-0.525942,-0.018355,2.929031,0.162339,0.285405,0.283079,-0.501943,0.018354,-0.864705,-0.029642,0.015062,-0.101664,-25.290878,-0.297100,25.176697,,,,,,,
1523696178.067757,-0.521495,-0.019607,2.939065,0.165202,0.000490,0.303601,-0.498081,0.019605,-0.866908,-0.085659,-0.040052,-0.143407,-25.289978,-0.072338,24.950806,,,,,,,
,,,,,,,,,,,,,,,,25.319783,51.452434,14.517644,4.450000,198.281250,1523696177.998066,
1523696178.097726,-0.519249,-0.019091,2.950507,0.217175,0.188242,0.330101,-0.496137,0.019090,-0.868034,-0.037997,-0.132752,-0.230416,-24.990433,0.150867,24.500061,,,,,,,
1523696178.127694,-0.514437,-0.019138,2.960669,0.123853,0.026289,0.273723,-0.491954,0.019137,-0.870410,-0.042714,-0.173129,-0.231656,-25.885178,0.679890,24.497498,,,,,,,
1523696178.157662,-0.522083,-0.019419,2.970052,0.197652,-0.421204,0.268889,-0.498592,0.019418,-0.866619,0.030559,-0.204339,0.012676,-25.507523,1.127888,24.195862,,,,,,,
1523696178.187630,-0.534853,-0.014400,2.981714,0.458444,-0.398261,0.237102,-0.509662,0.014400,-0.860254,0.103717,-0.248149,0.221063,-24.080170,1.496235,23.970093,,,,,,,
1523696178.217599,-0.545795,-0.003768,2.995896,0.558253,-0.312279,0.213652,-0.519094,0.003768,-0.854709,0.159444,-0.301986,0.379535,-25.344604,1.878056,25.092957,,,,,,,
1523696178.247567,-0.539801,0.005193,3.009375,0.353214,0.677204,0.258322,-0.513959,-0.005193,-0.857799,0.006375,-0.124400,0.218028,-24.970840,2.250553,24.266663,,,,,,,
1523696178.277535,-0.510465,-0.000692,3.014895,-0.335568,0.863932,0.240575,-0.488582,0.000692,-0.872517,-0.006733,-0.184408,-0.175334,-25.126709,2.250278,23.291565,,,,,,,
1523696178.307503,-0.500750,-0.014045,3.013690,-0.431320,-0.126481,0.134932,-0.480036,0.014045,-0.877136,-0.026144,-0.087211,-0.238403,-25.955109,1.729298,23.593201,,,,,,,
1523696178.337472,-0.514981,-0.022154,3.012294,-0.109428,-0.562489,0.068485,-0.492397,0.022152,-0.870088,0.002544,0.010533,0.058657,-26.404037,1.656620,23.893311,,,,,,,
1523696178.367440,-0.528422,-0.024537,3.015502,-0.000335,-0.375575,0.195182,-0.504020,0.024534,-0.863343,-0.036553,0.009844,0.200593,-24.823685,1.650410,24.794128,,,,,,,
1523696178.397408,-0.537670,-0.030585,3.021764,-0.093457,-0.278474,0.322874,-0.511897,0.030580,-0.858502,-0.005849,0.026289,0.111523,-25.266922,1.878147,25.542969,,,,,,,
1523696178.427376,-0.543435,-0.034929,3.028906,0.080895,-0.082708,0.225844,-0.516764,0.034922,-0.855415,0.024805,0.055227,0.136146,-25.269775,1.727940,25.318604,,,,,,,
1523696178.457345,-0.537234,-0.032513,3.037710,0.330608,0.346056,0.211753,-0.511491,0.032507,-0.858673,0.106645,-0.006872,0.066528,-24.446915,1.873646,24.718384,,,,,,,
1523696178.487313,-0.523840,-0.026990,3.048604,0.287241,0.432282,0.206299,-0.500026,0.026987,-0.865589,0.015422,-0.088068,-0.163555,-25.563034,2.628880,24.939880,,,,,,,
1523696178.517281,-0.515487,-0.023987,3.056401,0.221832,0.078885,0.162932,-0.492817,0.023985,-0.869802,0.047215,-0.101088,-0.189784,-24.896469,2.324986,24.041382,,,,,,,
1523696178.547249,-0.520568,-0.017630,3.065158,0.377387,-0.222254,0.168673,-0.497296,0.017629,-0.867402,0.011898,-0.151281,-0.066696,-24.590927,2.698902,24.340027,,,,,,,
1523696178.577218,-0.526463,-0.012266,3.075797,0.274599,-0.205451,0.235696,-0.502441,0.012265,-0.864524,-0.085923,-0.127576,-0.097192,-25.176376,3.752216,25.010559,,,,,,,
1523696178.607186,-0.525355,-0.012865,3.084799,0.082790,0.190910,0.302284,-0.501478,0.012864,-0.865074,-0.062639,-0.121034,-0.225426,-25.108429,3.226612,24.712646,,,,,,,
1523696178.637154,-0.525194,-0.009384,3.096640,0.503944,-0.226401,0.260408,-0.501359,0.009384,-0.865188,-0.011657,-0.092636,-0.137497,-25.845963,4.429996,24.782471,,,,,,,
1523696178.667123,-0.539736,0.007816,3.112892,0.931172,-0.590946,0.119376,-0.513894,-0.007816,-0.857818,0.059014,-0.070126,0.151748,-24.570709,4.499180,24.707825,,,,,,,
1523696178.697091,-0.557243,0.031587,3.130400,0.943655,-0.475913,0.076646,-0.528584,-0.031581,-0.848293,0.161107,-0.017399,0.332210,-23.510269,5.319782,25.080078,,,,,,,
1523696178.727059,-0.552440,0.045231,3.141248,0.336678,0.616722,0.100670,-0.524229,-0.045215,-0.850376,0.044554,0.000202,0.271976,-23.582153,5.769886,24.853271,,,,,,,
1523696178.757027,-0.529549,0.048672,-3.134582,0.065453,0.721947,0.195182,-0.504546,-0.048653,-0.862013,-0.120043,-0.080406,-0.068133,-25.238235,5.476810,24.328613,,,,,,,
1523696178.786996,-0.511049,0.033955,-3.134660,-0.661931,0.687398,0.225588,-0.488811,-0.033948,-0.871729,-0.087361,-0.158191,-0.441168,-25.102158,4.575382,23.507324,,,,,,,
1523696178.816964,-0.495902,0.016548,-3.138650,-0.433945,0.222133,0.122867,-0.475760,-0.016547,-0.879419,-0.122675,-0.165734,-0.536749,-25.032700,4.424397,22.832886,,,,,,,
1523696178.846932,-0.501995,0.010639,-3.139130,0.000875,-0.489446,0.068496,-0.481148,-0.010639,-0.876575,-0.013252,-0.161160,-0.190915,-25.182098,4.125660,23.434082,,,,,,,
1523696178.876900,-0.520597,0.012687,-3.132278,0.240942,-0.552938,0.248812,-0.497358,-0.012686,-0.867452,0.053953,-0.129205,0.283224,-24.506973,4.047779,23.584656,,,,,,,
1523696178.906869,-0.529449,0.015217,-3.121128,0.262872,-0.147344,0.285721,-0.504999,-0.015216,-0.862985,0.052882,-0.100094,0.301187,-24.571030,4.873508,24.031372,,,,,,,
1523696178.936867,-0.528082,0.017549,-3.110956,0.205067,0.217721,0.221382,-0.503800,-0.017548,-0.863642,0.053803,-0.087463,0.131067,-24.348145,4.797291,23.806763,,,,,,,
1523696178.966836,-0.518206,0.017839,-3.104583,0.048932,0.315321,0.148707,-0.495243,-0.017838,-0.868571,0.076100,-0.063171,-0.117712,-23.148651,5.016438,23.356506,,,,,,,
1523696178.996804,-0.515564,0.016179,-3.101159,0.013337,-0.032943,0.122395,-0.492961,-0.016178,-0.869901,0.095408,-0.027951,-0.050448,-24.717300,5.473789,23.653870,,,,,,,
1523696179.026772,-0.513823,0.013722,-3.096621,-0.047420,0.099372,0.217047,-0.491464,-0.013722,-0.870789,0.046197,-0.067394,-0.010070,-24.940033,5.475163,24.028748,,,,,,,
1523696179.056740,-0.513885,0.006301,-3.091654,-0.155392,-0.093150,0.282160,-0.491554,-0.006301,-0.870824,-0.026131,-0.124467,-0.036540,-24.562943,5.997944,23.501892,,,,,,,
,,,,,,,,,,,,,,,,25.319742,51.452433,14.397627,4.110000,183.164062,1523696178.998056,
1523696179.086709,-0.520238,0.000291,-3.085620,-0.020771,-0.318700,0.273963,-0.497086,-0.000291,-0.867701,-0.060958,-0.146300,0.011972,-24.704865,6.449177,24.099976,,,,,,,
1523696179.116677,-0.528222,-0.001800,-3.077289,0.096688,-0.274597,0.308098,-0.503998,0.001800,-0.863703,-0.083908,-0.181976,0.002970,-24.032593,6.221088,24.026245,,,,,,,
1523696179.146645,-0.535689,-0.000342,-3.065587,0.268556,-0.225445,0.358265,-0.510433,0.000342,-0.859917,-0.020374,-0.271964,-0.007805,-24.780624,6.599140,23.724365,,,,,,,
1523696179.176614,-0.542576,0.002989,-3.051142,0.321722,-0.251226,0.378579,-0.516341,-0.002989,-0.856377,0.059325,-0.263887,-0.001762,-23.568405,7.643986,24.020752,,,,,,,
1523696179.206582,-0.550610,0.006386,-3.036246,0.277042,-0.179033,0.406163,-0.523196,-0.006386,-0.852188,0.108112,-0.225258,0.023483,-22.746414,7.564915,23.646484,,,,,,,
1523696179.236550,-0.551213,0.009632,-3.023016,0.168055,0.014747,0.387784,-0.523697,-0.009632,-0.851850,0.112045,-0.151608,0.006711,-22.293777,8.012577,23.344971,,,,,,,
1523696179.266518,-0.546708,0.012702,-3.011717,0.148261,0.269302,0.309733,-0.519836,-0.012702,-0.854171,0.012298,-0.142785,-0.049042,-23.258087,8.767445,23.866455,,,,,,,
1523696179.296487,-0.532498,0.010190,-3.004519,-0.169066,0.427559,0.282689,-0.507660,-0.010189,-0.861497,-0.095306,-0.121036,-0.255584,-23.340729,8.317280,23.343201,,,,,,,
1523696179.326455,-0.529131,-0.000277,-3.002578,-0.299173,-0.119800,0.192581,-0.504783,0.000277,-0.863246,-0.087288,-0.113879,-0.186635,-22.297073,8.086918,22.669678,,,,,,,
1523696179.356423,-0.535107,-0.010305,-3.002837,-0.284484,-0.220524,0.155401,-0.509906,0.010305,-0.860168,-0.094052,-0.072667,-0.058961,-22.510956,8.613850,23.642395,,,,,,,
1523696179.386391,-0.541422,-0.018739,-3.002701,-0.181834,-0.197322,0.144794,-0.515264,0.018738,-0.856826,-0.052058,0.020874,0.005340,-22.665604,8.014774,23.869751,,,,,,,
1523696179.416360,-0.547829,-0.023072,-3.000807,-0.028151,-0.231581,0.126828,-0.520696,0.023070,-0.853429,0.056005,0.109132,0.129034,-22.052124,8.912769,24.616516,,,,,,,
1523696179.446328,-0.549253,-0.022288,-2.996663,0.198058,0.177161,0.097818,-0.521920,0.022286,-0.852702,0.152078,0.152869,0.279582,-23.104019,8.767414,24.541504,,,,,,,
1523696179.476296,-0.536029,-0.012302,-2.987874,0.628929,0.507850,0.064778,-0.510687,0.012301,-0.859678,0.116385,0.185727,0.218214,-23.183228,8.617329,24.092102,,,,,,,
1523696179.506264,-0.517682,0.005826,-2.973376,0.728942,0.808547,0.184947,-0.494859,-0.005826,-0.868953,0.013932,0.149930,-0.063344,-22.364716,8.912067,22.516296,,,,,,,
1523696179.536233,-0.490247,0.012585,-2.957811,0.229113,0.800757,0.412605,-0.470806,-0.012585,-0.882147,-0.059910,-0.007175,-0.452250,-23.336121,9.590916,21.988159,,,,,,,
1523696179.566201,-0.483136,0.010118,-2.945369,0.146811,-0.236786,0.352853,-0.464535,-0.010118,-0.885497,-0.012501,-0.071959,-0.297197,-24.380112,10.420231,21.609314,,,,,,,
1523696179.596169,-0.501919,0.012184,-2.933821,0.308353,-0.708564,0.292713,-0.481073,-0.012183,-0.876595,-0.009665,-0.136315,0.060006,-22.727600,10.712727,21.533936,,,,,,,
1523696179.626137,-0.517054,0.018447,-2.920298,0.444799,-0.285983,0.291330,-0.494237,-0.018446,-0.869131,-0.081370,-0.185167,0.046667,-23.537476,11.916889,22.053711,,,,,,,
1523696179.656106,-0.519957,0.024410,-2.905681,0.369119,0.005197,0.314423,-0.496694,-0.024407,-0.867582,-0.044214,-0.183799,-0.097262,-23.096313,11.389301,21.456055,,,,,,,
1523696179.686074,-0.519681,0.028445,-2.894201,0.273414,0.009141,0.241884,-0.496402,-0.028441,-0.867626,0.095325,-0.187196,-0.003483,-21.893555,11.983356,20.929260,,,,,,,
1523696179.716042,-0.519197,0.031886,-2.884252,0.242750,0.088805,0.255641,-0.495931,-0.031881,-0.867776,0.152303,-0.214015,0.064981,-22.791580,12.362095,20.627258,,,,,,,
1523696179.746010,-0.516222,0.035529,-2.873184,0.234067,0.111852,0.304633,-0.493286,-0.035522,-0.869141,0.133194,-0.240586,-0.008300,-22.862534,12.587711,20.926331,,,,,,,
1523696179.775979,-0.510869,0.033415,-2.862562,-0.110940,0.197028,0.404443,-0.488662,-0.033408,-0.871833,0.027740,-0.311532,-0.166635,-22.263168,13.109043,19.949585,,,,,,,
1523696179.805947,-0.509256,0.023894,-2.856331,-0.225252,-0.157002,0.318412,-0.487389,-0.023892,-0.872858,-0.058555,-0.256138,-0.158942,-23.309509,13.114353,20.549011,,,,,,,
1523696179.835915,-0.520011,0.017938,-2.851724,-0.027312,-0.439292,0.197367,-0.496810,-0.017937,-0.867674,-0.027696,-0.161781,0.135359,-22.630951,13.336521,20.773499,,,,,,,
1523696179.865884,-0.528576,0.016819,-2.845584,0.088179,-0.125270,0.229103,-0.504232,-0.016819,-0.863404,-0.019602,-0.102078,0.237580,-21.574097,13.931919,20.921631,,,,,,,
1523696179.895852,-0.526137,0.011721,-2.837238,-0.097116,0.159964,0.382110,-0.502162,-0.011721,-0.864694,-0.020849,-0.103590,0.086236,-22.319565,14.160648,21.295288,,,,,,,
1523696179.925820,-0.526516,0.001804,-2.829747,-0.149656,-0.151101,0.361073,-0.502523,-0.001804,-0.864561,0.033743,-0.042584,0.031019,-21.939804,14.683857,21.218445,,,,,,,
1523696179.955788,-0.530174,-0.005236,-2.821794,-0.026389,-0.036706,0.368515,-0.505676,0.005236,-0.862707,0.080734,-0.052752,0.057699,-22.157303,14.985584,21.967163,,,,,,,
1523696179.985757,-0.530497,-0.009851,-2.811208,0.126340,-0.038064,0.356906,-0.505937,0.009851,-0.862513,0.032488,0.001807,0.030467,-22.157913,15.060368,21.741821,,,,,,,
1523696180.015724,-0.532078,-0.008534,-2.800502,0.266759,-0.054559,0.235554,-0.507307,0.008534,-0.861722,0.073850,0.010204,0.122617,-20.580124,15.428120,21.591187,,,,,,,
1523696180.045691,-0.531020,-0.004902,-2.791541,0.205982,0.131947,0.177787,-0.506407,0.004902,-0.862280,0.011763,0.010051,0.048529,-21.029968,15.579914,21.365295,,,,,,,
,,,,,,,,,,,,,,,,25.319704,51.452442,14.373769,4.050000,166.992188,1523696179.998045,
1523696180.075691,-0.526293,-0.004068,-2.785367,0.111160,0.144065,0.150001,-0.502327,0.004068,-0.864667,-0.024132,0.051352,-0.027941,-22.519867,16.411915,21.661194,,,,,,,
1523696180.105659,-0.522758,-0.003272,-2.780233,0.099340,0.102841,0.125514,-0.499269,0.003272,-0.866440,-0.065871,0.051186,0.008957,-21.775009,16.257954,21.062195,,,,,,,
1523696180.135627,-0.520070,-0.002493,-2.777138,0.080531,0.123453,0.069022,-0.496939,0.002493,-0.867781,-0.031656,0.041987,0.054991,-21.325775,16.180943,21.062744,,,,,,,
1523696180.165596,-0.515546,-0.003131,-2.770107,0.121936,0.125864,0.318375,-0.493007,0.003131,-0.870019,0.027660,0.058240,-0.034263,-22.446396,16.710835,20.910034,,,,,,,
1523696180.195564,-0.519982,-0.005674,-2.757164,0.186703,-0.309651,0.423293,-0.496856,0.005674,-0.867813,0.027359,0.082598,0.004303,-22.296692,16.859852,20.609558,,,,,,,
1523696180.225532,-0.531985,-0.006324,-2.742982,0.295717,-0.311883,0.399934,-0.507234,0.006324,-0.861784,0.087480,0.016305,0.140166,-21.094513,17.079441,20.609253,,,,,,,
1523696180.255500,-0.533806,-0.001071,-2.727992,0.507516,0.109271,0.274991,-0.508813,0.001071,-0.860875,0.066324,-0.079272,0.141195,-20.419403,17.226185,20.384033,,,,,,,
1523696180.285469,-0.523184,0.010603,-2.713944,0.614406,0.501755,0.181978,-0.499612,-0.010602,-0.866184,-0.007636,-0.210345,-0.001340,-21.925644,17.456532,18.957397,,,,,,,
1523696180.315437,-0.506951,0.022381,-2.700453,0.459656,0.527556,0.193562,-0.485392,-0.022379,-0.874009,-0.047384,-0.304250,-0.249144,-20.427521,17.449497,18.658081,,,,,,,
1523696180.345405,-0.496913,0.027036,-2.692544,0.161214,0.091999,0.130918,-0.476540,-0.027033,-0.878736,-0.011406,-0.337835,-0.402849,-21.327179,17.753086,18.206482,,,,,,,
1523696180.375373,-0.510140,0.031489,-2.687955,0.236492,-0.635213,0.010224,-0.488057,-0.031484,-0.872243,-0.050838,-0.152384,-0.061046,-21.108047,17.301884,17.983337,,,,,,,
1523696180.405342,-0.520313,0.037413,-2.682837,0.258874,-0.019876,0.140685,-0.496804,-0.037405,-0.867056,-0.045845,-0.110331,-0.058131,-20.653122,17.525288,18.432739,,,,,,,
1523696180.435310,-0.513333,0.036877,-2.672765,0.051929,0.293474,0.379974,-0.490749,-0.036869,-0.870520,-0.043843,-0.115978,-0.257318,-20.499374,17.899586,18.431274,,,,,,,
1523696180.465278,-0.512828,0.030555,-2.662223,-0.030549,-0.212240,0.399586,-0.490414,-0.030550,-0.870953,-0.025409,-0.101133,-0.181583,-19.745972,18.420902,18.129578,,,,,,,
1523696180.495247,-0.521920,0.024930,-2.653952,-0.038534,-0.203034,0.301544,-0.498390,-0.024927,-0.866594,0.006126,-0.158972,-0.137236,-20.345642,18.273899,18.429871,,,,,,,
1523696180.525215,-0.521499,0.018386,-2.647009,-0.102605,0.048874,0.315090,-0.498096,-0.018385,-0.866926,-0.028973,-0.217333,-0.240557,-19.821991,18.046696,18.581055,,,,,,,
1523696180.555183,-0.520248,0.006117,-2.642730,-0.471997,0.087838,0.344612,-0.497086,-0.006117,-0.867679,-0.028412,-0.241427,-0.378445,-18.995850,18.342670,18.280273,,,,,,,
1523696180.585151,-0.519122,-0.018355,-2.643592,-0.830607,-0.051966,0.405226,-0.496034,0.018354,-0.868108,-0.024825,-0.198362,-0.490504,-20.036362,18.798176,19.102905,,,,,,,
1523696180.615120,-0.529812,-0.041389,-2.643256,-0.469664,-0.557326,0.365515,-0.504938,0.041377,-0.862162,0.041224,-0.166667,-0.258931,-19.587112,18.496540,19.479370,,,,,,,
1523696180.645088,-0.547510,-0.053186,-2.637970,-0.110765,-0.526299,0.360419,-0.519826,0.053161,-0.852615,0.126653,-0.163207,0.054031,-18.238541,18.490238,19.255066,,,,,,,
1523696180.675056,-0.556643,-0.058149,-2.627802,0.117185,-0.131828,0.395360,-0.527446,0.058116,-0.847598,0.107814,-0.197643,0.192416,-19.198059,19.545383,20.075378,,,,,,,
1523696180.705024,-0.552427,-0.059244,-2.614819,0.236116,0.179357,0.377014,-0.523834,0.059209,-0.849759,0.123291,-0.259191,0.161023,-18.829681,19.467747,19.100830,,,,,,,
1523696180.734993,-0.554754,-0.059808,-2.603252,0.128421,-0.367020,0.290120,-0.525792,0.059772,-0.848509,0.150823,-0.234149,0.203856,-17.778229,19.613010,19.100769,,,,,,,
1523696180.764961,-0.570348,-0.059870,-2.594055,0.249451,-0.553081,0.261631,-0.538957,0.059834,-0.840204,0.174288,-0.126210,0.421976,-17.921005,20.064106,19.548950,,,,,,,
1523696180.794929,-0.580453,-0.052549,-2.578453,0.660535,-0.212510,0.343632,-0.547646,0.052525,-0.835059,0.166512,-0.006596,0.441291,-18.066818,20.439838,19.622375,,,,,,,
1523696180.824897,-0.575527,-0.040200,-2.555761,0.743710,0.396281,0.478398,-0.543837,0.040189,-0.838227,0.131026,0.102496,0.317292,-17.014633,21.109348,18.870178,,,,,,,
1523696180.854866,-0.558493,-0.036315,-2.533383,0.369762,0.466546,0.591001,-0.529559,0.036307,-0.847495,0.077502,0.046929,0.204627,-17.615662,21.186756,18.569580,,,,,,,
1523696180.884834,-0.553609,-0.037516,-2.514201,0.293985,-0.065224,0.533935,-0.525390,0.037507,-0.850034,0.037201,0.049957,0.310941,-17.533493,21.861454,18.641907,,,,,,,
1523696180.914802,-0.554946,-0.037975,-2.498116,0.201067,0.002930,0.394214,-0.526517,0.037966,-0.849316,-0.040179,0.083204,0.338040,-16.565125,21.556492,18.043640,,,,,,,
1523696180.944770,-0.548528,-0.042210,-2.492825,-0.170770,0.383777,0.162328,-0.520967,0.042197,-0.852532,-0.019789,0.066415,0.128411,-17.986298,21.264027,19.169067,,,,,,,
1523696180.974739,-0.535786,-0.047622,-2.489893,0.013735,0.371385,0.194459,-0.509938,0.047604,-0.858892,-0.013607,0.269687,-0.248407,-17.244263,20.735233,18.721558,,,,,,,
1523696181.004698,-0.523762,-0.046220,-2.481004,0.294382,0.414854,0.260686,-0.499607,0.046204,-0.865018,0.007786,0.328552,-0.332049,-17.252365,20.509296,17.747498,,,,,,,
1523696181.034666,-0.516171,-0.037995,-2.465558,0.658544,0.023574,0.316761,-0.493197,0.037985,-0.869087,0.098101,0.233819,-0.145363,-17.617172,21.261387,18.194336,,,,,,,
1523696181.064635,-0.518578,-0.021149,-2.448536,0.787174,-0.076389,0.131551,-0.495534,0.021147,-0.868330,0.142385,0.082826,-0.000963,-17.242508,21.634022,17.517944,,,,,,,
,,,,,,,,,,,,,,,,25.319675,51.452464,14.360056,3.830000,151.171875,1523696180.998035,
1523696181.094603,-0.515407,-0.002258,-2.438155,0.616771,0.223137,-0.095817,-0.492888,0.002258,-0.870089,0.016035,-0.053039,-0.044629,-17.170975,21.782871,16.692444,,,,,,,
1523696181.124570,-0.502902,0.011046,-2.436022,0.270569,0.578231,-0.148654,-0.481941,-0.011045,-0.876134,-0.109734,-0.271822,-0.336971,-18.087280,20.960651,15.345215,,,,,,,
1523696181.154538,-0.489151,0.014806,-2.436584,0.035631,0.234742,-0.027015,-0.469825,-0.014805,-0.882635,-0.163018,-0.349941,-0.409113,-18.545349,20.512119,14.746826,,,,,,,
1523696181.184507,-0.493318,0.014305,-2.433692,0.071145,-0.418133,0.173988,-0.473502,-0.014305,-0.880676,-0.168268,-0.395699,-0.260254,-17.423401,20.431690,14.372681,,,,,,,
1523696181.214505,-0.511137,0.016575,-2.424688,0.280311,-0.582865,0.255290,-0.489101,-0.016575,-0.872069,-0.153874,-0.394680,-0.087129,-17.790283,20.883930,14.970703,,,,,,,
1523696181.244474,-0.521321,0.017457,-2.413577,0.097142,-0.145167,0.335683,-0.497950,-0.017456,-0.867029,-0.093038,-0.432007,-0.264853,-17.940430,20.734837,15.196228,,,,,,,
1523696181.274442,-0.518666,0.006473,-2.406883,-0.454704,0.210581,0.411634,-0.495712,-0.006473,-0.868462,-0.103959,-0.501721,-0.627097,-16.513535,20.878498,15.271362,,,,,,,
1523696181.304410,-0.520094,-0.023140,-2.408048,-1.135646,-0.377911,0.473525,-0.496829,0.023138,-0.867540,0.001055,-0.474706,-0.796233,-17.035065,20.956287,15.720764,,,,,,,
1523696181.334378,-0.550742,-0.054165,-2.412272,-0.692203,-1.388674,0.349134,-0.522552,0.054138,-0.850886,0.171478,-0.344498,-0.360845,-15.150070,20.874607,17.522034,,,,,,,
1523696181.364347,-0.589726,-0.068847,-2.408168,-0.132913,-1.121675,0.411094,-0.554816,0.068793,-0.829123,0.202963,-0.242682,0.025657,-14.242599,20.946644,18.647217,,,,,,,
