timestamp(unix),attitude_roll(radians),attitude_pitch(radians),attitude_yaw(radians),rotation_rate_x(radians/s),rotation_rate_y(radians/s),rotation_rate_z(radians/s),gravity_x(G),gravity_y(G),gravity_z(G),user_acc_x(G),user_acc_y(G),user_acc_z(G),magnetic_field_x(microteslas),magnetic_field_y(microteslas),magnetic_field_z(microteslas),latitude(degree),longitude(degree),altitude(meter),speed(m/s),course(degree),timestamp(unix),User Mark
,,,,,,,,,,,,,,,,25.306419,51.441954,-19.929813,-1.000000,-1.000000,1522137856.093842,
1522137856.346427,-0.205757,-0.042299,1.869913,0.046789,0.782223,0.045733,-0.204126,0.042286,-0.978031,-0.000800,0.013469,-0.067028,-9.015808,-51.683380,-1.258484,,,,,,,
1522137856.376395,-0.177585,-0.035037,1.872666,0.429198,1.070232,0.055318,-0.176544,0.035030,-0.983669,0.108719,0.004917,-0.327580,-9.462646,-51.456207,-1.109558,,,,,,,
1522137856.406364,-0.149589,-0.016883,1.874451,0.709773,0.649567,-0.061262,-0.149010,0.016882,-0.988692,-0.039405,-0.039435,-0.577364,-9.009781,-51.981903,0.242737,,,,,,,
1522137856.436332,-0.143496,0.003395,1.873212,0.576084,0.023549,-0.147030,-0.143003,-0.003395,-0.989716,-0.062106,-0.063469,-0.301086,-9.007675,-52.131302,0.843323,,,,,,,
1522137856.466300,-0.141232,0.013866,1.870421,0.135423,0.184545,-0.065487,-0.140749,-0.013866,-0.989948,0.004793,0.014583,-0.185452,-9.306320,-52.354355,1.444092,,,,,,,
1522137856.496269,-0.134977,0.011756,1.870897,-0.144257,0.163797,0.112274,-0.134558,-0.011756,-0.990836,0.081702,0.035987,-0.164850,-9.306473,-52.279510,1.293762,,,,,,,
1522137856.526237,-0.138284,0.007173,1.873591,-0.135926,-0.347392,0.120253,-0.137840,-0.007173,-0.990429,-0.034325,0.006456,0.011715,-9.456146,-52.203918,1.218384,,,,,,,
1522137856.556205,-0.157478,0.002426,1.873893,-0.175807,-0.824523,-0.014617,-0.156828,-0.002426,-0.987623,-0.018893,-0.013306,0.225416,-9.603912,-51.978256,1.217407,,,,,,,
1522137856.586173,-0.184275,-0.003673,1.869626,-0.243759,-0.863988,-0.121179,-0.183232,0.003673,-0.983063,-0.002803,0.018712,0.362793,-8.778488,-51.757263,0.916931,,,,,,,
1522137856.616142,-0.206410,-0.009729,1.863779,-0.225651,-0.655634,-0.138428,-0.204938,0.009729,-0.978727,0.000699,0.075278,0.477720,-9.682068,-51.978409,0.692383,,,,,,,
1522137856.646110,-0.221377,-0.016719,1.858300,-0.314302,-0.351966,-0.073800,-0.219542,0.016718,-0.975460,-0.120103,0.072866,0.488170,-8.784790,-51.982910,0.242859,,,,,,,
1522137856.676078,-0.226676,-0.027965,1.853767,-0.426266,-0.057497,-0.051805,-0.224652,0.027962,-0.974038,-0.311145,0.048256,0.445290,-7.959412,-51.312683,-0.809387,,,,,,,
1522137856.706046,-0.225621,-0.038617,1.848078,-0.352712,0.086170,-0.109430,-0.223545,0.038607,-0.973929,-0.357251,-0.040881,0.351156,-7.665268,-51.539597,-1.408386,,,,,,,
1522137856.736015,-0.220837,-0.048059,1.843402,-0.330185,0.259484,0.019338,-0.218793,0.048040,-0.974588,-0.179904,-0.052557,0.145700,-7.438492,-51.091080,-1.859985,,,,,,,
1522137856.765983,-0.206082,-0.057423,1.846441,-0.217858,0.641873,0.305655,-0.204289,0.057392,-0.977227,-0.069881,-0.009067,0.056115,-6.993622,-51.019043,-2.835144,,,,,,,
1522137856.795951,-0.185315,-0.065858,1.856673,-0.255496,0.556714,0.490058,-0.183857,0.065810,-0.980748,0.069156,-0.038161,0.076252,-7.367432,-50.717667,-3.136475,,,,,,,
1522137856.825919,-0.176457,-0.079033,1.869137,-0.374926,0.085397,0.463806,-0.174995,0.078950,-0.981399,0.198005,-0.029680,-0.040726,-7.221313,-50.793854,-3.661133,,,,,,,
1522137856.855888,-0.176853,-0.086168,1.876025,-0.037923,-0.045487,0.219116,-0.175280,0.086062,-0.980750,0.265673,-0.058062,-0.210977,-6.844986,-50.570694,-3.811829,,,,,,,
1522137856.885856,-0.173920,-0.085727,1.882178,0.060113,0.158243,0.226440,-0.172409,0.085622,-0.981297,0.186951,-0.028050,-0.232753,-8.420090,-50.488739,-3.962952,,,,,,,
1522137856.915824,-0.169304,-0.087380,1.888714,-0.052406,0.118880,0.272217,-0.167854,0.087269,-0.981942,0.095344,-0.099095,-0.042137,-8.646271,-50.562820,-4.037781,,,,,,,
1522137856.945792,-0.167133,-0.088341,1.895280,0.117130,-0.006463,0.206403,-0.165707,0.088226,-0.982221,0.063916,-0.097122,-0.033969,-8.418289,-50.263840,-4.038879,,,,,,,
1522137856.975761,-0.164777,-0.079310,1.899657,0.443144,0.172092,0.084999,-0.163517,0.079227,-0.983354,0.074360,-0.028674,-0.042815,-9.548157,-51.158081,-3.360779,,,,,,,
1522137857.005729,-0.156702,-0.067415,1.903933,0.313147,0.256194,0.108261,-0.155706,0.067364,-0.985504,0.099630,0.035434,-0.112107,-9.768951,-51.006638,-2.911560,,,,,,,
1522137857.035697,-0.153300,-0.065697,1.907435,-0.072723,-0.022664,0.157275,-0.152370,0.065650,-0.986141,0.089046,0.041940,-0.080510,-10.135376,-50.778946,-1.862610,,,,,,,
1522137857.065665,-0.156918,-0.069880,1.911688,-0.101483,-0.216160,0.181956,-0.155893,0.069823,-0.985303,0.060877,0.026308,-0.039920,-10.893448,-51.226120,-2.461243,,,,,,,
1522137857.095634,-0.165063,-0.072544,1.914519,-0.062956,-0.343937,0.054250,-0.163882,0.072480,-0.983814,-0.034802,0.113982,0.003696,-11.643127,-51.372452,-2.161011,,,,,,,
,,,,,,,,,,,,,,,,25.306391,51.441879,-19.983219,-1.000000,-1.000000,1522137857.089015,
1522137857.125602,-0.173766,-0.075432,1.911529,-0.143744,-0.228797,-0.120682,-0.172401,0.075360,-0.982140,-0.123955,0.207782,0.055184,-11.415131,-51.073486,-2.162109,,,,,,,
1522137857.155586,-0.177870,-0.079507,1.904124,-0.152800,-0.050215,-0.277504,-0.176374,0.079424,-0.981114,-0.231417,0.235899,0.003025,-12.018112,-51.370758,-2.161255,,,,,,,
1522137857.185555,-0.180381,-0.074636,1.893717,0.337670,-0.064602,-0.368764,-0.178905,0.074566,-0.981037,-0.231725,0.104785,-0.073819,-12.169724,-51.894470,-1.559204,,,,,,,
1522137857.215523,-0.179124,-0.055412,1.886052,0.727499,0.194791,-0.372993,-0.177895,0.055384,-0.982490,-0.186653,0.048879,-0.220864,-11.263626,-51.373413,-1.410828,,,,,,,
1522137857.245491,-0.171649,-0.031178,1.875418,0.636714,0.200615,-0.565924,-0.170724,0.031173,-0.984826,-0.199866,0.058137,-0.290504,-10.514206,-52.425125,0.243774,,,,,,,
1522137857.275459,-0.168756,-0.016637,1.858249,0.238248,0.071414,-0.636425,-0.167933,0.016637,-0.985658,-0.134725,0.084163,-0.200301,-10.360947,-52.050888,0.167358,,,,,,,
1522137857.305428,-0.169746,-0.008689,1.844447,0.196616,-0.075004,-0.352866,-0.168925,0.008688,-0.985591,-0.026265,0.024591,-0.139211,-8.114761,-52.660629,0.545898,,,,,,,
1522137857.335396,-0.176447,0.000460,1.840781,0.319635,-0.385544,-0.054125,-0.175533,-0.000460,-0.984473,-0.126927,-0.002973,-0.013100,-8.484665,-52.283737,0.769226,,,,,,,
1522137857.365364,-0.192438,0.005688,1.841968,0.035152,-0.578092,0.076921,-0.191249,-0.005688,-0.981525,-0.127904,-0.013050,0.132770,-7.958023,-51.986328,0.543274,,,,,,,
1522137857.395332,-0.206419,-0.000925,1.844063,-0.343148,-0.330090,0.152042,-0.204957,0.000925,-0.978771,-0.083465,0.023336,0.218349,-7.129028,-51.764755,0.842773,,,,,,,
1522137857.425301,-0.209134,-0.016383,1.845452,-0.558424,0.026231,0.179224,-0.207585,0.016382,-0.978080,-0.034770,-0.024485,0.174720,-8.404572,-51.459625,0.240967,,,,,,,
1522137857.455269,-0.210110,-0.032734,1.847113,-0.455621,-0.131393,0.191193,-0.208455,0.032728,-0.977484,0.016713,-0.072263,0.155386,-8.483948,-51.310242,-0.734680,,,,,,,
1522137857.485237,-0.216782,-0.043820,1.849908,-0.248895,-0.233817,0.178655,-0.214881,0.043806,-0.975657,0.038215,-0.054929,0.175700,-8.111969,-51.387283,-1.109192,,,,,,,
1522137857.515205,-0.220387,-0.050014,1.853465,-0.141166,-0.006767,0.190227,-0.218333,0.049994,-0.974593,0.060207,-0.041647,0.201613,-8.413132,-51.236374,-1.559937,,,,,,,
1522137857.545174,-0.213874,-0.056275,1.857443,-0.179150,0.325945,0.186669,-0.211911,0.056246,-0.975669,0.044080,-0.049318,0.112571,-8.939636,-51.159393,-1.935486,,,,,,,
1522137857.575142,-0.201877,-0.059766,1.860940,0.027439,0.389519,0.139873,-0.200151,0.059730,-0.977943,0.005189,-0.064491,-0.000878,-8.939636,-51.159393,-1.935486,,,,,,,
1522137857.605110,-0.192817,-0.054696,1.864263,0.276091,0.264135,0.052804,-0.191338,0.054669,-0.980001,-0.015831,-0.017331,-0.036326,-8.412842,-51.161453,-1.635254,,,,,,,
1522137857.635078,-0.183655,-0.045790,1.866355,0.312768,0.324707,0.035738,-0.182433,0.045774,-0.982152,-0.013154,0.019533,-0.120524,-8.488754,-51.385895,-1.409424,,,,,,,
1522137857.665047,-0.172682,-0.037245,1.867334,0.276879,0.338034,-0.032500,-0.171706,0.037237,-0.984444,-0.040422,0.008326,-0.212989,-8.037994,-51.537552,-1.033569,,,,,,,
1522137857.695015,-0.167578,-0.028164,1.866176,0.310048,0.060957,-0.081214,-0.166728,0.028160,-0.985601,-0.061787,-0.005379,-0.180232,-8.483795,-51.385086,-0.584412,,,,,,,
1522137857.724983,-0.169250,-0.019109,1.864754,0.260121,-0.122726,-0.084265,-0.168413,0.019107,-0.985531,-0.039244,0.033429,-0.059589,-9.462021,-51.980240,-0.132507,,,,,,,
1522137857.754952,-0.175259,-0.013238,1.863741,0.152430,-0.254660,-0.021348,-0.174348,0.013238,-0.984595,-0.032516,0.048530,-0.000253,-8.630615,-51.608521,0.316467,,,,,,,
1522137857.784920,-0.182679,-0.010700,1.864316,0.043258,-0.225170,0.055257,-0.181654,0.010700,-0.983304,-0.046312,0.037152,-0.006182,-9.608429,-51.978973,0.467407,,,,,,,
1522137857.814888,-0.188331,-0.012802,1.864917,-0.136692,-0.154382,0.024158,-0.187205,0.012802,-0.982238,-0.047750,0.046448,-0.001115,-9.681778,-51.678879,0.241211,,,,,,,
1522137857.844856,-0.191646,-0.019176,1.862756,-0.241753,-0.076155,-0.031410,-0.190440,0.019175,-0.981512,-0.056493,0.039617,0.023534,-9.686279,-51.904221,-0.132935,,,,,,,
1522137857.874825,-0.193776,-0.024844,1.860145,-0.142336,-0.060401,-0.040938,-0.192506,0.024842,-0.980981,-0.064528,0.025360,0.012536,-9.685089,-51.604523,-0.434082,,,,,,,
1522137857.904793,-0.197431,-0.026946,1.858311,-0.023336,-0.161828,-0.016234,-0.196080,0.026942,-0.980218,-0.041210,0.023213,-0.019752,-8.933929,-51.532837,-0.359009,,,,,,,
1522137857.934761,-0.202466,-0.027348,1.857899,-0.004058,-0.114251,0.012496,-0.201010,0.027344,-0.979207,-0.036295,0.034011,0.021688,-9.464127,-51.830826,-0.733093,,,,,,,
1522137857.964729,-0.204444,-0.026728,1.858099,0.127498,-0.027650,0.042339,-0.202950,0.026725,-0.978824,-0.061103,0.003961,0.091282,-9.612198,-51.680099,-0.658813,,,,,,,
1522137857.994667,-0.201135,-0.025000,1.858417,-0.025097,0.160150,-0.015499,-0.199720,0.024997,-0.979534,-0.041629,0.013958,-0.104404,-8.858932,-51.533173,-0.358948,,,,,,,
1522137858.024635,-0.202894,-0.031032,1.856242,-0.264877,-0.204855,-0.006784,-0.201407,0.031027,-0.979016,-0.079690,-0.004476,-0.090656,-9.161606,-51.532272,-0.809143,,,,,,,
