timestamp(unix),attitude_roll(radians),attitude_pitch(radians),attitude_yaw(radians),rotation_rate_x(radians/s),rotation_rate_y(radians/s),rotation_rate_z(radians/s),gravity_x(G),gravity_y(G),gravity_z(G),user_acc_x(G),user_acc_y(G),user_acc_z(G),magnetic_field_x(microteslas),magnetic_field_y(microteslas),magnetic_field_z(microteslas),latitude(degree),longitude(degree),altitude(meter),speed(m/s),course(degree),timestamp(unix),User Mark
1523522552.450751,-0.651425,-0.058914,1.322603,0.071076,-0.040817,-0.022255,-0.605268,0.058879,-0.793841,-0.008441,-0.047222,0.044757,-2.874451,-46.754929,-4.781311,,,,,,,
1523522552.480698,-0.650410,-0.057407,1.323672,0.006366,0.052820,-0.019191,-0.604515,0.057376,-0.794524,0.002159,-0.031939,0.021957,-3.026550,-46.829483,-5.006165,,,,,,,
1523522552.510666,-0.648682,-0.056279,1.324007,0.039423,0.052724,-0.014918,-0.603180,0.056250,-0.795619,0.004761,-0.036200,-0.025594,-3.325333,-46.977692,-4.555725,,,,,,,
,,,,,,,,,,,,,,,,25.315219,51.456918,13.337668,-1.000000,-1.000000,1523522524.326667,
1523522552.540635,-0.647658,-0.054476,1.325268,0.024581,0.046565,-0.040496,-0.602426,0.054449,-0.796316,-0.017219,-0.001898,-0.065379,-3.776352,-46.900955,-4.856201,,,,,,,
,,,,,,,,,,,,,,,,25.315219,51.456918,13.337668,-1.000000,-1.000000,1523522533.326667,
1523522552.570603,-0.648314,-0.052731,1.324837,0.046625,-0.056455,-0.056356,-0.603004,0.052707,-0.795995,0.006416,-0.009753,-0.030955,-3.546570,-46.601700,-4.557312,,,,,,,
1523522552.600571,-0.649098,-0.049617,1.325452,0.096962,-0.014094,-0.052109,-0.603724,0.049597,-0.795649,-0.006231,-0.011907,-0.017629,-2.570282,-46.605865,-4.331787,,,,,,,
1523522552.630539,-0.650267,-0.046357,1.327816,0.120042,-0.063300,-0.014742,-0.604748,0.046340,-0.795067,-0.019519,-0.005447,0.013985,-3.246582,-46.827667,-4.181274,,,,,,,
1523522552.660508,-0.651294,-0.044081,1.330456,0.083644,-0.033774,0.029956,-0.605627,0.044067,-0.794527,0.009649,-0.014984,0.029863,-3.323090,-46.752701,-4.556580,,,,,,,
,,,,,,,,,,,,,,,,25.315174,51.456675,13.337668,-1.000000,-1.000000,1523522552.646343,
,,,,,,,,,,,,,,,,25.315174,51.456675,13.337668,-1.000000,-1.000000,1523522552.653320,
1523522552.690476,-0.650850,-0.044365,1.332134,-0.053794,0.026093,0.026601,-0.605266,0.044351,-0.794786,-0.001621,-0.014108,-0.023466,-2.419510,-46.756165,-3.956116,,,,,,,
1523522552.720443,-0.651403,-0.045968,1.332545,-0.009229,-0.044098,0.019246,-0.605662,0.045952,-0.794393,-0.003407,-0.037636,-0.008417,-3.016327,-46.752945,-3.431458,,,,,,,
1523522552.750412,-0.653034,-0.044774,1.334516,0.070867,-0.053782,0.007597,-0.606990,0.044759,-0.793448,-0.012761,-0.036931,-0.007089,-3.101074,-47.053696,-4.555298,,,,,,,
1523522552.780380,-0.653912,-0.043744,1.336185,0.021842,-0.017613,0.020304,-0.607714,0.043730,-0.792951,-0.021452,-0.033461,-0.031878,-3.401962,-47.277115,-4.329529,,,,,,,
1523522552.810349,-0.654783,-0.043788,1.338043,0.013064,-0.053828,0.035254,-0.608404,0.043775,-0.792420,-0.009760,-0.034726,-0.034897,-2.875488,-47.129471,-4.329834,,,,,,,
1523522552.840317,-0.655951,-0.043370,1.340127,0.061294,-0.005100,0.040564,-0.609339,0.043357,-0.791723,-0.003026,-0.045432,0.008810,-3.775589,-47.275208,-4.104736,,,,,,,
1523522552.870285,-0.654951,-0.042755,1.343001,0.023007,0.023694,0.038381,-0.608564,0.042742,-0.792353,0.001386,-0.043108,-0.039068,-3.022629,-46.978592,-4.105530,,,,,,,
1523522552.900254,-0.655150,-0.043504,1.343449,-0.036874,-0.034342,0.003222,-0.608702,0.043490,-0.792206,0.000441,-0.037020,-0.039398,-3.698502,-47.200333,-3.880005,,,,,,,
1523522552.930222,-0.656490,-0.043223,1.344061,0.012404,-0.028992,-0.021243,-0.609770,0.043209,-0.791400,-0.002412,-0.030178,-0.008451,-3.927689,-47.349747,-4.329468,,,,,,,
1523522552.960190,-0.656077,-0.041393,1.344345,0.056522,0.012574,-0.053226,-0.609490,0.041381,-0.791713,-0.005317,-0.036056,-0.042897,-2.875626,-47.279251,-4.104248,,,,,,,
1523522552.990159,-0.657344,-0.039026,1.344692,0.030322,-0.086367,-0.027570,-0.610551,0.039016,-0.791015,0.002428,-0.031067,-0.022797,-2.647644,-46.980286,-4.105347,,,,,,,
1523522553.020127,-0.659073,-0.040083,1.344976,-0.078559,-0.026953,0.022380,-0.611893,0.040073,-0.789925,-0.009949,-0.036578,0.007607,-3.324127,-47.127228,-4.105103,,,,,,,
1523522553.050095,-0.658964,-0.041612,1.346175,0.004651,0.015039,0.068203,-0.611768,0.041600,-0.789943,-0.013202,-0.061574,0.004665,-3.476212,-47.201782,-4.329834,,,,,,,
1523522553.080063,-0.657299,-0.042338,1.348310,-0.003604,0.038675,0.034077,-0.610433,0.042325,-0.790936,-0.022837,-0.063504,-0.052936,-3.852234,-47.350006,-4.254456,,,,,,,
1523522553.110032,-0.658991,-0.041847,1.349778,0.049300,-0.097318,0.010821,-0.611783,0.041835,-0.789919,0.005277,-0.052715,-0.011671,-3.621552,-47.050598,-3.805542,,,,,,,
1523522553.140000,-0.661125,-0.040842,1.351544,0.016406,-0.046231,0.012864,-0.613493,0.040831,-0.788644,0.026319,-0.040190,0.030008,-3.021576,-47.053299,-3.805237,,,,,,,
1523522553.169968,-0.659837,-0.040718,1.351241,-0.064815,0.112654,-0.038497,-0.612480,0.040707,-0.789437,-0.041786,-0.012081,-0.001746,-3.622452,-47.050751,-3.955505,,,,,,,
1523522553.199936,-0.657884,-0.041240,1.349556,-0.038652,-0.005339,-0.040496,-0.610924,0.041228,-0.790615,-0.005547,-0.046355,-0.074512,-3.025635,-47.053955,-4.480225,,,,,,,
1523522553.229905,-0.660728,-0.039986,1.351555,0.121550,-0.118029,0.059908,-0.613201,0.039975,-0.788915,0.045422,-0.038358,0.032842,-3.099731,-47.053482,-4.330261,,,,,,,
1523522553.259873,-0.659960,-0.039514,1.355756,0.013775,0.145699,0.070212,-0.612606,0.039504,-0.789400,-0.003803,0.008912,0.038073,-3.927994,-47.200043,-4.630127,,,,,,,
1523522553.289811,-0.655665,-0.040049,1.356701,-0.001216,0.064335,0.009553,-0.609197,0.040038,-0.792007,0.038000,-0.040862,-0.080475,-3.622910,-47.050827,-4.030518,,,,,,,
1523522553.319779,-0.656321,-0.039732,1.357967,0.034485,-0.048496,0.025670,-0.609725,0.039721,-0.791617,0.062880,-0.059359,-0.046029,-3.025177,-47.053879,-4.405212,,,,,,,
1523522553.349747,-0.657647,-0.038950,1.360609,0.067749,-0.018805,0.021411,-0.610793,0.038940,-0.790832,0.018111,-0.007705,-0.014511,-3.551056,-47.276291,-4.179626,,,,,,,
1523522553.379714,-0.656886,-0.038163,1.361703,-0.011019,0.012355,0.001071,-0.610209,0.038154,-0.791321,0.038157,0.002511,-0.030075,-3.999542,-47.124268,-4.180420,,,,,,,
1523522553.409684,-0.655488,-0.039038,1.362740,-0.030278,0.053525,0.045772,-0.609082,0.039028,-0.792146,0.053982,-0.026638,-0.042723,-3.248825,-47.052658,-4.180359,,,,,,,
1523522553.439651,-0.654248,-0.039360,1.363180,0.013672,0.002945,-0.030859,-0.608091,0.039350,-0.792891,0.000990,-0.014951,-0.059922,-3.699249,-47.275314,-3.879700,,,,,,,
1523522553.469606,-0.655078,-0.037721,1.364046,0.035800,-0.047130,-0.019076,-0.608788,0.037712,-0.792436,0.013313,-0.032280,-0.016478,-3.775284,-47.424911,-3.804138,,,,,,,
1523522553.499574,-0.654527,-0.037758,1.363891,-0.027958,0.019974,-0.019192,-0.608350,0.037749,-0.792771,-0.029605,-0.024688,-0.025040,-2.875778,-47.204407,-4.254578,,,,,,,
1523522553.529543,-0.655061,-0.036687,1.365120,0.071998,-0.047353,0.000129,-0.608798,0.036679,-0.792477,0.010516,-0.027997,0.002102,-3.852081,-47.424850,-4.104187,,,,,,,
1523522553.559511,-0.655226,-0.035345,1.367218,0.030536,0.030077,0.034121,-0.608958,0.035338,-0.792415,0.008967,-0.017668,-0.019322,-3.854324,-47.649841,-4.103271,,,,,,,
1523522553.589479,-0.654826,-0.035683,1.368541,0.013306,-0.040845,0.001150,-0.608634,0.035675,-0.792649,-0.005197,-0.004700,-0.060653,-3.021271,-47.203003,-3.504639,,,,,,,
1523522553.619448,-0.657159,-0.033104,1.370427,0.132846,-0.064443,-0.010454,-0.610536,0.033098,-0.791297,0.047914,-0.011537,0.030189,-3.475739,-47.426331,-3.878967,,,,,,,
1523522553.649416,-0.656265,-0.031539,1.372504,-0.009722,0.065454,0.004220,-0.609858,0.031533,-0.791883,0.005122,-0.008615,-0.004168,-3.399551,-47.351608,-3.804260,,,,,,,
1523522553.679384,-0.654518,-0.033066,1.371534,-0.070758,-0.001186,-0.018131,-0.608444,0.033060,-0.792908,-0.018540,-0.022150,-0.059479,-2.950775,-47.428680,-3.878723,,,,,,,
1523522553.709352,-0.656313,-0.032579,1.371643,0.045251,-0.062186,0.001203,-0.609876,0.032573,-0.791827,0.007886,-0.027828,-0.005353,-3.702087,-47.650162,-3.728210,,,,,,,
1523522553.739321,-0.656293,-0.032480,1.374035,0.011191,0.018315,0.050110,-0.609862,0.032474,-0.791842,-0.024721,-0.027790,-0.032728,-3.626480,-47.500641,-3.878784,,,,,,,
1523522553.769289,-0.656283,-0.033132,1.375430,-0.001669,-0.011271,0.032009,-0.609841,0.033125,-0.791831,-0.018821,-0.026137,-0.024331,-2.945541,-47.128342,-3.504944,,,,,,,
1523522553.799258,-0.656260,-0.033793,1.376922,-0.012359,-0.010215,0.036265,-0.609810,0.033787,-0.791827,0.012855,-0.045810,-0.035397,-4.148331,-47.048523,-4.105835,,,,,,,
1523522553.829226,-0.657363,-0.033808,1.378307,0.043199,-0.038821,0.004370,-0.610683,0.033802,-0.791154,-0.014867,-0.026752,0.005753,-3.927673,-47.574371,-3.953552,,,,,,,
1523522553.859195,-0.657868,-0.032103,1.379796,0.040134,-0.027002,-0.012695,-0.611116,0.032097,-0.790890,0.035844,-0.021264,-0.008442,-3.550430,-47.575684,-3.578369,,,,,,,
1523522553.889163,-0.658500,-0.030468,1.380435,0.045716,0.000756,-0.034024,-0.611647,0.030463,-0.790544,0.028822,0.020608,0.010133,-3.922272,-47.348877,-3.429504,,,,,,,
1523522553.919131,-0.656543,-0.029467,1.379205,-0.078533,0.079026,-0.091722,-0.610117,0.029463,-0.791763,0.011469,0.014009,-0.091553,-2.797333,-47.129303,-3.804810,,,,,,,
1523522553.949099,-0.656409,-0.029856,1.376475,-0.045036,-0.033876,-0.063891,-0.610004,0.029852,-0.791836,-0.003628,0.012888,-0.075657,-3.315582,-46.676605,-3.431885,,,,,,,
1523522553.979068,-0.657978,-0.028593,1.376087,0.071029,-0.074742,-0.037116,-0.611268,0.028589,-0.790907,-0.023177,0.018469,-0.048601,-3.925720,-47.424301,-3.879211,,,,,,,
1523522554.009036,-0.658628,-0.025130,1.380021,0.186350,0.019026,0.038516,-0.611839,0.025127,-0.790583,0.028053,0.012226,0.043421,-3.548340,-47.500473,-3.353699,,,,,,,
1523522554.039003,-0.656236,-0.023881,1.382604,-0.016106,0.073935,0.008474,-0.609965,0.023879,-0.792068,0.008921,0.007478,-0.014084,-2.946426,-47.353119,-3.278992,,,,,,,
1523522554.068971,-0.654577,-0.024888,1.381123,-0.076622,0.032266,-0.090614,-0.608635,0.024885,-0.793060,0.003548,0.005281,-0.059510,-3.550888,-47.575760,-3.653381,,,,,,,
1523522554.098940,-0.655143,-0.021566,1.377416,0.089267,-0.036247,-0.227881,-0.609131,0.021565,-0.792776,0.023651,0.021343,-0.035486,-3.101044,-47.727570,-3.427612,,,,,,,
1523522554.128908,-0.656536,-0.013994,1.376102,0.122303,-0.016365,-0.196969,-0.610317,0.013994,-0.792034,-0.024281,0.080718,-0.025990,-3.402832,-47.726517,-3.727722,,,,,,,
1523522554.158876,-0.656102,-0.011928,1.373174,-0.036658,-0.065808,-0.059589,-0.609989,0.011927,-0.792320,0.044789,0.082265,-0.053460,-2.723221,-47.579041,-3.202942,,,,,,,
1523522554.188844,-0.657380,-0.011254,1.374088,0.049029,0.050519,-0.010624,-0.611006,0.011254,-0.791546,-0.034486,0.061546,0.049465,-1.675964,-47.584198,-3.652405,,,,,,,
1523522554.218813,-0.654343,-0.010771,1.376406,0.071143,0.081747,0.074601,-0.608603,0.010771,-0.793402,0.039526,0.014360,-0.033258,-1.746918,-47.358597,-3.353394,,,,,,,
1523522554.248781,-0.652191,-0.011592,1.379796,0.008835,-0.005240,0.074649,-0.606888,0.011592,-0.794703,0.031616,-0.015010,-0.073934,-3.101791,-47.802567,-3.427307,,,,,,,
1523522554.278749,-0.655351,-0.013014,1.381196,-0.025288,-0.067404,0.011816,-0.609386,0.013014,-0.792767,0.009731,0.022951,0.002834,-3.326202,-47.651703,-3.577942,,,,,,,
1523522554.308718,-0.654278,-0.013554,1.379242,-0.097874,0.040900,-0.102359,-0.608530,0.013554,-0.793415,-0.034979,0.012462,-0.068829,-2.576691,-47.655151,-3.652588,,,,,,,
1523522554.338686,-0.653655,-0.013234,1.375796,-0.009737,-0.043440,-0.079818,-0.608039,0.013234,-0.793797,-0.006112,-0.009053,-0.085338,-2.727417,-47.729477,-3.652344,,,,,,,
1523522554.368654,-0.657629,-0.012837,1.378408,0.034740,-0.122535,0.123800,-0.611192,0.012836,-0.791378,0.024369,0.010998,0.019802,-2.203796,-47.956680,-3.501221,,,,,,,
1523522554.398623,-0.656979,-0.018056,1.381724,-0.132431,0.075991,0.208719,-0.610627,0.018055,-0.791712,0.011262,0.017238,-0.026556,-2.804199,-47.954056,-3.576477,,,,,,,
1523522554.428591,-0.654460,-0.024800,1.384643,-0.103526,0.056993,0.178931,-0.608543,0.024798,-0.793133,0.013649,-0.019198,-0.078983,-3.328445,-47.876694,-3.577087,,,,,,,
1523522554.458560,-0.655998,-0.028297,1.388082,0.002729,-0.118203,0.123770,-0.609706,0.028293,-0.792122,0.031551,-0.063846,-0.037483,-2.808105,-48.029556,-4.101196,,,,,,,
1523522554.488541,-0.658922,-0.029586,1.391566,0.041460,-0.092573,0.090748,-0.611997,0.029582,-0.790306,0.006010,-0.065898,0.005119,-3.630081,-47.725861,-4.102844,,,,,,,
1523522554.518509,-0.660052,-0.031618,1.393490,-0.118218,-0.033455,0.051145,-0.612851,0.031613,-0.789565,-0.026523,-0.043042,-0.029374,-3.707336,-47.950516,-4.101990,,,,,,,
1523522554.548478,-0.661057,-0.034845,1.391498,-0.107260,-0.037315,-0.007452,-0.613579,0.034838,-0.788864,0.012154,-0.072146,-0.011704,-3.102402,-47.727798,-3.652588,,,,,,,
1523522554.578446,-0.661843,-0.035199,1.392313,0.012191,-0.008225,0.043758,-0.614191,0.035192,-0.788372,0.033350,-0.047078,0.012096,-3.932770,-47.724960,-4.553040,,,,,,,
1523522554.608414,-0.659967,-0.038399,1.392683,-0.183851,0.105833,0.062674,-0.612638,0.038390,-0.789430,-0.004213,-0.013823,-0.067946,-4.157303,-47.948486,-4.102234,,,,,,,
1523522554.638382,-0.658683,-0.041716,1.390558,-0.064213,-0.007430,-0.043666,-0.611543,0.041704,-0.790111,0.003343,-0.004548,-0.069005,-2.883118,-47.579971,-4.853027,,,,,,,
1523522554.668351,-0.659892,-0.038450,1.390472,0.147136,-0.040751,-0.063724,-0.612578,0.038440,-0.789474,0.045973,-0.030765,0.017700,-3.709290,-48.100586,-4.176392,,,,,,,
1523522554.698319,-0.658711,-0.034570,1.391168,0.045163,0.071097,-0.067107,-0.611732,0.034563,-0.790309,-0.001580,0.011442,0.012614,-3.108246,-47.953354,-4.251709,,,,,,,
1523522554.728287,-0.656655,-0.033079,1.388445,-0.035693,0.072746,-0.121514,-0.610136,0.033073,-0.791605,-0.000368,0.009118,0.034021,-2.804077,-47.579651,-4.178040,,,,,,,
1523522554.758255,-0.654128,-0.031557,1.385185,-0.028235,0.088533,-0.103404,-0.608164,0.031552,-0.793183,0.026697,-0.005856,0.043305,-3.033554,-48.028625,-4.176331,,,,,,,
1523522554.788224,-0.650294,-0.030938,1.382530,-0.031347,0.144643,-0.072563,-0.605130,0.030933,-0.795524,0.018521,0.011044,0.012626,-3.035492,-48.178680,-4.250732,,,,,,,
1523522554.818192,-0.647638,-0.030015,1.380818,-0.012448,0.075508,-0.070346,-0.603032,0.030010,-0.797151,0.013860,0.050099,0.006303,-2.434921,-48.031540,-4.401001,,,,,,,
1523522554.848160,-0.644022,-0.029940,1.378379,-0.082520,0.129025,-0.100289,-0.600147,0.029935,-0.799329,0.017048,0.038256,-0.048435,-3.182953,-47.878098,-4.326965,,,,,,,
1523522554.878128,-0.641852,-0.028538,1.375589,0.029259,0.035388,-0.120364,-0.598436,0.028534,-0.800662,0.023835,0.059845,-0.026166,-2.435974,-48.181458,-4.325378,,,,,,,
1523522554.908097,-0.642746,-0.025419,1.375458,0.090475,-0.054450,-0.060553,-0.599202,0.025416,-0.800193,0.064381,0.057515,0.044181,-2.211441,-48.182541,-4.400269,,,,,,,
1523522554.938065,-0.641959,-0.024675,1.375650,-0.056367,0.104984,-0.016061,-0.598583,0.024672,-0.800679,0.025448,0.080430,0.024953,-2.584625,-48.180557,-4.100525,,,,,,,
1523522554.968033,-0.636609,-0.028033,1.372890,-0.176544,0.179847,-0.041800,-0.594238,0.028030,-0.803800,0.033554,0.051346,-0.058062,-2.589722,-48.555756,-4.323975,,,,,,,
1523522554.998002,-0.633896,-0.030680,1.370298,-0.073631,0.039290,-0.037315,-0.592009,0.030675,-0.805346,0.016737,0.030436,-0.080426,-1.987793,-48.183777,-4.625244,,,,,,,
1523522555.027970,-0.634881,-0.031078,1.369842,0.024935,-0.105541,-0.025386,-0.592795,0.031073,-0.804753,-0.001458,0.037653,-0.060329,-2.664413,-48.255875,-4.775208,,,,,,,
1523522555.057938,-0.637116,-0.030168,1.371608,0.064286,-0.057248,0.044917,-0.594608,0.030164,-0.803448,0.005680,0.027469,-0.006900,-2.660065,-48.180298,-4.175537,,,,,,,
1523522555.087906,-0.637152,-0.031308,1.374734,-0.000968,0.000809,0.121537,-0.594617,0.031303,-0.803399,0.000714,0.002510,-0.039451,-1.985397,-48.033630,-4.475769,,,,,,,
1523522555.117875,-0.637707,-0.033664,1.378652,0.011585,-0.047088,0.129050,-0.595017,0.033658,-0.803007,-0.001694,-0.017636,-0.050936,-3.035797,-48.028992,-4.551331,,,,,,,
1523522555.147843,-0.639929,-0.035620,1.382767,0.028407,-0.094995,0.136566,-0.596759,0.035613,-0.801628,0.014103,-0.032988,-0.021339,-3.109146,-48.178131,-4.025757,,,,,,,
1523522555.177811,-0.641641,-0.037529,1.386014,-0.029751,-0.045528,0.072546,-0.598089,0.037520,-0.800550,-0.010416,-0.015502,-0.045535,-2.805862,-47.804565,-4.102112,,,,,,,
1523522555.207779,-0.642236,-0.038079,1.386941,0.002711,-0.034466,-0.000963,-0.598553,0.038070,-0.800177,-0.019749,-0.025360,-0.064981,-3.783676,-47.950394,-4.327026,,,,,,,
1523522555.237748,-0.644149,-0.037905,1.387273,0.011083,-0.093857,-0.020078,-0.600086,0.037896,-0.799036,0.006901,-0.020868,-0.027929,-3.559280,-48.101257,-4.176331,,,,,,,
1523522555.267716,-0.646875,-0.035713,1.388885,0.114583,-0.076271,0.009825,-0.602311,0.035705,-0.797462,0.023545,0.000382,0.030417,-2.813202,-48.180145,-4.700623,,,,,,,
1523522555.297684,-0.645504,-0.035122,1.391420,-0.028722,0.143818,0.041467,-0.601230,0.035115,-0.798303,-0.000730,-0.006352,-0.022788,-3.408676,-48.176712,-3.950928,,,,,,,
1523522555.327652,-0.641475,-0.037527,1.391460,-0.063151,0.067536,0.023393,-0.597956,0.037518,-0.800649,-0.004980,-0.032452,-0.114664,-3.337585,-48.477173,-4.099670,,,,,,,
1523522555.357621,-0.642990,-0.036024,1.392423,0.114768,-0.102398,-0.050894,-0.599201,0.036016,-0.799787,0.002842,-0.035253,-0.042285,-3.709732,-48.100647,-4.251404,,,,,,,
1523522555.387589,-0.644813,-0.032213,1.393394,0.084306,-0.007679,-0.062723,-0.600736,0.032207,-0.798797,-0.006548,-0.010173,-0.007539,-3.407639,-48.026794,-4.026489,,,,,,,
1523522555.417557,-0.644298,-0.031497,1.393401,-0.068580,0.006111,-0.007429,-0.600339,0.031492,-0.799124,0.004147,0.006732,-0.028894,-2.803619,-47.579575,-4.103027,,,,,,,
1523522555.447525,-0.643539,-0.033644,1.392096,-0.062170,0.026226,0.004256,-0.599690,0.033638,-0.799523,0.004949,0.003166,-0.040458,-3.555389,-47.801117,-4.027466,,,,,,,
1523522555.477481,-0.643787,-0.033169,1.393899,0.091202,-0.010573,0.044900,-0.599898,0.033163,-0.799388,0.042754,-0.018362,-0.002889,-3.485321,-48.251511,-4.100647,,,,,,,
1523522555.507449,-0.643089,-0.032820,1.396715,0.000637,0.015242,0.032023,-0.599347,0.032814,-0.799815,0.019864,-0.000419,-0.044484,-3.336090,-48.327179,-4.100281,,,,,,,
1523522555.537417,-0.643642,-0.032489,1.396159,0.017079,-0.036000,-0.092573,-0.599796,0.032483,-0.799492,-0.022641,0.025561,-0.050758,-3.108536,-48.252899,-3.800476,,,,,,,
1523522555.567386,-0.645224,-0.028985,1.395971,0.077670,-0.066074,-0.067993,-0.601124,0.028980,-0.798629,0.041081,-0.003224,-0.007692,-3.481873,-48.176086,-3.650940,,,,,,,
1523522555.597354,-0.645275,-0.029553,1.396217,-0.093369,0.024900,0.051128,-0.601155,0.029549,-0.798584,0.002935,0.008858,-0.012481,-3.706131,-48.100067,-3.651367,,,,,,,
1523522555.627322,-0.644956,-0.032514,1.397696,-0.003001,-0.015948,0.087455,-0.600845,0.032508,-0.798703,0.009032,-0.011680,-0.008883,-3.263931,-48.477737,-4.324646,,,,,,,
1523522555.657290,-0.643502,-0.033697,1.400277,-0.006754,0.074496,0.069260,-0.599659,0.033691,-0.799545,0.011296,-0.037276,-0.076188,-3.407181,-48.026718,-3.951477,,,,,,,
1523522555.687259,-0.643965,-0.034033,1.401558,0.034534,-0.098200,-0.015791,-0.600023,0.034027,-0.799258,0.009172,-0.038284,-0.061597,-2.956619,-47.878891,-4.101868,,,,,,,
1523522555.717227,-0.647130,-0.032377,1.401374,-0.005655,-0.073329,-0.064849,-0.602582,0.032371,-0.797399,-0.001071,-0.015647,0.002507,-4.007446,-48.098938,-3.876587,,,,,,,
1523522555.747195,-0.647002,-0.032032,1.399202,-0.056415,0.030929,-0.066047,-0.602487,0.032027,-0.797485,-0.012305,-0.001219,-0.043397,-3.854614,-47.949402,-3.652039,,,,,,,
1523522555.777163,-0.647219,-0.031926,1.398138,0.007860,-0.064346,0.012936,-0.602662,0.031921,-0.797356,0.032990,-0.003372,-0.016669,-3.031296,-48.028259,-3.801331,,,,,,,
1523522555.807132,-0.646590,-0.033175,1.399782,-0.036599,0.106308,0.088390,-0.602136,0.033169,-0.797703,0.006204,0.011585,-0.030193,-3.180527,-48.177200,-3.425842,,,,,,,
1523522555.837100,-0.644059,-0.034702,1.399843,-0.005435,0.023074,-0.023388,-0.600084,0.034695,-0.799183,-0.022123,-0.014859,-0.104244,-3.709869,-48.475052,-3.649902,,,,,,,
1523522555.867068,-0.646342,-0.031562,1.399993,0.120201,-0.102348,-0.063654,-0.601969,0.031557,-0.797894,0.016291,-0.028398,-0.027698,-3.631256,-48.250168,-3.425781,,,,,,,
1523522555.897036,-0.646507,-0.029593,1.399038,-0.025443,0.026663,-0.073487,-0.602138,0.029589,-0.797842,-0.030522,-0.001727,-0.051080,-3.407013,-48.326187,-3.425354,,,,,,,
1523522555.927005,-0.648112,-0.028183,1.397806,0.044333,-0.109645,-0.057308,-0.603442,0.028179,-0.796908,0.007403,0.024647,-0.008924,-3.626923,-47.949966,-3.201904,,,,,,,
1523522555.962008,-0.649428,-0.026112,1.399231,0.034190,0.072762,-0.002092,-0.604524,0.026109,-0.796157,0.006975,0.021117,0.011810,-2.655258,-47.880020,-3.876770,,,,,,,
,,,,,,,,,,,,,,,,25.313495,51.456172,29.048611,13.140000,269.296875,1523522555.390883,
1523522555.991977,-0.646880,-0.025821,1.399974,0.004184,0.017756,-0.027629,-0.602498,0.025818,-0.797701,0.023518,0.004532,-0.049757,-3.853256,-48.173798,-3.051147,,,,,,,
1523522556.021945,-0.648945,-0.024781,1.400172,0.042095,-0.092876,-0.023230,-0.604160,0.024779,-0.796476,0.018726,0.017473,0.013243,-3.552353,-48.175003,-2.901001,,,,,,,
1523522556.051913,-0.649433,-0.023383,1.400732,0.032098,0.020006,-0.055314,-0.604569,0.023381,-0.796208,-0.020645,0.020488,-0.015681,-3.028442,-48.102661,-3.200989,,,,,,,
,,,,,,,,,,,,,,,,25.313501,51.456134,11.303066,13.160000,269.296875,1523522555.999882,
1523522556.081881,-0.649450,-0.021025,1.400719,0.071269,-0.038598,-0.044581,-0.604614,0.021023,-0.796240,0.013916,-0.006726,0.023367,-2.876495,-47.953278,-3.126587,,,,,,,
1523522556.111850,-0.649120,-0.020412,1.402136,-0.008771,0.052426,0.032005,-0.604359,0.020410,-0.796449,0.008824,-0.013529,-0.001936,-3.400284,-47.875839,-3.052124,,,,,,,
1523522556.141818,-0.648404,-0.021812,1.403040,-0.009087,-0.012409,0.035262,-0.603771,0.021810,-0.796858,0.024807,-0.005727,0.015517,-3.027100,-47.877823,-3.351929,,,,,,,
1523522556.171786,-0.648689,-0.022147,1.404485,0.005062,0.038613,0.027762,-0.603993,0.022146,-0.796681,0.037251,-0.007818,0.031910,-3.701019,-48.174118,-2.676086,,,,,,,
1523522556.201754,-0.645948,-0.022534,1.405597,0.001074,0.079163,0.006399,-0.601803,0.022532,-0.798326,0.042263,-0.002528,-0.033904,-3.703720,-48.174561,-3.126099,,,,,,,
1523522556.231723,-0.645810,-0.021760,1.406134,0.022181,-0.017360,-0.027576,-0.601703,0.021758,-0.798423,0.029681,0.011094,0.013465,-2.726807,-47.804245,-3.427063,,,,,,,
1523522556.261691,-0.645205,-0.021635,1.406108,-0.041639,0.058111,-0.008520,-0.601221,0.021634,-0.798789,0.040796,0.003543,-0.023385,-2.801498,-47.953613,-3.126526,,,,,,,
1523522556.291659,-0.643764,-0.022407,1.405701,-0.000333,-0.007904,-0.003101,-0.600059,0.022405,-0.799641,0.026833,-0.006902,-0.029064,-3.329941,-48.251297,-3.200562,,,,,,,
1523522556.321627,-0.644424,-0.021865,1.407913,0.031597,0.023539,0.045915,-0.600594,0.021863,-0.799254,0.022210,-0.007215,0.020858,-3.479172,-48.175644,-3.200928,,,,,,,
1523522556.351596,-0.641658,-0.024147,1.409129,-0.070924,0.061814,0.080953,-0.598349,0.024145,-0.800871,0.032492,-0.033193,-0.060641,-3.328293,-48.176163,-3.050903,,,,,,,
1523522556.381564,-0.641629,-0.025938,1.411088,0.013063,-0.055098,0.052378,-0.598299,0.025935,-0.800852,0.030138,-0.043208,-0.005148,-2.659149,-48.404770,-3.649658,,,,,,,
1523522556.411532,-0.642144,-0.026590,1.411879,-0.051394,0.032599,-0.003177,-0.598701,0.026586,-0.800530,0.003837,-0.017019,-0.053596,-3.028290,-47.952896,-3.426636,,,,,,,
1523522556.441501,-0.640995,-0.026246,1.410248,-0.018987,-0.005031,-0.105395,-0.597787,0.026243,-0.801225,0.034157,-0.012007,-0.072280,-3.331436,-48.176682,-3.575867,,,,,,,
1523522556.471461,-0.643331,-0.024262,1.408264,-0.009930,-0.091341,-0.074403,-0.599687,0.024260,-0.799866,0.033632,0.028551,-0.006393,-3.704330,-48.099777,-3.351379,,,,,,,
1523522556.501429,-0.642929,-0.025195,1.406922,-0.074815,0.054901,0.005316,-0.599352,0.025192,-0.800088,0.009691,0.038803,-0.054343,-2.803757,-47.953979,-3.501526,,,,,,,
1523522556.531397,-0.641353,-0.025562,1.407655,0.042377,0.006722,0.013985,-0.598084,0.025559,-0.801025,0.036927,-0.005784,-0.051286,-3.180527,-48.177200,-3.425842,,,,,,,
1523522556.561366,-0.641950,-0.024440,1.410204,0.078534,-0.006229,0.030005,-0.598579,0.024438,-0.800690,0.025307,-0.014092,-0.011383,-3.405823,-48.251114,-3.350647,,,,,,,
1523522556.591334,-0.640608,-0.023330,1.411549,0.012953,0.032791,-0.055329,-0.597520,0.023328,-0.801514,-0.019454,-0.019681,-0.066086,-3.555954,-48.400208,-3.125122,,,,,,,
1523522556.621302,-0.642001,-0.022536,1.409329,-0.042040,-0.114598,-0.079733,-0.598647,0.022534,-0.800695,0.020842,-0.004636,-0.030558,-2.955399,-48.253067,-3.275391,,,,,,,
1523522556.651270,-0.643771,-0.022431,1.408914,0.002872,-0.002667,0.004368,-0.600064,0.022429,-0.799636,0.010541,-0.000670,0.037506,-2.581467,-48.180054,-3.575500,,,,,,,
1523522556.681239,-0.641809,-0.021865,1.410605,0.046954,0.102208,0.035192,-0.598502,0.021863,-0.800822,0.029242,0.021625,0.016459,-3.554321,-48.100449,-3.351318,,,,,,,
1523522556.711207,-0.637811,-0.023682,1.412637,-0.099487,0.125563,0.089408,-0.595271,0.023680,-0.803175,0.053279,-0.004164,-0.105654,-3.258072,-48.476791,-3.349670,,,,,,,
1523522556.741175,-0.637014,-0.027639,1.412304,-0.075259,-0.035488,0.013938,-0.594570,0.027636,-0.803568,0.021069,0.018583,-0.110510,-2.733856,-48.104889,-4.100891,,,,,,,
1523522556.771143,-0.639300,-0.024196,1.412285,0.164404,-0.087158,-0.127548,-0.596458,0.024194,-0.802278,0.035774,0.012412,-0.020872,-3.182922,-48.551956,-3.199280,,,,,,,
1523522556.801112,-0.639779,-0.019196,1.413636,0.100147,-0.000645,-0.015805,-0.596908,0.019194,-0.802079,0.031524,0.030351,0.012590,-2.801056,-47.953537,-3.051514,,,,,,,
1523522556.831080,-0.638102,-0.019973,1.414224,-0.068522,0.028301,0.006424,-0.595553,0.019971,-0.803067,0.028795,0.012087,0.008710,-2.354813,-48.105927,-3.425720,,,,,,,
1523522556.861048,-0.636867,-0.021533,1.414169,-0.038683,0.058792,0.042640,-0.594541,0.021532,-0.803776,0.050230,-0.046373,-0.002102,-3.180527,-48.177200,-3.425842,,,,,,,
1523522556.891016,-0.634346,-0.024514,1.414842,-0.078306,0.054506,0.061794,-0.592473,0.024512,-0.805217,-0.006786,-0.027899,-0.063695,-3.334427,-48.476669,-3.574646,,,,,,,
1523522556.920985,-0.634371,-0.025809,1.415387,-0.013130,-0.030092,-0.020117,-0.592474,0.025806,-0.805176,-0.012812,-0.024204,-0.047974,-2.354080,-47.806305,-3.801880,,,,,,,
1523522556.950953,-0.635967,-0.024597,1.415349,0.043301,-0.062126,-0.017911,-0.593776,0.024594,-0.804254,0.036220,-0.011212,-0.002997,-3.104935,-48.027695,-3.576355,,,,,,,
1523522556.980921,-0.636423,-0.023486,1.416708,0.018874,-0.009085,0.003329,-0.594159,0.023484,-0.804004,0.046658,0.015380,0.011127,-3.555664,-48.100662,-3.576294,,,,,,,
1523522557.010889,-0.636146,-0.023563,1.417326,-0.012940,0.051516,0.011758,-0.593935,0.023561,-0.804168,0.052431,0.017729,0.032699,-2.583267,-48.180344,-3.875549,,,,,,,
1523522557.040858,-0.632444,-0.025335,1.416906,-0.119380,0.113456,0.004165,-0.590928,0.025332,-0.806326,0.049592,-0.001208,-0.090662,-3.708969,-48.474915,-3.499939,,,,,,,
1523522557.070826,-0.632272,-0.027936,1.414712,-0.068728,-0.072308,-0.041426,-0.590748,0.027932,-0.806372,0.017628,0.009086,-0.067820,-3.557617,-48.250732,-3.650696,,,,,,,
,,,,,,,,,,,,,,,,25.313523,51.455930,11.199245,13.710000,268.242188,1523522556.999874,
1523522557.100794,-0.634447,-0.025712,1.414615,0.103417,-0.048126,-0.066889,-0.592536,0.025709,-0.805133,0.027793,0.006075,0.014086,-2.582520,-48.105347,-3.875854,,,,,,,
1523522557.130763,-0.632883,-0.024704,1.414879,-0.053594,0.035611,0.018155,-0.591291,0.024702,-0.806079,0.007627,0.000063,-0.047650,-2.730408,-48.029465,-3.651184,,,,,,,
1523522557.160731,-0.633229,-0.027033,1.414829,-0.050778,-0.050469,0.018245,-0.591534,0.027029,-0.805826,0.027859,-0.021384,0.014612,-2.884583,-48.403824,-3.724731,,,,,,,
1523522557.190699,-0.633099,-0.027873,1.415263,-0.027858,0.056848,0.012816,-0.591416,0.027869,-0.805884,0.036332,-0.017661,-0.031381,-2.362320,-48.406631,-4.174500,,,,,,,
1523522557.220667,-0.630680,-0.029508,1.414335,-0.089744,0.023213,-0.020213,-0.589437,0.029504,-0.807275,0.014227,0.013862,-0.121635,-3.185181,-48.327713,-3.950195,,,,,,,
1523522557.250636,-0.634717,-0.029540,1.412857,0.020619,-0.195518,-0.081720,-0.592691,0.029536,-0.804888,0.024743,0.052327,0.007158,-2.962463,-48.329086,-4.325073,,,,,,,
1523522557.280604,-0.636393,-0.025513,1.412036,0.080733,0.070236,-0.118167,-0.594105,0.025510,-0.803982,0.016575,0.032626,-0.032504,-2.062485,-48.333145,-4.324585,,,,,,,
1523522557.310572,-0.634452,-0.023009,1.411308,0.023346,-0.033155,-0.053105,-0.592579,0.023007,-0.805183,0.042408,0.025669,-0.040535,-2.735962,-48.180115,-4.325562,,,,,,,
1523522557.340540,-0.636829,-0.022786,1.412276,0.015424,-0.034811,0.033206,-0.594494,0.022784,-0.803777,0.020382,0.022459,0.042607,-3.187576,-48.477844,-4.099609,,,,,,,
1523522557.370509,-0.634712,-0.023929,1.414178,0.005150,0.081951,0.055452,-0.592776,0.023926,-0.805011,0.024249,0.002075,-0.032849,-2.211884,-48.407227,-4.099426,,,,,,,
1523522557.400477,-0.633309,-0.024192,1.415935,0.029464,-0.012448,0.021472,-0.591642,0.024189,-0.805837,0.003446,-0.013630,-0.041697,-2.884735,-48.328979,-3.875061,,,,,,,
1523522557.430445,-0.634601,-0.023402,1.416392,0.021091,-0.056564,-0.048814,-0.592694,0.023400,-0.805088,0.012585,-0.012627,-0.031521,-2.361862,-48.406555,-4.099487,,,,,,,
1523522557.460416,-0.636981,-0.021910,1.416788,0.046346,-0.082464,-0.000822,-0.594628,0.021908,-0.803702,0.050484,0.000903,0.049994,-1.913391,-48.558578,-4.098633,,,,,,,
1523522557.490385,-0.635934,-0.023275,1.417981,-0.090864,0.108696,0.063878,-0.593768,0.023273,-0.804299,0.034991,0.016370,0.021493,-2.433716,-48.181091,-3.950378,,,,,,,
1523522557.520353,-0.631954,-0.027331,1.417748,-0.110140,0.095968,0.066015,-0.590502,0.027328,-0.806573,0.051332,-0.012481,-0.068900,-2.813950,-48.479767,-4.324402,,,,,,,
1523522557.550321,-0.631204,-0.029830,1.419427,0.001440,-0.004279,0.078981,-0.589855,0.029825,-0.806958,0.041759,-0.013651,-0.026675,-2.962601,-48.478867,-4.099487,,,,,,,
1523522557.580289,-0.630941,-0.030392,1.421546,0.018865,0.020421,0.035284,-0.589633,0.030387,-0.807099,0.003375,-0.011069,-0.036651,-3.110336,-48.253189,-4.100464,,,,,,,
1523522557.610258,-0.630533,-0.029833,1.422072,0.024239,-0.032346,-0.017938,-0.589313,0.029828,-0.807354,0.038028,-0.043958,-0.006107,-2.815460,-48.629745,-4.323792,,,,,,,
1523522557.640226,-0.630312,-0.030218,1.422683,-0.062111,0.045138,0.024544,-0.589127,0.030213,-0.807475,0.015946,-0.038545,-0.031240,-2.134933,-48.257507,-4.024963,,,,,,,
1523522557.670194,-0.629633,-0.032750,1.422257,-0.066827,-0.039954,0.037416,-0.588532,0.032744,-0.807810,0.027314,-0.020537,-0.046011,-3.037140,-48.253815,-4.400452,,,,,,,
1523522557.700162,-0.630659,-0.034119,1.423350,-0.031500,-0.008232,0.047001,-0.589334,0.034113,-0.807169,0.025796,-0.008173,-0.024969,-2.584763,-48.330338,-3.874939,,,,,,,
1523522557.730131,-0.629855,-0.034885,1.424173,-0.007703,0.026978,0.018213,-0.588669,0.034878,-0.807621,0.018692,-0.012036,-0.051311,-2.139435,-48.258240,-4.774963,,,,,,,
1523522557.760099,-0.629982,-0.034767,1.424722,0.007074,-0.045132,-0.009399,-0.588774,0.034760,-0.807550,0.027479,-0.033753,-0.028250,-2.813202,-48.404755,-4.324707,,,,,,,
1523522557.790067,-0.630553,-0.034369,1.424908,-0.002390,-0.003704,-0.003060,-0.589243,0.034362,-0.807225,0.005960,-0.029403,-0.026119,-3.034897,-48.028839,-4.401306,,,,,,,
1523522557.820036,-0.630556,-0.034654,1.424791,-0.022578,-0.013018,-0.030774,-0.589240,0.034647,-0.807215,-0.006662,-0.005914,-0.035803,-2.889999,-48.404709,-4.624756,,,,,,,
1523522557.850004,-0.630185,-0.032475,1.423852,0.064421,0.026549,-0.096816,-0.588983,0.032469,-0.807492,0.008371,0.003404,-0.037509,-2.741653,-48.480530,-4.774353,,,,,,,
1523522557.879972,-0.631138,-0.028712,1.424039,0.088123,-0.101385,-0.044462,-0.589821,0.028708,-0.807024,0.046806,0.008630,-0.033369,-1.991074,-48.558685,-4.548706,,,,,,,
1523522557.909940,-0.632491,-0.029241,1.424726,-0.076243,0.013104,0.049089,-0.590903,0.029237,-0.806212,-0.004327,0.013763,0.014739,-2.812454,-48.329773,-4.325012,,,,,,,
1523522557.939909,-0.630012,-0.031517,1.425054,-0.021240,0.118296,0.031966,-0.588862,0.031511,-0.807619,-0.027914,-0.012026,-0.071074,-2.441513,-48.556732,-4.623962,,,,,,,
1523522557.969877,-0.626509,-0.031056,1.425718,0.052405,0.033592,-0.037156,-0.586037,0.031051,-0.809689,0.002739,-0.036041,-0.135471,-2.216690,-48.482895,-4.774109,,,,,,,
1523522557.999845,-0.630537,-0.027250,1.426941,0.141152,-0.186502,-0.048594,-0.589360,0.027246,-0.807411,0.022053,0.013861,0.021370,-2.216843,-48.408035,-4.924438,,,,,,,
1523522558.029813,-0.633535,-0.023891,1.427812,0.068427,-0.003409,-0.070137,-0.591829,0.023889,-0.805710,0.013887,0.035986,0.037582,-2.664856,-48.705200,-4.098450,,,,,,,
1523522558.059782,-0.630314,-0.021975,1.427762,0.027973,0.092952,-0.008460,-0.589256,0.021973,-0.807648,0.044502,0.021606,-0.050446,-2.740448,-48.854706,-3.947876,,,,,,,
,,,,,,,,,,,,,,,,25.313518,51.455791,11.258389,14.130000,269.296875,1523522557.999882,
1523522558.089750,-0.629794,-0.022475,1.429529,-0.008047,0.004307,0.067261,-0.588830,0.022473,-0.807945,0.045785,0.013751,-0.008401,-2.444351,-49.156189,-4.096558,,,,,,,
1523522558.119718,-0.629426,-0.024146,1.431253,0.015515,0.001181,0.050233,-0.588510,0.024143,-0.808130,0.021813,0.011608,-0.035941,-3.421417,-49.227020,-4.321716,,,,,,,
1523522558.149686,-0.628885,-0.022446,1.433010,0.089673,0.012238,-0.036040,-0.588096,0.022444,-0.808480,-0.010781,-0.004424,-0.051200,-2.370255,-49.156662,-4.246521,,,,,,,
1523522558.179655,-0.628975,-0.020122,1.433507,0.055287,-0.039731,-0.038143,-0.588197,0.020120,-0.808467,-0.008635,-0.049860,-0.069081,-2.745224,-49.379608,-3.870789,,,,,,,
1523522558.209623,-0.632245,-0.018862,1.435375,0.058593,-0.139246,0.059986,-0.590852,0.018861,-0.806559,0.049272,-0.049165,0.050227,-3.195801,-49.527420,-3.720398,,,,,,,
1523522558.239591,-0.632505,-0.021029,1.438118,-0.071968,0.096539,0.120398,-0.591036,0.021028,-0.806371,0.014742,-0.000047,0.024037,-2.220581,-49.232269,-4.171143,,,,,,,
1523522558.269559,-0.629230,-0.024986,1.438738,-0.097453,0.058768,0.060747,-0.588339,0.024983,-0.808228,0.011069,-0.002873,-0.072402,-3.115723,-48.927948,-3.872803,,,,,,,
1523522558.299528,-0.630062,-0.026324,1.440286,0.015182,-0.043604,0.073712,-0.588991,0.026321,-0.807711,0.041002,-0.050247,-0.006254,-3.416626,-48.926743,-4.022949,,,,,,,
1523522558.329496,-0.628490,-0.027375,1.442677,0.008286,0.067029,0.058679,-0.587704,0.027371,-0.808613,0.004772,-0.044629,-0.056560,-3.795654,-49.150330,-4.322205,,,,,,,
1523522558.359464,-0.629512,-0.026152,1.445315,0.093095,-0.097738,0.035479,-0.588549,0.026149,-0.808039,0.027422,-0.054668,-0.000402,-4.015244,-48.923828,-3.798279,,,,,,,
1523522558.389433,-0.630243,-0.026288,1.446502,-0.055821,0.021716,0.027773,-0.589138,0.026285,-0.807605,0.014187,-0.028269,-0.037320,-3.942032,-49.149063,-3.722290,,,,,,,
1523522558.419401,-0.628885,-0.027515,1.446460,-0.023622,0.018683,-0.006292,-0.588021,0.027511,-0.808378,0.005532,-0.030731,-0.081988,-2.591232,-48.705750,-4.323364,,,,,,,
1523522558.449369,-0.630228,-0.027502,1.446363,-0.011317,-0.070764,0.015123,-0.589106,0.027498,-0.807588,0.058635,-0.015459,-0.051467,-3.561050,-48.550781,-3.724487,,,,,,,
1523522558.479322,-0.630644,-0.027794,1.448216,0.041099,0.001079,0.056640,-0.589438,0.027791,-0.807336,0.026083,-0.023564,-0.035499,-3.486816,-48.626129,-3.724182,,,,,,,
1523522558.509291,-0.631738,-0.026706,1.450610,0.059162,-0.049813,0.032208,-0.590337,0.026703,-0.806715,0.011007,-0.037766,-0.007876,-3.116333,-48.853165,-4.098083,,,,,,,
1523522558.539259,-0.630248,-0.027352,1.451213,-0.057634,0.045353,-0.010598,-0.589124,0.027348,-0.807579,-0.013293,-0.056752,-0.091591,-4.391129,-48.922287,-3.948425,,,,,,,
1523522558.569227,-0.632165,-0.025880,1.450765,0.091159,-0.156597,-0.055040,-0.590694,0.025877,-0.806480,0.019985,-0.055769,-0.034966,-3.638306,-48.550812,-4.099548,,,,,,,
1523522558.599195,-0.633852,-0.024047,1.451381,-0.032957,0.061273,-0.018047,-0.592081,0.024045,-0.805519,-0.016989,-0.011182,-0.028084,-2.585510,-48.405319,-3.874634,,,,,,,
1523522558.629164,-0.631848,-0.026137,1.450444,-0.060165,0.000491,0.024600,-0.590435,0.026134,-0.806662,-0.000141,-0.003170,-0.128168,-3.861038,-48.549438,-3.724670,,,,,,,
1523522558.659132,-0.636201,-0.024432,1.452031,0.149339,-0.207127,0.006862,-0.593966,0.024429,-0.804119,0.041186,0.007843,0.026149,-3.637863,-48.775375,-3.648621,,,,,,,
1523522558.689100,-0.638763,-0.021031,1.456902,0.160874,0.042212,0.056696,-0.596071,0.021029,-0.802656,0.046831,-0.012957,0.048323,-2.588516,-48.705307,-3.873413,,,,,,,
1523522558.719068,-0.635632,-0.019530,1.458866,0.017296,0.072881,-0.023355,-0.593573,0.019529,-0.804543,0.023078,-0.023618,-0.017662,-3.337280,-48.851501,-3.423218,,,,,,,
1523522558.749037,-0.635008,-0.019538,1.457167,-0.081050,-0.012572,-0.075559,-0.593071,0.019536,-0.804913,0.013466,-0.043844,-0.010242,-3.109879,-48.477753,-3.649536,,,,,,,
1523522558.779005,-0.635543,-0.019930,1.454957,-0.016016,0.002965,-0.042488,-0.593497,0.019928,-0.804590,-0.008310,-0.011597,-0.001410,-2.579086,-47.805283,-3.802002,,,,,,,
1523522558.808973,-0.634859,-0.018245,1.455668,0.073627,0.022750,-0.016866,-0.592966,0.018244,-0.805021,-0.005331,0.002096,-0.004153,-3.332184,-48.476303,-3.199646,,,,,,,
1523522558.838941,-0.633232,-0.017672,1.457340,-0.000253,0.075470,0.068265,-0.591661,0.017671,-0.805993,0.044511,-0.006532,-0.028754,-3.339386,-48.926712,-3.647888,,,,,,,
1523522558.868910,-0.631800,-0.018566,1.460461,0.063361,0.010305,0.096076,-0.590496,0.018565,-0.806827,0.061199,-0.035349,0.007709,-3.262878,-48.777054,-3.648438,,,,,,,
1523522558.898878,-0.630808,-0.018884,1.463552,-0.000140,0.085109,0.056541,-0.589692,0.018883,-0.807407,0.045320,-0.013191,-0.009182,-3.335037,-48.626511,-3.424133,,,,,,,
1523522558.928846,-0.627075,-0.020433,1.462129,-0.094676,0.039538,-0.077746,-0.586656,0.020432,-0.809578,0.019228,-0.010880,-0.137245,-3.036224,-48.478302,-3.874573,,,,,,,
1523522558.958814,-0.631776,-0.018265,1.460837,0.101518,-0.236295,-0.060268,-0.590480,0.018264,-0.806845,0.076290,-0.019744,-0.031747,-2.885040,-48.403900,-3.799744,,,,,,,
1523522558.988783,-0.633954,-0.016186,1.462098,-0.000182,0.054443,0.036319,-0.592257,0.016185,-0.805586,0.027514,0.004322,0.034956,-3.184723,-48.552261,-3.499329,,,,,,,
1523522559.018751,-0.629293,-0.020533,1.462927,-0.150777,0.130773,0.113921,-0.588450,0.020532,-0.808273,-0.011770,-0.033090,-0.069183,-3.039841,-48.703506,-4.098633,,,,,,,
1523522559.048719,-0.627945,-0.024631,1.464439,-0.015792,-0.009787,0.108832,-0.587305,0.024629,-0.808991,0.005502,-0.083558,-0.035491,-2.812592,-48.479538,-4.099426,,,,,,,
,,,,,,,,,,,,,,,,25.313522,51.455630,11.168392,14.500000,268.945312,1523522558.999890,
1523522559.078688,-0.627221,-0.025019,1.467237,0.031626,0.008610,0.042797,-0.586713,0.025017,-0.809408,0.003339,-0.056130,-0.124246,-3.035629,-48.553085,-3.649231,,,,,,,
1523522559.108656,-0.629843,-0.025024,1.467887,-0.024287,-0.126949,-0.000803,-0.588833,0.025022,-0.807867,0.009747,-0.022031,-0.056177,-3.484253,-48.550842,-3.424500,,,,,,,
1523522559.138624,-0.632910,-0.024917,1.467336,0.008089,-0.097005,-0.040230,-0.591310,0.024915,-0.806059,0.054765,-0.015271,0.000136,-3.559570,-48.176178,-4.101013,,,,,,,
1523522559.168592,-0.634259,-0.023189,1.468453,0.058461,0.014024,0.019367,-0.592421,0.023187,-0.805295,0.047499,-0.016733,0.026394,-3.780807,-48.249435,-3.350830,,,,,,,
1523522559.198561,-0.631754,-0.024409,1.469000,-0.105623,0.094113,0.022355,-0.590385,0.024406,-0.806753,-0.015176,-0.013161,-0.045146,-3.037582,-48.478531,-4.099548,,,,,,,
1523522559.228529,-0.628450,-0.027923,1.466085,-0.146929,0.065080,-0.066083,-0.587662,0.027919,-0.808624,-0.025756,-0.049556,-0.109711,-3.109726,-48.327972,-3.875183,,,,,,,
1523522559.258497,-0.632291,-0.021802,1.465016,0.355371,-0.222106,-0.203939,-0.590854,0.021800,-0.806484,0.049197,-0.043239,0.095592,-3.632156,-48.474945,-3.199829,,,,,,,
1523522559.288465,-0.636065,-0.010358,1.468190,0.209294,-0.011297,-0.059349,-0.594003,0.010358,-0.804396,0.011697,0.025271,0.098540,-3.182175,-48.701599,-2.823669,,,,,,,
1523522559.318434,-0.631517,-0.016642,1.465924,-0.445261,0.217282,0.154115,-0.590288,0.016642,-0.807021,0.002092,-0.003626,-0.058305,-3.335938,-48.626648,-3.574097,,,,,,,
1523522559.348402,-0.626244,-0.029293,1.464430,-0.266518,0.130477,0.196948,-0.585854,0.029289,-0.809887,-0.042808,-0.048149,-0.047901,-3.786057,-48.325165,-4.100525,,,,,,,
1523522559.378370,-0.622939,-0.034110,1.467672,0.072972,0.077850,0.156761,-0.583085,0.034103,-0.811695,0.012604,-0.088898,-0.093029,-4.161179,-48.473236,-3.875122,,,,,,,
1523522559.408338,-0.624761,-0.030619,1.474829,0.249654,-0.133515,0.080389,-0.584630,0.030614,-0.810722,0.024083,-0.046361,-0.018669,-3.856857,-48.174393,-3.651123,,,,,,,
1523522559.438307,-0.627877,-0.025825,1.477371,0.137468,-0.100252,-0.078485,-0.587232,0.025822,-0.809007,0.144773,-0.047657,0.074418,-3.930649,-48.098984,-3.576477,,,,,,,
1523522559.468268,-0.629233,-0.021968,1.479187,0.039174,-0.009251,0.011915,-0.588383,0.021966,-0.808284,0.137577,0.014380,0.024302,-3.258224,-48.177307,-3.875854,,,,,,,
1523522559.498236,-0.627317,-0.027901,1.476969,-0.367363,0.115663,0.072221,-0.586746,0.027897,-0.809290,0.049942,0.061886,-0.092870,-4.309372,-48.472275,-3.575195,,,,,,,
1523522559.528204,-0.621381,-0.038222,1.470860,-0.361210,0.168482,-0.037574,-0.581733,0.038213,-0.812481,-0.031868,0.012065,-0.218479,-3.936951,-48.324631,-4.250610,,,,,,,
1523522559.558173,-0.621656,-0.038210,1.467671,0.152617,-0.094736,-0.112577,-0.581957,0.038201,-0.812322,-0.053801,-0.027047,-0.146708,-3.559128,-47.951477,-4.401917,,,,,,,
1523522559.588141,-0.625592,-0.028816,1.470165,0.352907,-0.196156,-0.116586,-0.585334,0.028812,-0.810280,-0.026009,-0.055438,-0.010292,-3.781403,-48.174652,-3.576111,,,,,,,
1523522559.618109,-0.629383,-0.021405,1.475253,0.180963,-0.008849,0.054648,-0.588511,0.021403,-0.808206,0.007502,-0.060450,0.044900,-4.079163,-48.172943,-3.201233,,,,,,,
1523522559.648078,-0.627892,-0.023358,1.477059,-0.141196,0.057807,0.058603,-0.587280,0.023356,-0.809047,0.014877,-0.000087,-0.010137,-2.803314,-47.729294,-3.802429,,,,,,,
1523522559.678046,-0.625092,-0.028324,1.474006,-0.215240,0.104347,-0.035270,-0.584937,0.028321,-0.810584,-0.000329,0.013519,-0.093637,-3.555664,-48.100662,-3.576294,,,,,,,
1523522559.708014,-0.623353,-0.030841,1.468450,-0.144448,0.049659,-0.142772,-0.583483,0.030836,-0.811540,-0.039991,0.046770,-0.151900,-3.555969,-47.950958,-3.876953,,,,,,,
1523522559.737982,-0.625314,-0.027096,1.464598,0.159145,-0.175941,-0.204118,-0.585137,0.027093,-0.810482,-0.008247,0.043876,-0.083561,-2.431183,-47.881180,-4.026611,,,,,,,
1523522559.767951,-0.630752,-0.018060,1.466620,0.311340,-0.117815,-0.061282,-0.589656,0.018059,-0.807453,0.032222,0.046333,0.074863,-3.258377,-48.327087,-3.650269,,,,,,,
1523522559.797919,-0.630046,-0.013879,1.471078,0.088486,0.085920,0.058750,-0.589125,0.013878,-0.807922,0.008788,0.057411,0.045593,-3.032928,-48.552643,-3.199219,,,,,,,
1523522559.827887,-0.626609,-0.014853,1.473459,-0.001256,0.102979,0.083168,-0.586336,0.014852,-0.809931,0.051150,-0.007116,-0.028539,-2.512161,-48.705444,-3.648376,,,,,,,
1523522559.857855,-0.624680,-0.016613,1.475173,-0.014003,0.057687,0.030991,-0.584757,0.016612,-0.811038,0.020533,-0.001460,-0.058957,-3.331436,-48.176682,-3.575867,,,,,,,
1523522559.887824,-0.624911,-0.016358,1.475154,0.028561,-0.055627,-0.039187,-0.584947,0.016357,-0.810907,0.026383,0.009385,-0.040595,-3.033524,-48.477875,-3.424561,,,,,,,
1523522559.917792,-0.627296,-0.014881,1.475460,0.029324,-0.088817,-0.006108,-0.586892,0.014880,-0.809528,0.029733,0.010709,0.018451,-2.433548,-48.480576,-3.424255,,,,,,,
1523522559.947760,-0.628088,-0.015109,1.476789,0.004815,-0.001006,0.058775,-0.587531,0.015109,-0.809060,0.032889,-0.005251,0.007211,-3.934235,-48.548813,-3.424744,,,,,,,
1523522559.977728,-0.627313,-0.016943,1.479771,0.003507,0.024007,0.128015,-0.586887,0.016942,-0.809491,0.053638,-0.024145,0.009686,-3.710770,-48.699814,-3.424011,,,,,,,
1523522560.007697,-0.625698,-0.019512,1.482784,-0.035715,0.056185,0.100243,-0.585552,0.019511,-0.810400,0.033291,-0.022898,-0.032404,-3.033829,-48.328171,-3.725159,,,,,,,
1523522560.037665,-0.625461,-0.021319,1.483800,-0.027285,-0.049617,0.031101,-0.585338,0.021317,-0.810509,0.051570,-0.036164,-0.028740,-3.784241,-48.549484,-3.424622,,,,,,,
1523522560.067633,-0.626969,-0.021610,1.483864,0.001766,-0.045148,-0.009378,-0.586556,0.021608,-0.809620,0.041421,-0.030290,0.003330,-3.480072,-48.175797,-3.350952,,,,,,,
,,,,,,,,,,,,,,,,25.313515,51.455475,10.984127,14.510000,269.648438,1523522559.999896,
1523522560.097601,-0.626933,-0.021505,1.483416,-0.036438,0.011236,-0.005201,-0.586528,0.021503,-0.809643,0.027477,-0.027790,-0.027469,-3.334442,-48.252029,-3.950562,,,,,,,
1523522560.127570,-0.626410,-0.023024,1.482172,-0.082377,0.010235,0.001166,-0.586085,0.023022,-0.809922,0.008250,-0.023830,-0.043548,-3.635910,-48.625305,-3.574219,,,,,,,
1523522560.157538,-0.625934,-0.024012,1.481249,-0.010945,-0.019650,-0.005145,-0.585685,0.024010,-0.810183,0.019355,-0.026741,-0.058256,-4.082611,-48.248367,-3.650940,,,,,,,
1523522560.187506,-0.626936,-0.022261,1.481911,0.078767,-0.031448,-0.021051,-0.586520,0.022260,-0.809628,0.031482,-0.008801,-0.000720,-3.108231,-48.177979,-3.875793,,,,,,,
1523522560.217474,-0.626065,-0.020894,1.481336,-0.030750,0.032822,-0.054236,-0.585833,0.020892,-0.810162,0.021929,0.012525,-0.046252,-4.004898,-48.248260,-3.200928,,,,,,,
1523522560.247443,-0.625402,-0.021200,1.479307,-0.061837,0.001041,-0.057422,-0.585292,0.021199,-0.810545,0.012370,-0.002735,-0.047029,-3.936356,-48.624023,-3.649414,,,,,,,
1523522560.277411,-0.625583,-0.021188,1.477599,-0.022361,-0.000162,-0.052060,-0.585439,0.021186,-0.810440,-0.011592,0.022408,-0.055710,-2.659744,-48.330002,-3.874939,,,,,,,
1523522560.307379,-0.624861,-0.020668,1.476909,0.004452,0.031619,-0.047810,-0.584859,0.020666,-0.810871,-0.010020,0.007730,-0.088268,-3.860748,-48.474518,-3.799988,,,,,,,
1523522560.337348,-0.624821,-0.018397,1.476760,0.093907,-0.033344,-0.059396,-0.584853,0.018396,-0.810931,-0.007753,0.024344,-0.061277,-3.483215,-48.400925,-3.500122,,,,,,,
1523522560.367316,-0.625884,-0.014722,1.477206,0.096063,-0.054469,-0.079610,-0.585750,0.014721,-0.810358,0.024944,0.039508,-0.032507,-3.253281,-48.176498,-3.050842,,,,,,,
1523522560.397284,-0.627866,-0.011053,1.478064,0.118227,-0.056965,-0.033779,-0.587383,0.011053,-0.809233,0.051922,0.039576,0.028960,-3.477661,-48.250275,-2.825623,,,,,,,
1523522560.427252,-0.626681,-0.009830,1.478611,-0.029569,0.089968,-0.023379,-0.586431,0.009829,-0.809939,-0.005946,0.051053,-0.037045,-3.328720,-48.400864,-2.750000,,,,,,,
1523522560.457221,-0.624626,-0.011082,1.476838,-0.068264,0.010515,-0.043577,-0.584758,0.011082,-0.811132,0.007518,-0.002980,-0.087062,-2.657196,-48.479340,-3.199341,,,,,,,
1523522560.487177,-0.627068,-0.010526,1.476788,0.065590,-0.094211,-0.006084,-0.586741,0.010526,-0.809706,0.001536,0.003329,0.003645,-3.108978,-48.702225,-3.123718,,,,,,,
1523522560.517145,-0.626920,-0.009098,1.478156,0.064085,0.029152,-0.020060,-0.586629,0.009098,-0.809804,-0.034236,0.007962,-0.038523,-3.484711,-48.775543,-3.123596,,,,,,,
1523522560.547113,-0.627476,-0.006857,1.479552,0.091312,-0.055087,0.010953,-0.587089,0.006857,-0.809493,0.034767,-0.003485,0.016082,-2.505386,-48.479721,-2.899231,,,,,,,
1523522560.577082,-0.628102,-0.006033,1.482455,0.044356,0.019008,0.069442,-0.587599,0.006033,-0.809130,0.049940,-0.009314,0.048967,-3.557312,-48.625061,-2.974182,,,,,,,
1523522560.607050,-0.626081,-0.007479,1.484182,-0.046093,0.077717,0.062926,-0.585957,0.007479,-0.810307,0.042775,0.007993,-0.001094,-3.256424,-48.626266,-2.824036,,,,,,,
1523522560.637018,-0.623954,-0.009711,1.484278,-0.062960,0.061133,0.008594,-0.584221,0.009710,-0.811536,0.031624,-0.012945,-0.025988,-3.330978,-48.401230,-3.125000,,,,,,,
1523522560.666986,-0.623132,-0.010054,1.484079,0.007331,0.006864,-0.005153,-0.583552,0.010054,-0.812014,0.025355,-0.032698,-0.024259,-3.481262,-48.250854,-3.425659,,,,,,,
1523522560.696955,-0.623425,-0.009644,1.484913,0.019914,-0.022006,0.015135,-0.583792,0.009644,-0.811846,0.019019,-0.021912,-0.004484,-2.806885,-48.403732,-3.274719,,,,,,,
1523522560.726923,-0.622812,-0.010607,1.486078,-0.024980,0.025577,0.065130,-0.583288,0.010606,-0.812196,0.013586,-0.025346,-0.012572,-3.254776,-48.326492,-3.050293,,,,,,,
1523522560.756891,-0.622192,-0.011820,1.487837,0.008069,0.022288,0.069411,-0.582777,0.011819,-0.812546,0.053618,-0.026819,0.007965,-3.631256,-48.474808,-3.049866,,,,,,,
1523522560.786859,-0.620523,-0.011911,1.489752,0.012760,0.065074,0.026754,-0.581419,0.011911,-0.813517,0.054625,-0.026315,-0.042227,-2.882339,-48.403473,-3.349731,,,,,,,
1523522560.816828,-0.619080,-0.012802,1.489173,-0.082200,0.018898,-0.023342,-0.580238,0.012801,-0.814346,0.026268,-0.003158,-0.070679,-2.656738,-48.479263,-3.124390,,,,,,,
1523522560.846796,-0.620033,-0.013331,1.487058,-0.031053,-0.061637,-0.073303,-0.581010,0.013330,-0.813787,0.037508,-0.008280,-0.025660,-3.253723,-48.176575,-3.125854,,,,,,,
1523522560.876764,-0.620625,-0.011705,1.486001,0.027735,-0.012023,-0.045615,-0.581504,0.011704,-0.813459,0.023826,-0.002549,-0.018786,-3.475861,-48.025360,-2.901550,,,,,,,
1523522560.906732,-0.620223,-0.011400,1.486136,-0.016329,-0.016546,0.007640,-0.581179,0.011400,-0.813696,0.017580,0.007124,-0.054834,-3.558502,-48.475510,-3.424805,,,,,,,
1523522560.936701,-0.620780,-0.011545,1.486277,0.015729,-0.029266,-0.008305,-0.581631,0.011545,-0.813371,0.028317,-0.016596,-0.023726,-3.409866,-48.701019,-3.273804,,,,,,,
1523522560.966669,-0.620785,-0.010611,1.486865,0.020287,0.029207,-0.013691,-0.581641,0.010611,-0.813376,0.038383,-0.006476,-0.018823,-2.656448,-48.179718,-3.575500,,,,,,,
1523522560.996637,-0.619095,-0.011125,1.485995,-0.077863,0.033777,-0.024424,-0.580262,0.011125,-0.814354,0.022721,0.025969,-0.099022,-3.480667,-48.325638,-3.200317,,,,,,,
1523522561.026606,-0.619111,-0.012671,1.484025,-0.078050,-0.025652,-0.037140,-0.580265,0.012671,-0.814329,0.022953,0.027521,-0.094988,-3.707626,-48.250061,-3.650757,,,,,,,
,,,,,,,,,,,,,,,,25.313525,51.455329,11.067104,14.650000,270.351562,1523522560.999897,
1523522561.056574,-0.620190,-0.012168,1.483452,0.057334,-0.050554,-0.018903,-0.581147,0.012167,-0.813708,0.042450,0.021784,-0.030973,-2.577881,-47.954849,-3.351379,,,,,,,
1523522561.086542,-0.620076,-0.010224,1.485075,0.064025,0.041695,0.006584,-0.581066,0.010224,-0.813792,0.038052,0.017974,-0.028829,-3.328735,-48.176239,-3.125916,,,,,,,
1523522561.116510,-0.618418,-0.010142,1.486403,0.004076,0.026865,0.022530,-0.579717,0.010141,-0.814755,0.058766,-0.005945,-0.034732,-3.327377,-48.176025,-2.900879,,,,,,,
1523522561.146479,-0.617822,-0.010973,1.486522,-0.034317,0.006938,-0.001982,-0.579226,0.010973,-0.815093,0.059695,0.012816,-0.026368,-3.253143,-47.802109,-3.652344,,,,,,,
1523522561.176447,-0.616478,-0.011579,1.485890,-0.031840,0.048585,-0.031859,-0.578126,0.011579,-0.815865,0.043046,0.019763,-0.064796,-3.553268,-48.175156,-3.051025,,,,,,,
1523522561.206415,-0.615520,-0.011404,1.484770,-0.019283,-0.008844,-0.030718,-0.577346,0.011404,-0.816420,0.052276,0.017985,-0.072130,-3.331284,-48.251526,-3.425598,,,,,,,
1523522561.236383,-0.615264,-0.012595,1.484218,-0.068481,0.014415,0.004379,-0.577128,0.012595,-0.816557,0.042918,0.031488,-0.046160,-2.582367,-48.180191,-3.725525,,,,,,,
1523522561.266352,-0.614005,-0.014156,1.483858,-0.033237,0.033360,0.018236,-0.576088,0.014156,-0.817265,0.053948,0.007451,-0.034267,-3.030380,-48.252731,-3.275452,,,,,,,
1523522561.296320,-0.611870,-0.016100,1.483664,-0.100405,0.054755,0.020304,-0.574325,0.016099,-0.818469,0.049789,0.002013,-0.084836,-2.882950,-48.104065,-3.950928,,,,,,,
1523522561.326288,-0.610938,-0.019491,1.481804,-0.129408,-0.009808,-0.004170,-0.573527,0.019490,-0.818954,0.062129,0.007839,-0.092209,-2.355881,-47.806595,-4.101868,,,,,,,
1523522561.356256,-0.612050,-0.020807,1.480432,-0.034297,-0.036361,-0.041356,-0.574422,0.020806,-0.818295,0.048375,0.030647,-0.036930,-3.261826,-48.402512,-4.099976,,,,,,,
1523522561.386225,-0.611716,-0.021323,1.478610,-0.089702,-0.002246,-0.036113,-0.574142,0.021321,-0.818478,0.048279,0.020045,-0.077427,-3.184891,-48.252777,-4.025513,,,,,,,
1523522561.416193,-0.611212,-0.024467,1.476616,-0.128444,-0.018416,0.009697,-0.573689,0.024465,-0.818708,0.044911,0.003993,-0.090716,-2.661713,-48.255432,-4.325195,,,,,,,
1523522561.446161,-0.612712,-0.026487,1.475988,-0.020757,-0.054803,0.007687,-0.574886,0.026484,-0.817804,0.030483,0.003042,-0.063147,-3.038040,-48.478607,-4.174561,,,,,,,
1523522561.476131,-0.613503,-0.026760,1.476323,-0.016444,-0.035734,0.015126,-0.575529,0.026756,-0.817343,0.038465,0.021980,-0.091562,-3.110641,-48.328125,-4.025146,,,,,,,
1523522561.506100,-0.615637,-0.028188,1.476641,-0.042414,-0.105825,0.019433,-0.577249,0.028184,-0.816081,0.032846,0.021346,-0.051854,-2.585083,-47.956009,-4.551392,,,,,,,
1523522561.536068,-0.617816,-0.028404,1.476713,0.017714,-0.061182,-0.005067,-0.579023,0.028400,-0.814816,0.060178,0.004971,-0.013080,-3.263779,-48.327957,-4.550293,,,,,,,
1523522561.566036,-0.618125,-0.027762,1.477433,0.023243,-0.010255,0.003414,-0.579285,0.027758,-0.814652,0.068863,0.003476,-0.019622,-3.186691,-48.253067,-4.325500,,,,,,,
1523522561.596005,-0.617681,-0.029057,1.477955,-0.080323,0.032258,0.039519,-0.578901,0.029053,-0.814880,0.030470,0.014603,-0.032181,-2.963058,-48.254303,-4.550415,,,,,,,
1523522561.625973,-0.616328,-0.031905,1.477097,-0.070712,-0.003668,0.007595,-0.577749,0.031900,-0.815591,0.053182,-0.013482,-0.060828,-3.336700,-48.252396,-4.325562,,,,,,,
1523522561.655941,-0.616683,-0.032253,1.477718,0.031711,-0.008289,0.021543,-0.578031,0.032247,-0.815377,0.046522,-0.004964,0.000863,-3.558228,-47.951324,-4.251953,,,,,,,
1523522561.685909,-0.615887,-0.032134,1.479654,0.028380,0.003195,0.053484,-0.577384,0.032129,-0.815840,0.082405,-0.004892,-0.018831,-3.335648,-48.102478,-4.401184,,,,,,,
1523522561.715878,-0.614988,-0.032971,1.482040,0.004850,0.032804,0.084326,-0.576635,0.032965,-0.816336,0.086233,-0.007696,0.026847,-3.488922,-48.476730,-4.324768,,,,,,,
1523522561.745846,-0.612337,-0.035466,1.483338,-0.086580,0.091625,0.061829,-0.574420,0.035459,-0.817792,0.083239,-0.009855,-0.024096,-3.113647,-48.178864,-4.775757,,,,,,,
1523522561.775814,-0.611312,-0.037955,1.483589,-0.042120,-0.013581,0.045992,-0.573529,0.037946,-0.818306,0.094541,-0.022214,0.022270,-2.662613,-48.030960,-4.851135,,,,,,,
1523522561.805782,-0.609958,-0.039139,1.484536,-0.011801,0.081985,0.045913,-0.572395,0.039129,-0.819044,0.063773,-0.007605,-0.030321,-3.631882,-47.726151,-4.402832,,,,,,,
1523522561.835751,-0.608035,-0.040378,1.485863,-0.015380,0.008589,0.056648,-0.570790,0.040367,-0.820103,0.081715,-0.026848,-0.021190,-4.010757,-48.024597,-4.551880,,,,,,,
1523522561.865719,-0.607310,-0.042008,1.487716,-0.033502,0.058317,0.093877,-0.570157,0.041996,-0.820462,0.073453,-0.036670,-0.031498,-2.889114,-47.955322,-5.226562,,,,,,,
1523522561.895687,-0.603924,-0.045204,1.489240,-0.082481,0.076582,0.083164,-0.567297,0.045189,-0.822273,0.061666,-0.035133,-0.136803,-3.639511,-48.401260,-4.550171,,,,,,,
1523522561.925655,-0.604705,-0.047289,1.490325,-0.006277,-0.107210,0.051434,-0.567884,0.047271,-0.821750,0.093275,-0.020141,-0.084012,-3.487289,-47.952332,-4.926880,,,,,,,
1523522561.955624,-0.607638,-0.046094,1.492228,0.086888,-0.102889,0.005697,-0.570323,0.046077,-0.820127,0.106547,0.010456,-0.017565,-3.559738,-47.876694,-4.627258,,,,,,,
1523522561.985592,-0.607975,-0.044884,1.493007,-0.011910,-0.006876,-0.010472,-0.570631,0.044869,-0.819980,0.105803,0.003807,-0.013471,-3.487747,-47.952408,-5.001892,,,,,,,
1523522562.015560,-0.607018,-0.046266,1.492149,-0.098278,0.028321,0.000091,-0.569811,0.046250,-0.820473,0.092577,-0.014618,-0.022590,-3.185669,-47.653900,-5.152893,,,,,,,
1523522562.045528,-0.604293,-0.049394,1.490181,-0.125823,0.064599,-0.010625,-0.567488,0.049374,-0.821900,0.042128,-0.020763,-0.120757,-2.888977,-47.805542,-5.452148,,,,,,,
,,,,,,,,,,,,,,,,25.313523,51.455186,11.518063,14.700000,269.648438,1523522561.999902,
1523522562.075497,-0.603823,-0.050917,1.488090,-0.059808,-0.034028,-0.061624,-0.567058,0.050895,-0.822104,-0.005589,-0.006141,-0.149438,-3.940872,-48.175507,-5.151184,,,,,,,
1523522562.105465,-0.605674,-0.049521,1.486021,0.034114,-0.078669,-0.093474,-0.568618,0.049501,-0.821111,-0.004426,-0.001436,-0.117625,-3.716797,-48.176666,-5.301086,,,,,,,
1523522562.135433,-0.607539,-0.046570,1.486490,0.104136,-0.078404,-0.006041,-0.570230,0.046553,-0.820165,0.048547,-0.014143,-0.064479,-3.716034,-48.326294,-4.925476,,,,,,,
1523522562.165401,-0.607984,-0.045187,1.489663,0.076392,0.030496,0.083326,-0.570631,0.045172,-0.819963,0.079786,0.025827,-0.026350,-4.011963,-48.099670,-4.626587,,,,,,,
1523522562.195370,-0.605839,-0.044924,1.492939,0.061678,0.057208,0.065189,-0.568877,0.044909,-0.821195,0.101256,0.010999,-0.067370,-3.942368,-48.325500,-5.150574,,,,,,,
1523522562.225338,-0.604374,-0.044422,1.494209,0.005338,0.007015,-0.028581,-0.567687,0.044408,-0.822046,0.088469,0.017818,-0.110877,-4.014053,-48.174881,-4.851257,,,,,,,
1523522562.255306,-0.606511,-0.043006,1.492815,0.038256,-0.122196,-0.103003,-0.569477,0.042993,-0.820882,0.063374,0.007682,-0.062251,-4.240845,-48.398773,-4.775452,,,,,,,
1523522562.285275,-0.608787,-0.038830,1.492068,0.118545,-0.066091,-0.098751,-0.571442,0.038820,-0.819724,0.075272,0.005278,-0.031442,-2.961868,-48.179245,-4.475708,,,,,,,
1523522562.315243,-0.608366,-0.035910,1.493090,0.077830,0.023565,0.008758,-0.571158,0.035903,-0.820054,0.058509,0.015977,-0.051558,-4.015701,-48.474655,-4.625061,,,,,,,
1523522562.345211,-0.606992,-0.035363,1.496394,0.090094,0.004852,0.097222,-0.570043,0.035356,-0.820853,0.102193,-0.023927,-0.042184,-3.786804,-48.400146,-4.100220,,,,,,,
1523522562.375179,-0.604878,-0.034630,1.501039,0.095822,0.094071,0.100337,-0.568320,0.034623,-0.822078,0.083320,-0.029969,-0.059727,-3.638474,-48.251343,-4.625793,,,,,,,
1523522562.405148,-0.602409,-0.034932,1.504042,0.001790,0.032944,0.061968,-0.566284,0.034925,-0.823470,0.098571,-0.056714,-0.080476,-4.162537,-48.473465,-4.100098,,,,,,,
1523522562.435116,-0.601319,-0.036239,1.504331,-0.052530,0.001542,0.011888,-0.565359,0.036231,-0.824048,0.095511,-0.065726,-0.086947,-4.014801,-48.474503,-4.475037,,,,,,,
1523522562.465086,-0.602662,-0.035716,1.504804,0.064580,-0.094212,-0.010318,-0.566476,0.035709,-0.823304,0.102090,-0.051059,-0.032439,-3.487122,-48.251801,-4.400635,,,,,,,
1523522562.495054,-0.603269,-0.033706,1.506605,0.070985,-0.044568,0.031185,-0.567015,0.033699,-0.823018,0.102476,-0.051445,-0.025005,-3.713181,-48.400711,-4.325134,,,,,,,
1523522562.525023,-0.602017,-0.032912,1.509066,0.043518,0.066776,0.072614,-0.565999,0.032906,-0.823748,0.116414,-0.071953,-0.021543,-3.787109,-48.250443,-4.400818,,,,,,,
1523522562.554991,-0.598991,-0.034299,1.511370,-0.052730,0.042508,0.082158,-0.563478,0.034292,-0.825419,0.114412,-0.070593,-0.083868,-3.566620,-48.476822,-4.774780,,,,,,,
1523522562.584959,-0.598733,-0.036242,1.512252,-0.032521,-0.016809,0.047076,-0.563226,0.036234,-0.825508,0.112771,-0.055353,-0.050301,-3.938004,-48.249924,-4.550903,,,,,,,
1523522562.614927,-0.597607,-0.037014,1.513184,-0.024803,0.027862,0.038512,-0.562280,0.037005,-0.826118,0.093789,-0.057284,-0.085075,-3.714081,-48.176239,-4.851074,,,,,,,
