timestamp(unix),attitude_roll(radians),attitude_pitch(radians),attitude_yaw(radians),rotation_rate_x(radians/s),rotation_rate_y(radians/s),rotation_rate_z(radians/s),gravity_x(G),gravity_y(G),gravity_z(G),user_acc_x(G),user_acc_y(G),user_acc_z(G),magnetic_field_x(microteslas),magnetic_field_y(microteslas),magnetic_field_z(microteslas),latitude(degree),longitude(degree),altitude(meter),speed(m/s),course(degree),timestamp(unix),User Mark
,,,,,,,,,,,,,,,,25.306158,51.445662,10.999999,-1.000000,-1.000000,1522139352.930785,
1522139719.923414,-0.043296,-0.015010,1.333087,-0.013526,0.000348,0.001081,-0.043277,0.015010,-0.998950,0.025989,-0.039332,-0.011563,2.531616,-12.828308,-2.623779,,,,,,,
1522139719.953383,-0.042566,-0.015132,1.333213,-0.005879,0.035386,-0.000003,-0.042549,0.015132,-0.998980,0.036262,-0.034358,0.030688,-0.981079,-12.361237,-1.352356,,,,,,,
1522139719.983351,-0.041355,-0.015037,1.333330,-0.010974,0.092772,0.002062,-0.041339,0.015036,-0.999032,-0.023480,-0.082846,-0.134986,-5.016052,-12.115982,0.744629,,,,,,,
1522139720.013319,-0.039911,-0.014988,1.333321,0.003774,0.042850,-0.004279,-0.039896,0.014987,-0.999091,-0.019628,-0.060230,-0.076821,-10.907593,-12.009079,6.141296,,,,,,,
1522139720.043287,-0.038753,-0.014476,1.333190,0.009026,0.018407,-0.007439,-0.038739,0.014475,-0.999144,0.036237,-0.057368,0.060363,-13.373444,-13.119598,9.519470,,,,,,,
1522139720.073256,-0.037710,-0.013981,1.333086,0.006839,0.013061,-0.002107,-0.037697,0.013981,-0.999191,0.094658,0.003125,0.052918,-13.647964,-14.761383,16.500854,,,,,,,
1522139720.103224,-0.036954,-0.013575,1.332864,0.000514,0.025874,-0.007458,-0.036942,0.013574,-0.999225,0.044831,-0.089166,-0.018856,-12.816483,-15.962036,19.581055,,,,,,,
1522139720.133192,-0.036683,-0.013988,1.332760,-0.031685,-0.008090,-0.003178,-0.036672,0.013988,-0.999229,0.080769,-0.066157,-0.032448,-8.461044,-17.627960,23.264893,,,,,,,
1522139720.163160,-0.036810,-0.014332,1.332604,0.002475,-0.011328,-0.006355,-0.036798,0.014332,-0.999220,0.053583,-0.059925,-0.010240,-6.215912,-18.387604,23.719055,,,,,,,
1522139720.193129,-0.037374,-0.014305,1.332426,-0.035008,-0.033559,-0.004233,-0.037361,0.014305,-0.999199,-0.001701,-0.043235,0.018838,-0.523605,-19.837097,24.852722,,,,,,,
1522139720.223097,-0.037706,-0.015071,1.332293,-0.020011,-0.018758,0.000031,-0.037693,0.015070,-0.999176,-0.006329,-0.052943,-0.104981,1.873154,-20.297653,25.080750,,,,,,,
1522139720.253065,-0.038554,-0.014810,1.332151,-0.000783,-0.017736,-0.001021,-0.038541,0.014809,-0.999147,0.002927,-0.040139,-0.112959,6.822205,-20.394928,25.083618,,,,,,,
1522139720.283033,-0.038801,-0.015317,1.332181,-0.014642,-0.006043,0.004280,-0.038787,0.015316,-0.999130,0.054381,-0.010403,-0.031006,8.318100,-20.626953,24.785278,,,,,,,
1522139720.313002,-0.038707,-0.015024,1.332177,0.015226,-0.024122,-0.005265,-0.038693,0.015024,-0.999138,0.064785,-0.054971,0.098763,11.017944,-19.965225,23.658997,,,,,,,
1522139720.342970,-0.038528,-0.015074,1.332123,-0.015659,-0.004937,-0.003173,-0.038514,0.015073,-0.999144,0.108079,-0.104566,-0.006196,15.818558,-17.740433,20.052490,,,,,,,
1522139720.372938,-0.037880,-0.015540,1.332207,-0.022907,0.050310,0.001026,-0.037867,0.015539,-0.999162,-0.000463,0.006296,-0.140975,16.117310,-16.693741,18.098450,,,,,,,
1522139720.402876,-0.037470,-0.015168,1.332229,0.028158,0.002410,-0.005281,-0.037457,0.015168,-0.999183,0.072125,-0.021439,0.092826,15.302170,-14.217545,15.613159,,,,,,,
1522139720.432844,-0.036244,-0.014509,1.332143,0.001625,0.045989,0.002115,-0.036233,0.014508,-0.999238,0.010552,-0.068662,-0.041533,13.136963,-13.232803,15.608154,,,,,,,
1522139720.462813,-0.035201,-0.014255,1.332003,0.017391,-0.012451,-0.002085,-0.035190,0.014254,-0.999279,-0.035840,-0.015978,-0.002537,12.703964,-12.928543,17.931702,,,,,,,
1522139720.492781,-0.033825,-0.013817,1.331864,0.016648,0.058740,-0.002153,-0.033815,0.013817,-0.999333,-0.005278,-0.068413,0.034489,13.685516,-13.081604,19.282837,,,,,,,
1522139720.522749,-0.032300,-0.013334,1.331780,0.013318,0.029000,-0.003189,-0.032292,0.013333,-0.999390,0.002675,0.023272,0.014725,18.499268,-12.427063,20.482605,,,,,,,
1522139720.552717,-0.031051,-0.012625,1.331601,0.018647,0.020520,-0.008503,-0.031044,0.012625,-0.999438,0.099220,-0.074072,0.027148,21.499283,-12.290787,20.258545,,,,,,,
1522139720.582686,-0.030114,-0.012407,1.331412,-0.003843,0.007812,-0.006377,-0.030107,0.012407,-0.999470,0.052583,-0.079149,0.058765,28.026779,-9.923691,16.727356,,,,,,,
1522139720.612654,-0.029014,-0.012554,1.331375,-0.005850,0.037580,-0.006415,-0.029008,0.012554,-0.999500,0.008683,-0.019619,-0.100063,32.002747,-8.294144,14.172791,,,,,,,
1522139720.642622,-0.028470,-0.012202,1.331261,0.005806,0.010984,-0.009559,-0.028464,0.012202,-0.999520,0.011237,-0.039302,-0.001365,33.950729,-4.933838,8.235413,,,,,,,
1522139720.672590,-0.028135,-0.012087,1.331102,-0.008194,-0.009174,-0.006367,-0.028129,0.012087,-0.999531,0.001319,-0.042910,0.021458,34.329819,-3.212738,6.053711,,,,,,,
1522139720.702555,-0.028502,-0.012235,1.330930,-0.004043,-0.031534,-0.002075,-0.028496,0.012235,-0.999519,0.047539,-0.094877,-0.011284,34.331711,-1.490295,3.496826,,,,,,,
1522139720.732523,-0.028710,-0.012529,1.330960,-0.024260,-0.014501,0.000027,-0.028703,0.012529,-0.999509,0.046358,-0.035631,-0.056246,32.707474,2.489685,1.155090,,,,,,,
1522139720.762491,-0.030024,-0.012334,1.330954,-0.001059,-0.075155,0.003305,-0.030017,0.012334,-0.999473,0.045718,-0.022832,0.005119,31.458130,5.195053,0.918640,,,,,,,
1522139720.792459,-0.031025,-0.012321,1.330904,-0.008329,-0.033672,0.000061,-0.031018,0.012321,-0.999443,0.044903,-0.034599,-0.105934,33.305176,9.911728,0.900696,,,,,,,
1522139720.822428,-0.032498,-0.012271,1.330884,0.007567,-0.059192,-0.000978,-0.032490,0.012271,-0.999397,0.069401,-0.069690,-0.017968,34.228928,12.157791,1.117188,,,,,,,
1522139720.852396,-0.033790,-0.011995,1.330796,0.006528,-0.059169,-0.005234,-0.033781,0.011994,-0.999357,0.053053,-0.009507,-0.058626,37.865112,16.415359,0.051941,,,,,,,
1522139720.882364,-0.035285,-0.011470,1.330624,0.010773,-0.067669,-0.007351,-0.035275,0.011470,-0.999312,0.008466,-0.032283,-0.103136,40.869141,17.675415,-1.376587,,,,,,,
1522139720.912332,-0.036600,-0.011024,1.330455,0.008700,-0.050655,-0.006314,-0.036590,0.011024,-0.999270,-0.020752,-0.032035,-0.012281,41.914413,18.194061,-3.028137,,,,,,,
1522139720.942270,-0.037383,-0.010794,1.330294,0.008706,-0.052790,-0.007366,-0.037372,0.010793,-0.999243,0.058521,-0.055715,0.060538,42.799088,17.738281,-4.825867,,,,,,,
1522139720.972238,-0.037536,-0.010927,1.330234,-0.009320,-0.021954,-0.004212,-0.037524,0.010927,-0.999236,0.038959,-0.039339,-0.031678,41.788422,15.790146,-7.518616,,,,,,,
1522139721.002207,-0.036833,-0.010930,1.330128,0.006774,-0.002872,-0.003155,-0.036822,0.010930,-0.999262,0.083041,-0.046666,0.084772,41.544418,14.515182,-8.563599,,,,,,,
1522139721.032175,-0.036032,-0.010873,1.330009,-0.010248,0.012059,-0.003191,-0.036022,0.010873,-0.999292,0.071163,-0.020409,0.002542,40.998917,12.866974,-9.232300,,,,,,,
1522139721.062143,-0.034901,-0.011062,1.329965,-0.002636,0.041786,-0.003210,-0.034892,0.011062,-0.999330,0.032771,-0.058853,-0.030608,40.717590,8.890472,-11.991516,,,,,,,
1522139721.092112,-0.033201,-0.010924,1.329976,0.000589,0.048165,-0.003222,-0.033193,0.010924,-0.999389,0.066503,0.000062,0.041961,39.788574,7.017944,-13.709473,,,,,,,
1522139721.122080,-0.031313,-0.010619,1.329978,0.013431,0.053434,-0.003210,-0.031306,0.010619,-0.999453,0.032893,-0.063841,0.058978,38.551605,5.070587,-16.627380,,,,,,,
1522139721.152048,-0.029530,-0.010127,1.329932,0.007956,0.021592,-0.005318,-0.029524,0.010127,-0.999513,0.079253,0.024144,0.188767,36.296127,5.154694,-17.678833,,,,,,,
1522139721.182016,-0.027619,-0.009758,1.329887,0.016628,0.054474,-0.001078,-0.027614,0.009758,-0.999571,0.113247,-0.097115,0.024855,33.001312,6.667862,-19.336487,,,,,,,
1522139721.211985,-0.026578,-0.009492,1.329854,-0.012443,0.001423,-0.001051,-0.026574,0.009492,-0.999602,0.084786,0.016937,0.092726,31.219940,8.401093,-19.119324,,,,,,,
1522139721.241953,-0.025647,-0.009487,1.329689,0.023887,-0.001810,-0.008474,-0.025643,0.009487,-0.999626,0.097802,0.019428,0.046928,29.089630,12.611115,-18.687256,,,,,,,
1522139721.271921,-0.025050,-0.008516,1.329370,-0.008075,0.014216,-0.008519,-0.025047,0.008516,-0.999650,0.146232,-0.084520,0.007386,28.892639,15.461914,-18.773743,,,,,,,
1522139721.301889,-0.024934,-0.009110,1.329141,-0.013561,-0.021876,-0.011684,-0.024930,0.009110,-0.999648,0.078748,-0.015320,0.003996,29.462601,21.007599,-20.520630,,,,,,,
1522139721.331858,-0.025098,-0.009057,1.328917,0.003469,-0.031515,-0.008458,-0.025095,0.009057,-0.999644,0.082056,-0.010598,0.022944,27.978058,23.188232,-21.580139,,,,,,,
1522139721.361826,-0.025711,-0.008976,1.328685,-0.011467,-0.028286,-0.008475,-0.025707,0.008976,-0.999629,0.103466,-0.003514,-0.011739,27.165604,25.215591,-22.863586,,,,,,,
1522139721.391794,-0.026402,-0.009020,1.328500,-0.001954,-0.051686,-0.009506,-0.026398,0.009019,-0.999611,0.079453,-0.073198,0.013481,20.745071,28.169464,-22.878662,,,,,,,
1522139721.421762,-0.027086,-0.008832,1.328404,-0.009322,-0.020880,-0.004221,-0.027082,0.008832,-0.999594,0.026685,-0.033429,-0.016046,16.112808,28.867111,-21.083740,,,,,,,
1522139721.451700,-0.027723,-0.008765,1.328275,0.011902,-0.049608,-0.005247,-0.027718,0.008765,-0.999577,0.063958,-0.020911,-0.000270,9.994919,29.199448,-16.288147,,,,,,,
1522139721.481668,-0.028169,-0.008501,1.328195,-0.000670,0.003538,-0.004239,-0.028164,0.008501,-0.999567,0.076046,0.014342,-0.076345,8.659393,28.983215,-13.512939,,,,,,,
1522139721.511637,-0.028541,-0.007904,1.328043,0.028130,-0.006057,-0.008477,-0.028537,0.007904,-0.999561,0.033038,-0.060333,-0.063015,5.754105,27.801559,-8.259644,,,,,,,
1522139721.541605,-0.028884,-0.007595,1.327934,-0.001981,-0.044264,-0.002079,-0.028880,0.007595,-0.999554,0.082865,-0.019054,0.083645,5.912521,27.427872,-6.233093,,,,,,,
1522139721.571573,-0.028486,-0.007332,1.327903,0.023985,0.026848,-0.003179,-0.028481,0.007332,-0.999567,0.064476,-0.013374,-0.061071,8.024170,26.971069,-3.530212,,,,,,,
1522139721.601541,-0.027890,-0.006586,1.327787,0.007921,0.016281,-0.004254,-0.027886,0.006586,-0.999589,0.042565,-0.088388,-0.046614,7.570633,26.074005,-2.626831,,,,,,,
1522139721.631510,-0.027256,-0.006354,1.327698,0.004721,0.010999,-0.008508,-0.027252,0.006354,-0.999608,0.084518,-0.020438,0.084890,7.187119,24.951187,-2.172485,,,,,,,
1522139721.661478,-0.025947,-0.006116,1.327512,0.013377,0.034355,-0.009586,-0.025944,0.006116,-0.999645,0.111973,-0.083509,-0.015278,6.732956,24.353531,-1.870361,,,,,,,
1522139721.691430,-0.024936,-0.005957,1.327421,-0.020853,0.025917,-0.005346,-0.024933,0.005957,-0.999671,0.062469,-0.026877,-0.038537,4.554794,23.089905,-0.291382,,,,,,,
1522139721.721399,-0.024062,-0.006091,1.327214,-0.000506,0.041806,-0.004287,-0.024059,0.006091,-0.999692,0.038997,-0.014224,0.008237,1.770416,20.030975,3.244446,,,,,,,
1522139721.751367,-0.022806,-0.005968,1.327090,-0.014485,0.020577,-0.003208,-0.022804,0.005968,-0.999722,0.045372,0.015684,0.051465,2.291107,18.380676,5.276306,,,,,,,
1522139721.781335,-0.021675,-0.005817,1.327002,0.007822,-0.008161,-0.005288,-0.021673,0.005817,-0.999748,0.050405,-0.009906,0.030952,1.974030,14.186234,9.417969,,,,,,,
1522139721.811303,-0.020766,-0.005566,1.326851,0.010038,0.012007,-0.003175,-0.020764,0.005566,-0.999769,0.072812,-0.041974,-0.004473,2.782990,12.083435,10.251709,,,,,,,
1522139721.841272,-0.019510,-0.005218,1.326674,0.009034,0.023713,-0.005318,-0.019508,0.005218,-0.999796,0.079170,-0.029449,0.021677,3.343933,7.581894,11.244995,,,,,,,
1522139721.871240,-0.018855,-0.004954,1.326455,0.010018,0.004579,-0.005295,-0.018854,0.004954,-0.999810,0.105081,-0.035121,0.020562,5.195511,5.323425,11.104919,,,,,,,
1522139721.901208,-0.017852,-0.004624,1.326184,-0.005875,0.026982,-0.010665,-0.017851,0.004624,-0.999830,0.133680,-0.025895,-0.009356,3.110703,0.231323,9.624268,,,,,,,
1522139721.931176,-0.016836,-0.004716,1.325851,-0.016529,0.030166,-0.009595,-0.016835,0.004716,-0.999847,0.074666,-0.056580,-0.051728,2.334991,-2.165466,9.333496,,,,,,,
1522139721.961114,-0.016221,-0.005213,1.325593,-0.025240,-0.003804,-0.008515,-0.016220,0.005213,-0.999855,0.097779,-0.012705,0.049064,-4.228439,-7.009262,10.999573,,,,,,,
1522139721.991082,-0.015302,-0.005468,1.325323,-0.009203,-0.001707,-0.010634,-0.015302,0.005468,-0.999868,0.116406,0.001383,0.013631,-6.715118,-9.171417,12.656921,,,,,,,
1522139722.021051,-0.014298,-0.005682,1.325052,-0.008089,0.014205,-0.006391,-0.014298,0.005682,-0.999882,0.098358,-0.041631,-0.020367,-8.143005,-10.812744,14.912781,,,,,,,
1522139722.051019,-0.013692,-0.005701,1.324782,-0.001753,-0.001753,-0.006368,-0.013691,0.005701,-0.999890,0.115193,-0.022562,0.061154,-9.492050,-13.876404,20.174377,,,,,,,
1522139722.080987,-0.012645,-0.005860,1.324496,-0.003839,0.006768,-0.008509,-0.012644,0.005860,-0.999903,0.140086,-0.053421,-0.043844,-8.819595,-15.302490,22.130432,,,,,,,
1522139722.110955,-0.012139,-0.005954,1.324253,-0.012418,-0.001695,-0.009579,-0.012139,0.005954,-0.999909,0.164818,-0.008090,0.006333,-4.918640,-16.967102,25.064026,,,,,,,
1522139722.140924,-0.011517,-0.006102,1.323919,-0.003878,-0.004876,-0.012770,-0.011517,0.006102,-0.999915,0.120098,-0.077040,-0.014840,-2.669159,-17.426544,25.742004,,,,,,,
1522139722.170892,-0.011412,-0.006362,1.323695,-0.018901,-0.017627,-0.008501,-0.011412,0.006362,-0.999915,0.134520,0.003618,-0.034921,3.697037,-18.355118,25.823914,,,,,,,
1522139722.200860,-0.011450,-0.006386,1.323388,0.014187,-0.026175,-0.013794,-0.011450,0.006386,-0.999914,0.121267,-0.052483,-0.029261,7.209915,-19.121674,25.078735,,,,,,,
1522139722.230828,-0.011716,-0.006403,1.323033,-0.011509,-0.039942,-0.011667,-0.011715,0.006403,-0.999911,0.129300,-0.026117,0.014742,11.877869,-21.548141,19.615784,,,,,,,
1522139722.260797,-0.011892,-0.006090,1.322695,0.018424,-0.034677,-0.014849,-0.011891,0.006090,-0.999911,0.126287,-0.032076,0.005022,11.618515,-22.825562,16.020752,,,,,,,
1522139722.290765,-0.012102,-0.005841,1.322333,-0.007213,-0.029339,-0.008484,-0.012101,0.005841,-0.999910,0.181977,-0.028714,0.004747,9.359802,-27.471603,9.813171,,,,,,,
1522139722.320733,-0.012147,-0.005750,1.322067,0.007793,-0.021930,-0.011668,-0.012146,0.005750,-0.999910,0.160401,0.015353,0.009004,6.465866,-29.936798,6.596680,,,,,,,
1522139722.350701,-0.012367,-0.005436,1.321733,-0.003942,-0.012365,-0.006365,-0.012366,0.005436,-0.999909,0.128898,-0.069187,-0.032364,1.411682,-31.641083,4.575928,,,,,,,
1522139722.380670,-0.012334,-0.005567,1.321585,-0.006089,-0.018729,-0.008485,-0.012333,0.005567,-0.999908,0.161824,0.038256,0.026917,-9.654190,-34.518295,2.556946,,,,,,,
1522139722.410638,-0.012185,-0.005251,1.321267,0.008922,-0.007063,-0.010617,-0.012185,0.005251,-0.999912,0.161309,-0.087740,-0.034039,-15.510971,-35.466507,3.007751,,,,,,,
1522139722.440606,-0.012082,-0.005469,1.321047,-0.025223,0.000433,-0.007450,-0.012082,0.005469,-0.999912,0.206997,0.031747,-0.038616,-27.191086,-35.859970,6.978516,,,,,,,
1522139722.470544,-0.011503,-0.005644,1.320862,0.006901,0.025856,-0.005331,-0.011502,0.005644,-0.999918,0.107709,-0.053495,-0.041266,-33.092255,-35.679733,10.649780,,,,,,,
1522139722.500512,-0.010942,-0.005587,1.320730,-0.015582,0.016313,-0.001072,-0.010941,0.005587,-0.999925,0.094529,0.010725,-0.047881,-40.371231,-34.736710,20.917419,,,,,,,
1522139722.530481,-0.009987,-0.005412,1.320614,0.010084,0.018404,-0.006378,-0.009986,0.005412,-0.999936,0.143882,-0.098689,-0.096805,-40.930374,-33.754028,26.088196,,,,,,,
1522139722.560449,-0.008941,-0.005412,1.320604,-0.015651,0.009904,0.005320,-0.008940,0.005412,-0.999945,0.160185,-0.036860,-0.002404,-37.484192,-32.484787,35.834839,,,,,,,
1522139722.590417,-0.007812,-0.005467,1.320644,0.007955,0.031111,0.002125,-0.007812,0.005467,-0.999955,0.089935,-0.038945,-0.039200,-33.182816,-31.601227,38.758484,,,,,,,
1522139722.620385,-0.006597,-0.004827,1.320682,0.005741,0.008798,0.000028,-0.006597,0.004827,-0.999967,0.097997,-0.025060,0.015759,-21.228516,-29.478668,40.105957,,,,,,,
1522139722.650354,-0.005449,-0.004500,1.320661,0.016389,-0.004980,-0.007416,-0.005449,0.004500,-0.999975,0.174272,-0.039671,0.073568,-16.347458,-28.376465,39.278992,,,,,,,
1522139722.680322,-0.004281,-0.004009,1.320570,0.001486,0.012029,-0.002121,-0.004281,0.004009,-0.999983,0.201272,-0.068722,0.034071,-6.904099,-26.248611,34.625183,,,,,,,
1522139722.710313,-0.002994,-0.004129,1.320577,-0.012363,0.021597,0.001060,-0.002994,0.004129,-0.999987,0.155033,-0.016061,0.003054,-3.382446,-24.917236,31.846619,,,,,,,
1522139722.740281,-0.001899,-0.004214,1.320474,-0.014492,0.021644,-0.002151,-0.001899,0.004214,-0.999989,0.081946,-0.020190,-0.008464,-1.288437,-24.029129,29.369141,,,,,,,
1522139722.770250,-0.000638,-0.004194,1.320423,-0.014547,0.010978,0.001068,-0.000638,0.004194,-0.999991,0.148297,-0.020597,0.005225,-0.475220,-22.911621,25.540039,,,,,,,
1522139722.800218,0.000308,-0.004330,1.320352,-0.001776,0.000326,0.000024,0.000308,0.004330,-0.999991,0.150571,-0.042477,-0.013132,-0.621826,-21.712387,24.110168,,,,,,,
1522139722.830186,0.000855,-0.004400,1.320345,-0.011457,-0.010304,0.004288,0.000855,0.004400,-0.999990,0.091888,-0.002844,-0.015223,-3.314835,-20.650879,23.504578,,,,,,,
1522139722.860154,0.001374,-0.004247,1.320311,0.008878,-0.008177,-0.003157,0.001374,0.004247,-0.999990,0.106002,-0.019856,-0.019801,-3.453445,-19.600113,23.650269,,,,,,,
1522139722.890123,0.001787,-0.003900,1.320448,-0.000855,-0.025210,0.005374,0.001787,0.003900,-0.999991,0.206282,-0.038217,-0.024744,-3.129639,-17.800598,24.618286,,,,,,,
1522139722.920091,0.002213,-0.003574,1.320637,0.021553,-0.027386,0.005389,0.002213,0.003574,-0.999991,0.135208,-0.059605,0.053275,-3.633499,-16.222443,25.511719,,,,,,,
1522139722.950059,0.002340,-0.002905,1.320916,0.002422,-0.003980,0.008546,0.002340,0.002905,-0.999993,0.153163,-0.017340,0.006905,-2.173233,-13.003494,26.024597,,,,,,,
1522139722.979997,0.002472,-0.002698,1.321344,0.009887,0.003358,0.018143,0.002472,0.002698,-0.999993,0.143310,-0.043943,-0.040748,-1.029129,-11.133575,26.092712,,,,,,,
1522139723.009965,0.002438,-0.002198,1.321729,0.002283,-0.031652,0.012845,0.002438,0.002198,-0.999995,0.080982,-0.046662,0.046152,-1.058014,-7.007629,26.901123,,,,,,,
1522139723.039933,0.002574,-0.002038,1.322258,0.000197,-0.013611,0.018147,0.002574,0.002038,-0.999995,0.147572,-0.037133,0.007227,-0.656677,-4.683929,27.417053,,,,,,,
1522139723.069902,0.002841,-0.001820,1.322749,0.010915,-0.006214,0.018158,0.002841,0.001820,-0.999994,0.140256,-0.071446,-0.018118,0.497467,-1.988754,27.781860,,,,,,,
1522139723.099870,0.003243,-0.001101,1.323372,0.004479,-0.007269,0.021341,0.003243,0.001101,-0.999994,0.102119,-0.044329,-0.051748,2.131989,2.581192,30.089417,,,,,,,
1522139723.129838,0.003794,-0.000606,1.324000,0.036493,-0.018998,0.014987,0.003794,0.000606,-0.999993,0.151388,-0.079677,0.030525,3.737030,5.049866,30.980286,,,,,,,
1522139723.159807,0.004553,0.000290,1.324690,0.008857,0.023505,0.026637,0.004553,-0.000290,-0.999990,0.100961,-0.099197,-0.054439,8.884720,9.377441,31.715576,,,,,,,
1522139723.189775,0.005332,0.000711,1.325540,0.013016,0.005397,0.031983,0.005332,-0.000711,-0.999986,0.058480,-0.055502,-0.034805,12.275574,11.236725,31.259888,,,,,,,
1522139723.219743,0.006032,0.001476,1.326416,0.017226,-0.012663,0.028813,0.006032,-0.001476,-0.999981,0.139110,-0.035176,0.016552,20.256302,15.623627,29.071228,,,,,,,
1522139723.249711,0.006775,0.002215,1.327360,0.016242,0.011741,0.034116,0.006775,-0.002215,-0.999975,0.140488,-0.024808,0.033712,23.790100,17.406204,27.565857,,,,,,,
1522139723.279680,0.007611,0.002856,1.328315,0.015063,-0.012695,0.034139,0.007611,-0.002856,-0.999967,0.109302,-0.091245,-0.106173,30.843567,20.819366,22.455811,,,,,,,
1522139723.309648,0.008645,0.003504,1.329391,0.020507,0.010634,0.036264,0.008645,-0.003504,-0.999956,0.149818,-0.073797,-0.009336,33.458496,22.153687,18.551697,,,,,,,
1522139723.339616,0.009557,0.004669,1.330448,0.020579,0.031910,0.037287,0.009557,-0.004669,-0.999943,0.067836,-0.088486,-0.055995,37.713837,24.602188,11.194092,,,,,,,
1522139723.369584,0.010085,0.005254,1.331694,0.010815,0.004240,0.044776,0.010085,-0.005254,-0.999935,0.084016,-0.056239,0.006512,38.080521,25.797150,7.814514,,,,,,,
1522139723.399553,0.010865,0.006341,1.333013,0.037478,-0.003256,0.043736,0.010865,-0.006341,-0.999921,0.122283,-0.091193,-0.032565,37.767731,26.320557,4.812256,,,,,,,
1522139723.429521,0.011509,0.007414,1.334456,0.018274,0.006302,0.050112,0.011508,-0.007414,-0.999906,0.182034,-0.118090,-0.032274,34.892593,26.778549,-0.140991,,,,,,,
1522139723.459489,0.011707,0.008237,1.335931,0.020338,-0.008588,0.051195,0.011707,-0.008237,-0.999898,0.095624,-0.067736,-0.031673,32.559570,26.787689,-1.492188,,,,,,,
1522139723.489427,0.011905,0.009161,1.337527,0.008673,0.017973,0.057545,0.011904,-0.009161,-0.999887,0.057539,-0.139642,-0.089773,29.686005,25.598679,-3.438904,,,,,,,
1522139723.519395,0.011946,0.009431,1.339312,-0.006429,-0.004382,0.068213,0.011945,-0.009430,-0.999884,0.007769,-0.103774,-0.041955,26.754684,25.011795,-3.513000,,,,,,,
1522139723.549363,0.011699,0.009685,1.341237,0.007189,-0.066041,0.066160,0.011698,-0.009685,-0.999885,0.171026,-0.111485,0.184608,23.506607,23.375290,-4.633057,,,,,,,
1522139723.579332,0.011893,0.010144,1.343400,0.003240,0.015752,0.073524,0.011892,-0.010144,-0.999878,0.179880,-0.131320,0.024002,22.527878,23.004700,-4.632080,,,,,,,
1522139723.609300,0.011852,0.010602,1.345748,0.010587,-0.010855,0.075693,0.011851,-0.010602,-0.999874,0.179204,-0.117496,-0.032429,18.993912,22.195450,-4.780579,,,,,,,
1522139723.639268,0.011903,0.011652,1.348234,0.016933,-0.014117,0.084224,0.011902,-0.011652,-0.999861,0.121063,-0.118597,0.005049,17.265549,21.678528,-4.479370,,,,,,,
1522139723.669236,0.012003,0.012475,1.350865,0.004157,0.000742,0.090596,0.012002,-0.012475,-0.999850,0.089713,-0.094016,0.036578,14.044159,21.543854,-3.655457,,,,,,,
1522139723.699177,0.012164,0.013543,1.353663,0.020035,-0.023761,0.094889,0.012162,-0.013542,-0.999834,0.106368,-0.156837,0.063723,12.322083,21.252579,-2.680176,,,,,,,
1522139723.729145,0.012376,0.014433,1.356509,0.016871,-0.014198,0.095944,0.012374,-0.014432,-0.999819,0.166016,-0.083789,0.052401,10.525024,20.961639,-1.704956,,,,,,,
1522139723.759113,0.012827,0.015431,1.359393,0.025467,-0.001481,0.097007,0.012825,-0.015431,-0.999799,0.130104,-0.112591,0.003400,9.491745,21.418304,0.317749,,,,,,,
1522139723.789081,0.013366,0.016377,1.362345,0.014811,0.008080,0.101251,0.013364,-0.016376,-0.999777,0.053287,-0.145275,-0.041620,8.300491,21.574860,1.516541,,,,,,,
1522139723.819050,0.014204,0.017170,1.365399,0.017074,0.038892,0.102281,0.014202,-0.017170,-0.999752,0.058964,-0.114972,-0.031712,7.639496,21.804794,3.465332,,,,,,,
1522139723.849018,0.014987,0.018468,1.368527,0.036051,-0.007944,0.107667,0.014984,-0.018467,-0.999717,0.112443,-0.159603,0.116844,8.616547,21.875626,3.690491,,,,,,,
1522139723.878986,0.016078,0.019652,1.371864,0.022266,0.020739,0.114019,0.016074,-0.019650,-0.999678,0.139626,-0.130801,0.051985,8.622116,21.577026,5.116699,,,,,,,
1522139723.908955,0.017353,0.021218,1.375351,0.043528,0.003640,0.118324,0.017349,-0.021216,-0.999624,0.128037,-0.158715,0.026846,9.212799,20.824066,4.820007,,,,,,,
1522139723.938923,0.018828,0.022943,1.379095,0.013842,0.061028,0.127834,0.018822,-0.022941,-0.999560,0.141258,-0.153313,-0.054106,10.384308,18.642685,3.704285,,,,,,,
1522139723.968891,0.020080,0.024094,1.383053,0.018928,0.016285,0.139616,0.020073,-0.024092,-0.999508,0.122978,-0.164583,-0.025684,9.093491,17.148346,3.559631,,,,,,,
1522139723.998829,0.021077,0.024793,1.387258,-0.000264,0.026963,0.141709,0.021069,-0.024790,-0.999471,0.155186,-0.157629,-0.028697,7.250732,13.854996,1.921875,,,,,,,
1522139724.028797,0.021821,0.025409,1.391676,0.005017,0.023681,0.151315,0.021812,-0.025406,-0.999439,0.115502,-0.173110,-0.012310,5.950180,11.610336,1.405212,,,,,,,
1522139724.058765,0.022240,0.025893,1.396343,-0.010033,0.011998,0.158761,0.022231,-0.025890,-0.999418,0.133973,-0.183445,-0.025653,2.556641,9.301361,2.162720,,,,,,,
1522139724.088734,0.022327,0.026293,1.401304,0.006847,-0.023172,0.167334,0.022317,-0.026290,-0.999405,0.189215,-0.174928,0.069870,-2.427826,4.226501,4.880554,,,,,,,
1522139724.118702,0.022093,0.027083,1.406397,0.013322,-0.004099,0.171587,0.022083,-0.027079,-0.999389,0.073330,-0.191564,-0.083191,-4.170349,1.610779,6.315125,,,,,,,
1522139724.148670,0.021701,0.028129,1.411698,0.008882,-0.030705,0.180129,0.021691,-0.028126,-0.999369,0.074836,-0.194973,0.002451,-9.440643,-3.759933,11.883911,,,,,,,
1522139724.178638,0.021387,0.029052,1.417270,0.016315,-0.025504,0.192919,0.021377,-0.029048,-0.999349,0.138841,-0.171971,0.015173,-10.497406,-6.376938,15.118896,,,,,,,
1522139724.208607,0.020900,0.030228,1.422954,0.012121,-0.005313,0.195023,0.020889,-0.030224,-0.999325,0.111710,-0.159458,-0.064213,-11.118042,-12.142975,21.291626,,,,,,,
1522139724.238575,0.020080,0.031616,1.428836,0.029051,-0.036217,0.199339,0.020068,-0.031611,-0.999299,0.148663,-0.210607,0.017014,-10.825027,-14.466583,24.001099,,,,,,,
1522139724.268543,0.019700,0.032901,1.434790,0.005725,0.002079,0.201415,0.019688,-0.032895,-0.999265,0.110820,-0.226749,-0.107455,-9.209854,-20.394775,28.075562,,,,,,,
1522139724.298511,0.019077,0.034102,1.440882,0.017350,-0.018159,0.205700,0.019065,-0.034096,-0.999237,0.096642,-0.190438,-0.006058,-6.529221,-23.330185,29.738708,,,,,,,
1522139724.328480,0.019017,0.035134,1.447047,0.018501,-0.001172,0.205691,0.019004,-0.035127,-0.999202,0.155267,-0.223144,0.019863,-4.169357,-28.888229,32.312073,,,,,,,
1522139724.358448,0.019036,0.036207,1.453346,0.010010,0.018989,0.213121,0.019022,-0.036199,-0.999164,0.121618,-0.230632,-0.014905,-3.437637,-30.991058,32.770874,,,,,,,
1522139724.388416,0.019282,0.036800,1.459829,0.004545,-0.002282,0.218463,0.019268,-0.036792,-0.999137,0.103321,-0.241055,-0.048791,-1.280823,-32.725906,32.628906,,,,,,,
1522139724.418384,0.019567,0.037228,1.466495,0.012148,0.030622,0.221630,0.019552,-0.037220,-0.999116,0.113153,-0.218411,-0.017486,-0.267990,-36.405533,32.569153,,,,,,,
1522139724.448353,0.019960,0.037672,1.473231,0.003529,0.016788,0.225907,0.019944,-0.037663,-0.999091,0.108993,-0.202480,-0.005776,0.845596,-37.460678,32.423889,,,,,,,
1522139724.478321,0.020786,0.038436,1.480146,0.012145,0.044343,0.234404,0.020769,-0.038427,-0.999046,0.159666,-0.218287,-0.028130,2.468414,-39.868500,31.909302,,,,,,,
1522139724.508259,0.021405,0.039264,1.487282,0.008767,0.014566,0.240816,0.021387,-0.039254,-0.999000,0.151617,-0.227561,-0.015999,2.228287,-41.067947,31.389038,,,,,,,
1522139724.538227,0.022223,0.040130,1.494674,0.011861,0.000670,0.250427,0.022203,-0.040119,-0.998948,0.113249,-0.252331,0.007875,2.955048,-42.946945,30.646912,,,,,,,
1522139724.568195,0.023076,0.041243,1.502235,0.012050,0.050556,0.257838,0.023054,-0.041232,-0.998884,0.074160,-0.229566,-0.102694,2.185791,-44.968338,30.804565,,,,,,,
1522139724.598164,0.023560,0.042341,1.510111,0.021399,0.004761,0.268549,0.023537,-0.042329,-0.998826,0.202095,-0.242522,0.079576,0.053558,-48.108871,30.666138,,,,,,,
1522139724.628132,0.024272,0.043280,1.518337,0.009733,0.034486,0.278094,0.024247,-0.043267,-0.998769,0.191909,-0.243309,-0.005549,-0.713165,-49.830353,30.747620,,,,,,,
1522139724.658100,0.024461,0.044320,1.526748,0.007503,0.023776,0.288769,0.024435,-0.044306,-0.998719,0.062586,-0.242590,-0.110152,-2.388672,-52.971832,31.734314,,,,,,,
1522139724.688068,0.024413,0.045450,1.535496,0.009412,-0.013474,0.298388,0.024386,-0.045435,-0.998670,0.121152,-0.254874,0.045407,-2.778778,-54.619843,31.965698,,,,,,,
1522139724.718042,0.024370,0.046375,1.544485,0.006390,0.033238,0.304736,0.024341,-0.046358,-0.998628,0.174115,-0.231153,0.016023,-3.619431,-56.191040,31.971558,,,,,,,
1522139724.748010,0.023961,0.047276,1.553605,0.009395,-0.008227,0.306912,0.023932,-0.047259,-0.998596,0.149942,-0.250990,0.064377,-3.338287,-58.217072,32.204834,,,,,,,
1522139724.777978,0.023898,0.048478,1.562910,0.019029,0.006579,0.314359,0.023868,-0.048459,-0.998540,0.086865,-0.259295,-0.072597,-2.604050,-59.346130,31.459717,,,,,,,
1522139724.807946,0.023533,0.049807,1.572363,0.008234,-0.018892,0.314372,0.023502,-0.049786,-0.998483,0.169171,-0.247516,0.107279,-2.317123,-59.574203,29.660828,,,,,,,
1522139724.837915,0.023741,0.051124,1.581823,0.015806,0.005481,0.318628,0.023708,-0.051101,-0.998412,0.155904,-0.254837,0.086776,-2.552170,-60.398453,29.363953,,,,,,,
,,,,,,,,,,,,,,,,25.320111,51.445490,10.999999,-1.000000,-1.000000,1522139724.824268,
1522139724.867883,0.023554,0.052351,1.591193,0.010571,0.020411,0.312219,0.023519,-0.052327,-0.998353,0.170878,-0.244426,-0.042876,-4.282791,-60.241867,28.162476,,,,,,,
1522139724.897851,0.023439,0.053686,1.600540,0.013802,0.027852,0.312207,0.023403,-0.053660,-0.998285,0.105183,-0.235265,-0.007849,-4.958832,-59.939499,27.485901,,,,,,,
1522139724.927819,0.023399,0.055037,1.609900,0.019076,0.012991,0.310085,0.023361,-0.055009,-0.998213,0.093827,-0.262572,-0.065661,-5.028152,-58.964874,26.806946,,,,,,,
1522139724.957788,0.023479,0.056497,1.619216,0.030672,-0.022121,0.310141,0.023439,-0.056467,-0.998129,0.077635,-0.281546,0.059103,-6.076614,-58.810150,26.805847,,,,,,,
1522139724.987756,0.023572,0.057863,1.628495,0.017056,0.037410,0.311137,0.023531,-0.057831,-0.998049,0.105040,-0.247010,-0.059675,-5.777878,-57.763458,24.851807,,,,,,,
1522139725.017694,0.023714,0.059010,1.637811,0.020178,0.021444,0.313290,0.023671,-0.058976,-0.997979,0.082149,-0.276534,-0.032249,-6.976028,-57.533127,24.775330,,,,,,,
1522139725.047662,0.023787,0.060006,1.647264,0.007351,0.019361,0.313276,0.023742,-0.059970,-0.997918,0.036057,-0.272412,-0.008491,-7.727814,-57.305435,24.098999,,,,,,,
1522139725.077630,0.023592,0.060402,1.656700,0.012515,-0.018903,0.313316,0.023547,-0.060365,-0.997899,0.114316,-0.266936,0.094105,-8.256424,-56.405151,21.995117,,,,,,,
1522139725.107598,0.023733,0.061072,1.666285,0.013806,0.040540,0.321781,0.023686,-0.061034,-0.997855,0.101924,-0.285371,-0.067865,-9.677490,-55.873993,21.767334,,,,,,,
1522139725.137567,0.023263,0.061165,1.676044,-0.014133,0.003405,0.323928,0.023217,-0.061127,-0.997860,0.102851,-0.268372,0.002804,-11.847778,-55.264450,21.538757,,,,,,,
1522139725.167535,0.022968,0.061217,1.686049,-0.004502,0.024521,0.338836,0.022923,-0.061179,-0.997864,0.063610,-0.242807,-0.069580,-13.046829,-55.034271,21.312256,,,,,,,
1522139725.197503,0.022383,0.061452,1.696272,-0.026027,-0.011573,0.340990,0.022339,-0.061414,-0.997862,0.084381,-0.263324,0.015868,-16.419281,-55.318207,22.211670,,,,,,,
1522139725.227472,0.021780,0.061144,1.706749,-0.008035,-0.030826,0.353804,0.021738,-0.061106,-0.997895,0.082999,-0.248480,0.019928,-17.763062,-55.011627,22.734802,,,,,,,
1522139725.257440,0.021178,0.061322,1.717475,-0.004674,0.012663,0.362293,0.021136,-0.061284,-0.997897,0.085309,-0.245357,0.025942,-19.553223,-54.927078,24.233582,,,,,,,
1522139725.287408,0.020384,0.062261,1.728319,0.011205,-0.011825,0.365517,0.020344,-0.062221,-0.997855,0.067639,-0.227986,0.077033,-20.292847,-54.472778,25.206360,,,,,,,
1522139725.317376,0.019822,0.063112,1.739351,0.001706,0.012623,0.366556,0.019781,-0.063070,-0.997813,0.076990,-0.252527,0.002482,-22.004425,-53.938736,26.553406,,,,,,,
1522139725.347345,0.018995,0.064053,1.750432,0.012240,-0.013999,0.370853,0.018955,-0.064009,-0.997769,0.069256,-0.307817,0.027982,-21.466995,-53.414948,27.751587,,,,,,,
1522139725.377313,0.018542,0.065086,1.761587,0.003748,-0.007568,0.366575,0.018501,-0.065040,-0.997711,0.098076,-0.222603,0.020508,-23.094742,-52.131058,29.320618,,,,,,,
1522139725.407281,0.018112,0.065708,1.772630,0.001687,0.009442,0.366555,0.018072,-0.065661,-0.997678,0.136362,-0.256574,0.031110,-23.154602,-51.379517,30.592590,,,,,,,
1522139725.437249,0.017569,0.066647,1.783675,-0.001563,-0.002247,0.366570,0.017529,-0.066597,-0.997626,0.052036,-0.305915,0.010611,-22.243851,-50.707947,31.265320,,,,,,,
1522139725.467218,0.017291,0.067127,1.794696,-0.012103,0.028599,0.366528,0.017251,-0.067077,-0.997599,0.025000,-0.231736,-0.088690,-22.669540,-49.354218,33.059692,,,,,,,
1522139725.497186,0.017025,0.068151,1.805617,0.018751,-0.000154,0.363389,0.016985,-0.068099,-0.997534,0.087324,-0.261796,0.012915,-22.358307,-48.679886,33.807190,,,,,,,
1522139725.527124,0.016796,0.068951,1.816467,-0.003558,0.025427,0.362271,0.016756,-0.068897,-0.997483,0.119490,-0.279324,0.069016,-22.558273,-47.252197,35.601379,,,,,,,
1522139725.557092,0.016679,0.068953,1.827434,-0.004669,0.018994,0.367619,0.016638,-0.068899,-0.997485,0.078897,-0.255229,-0.035276,-21.571930,-46.431107,36.123596,,,,,,,
1522139725.587060,0.016435,0.069059,1.838505,-0.013244,0.012647,0.367615,0.016396,-0.069004,-0.997482,0.057106,-0.285015,-0.061783,-20.802643,-44.858978,36.717712,,,,,,,
1522139725.617028,0.016439,0.068993,1.849733,-0.014303,0.023225,0.375061,0.016399,-0.068938,-0.997486,0.051106,-0.250795,-0.006054,-20.788116,-43.808365,37.388489,,,,,,,
1522139725.646997,0.016539,0.069136,1.861136,-0.002578,0.026356,0.380387,0.016499,-0.069081,-0.997475,0.044613,-0.270229,-0.016121,-21.599121,-43.128525,38.585388,,,,,,,
1522139725.676965,0.016964,0.069773,1.872736,-0.004681,0.042215,0.389972,0.016922,-0.069716,-0.997423,0.050828,-0.275117,-0.005537,-21.742386,-42.677505,38.958496,,,,,,,
1522139725.706915,0.016957,0.070206,1.884526,-0.003723,0.028359,0.397437,0.016915,-0.070148,-0.997393,0.064613,-0.271374,0.015246,-22.995712,-42.219009,41.806030,,,,,,,
1522139725.736883,0.017071,0.070884,1.896516,-0.002717,0.017720,0.399576,0.017028,-0.070825,-0.997343,0.087602,-0.296058,0.021895,-23.287750,-41.916870,42.629700,,,,,,,
1522139725.766852,0.017067,0.071366,1.908653,-0.009143,0.018773,0.403830,0.017023,-0.071306,-0.997309,0.093146,-0.278777,0.009867,-24.331238,-41.985977,43.829468,,,,,,,
1522139725.796820,0.016875,0.071975,1.920948,-0.007998,0.042076,0.411278,0.016831,-0.071912,-0.997269,0.029907,-0.285937,-0.021942,-24.983398,-41.455124,46.752014,,,,,,,
1522139725.826788,0.016600,0.072510,1.933384,-0.012568,-0.015309,0.416646,0.016555,-0.072447,-0.997235,0.048752,-0.238314,0.000882,-24.521713,-41.230621,48.326355,,,,,,,
1522139725.856756,0.016625,0.073289,1.945900,0.005834,0.038825,0.416614,0.016579,-0.073223,-0.997178,0.087226,-0.265965,-0.060806,-22.612885,-39.960693,51.847168,,,,,,,
1522139725.886725,0.016328,0.074057,1.958476,-0.005984,0.029260,0.421938,0.016283,-0.073989,-0.997126,0.053175,-0.313859,-0.107122,-21.849106,-39.662323,53.646362,,,,,,,
1522139725.916693,0.015936,0.074440,1.971321,-0.014439,0.057926,0.429357,0.015891,-0.074371,-0.997104,0.059121,-0.272110,-0.015668,-18.296204,-38.400772,56.193115,,,,,,,
1522139725.946661,0.015500,0.075023,1.984190,0.001399,0.018551,0.430482,0.015456,-0.074953,-0.997067,0.051805,-0.300780,-0.033878,-14.462540,-37.667801,56.417114,,,,,,,
1522139725.976630,0.015069,0.075770,1.997216,0.002380,0.007886,0.436881,0.015025,-0.075697,-0.997018,0.023427,-0.260866,-0.022132,-8.442123,-36.119064,57.238953,,,,,,,
1522139726.006598,0.014553,0.076367,2.010329,0.007762,0.015294,0.436889,0.014510,-0.076293,-0.996980,0.011125,-0.262986,-0.054046,-5.209015,-35.308624,57.237305,,,,,,,
1522139726.036536,0.014162,0.077233,2.023617,0.020611,0.039622,0.449653,0.014120,-0.077156,-0.996919,0.043620,-0.262504,0.002107,2.441513,-34.219788,55.511719,,,,,,,
1522139726.066504,0.013276,0.078375,2.037030,0.033278,0.008769,0.450759,0.013235,-0.078295,-0.996842,0.093668,-0.265074,-0.013793,5.063095,-33.932632,54.461914,,,,,,,
1522139726.096473,0.012633,0.079846,2.050503,0.022774,0.044908,0.450725,0.012592,-0.079761,-0.996734,0.084423,-0.296826,-0.150437,8.282837,-33.648468,53.112427,,,,,,,
1522139726.126440,0.011700,0.080630,2.064100,0.005536,0.022610,0.458176,0.011662,-0.080543,-0.996683,0.009029,-0.301095,-0.072363,14.563034,-33.155853,48.988586,,,,,,,
1522139726.156410,0.010739,0.080982,2.078007,-0.001987,0.015131,0.463520,0.010704,-0.080893,-0.996665,0.004219,-0.289804,0.020637,15.901398,-33.238663,47.189575,,,,,,,
1522139726.186377,0.009711,0.080946,2.091929,-0.006365,-0.003999,0.466727,0.009680,-0.080857,-0.996679,0.089976,-0.278197,0.026250,19.704575,-32.585510,42.463806,,,,,,,
1522139726.216345,0.008735,0.080639,2.105986,-0.020090,0.037465,0.470925,0.008706,-0.080552,-0.996712,0.020301,-0.295166,-0.074775,22.160690,-32.449936,39.089539,,,,,,,
1522139726.246313,0.007350,0.080421,2.120234,-0.009675,-0.014703,0.478459,0.007326,-0.080335,-0.996741,-0.041018,-0.322451,-0.062555,23.335052,-31.860474,33.837769,,,,,,,
1522139726.276282,0.005951,0.079693,2.134448,-0.035140,0.013032,0.472020,0.005932,-0.079609,-0.996809,0.039646,-0.260967,0.034177,22.872147,-31.261536,30.685120,,,,,,,
1522139726.306250,0.004716,0.079248,2.148679,-0.006445,-0.009404,0.478460,0.004701,-0.079165,-0.996850,0.054183,-0.305570,-0.050467,21.196503,-30.584412,25.281555,,,,,,,
1522139726.336218,0.003262,0.078348,2.162873,-0.040637,-0.023057,0.469913,0.003252,-0.078267,-0.996927,0.036528,-0.322230,0.025919,18.788620,-30.200516,23.328796,,,,,,,
1522139726.366186,0.002040,0.077405,2.177064,-0.019106,0.016206,0.469890,0.002034,-0.077328,-0.997004,-0.010594,-0.267323,-0.113928,14.504135,-29.209473,20.097717,,,,,,,
1522139726.396155,0.000900,0.077275,2.191240,-0.018034,0.009873,0.463504,0.000897,-0.077198,-0.997015,0.068378,-0.302501,-0.010126,12.706741,-28.452209,19.268799,,,,,,,
1522139726.426123,-0.000395,0.076935,2.205238,-0.010702,-0.020991,0.465681,-0.000394,-0.076859,-0.997042,0.002301,-0.289397,-0.035810,9.635773,-28.138245,19.416016,,,,,,,
1522139726.456091,-0.001371,0.077511,2.219212,0.007593,0.007697,0.461395,-0.001367,-0.077433,-0.996997,-0.006949,-0.265981,-0.045011,5.150452,-26.393524,18.956787,,,,,,,
1522139726.486059,-0.002251,0.077617,2.233135,0.004399,0.009830,0.461390,-0.002244,-0.077539,-0.996987,0.060441,-0.289908,0.003518,4.037323,-25.338287,19.177002,,,,,,,
1522139726.516028,-0.002959,0.077377,2.246987,-0.010458,0.028987,0.461365,-0.002950,-0.077300,-0.997003,0.031103,-0.255143,-0.035498,0.622253,-23.145752,21.341492,,,,,,,
1522139726.545965,-0.003690,0.077532,2.260734,0.003291,-0.002880,0.457134,-0.003679,-0.077454,-0.996989,0.013475,-0.266601,0.004985,-0.039551,-22.316956,22.162842,,,,,,,
1522139726.575934,-0.004266,0.077536,2.274459,-0.002980,0.019478,0.451786,-0.004253,-0.077459,-0.996987,0.087505,-0.286555,0.038262,0.151031,-19.465805,24.176575,,,,,,,
1522139726.605902,-0.004513,0.077524,2.288148,0.000285,0.037516,0.454964,-0.004500,-0.077446,-0.996986,0.011076,-0.241890,-0.005516,0.691467,-18.417404,24.997681,,,,,,,
1522139726.635870,-0.004861,0.078141,2.301720,0.001350,0.035393,0.453904,-0.004846,-0.078061,-0.996937,-0.005957,-0.286105,0.010227,4.176941,-15.357285,25.812134,,,,,,,
1522139726.665839,-0.004917,0.078690,2.315307,-0.001861,0.031149,0.452846,-0.004902,-0.078609,-0.996893,0.022007,-0.270543,0.023459,5.765366,-14.239059,26.183472,,,,,,,
1522139726.695821,-0.005054,0.079442,2.328876,0.008816,0.032192,0.452848,-0.005038,-0.079358,-0.996833,0.028964,-0.235629,0.072410,9.170746,-11.329178,26.398560,,,,,,,
1522139726.725789,-0.004839,0.080554,2.342385,0.016412,0.058734,0.452830,-0.004823,-0.080467,-0.996746,0.070192,-0.264335,-0.041829,11.054016,-10.138245,25.794678,,,,,,,
1522139726.755757,-0.004822,0.081566,2.355856,-0.005066,0.029053,0.450711,-0.004806,-0.081476,-0.996664,0.057357,-0.262152,0.002401,14.359100,-8.954254,24.666626,,,,,,,
1522139726.785726,-0.004781,0.082006,2.369350,-0.009218,0.058826,0.451731,-0.004765,-0.081914,-0.996628,0.032719,-0.236353,-0.076553,17.668655,-7.095642,23.160828,,,,,,,
1522139726.815694,-0.004527,0.082432,2.382883,-0.011379,0.046077,0.448563,-0.004512,-0.082339,-0.996594,0.032588,-0.215086,-0.039783,20.219284,-6.582886,22.410034,,,,,,,
1522139726.845662,-0.004569,0.083155,2.396250,-0.002822,0.051399,0.447483,-0.004553,-0.083059,-0.996534,-0.035516,-0.206110,-0.073809,23.815613,-5.551392,20.082764,,,,,,,
1522139726.875630,-0.004543,0.083601,2.409561,0.000368,0.040757,0.444320,-0.004527,-0.083504,-0.996497,0.032542,-0.236809,0.003425,25.381241,-5.634857,18.658813,,,,,,,
1522139726.905599,-0.004422,0.083878,2.422809,-0.005007,0.030193,0.440052,-0.004407,-0.083780,-0.996475,0.072827,-0.243063,-0.007905,28.744217,-5.127838,15.808533,,,,,,,
1522139726.935567,-0.004266,0.083885,2.435937,-0.004888,0.051473,0.435770,-0.004251,-0.083787,-0.996475,-0.004386,-0.231475,-0.106141,28.959442,-5.429932,14.684814,,,,,,,
1522139726.965535,-0.004083,0.084350,2.448914,-0.002796,0.034512,0.429394,-0.004068,-0.084250,-0.996436,-0.007315,-0.236810,-0.053200,30.893433,-5.366409,11.910522,,,,,,,
1522139726.995503,-0.003972,0.084688,2.461808,-0.004820,0.055776,0.427246,-0.003957,-0.084587,-0.996408,0.016439,-0.247047,0.021524,32.536606,-5.150314,10.410461,,,,,,,
1522139727.025472,-0.003955,0.085329,2.474665,0.019481,0.001507,0.429450,-0.003941,-0.085226,-0.996354,-0.078442,-0.205088,0.015565,33.050171,-5.079636,8.385559,,,,,,,
1522139727.055440,-0.004046,0.086542,2.487526,0.007960,0.047267,0.425127,-0.004031,-0.086434,-0.996249,0.032717,-0.240562,0.108539,34.018509,-5.159973,7.411316,,,,,,,
1522139727.085378,-0.004141,0.087197,2.500163,-0.003811,0.038809,0.422997,-0.004126,-0.087086,-0.996192,0.003363,-0.172542,-0.070977,36.631256,-5.173752,5.387695,,,,,,,
1522139727.115346,-0.004774,0.088614,2.512992,0.025948,0.016360,0.430505,-0.004756,-0.088498,-0.996065,-0.064916,-0.228000,0.030947,37.373688,-5.253220,4.263367,,,,,,,
1522139727.145314,-0.005111,0.090311,2.525733,-0.000696,0.017553,0.421957,-0.005090,-0.090188,-0.995912,-0.018271,-0.187323,0.048036,37.819916,-4.731720,2.761536,,,,,,,
1522139727.175282,-0.005600,0.091722,2.538373,0.027166,0.040848,0.423024,-0.005577,-0.091593,-0.995781,-0.069466,-0.168752,-0.108818,40.875534,-4.598923,-0.687500,,,,,,,
1522139727.205251,-0.006272,0.093347,2.550979,0.023767,-0.001623,0.421987,-0.006244,-0.093211,-0.995627,-0.093090,-0.261235,0.107565,41.019806,-4.450775,-1.888000,,,,,,,
1522139727.235219,-0.006995,0.094359,2.563584,0.013211,0.019665,0.418770,-0.006964,-0.094219,-0.995527,-0.060831,-0.171101,-0.004137,41.821503,-4.533127,-5.637268,,,,,,,
1522139727.265187,-0.007369,0.095858,2.576076,0.040011,0.037701,0.413443,-0.007335,-0.095711,-0.995382,-0.053181,-0.179573,-0.034083,43.013168,-4.240372,-7.512878,,,,,,,
1522139727.295155,-0.008253,0.097875,2.588469,0.042124,0.028165,0.409190,-0.008214,-0.097718,-0.995180,-0.092739,-0.257964,-0.002226,42.840805,-4.542816,-10.736755,,,,,,,
1522139727.325124,-0.008898,0.099047,2.600877,0.014271,0.009086,0.411324,-0.008854,-0.098885,-0.995059,-0.064464,-0.238182,0.034946,42.228806,-4.616943,-12.611755,,,,,,,
1522139727.355092,-0.009482,0.100157,2.613188,0.036879,0.048346,0.410241,-0.009435,-0.099990,-0.994944,-0.051021,-0.172761,-0.013372,43.038269,-4.099030,-16.063416,,,,,,,
1522139727.385060,-0.010463,0.101809,2.625516,0.036489,-0.040900,0.408201,-0.010409,-0.101633,-0.994768,-0.040464,-0.194739,0.113435,41.226334,-4.167755,-17.939026,,,,,,,
1522139727.415029,-0.011098,0.102857,2.637713,0.022855,0.013360,0.405993,-0.011039,-0.102676,-0.994654,-0.050530,-0.163788,0.007273,40.155777,-4.016617,-21.615173,,,,,,,
1522139727.444997,-0.011957,0.104209,2.650077,0.034549,0.006923,0.410272,-0.011891,-0.104021,-0.994504,-0.048137,-0.195769,-0.052569,39.771774,-3.791763,-23.491272,,,,,,,
1522139727.474965,-0.013204,0.105032,2.662349,0.006777,-0.002554,0.406008,-0.013131,-0.104839,-0.994402,-0.026954,-0.228809,0.083895,37.663315,-3.783707,-24.917419,,,,,,,
1522139727.504933,-0.014192,0.105643,2.674630,-0.004889,0.012366,0.403853,-0.014113,-0.105447,-0.994325,-0.055071,-0.193549,0.044892,34.648727,-4.072083,-26.867737,,,,,,,
1522139727.534902,-0.015475,0.105778,2.686710,-0.000555,0.026202,0.401700,-0.015388,-0.105581,-0.994292,-0.087441,-0.243250,0.066191,33.440964,-4.217697,-27.917786,,,,,,,
1522139727.564870,-0.016570,0.105890,2.698737,-0.032476,0.039081,0.393146,-0.016477,-0.105692,-0.994262,-0.055819,-0.169271,-0.025864,29.530319,-4.426529,-29.343872,,,,,,,
1522139727.594808,-0.017893,0.105602,2.710492,-0.008121,-0.005592,0.392137,-0.017793,-0.105406,-0.994270,-0.074447,-0.168138,-0.004906,27.653748,-4.493225,-29.494507,,,,,,,
1522139727.624776,-0.019127,0.105466,2.721945,-0.033631,-0.003259,0.371869,-0.019019,-0.105271,-0.994262,-0.069375,-0.192184,0.040420,24.795029,-5.230606,-29.718079,,,,,,,
1522139727.654744,-0.020237,0.104587,2.733084,-0.035652,0.014840,0.366527,-0.020125,-0.104396,-0.994332,-0.088120,-0.161397,-0.040458,22.100677,-4.843170,-29.420959,,,,,,,
1522139727.684712,-0.021628,0.103993,2.743857,-0.040868,0.021341,0.349473,-0.021510,-0.103806,-0.994365,-0.061437,-0.169891,-0.047414,19.926254,-5.057938,-28.971191,,,,,,,
1522139727.714658,-0.022894,0.102908,2.754100,-0.064413,-0.004015,0.337757,-0.022771,-0.102727,-0.994449,-0.097408,-0.147350,-0.038937,18.582291,-4.676514,-28.598389,,,,,,,
1522139727.744626,-0.024195,0.101378,2.763841,-0.062073,0.016331,0.315358,-0.024069,-0.101205,-0.994574,-0.116495,-0.127891,-0.048150,16.577621,-3.541000,-27.103943,,,,,,,
1522139727.774594,-0.025473,0.099902,2.772988,-0.072618,0.022847,0.297238,-0.025343,-0.099736,-0.994691,-0.075120,-0.135890,-0.044814,15.458084,-3.535065,-26.204468,,,,,,,
1522139727.804562,-0.026734,0.097933,2.781495,-0.065068,0.013435,0.273808,-0.026602,-0.097777,-0.994853,-0.094598,-0.060991,-0.008001,15.545944,-2.335312,-26.059265,,,,,,,
1522139727.834531,-0.027749,0.096185,2.789277,-0.057635,-0.021493,0.251472,-0.027617,-0.096037,-0.994995,-0.111192,-0.075380,-0.028534,15.197937,-0.307632,-24.942566,,,,,,,
1522139727.864499,-0.028421,0.094426,2.796410,-0.074433,0.019077,0.231169,-0.028291,-0.094285,-0.995143,-0.090285,-0.087096,-0.084813,15.207809,0.592468,-24.796143,,,,,,,
1522139727.894467,-0.029310,0.092172,2.802865,-0.070011,0.026662,0.208789,-0.029182,-0.092041,-0.995327,-0.071877,-0.031463,-0.034153,14.703934,2.395264,-24.278564,,,,,,,
1522139727.924435,-0.030018,0.090403,2.808786,-0.064588,0.022509,0.190694,-0.029891,-0.090279,-0.995468,-0.088166,-0.033118,-0.073212,15.163498,3.218414,-24.056641,,,,,,,
1522139727.954404,-0.030745,0.088283,2.814197,-0.062502,-0.005015,0.175803,-0.030620,-0.088169,-0.995635,-0.057576,0.031406,-0.068727,16.082748,5.239120,-24.214294,,,,,,,
1522139727.984372,-0.031321,0.086917,2.819222,-0.040049,-0.013471,0.161973,-0.031198,-0.086807,-0.995736,-0.086402,-0.023315,0.015375,15.714798,5.766068,-23.916565,,,,,,,
1522139728.014340,-0.031890,0.085592,2.823980,-0.040869,0.036521,0.156588,-0.031768,-0.085487,-0.995833,-0.092790,-0.004891,-0.099794,14.751968,6.670929,-23.395691,,,,,,,
1522139728.044309,-0.032650,0.084721,2.828619,-0.014300,0.001413,0.151324,-0.032527,-0.084620,-0.995882,-0.050435,0.065332,0.002703,14.457245,7.197250,-23.397949,,,,,,,
1522139728.074277,-0.033384,0.084753,2.833075,0.012314,-0.023064,0.146047,-0.033258,-0.084652,-0.995855,-0.053412,0.005428,0.061224,14.012054,7.274933,-22.723450,,,,,,,
1522139728.104215,-0.033929,0.084547,2.837496,0.005068,0.023766,0.140653,-0.033801,-0.084446,-0.995855,-0.011868,0.031498,-0.109141,13.112091,7.278976,-22.723938,,,,,,,
1522139728.134183,-0.034863,0.084868,2.841817,0.031676,0.005605,0.142833,-0.034730,-0.084766,-0.995795,-0.040938,0.018680,-0.084420,12.968109,7.430374,-21.974548,,,,,,,
1522139728.164151,-0.035863,0.085478,2.846006,0.015721,0.012068,0.136419,-0.035725,-0.085374,-0.995708,-0.094128,0.029130,-0.013081,11.541397,6.987244,-21.523560,,,,,,,
1522139728.194118,-0.036655,0.085887,2.849977,0.037045,0.001425,0.132179,-0.036512,-0.085781,-0.995645,-0.072680,-0.013325,0.003411,11.239151,6.538986,-21.146912,,,,,,,
1522139728.224088,-0.037425,0.086689,2.853745,0.031703,-0.014430,0.120478,-0.037276,-0.086581,-0.995547,-0.051561,-0.017332,-0.038495,11.010284,5.565994,-20.168091,,,,,,,
1522139728.254056,-0.038325,0.087364,2.857227,0.030918,0.040906,0.111885,-0.038169,-0.087253,-0.995455,-0.050759,-0.013150,0.096147,9.133896,4.975189,-19.416687,,,,,,,
1522139728.284024,-0.039156,0.088051,2.860505,0.026455,-0.015335,0.101289,-0.038994,-0.087937,-0.995362,-0.039009,0.001374,-0.055495,8.384094,4.229828,-18.139099,,,,,,,
1522139728.313992,-0.039674,0.088800,2.863494,0.020208,0.009174,0.092740,-0.039508,-0.088683,-0.995276,-0.049146,-0.021546,-0.060037,9.355927,3.775681,-17.911743,,,,,,,
1522139728.343961,-0.040217,0.088834,2.866235,-0.004394,-0.007718,0.086342,-0.040048,-0.088718,-0.995251,-0.080924,-0.011288,-0.022128,8.528610,2.730759,-16.557983,,,,,,,
1522139728.373929,-0.040478,0.088577,2.868787,0.000064,0.026318,0.079919,-0.040308,-0.088462,-0.995264,-0.073645,-0.012872,-0.000922,8.379211,2.432037,-15.956848,,,,,,,
1522139728.403897,-0.041163,0.088732,2.871172,-0.005441,-0.014022,0.076757,-0.040990,-0.088616,-0.995222,-0.058772,0.006905,0.016264,9.720779,1.675858,-16.103210,,,,,,,
1522139728.433865,-0.041351,0.088187,2.873371,-0.010713,-0.008649,0.069293,-0.041179,-0.088072,-0.995263,-0.070393,0.022475,0.022301,9.573059,1.452271,-15.352356,,,,,,,
1522139728.463834,-0.041571,0.087982,2.875427,-0.004300,-0.012876,0.063973,-0.041398,-0.087869,-0.995271,-0.079818,-0.014884,0.026094,10.320023,1.373535,-15.726685,,,,,,,
1522139728.493802,-0.041653,0.087262,2.877368,-0.025529,0.011611,0.062876,-0.041483,-0.087151,-0.995331,-0.046484,-0.002479,-0.013870,11.217880,1.294266,-15.950867,,,,,,,
1522139728.523770,-0.041732,0.086335,2.879153,-0.021173,0.023352,0.055401,-0.041564,-0.086228,-0.995408,-0.071015,0.043717,0.007264,10.613708,0.921921,-16.024719,,,,,,,
1522139728.553738,-0.041829,0.085583,2.880753,-0.029741,0.013834,0.052207,-0.041664,-0.085478,-0.995468,-0.067497,-0.003770,0.053345,10.987778,1.144714,-16.550415,,,,,,,
1522139728.583707,-0.041872,0.084157,2.882208,-0.035231,-0.025411,0.045840,-0.041712,-0.084057,-0.995587,-0.042547,0.017590,0.089551,11.735336,1.215820,-17.075317,,,,,,,
1522139728.613644,-0.041762,0.083062,2.883572,-0.030744,0.018145,0.043679,-0.041606,-0.082967,-0.995683,-0.046392,0.061574,0.004564,9.631271,0.625595,-16.773987,,,,,,,
1522139728.643613,-0.041803,0.082066,2.884738,-0.028502,0.032031,0.034070,-0.041650,-0.081974,-0.995764,-0.070136,0.042133,0.028204,9.549835,0.025879,-16.846680,,,,,,,
1522139728.673581,-0.041920,0.080844,2.885877,-0.032813,0.020347,0.033021,-0.041770,-0.080756,-0.995858,-0.049126,0.031974,-0.094672,9.092651,-0.871750,-16.543335,,,,,,,
1522139728.703532,-0.041974,0.079830,2.886859,-0.016800,0.021365,0.034096,-0.041828,-0.079745,-0.995937,-0.065624,0.018008,-0.128254,7.592438,-1.164566,-16.092896,,,,,,,
1522139728.733500,-0.041967,0.078884,2.887940,-0.027671,-0.021125,0.035200,-0.041825,-0.078802,-0.996013,-0.050613,0.050283,0.055445,7.967590,-1.690353,-15.190552,,,,,,,
1522139728.763469,-0.041919,0.077804,2.889011,-0.006088,0.024558,0.029838,-0.041780,-0.077725,-0.996099,-0.033751,0.057416,-0.004908,8.268631,-1.541779,-15.266052,,,,,,,
1522139728.793437,-0.041955,0.077843,2.890077,-0.000783,0.023446,0.035169,-0.041816,-0.077764,-0.996094,-0.058541,0.028616,-0.085540,7.830795,-0.863907,-14.369019,,,,,,,
1522139728.823406,-0.042609,0.077543,2.891098,0.018350,-0.005232,0.026688,-0.042468,-0.077465,-0.996090,-0.033658,0.090084,0.036312,7.757294,-0.938202,-13.993713,,,,,,,
1522139728.853374,-0.042885,0.078177,2.891961,0.026865,-0.014795,0.023508,-0.042741,-0.078098,-0.996029,-0.035369,-0.018414,-0.023395,7.768387,0.036972,-13.772583,,,,,,,
1522139728.883343,-0.043529,0.078099,2.892801,0.002188,-0.034957,0.028835,-0.043382,-0.078020,-0.996007,-0.084318,0.076036,-0.006831,7.785461,1.162857,-12.802124,,,,,,,
1522139728.913311,-0.044250,0.078321,2.893523,0.038614,-0.014798,0.021378,-0.044100,-0.078241,-0.995959,-0.105345,0.053888,0.022372,7.193878,1.691055,-12.279480,,,,,,,
1522139728.943279,-0.044862,0.079107,2.894172,0.014110,0.000131,0.023472,-0.044706,-0.079024,-0.995870,-0.039797,0.044234,0.014135,7.804184,2.588531,-12.057800,,,,,,,
1522139728.973248,-0.045871,0.079444,2.894778,0.047263,0.001161,0.014978,-0.045710,-0.079360,-0.995797,-0.033453,0.046920,0.065454,8.258667,2.811859,-11.683472,,,,,,,
1522139729.003216,-0.046755,0.080286,2.895284,0.006707,-0.000871,0.012834,-0.046587,-0.080200,-0.995690,-0.035764,-0.015778,0.000939,8.934540,2.808960,-11.533081,,,,,,,
1522139729.033184,-0.047729,0.079954,2.895811,0.006480,-0.042346,0.019261,-0.047559,-0.079869,-0.995670,-0.041140,0.047795,-0.068874,9.392746,3.631897,-11.536133,,,,,,,
1522139729.063151,-0.048726,0.080224,2.896314,0.005641,0.003412,0.012809,-0.048550,-0.080138,-0.995601,-0.036822,0.022628,-0.031697,8.195358,3.487961,-10.861206,,,,,,,
1522139729.093121,-0.049517,0.079917,2.896638,-0.016857,-0.013550,0.013880,-0.049339,-0.079832,-0.995587,-0.041008,0.051115,-0.007618,7.521744,3.491211,-10.636536,,,,,,,
1522139729.123057,-0.050301,0.079311,2.896980,-0.005958,0.033193,0.011710,-0.050122,-0.079228,-0.995596,-0.056949,0.046101,-0.069926,7.300644,3.792358,-10.487854,,,,,,,
1522139729.153027,-0.051040,0.079129,2.897230,-0.009256,0.013001,0.012796,-0.050859,-0.079046,-0.995573,-0.071349,0.047140,-0.111086,7.234344,4.393112,-10.040283,,,,,,,
1522139729.182994,-0.051617,0.078569,2.897541,-0.015710,0.000283,0.010671,-0.051435,-0.078488,-0.995587,-0.066530,0.088101,-0.031238,6.263428,4.622772,-9.741699,,,,,,,
1522139729.212962,-0.051965,0.078002,2.897744,-0.008237,-0.007145,0.005362,-0.051784,-0.077923,-0.995614,-0.040761,0.007290,0.026558,4.783722,6.205185,-8.998779,,,,,,,
1522139729.242930,-0.052014,0.077214,2.897955,-0.021035,-0.003907,0.004277,-0.051836,-0.077137,-0.995672,-0.092604,0.062458,0.010778,4.193466,6.733582,-8.251160,,,,,,,
1522139729.272899,-0.051926,0.076554,2.898156,-0.003929,0.001364,0.004283,-0.051751,-0.076479,-0.995727,0.016289,0.038714,0.060119,3.093994,8.390015,-6.758362,,,,,,,
1522139729.302867,-0.051373,0.075855,2.898228,-0.021799,0.060911,0.003152,-0.051202,-0.075782,-0.995809,-0.027213,0.082100,-0.142634,1.381668,8.624451,-5.035156,,,,,,,
1522139729.332835,-0.051354,0.075166,2.898198,-0.013453,0.014159,0.000008,-0.051187,-0.075095,-0.995862,-0.086493,0.047858,-0.025134,-0.539886,9.536316,-1.814697,,,,,,,
1522139729.362803,-0.050789,0.074553,2.898123,-0.022809,0.067343,-0.003254,-0.050626,-0.074484,-0.995936,-0.048373,0.064138,-0.040654,-1.499390,10.366837,-0.618530,,,,,,,
1522139729.392772,-0.050576,0.074002,2.897978,-0.005839,0.036508,-0.007468,-0.050416,-0.073935,-0.995988,-0.030989,0.076117,0.034226,-1.246796,10.969284,2.979187,,,,,,,
1522139729.422740,-0.050504,0.073900,2.897702,0.003704,0.017389,-0.011705,-0.050345,-0.073833,-0.995999,-0.007242,0.055751,0.028790,-1.012497,11.269287,4.028076,,,,,,,
1522139729.452708,-0.050286,0.073540,2.897389,0.007962,0.016313,-0.010638,-0.050129,-0.073473,-0.996036,-0.037548,0.081500,0.005299,1.260513,12.535782,5.749207,,,,,,,
1522139729.482677,-0.050165,0.073658,2.897060,0.010096,0.014168,-0.010625,-0.050008,-0.073591,-0.996034,-0.023280,0.074812,-0.021437,1.047043,13.062790,6.796997,,,,,,,
1522139729.512645,-0.050247,0.073576,2.896685,0.015294,-0.019819,-0.013788,-0.050090,-0.073510,-0.996036,-0.067845,0.090477,-0.004407,2.108994,14.033386,7.168640,,,,,,,
1522139729.542614,-0.050077,0.073821,2.896274,0.013495,0.053496,-0.013857,-0.049920,-0.073754,-0.996026,-0.049369,0.033791,-0.092810,4.892868,14.696228,7.542358,,,,,,,
1522139729.572582,-0.050396,0.073611,2.895822,0.003661,0.005719,-0.013827,-0.050238,-0.073544,-0.996026,-0.061319,0.070889,-0.020789,4.521637,14.623642,8.292480,,,,,,,
1522139729.602551,-0.050527,0.073227,2.895530,0.003745,0.026940,-0.010645,-0.050370,-0.073162,-0.996047,-0.043990,0.072597,-0.062302,7.008240,14.839035,9.867798,,,,,,,
1522139729.632488,-0.050839,0.073149,2.895185,0.003752,0.027999,-0.010645,-0.050681,-0.073084,-0.996037,-0.024163,0.057749,-0.013469,9.633881,14.902222,9.868835,,,,,,,
1522139729.662457,-0.051314,0.072841,2.894890,0.001480,-0.003851,-0.012750,-0.051156,-0.072776,-0.996036,-0.047920,0.031593,-0.005155,14.275742,14.580505,9.047485,,,,,,,
1522139729.692425,-0.051681,0.072709,2.894615,0.009973,-0.012358,-0.012746,-0.051521,-0.072645,-0.996026,-0.088448,0.052092,-0.006461,17.269745,14.790680,7.698120,,,,,,,
1522139729.722398,-0.051976,0.072696,2.894337,0.003648,0.005690,-0.010626,-0.051816,-0.072632,-0.996012,-0.074680,0.038437,0.008570,22.948456,15.136002,3.574585,,,,,,,
1522139729.752366,-0.052319,0.072558,2.894074,0.007881,-0.001769,-0.009548,-0.052158,-0.072495,-0.996004,-0.030926,0.045212,0.130541,23.836700,15.130066,1.625122,,,,,,,
1522139729.782335,-0.052291,0.072454,2.893815,0.003679,0.011008,-0.011695,-0.052130,-0.072390,-0.996013,-0.069925,0.037585,-0.002827,26.658463,15.636810,-3.925598,,,,,,,
1522139729.812303,-0.052595,0.072148,2.893579,0.012061,-0.028326,-0.013773,-0.052434,-0.072085,-0.996019,-0.049235,0.051242,-0.031508,27.849976,16.453674,-6.703186,,,,,,,
1522139729.842271,-0.052359,0.071941,2.893265,-0.005876,0.025879,-0.008516,-0.052200,-0.071879,-0.996046,-0.041581,0.052302,-0.058412,26.708069,16.156494,-9.027588,,,,,,,
1522139729.872239,-0.052470,0.071421,2.892945,-0.005003,-0.017676,-0.009542,-0.052312,-0.071360,-0.996078,-0.046855,0.070063,-0.000168,24.961304,16.684845,-13.530579,,,,,,,
1522139729.902208,-0.051993,0.071050,2.892607,-0.011002,0.070538,-0.010696,-0.051838,-0.070991,-0.996129,-0.028103,0.033195,-0.090831,24.127182,16.986572,-15.557251,,,,,,,
1522139729.932176,-0.051843,0.070321,2.892303,-0.011294,0.005735,-0.011703,-0.051692,-0.070264,-0.996188,-0.007924,0.092404,-0.004895,19.248444,17.606873,-17.212158,,,,,,,
1522139729.962144,-0.051705,0.070319,2.891944,0.010225,0.038644,-0.014915,-0.051554,-0.070261,-0.996196,-0.028753,0.002100,-0.033971,17.144775,17.465958,-17.587646,,,,,,,
1522139729.992112,-0.051377,0.069830,2.891606,-0.021944,0.016374,-0.008531,-0.051230,-0.069773,-0.996247,-0.027704,0.082316,-0.036468,15.804260,18.372070,-17.516907,,,,,,,
1522139730.022081,-0.051254,0.069496,2.891322,0.012438,0.058817,-0.012806,-0.051108,-0.069440,-0.996276,-0.048303,0.066709,-0.115571,13.930542,18.904816,-18.195007,,,,,,,
1522139730.052049,-0.051389,0.069579,2.890932,-0.007101,-0.011258,-0.012756,-0.051242,-0.069523,-0.996263,-0.048581,-0.010433,0.034609,12.125778,19.511139,-19.998352,,,,,,,
1522139730.082017,-0.051246,0.068753,2.890543,-0.020577,0.079070,-0.010717,-0.051103,-0.068699,-0.996328,-0.106109,0.089893,-0.126277,10.851685,20.415512,-21.352539,,,,,,,
1522139730.111986,-0.051650,0.068574,2.890161,0.010998,-0.020887,-0.010598,-0.051505,-0.068520,-0.996319,-0.067391,-0.001671,-0.000675,4.631424,21.118118,-21.733459,,,,,,,
1522139730.141923,-0.051868,0.067938,2.889819,-0.045277,0.046199,-0.011769,-0.051725,-0.067885,-0.996351,-0.031191,0.060424,-0.024919,1.414352,21.732910,-21.437561,,,,,,,
1522139730.171892,-0.052664,0.067113,2.889384,0.006706,-0.032534,-0.015913,-0.052521,-0.067062,-0.996365,-0.030471,0.079147,0.003995,-1.048096,22.494797,-20.616821,,,,,,,
1522139730.201860,-0.053367,0.067115,2.888948,-0.012431,-0.010172,-0.013828,-0.053221,-0.067064,-0.996328,-0.013185,0.042650,-0.017191,-7.910294,23.130920,-15.372803,,,,,,,
1522139730.231828,-0.054142,0.066407,2.888597,-0.005025,-0.021938,-0.008469,-0.053996,-0.066358,-0.996334,-0.003941,0.083052,-0.091664,-9.387390,23.440872,-12.074768,,,,,,,
1522139730.261796,-0.054810,0.066381,2.888290,0.006853,0.005696,-0.011693,-0.054662,-0.066332,-0.996299,-0.013103,0.045137,-0.060097,-11.748123,24.356522,-7.054626,,,,,,,
1522139730.291765,-0.055589,0.066271,2.887951,-0.000712,-0.015562,-0.010600,-0.055439,-0.066222,-0.996264,-0.024914,0.048827,-0.027632,-11.506912,24.807373,-5.106323,,,,,,,
1522139730.321733,-0.056062,0.065898,2.887660,-0.005929,0.014192,-0.008505,-0.055911,-0.065850,-0.996262,-0.018079,0.085046,-0.077881,-9.989105,25.103027,-2.631714,,,,,,,
