timestamp(unix),attitude_roll(radians),attitude_pitch(radians),attitude_yaw(radians),rotation_rate_x(radians/s),rotation_rate_y(radians/s),rotation_rate_z(radians/s),gravity_x(G),gravity_y(G),gravity_z(G),user_acc_x(G),user_acc_y(G),user_acc_z(G),magnetic_field_x(microteslas),magnetic_field_y(microteslas),magnetic_field_z(microteslas),latitude(degree),longitude(degree),altitude(meter),speed(m/s),course(degree),timestamp(unix),User Mark
,,,,,,,,,,,,,,,,25.315289,51.436839,10.975385,6.140000,3.515625,1523697264.995303,
1523697266.064368,-0.689563,-0.037752,-0.169362,-0.110305,0.137395,0.081862,-0.635745,0.037743,-0.770971,0.107974,-0.035043,-0.043497,18.671585,8.743297,-7.790344,,,,,,,
1523697266.094336,-0.682896,-0.042213,-0.170788,-0.205781,0.218768,0.030549,-0.630478,0.042200,-0.775054,0.097534,-0.029322,-0.221436,19.197189,8.666163,-7.564758,,,,,,,
,,,,,,,,,,,,,,,,25.315338,51.436847,10.951137,5.780000,356.835938,1523697265.995292,
1523697266.124304,-0.677889,-0.048491,-0.176849,-0.314917,0.074008,-0.048230,-0.626411,0.048472,-0.777980,0.059776,0.066976,-0.281514,19.425018,8.590739,-6.964355,,,,,,,
1523697266.154272,-0.681110,-0.051726,-0.183100,-0.115088,-0.203319,-0.119203,-0.628811,0.051703,-0.775832,0.083050,0.122080,-0.151658,19.725296,8.888942,-7.415405,,,,,,,
1523697266.184241,-0.689108,-0.048818,-0.185699,0.094941,-0.271869,-0.117903,-0.635089,0.048798,-0.770891,0.132281,0.105773,-0.008772,20.026321,9.037501,-7.490784,,,,,,,
1523697266.214209,-0.695677,-0.044117,-0.185567,0.109134,-0.162693,-0.083906,-0.640279,0.044103,-0.766870,0.125783,0.063487,0.057611,18.979355,9.342219,-7.492554,,,,,,,
1523697266.244177,-0.698846,-0.041850,-0.187234,-0.045274,-0.095216,-0.104338,-0.642769,0.041838,-0.764912,0.112953,0.006319,0.011952,18.906906,9.642467,-7.568787,,,,,,,
1523697266.274146,-0.698696,-0.041742,-0.192181,-0.122987,0.129560,-0.157897,-0.642657,0.041730,-0.765011,0.023288,-0.005323,-0.029544,17.713120,10.172969,-7.421509,,,,,,,
1523697266.304114,-0.691746,-0.043444,-0.198532,-0.185743,0.247259,-0.100519,-0.637279,0.043431,-0.769404,0.019496,0.009929,-0.111395,18.610519,9.869029,-7.344849,,,,,,,
1523697266.334082,-0.687062,-0.045973,-0.202337,-0.098516,0.038185,-0.016072,-0.633596,0.045957,-0.772293,0.030294,0.064563,-0.099411,18.684158,9.868464,-7.569824,,,,,,,
1523697266.364050,-0.687461,-0.047128,-0.202715,-0.006338,-0.057014,0.039506,-0.633870,0.047111,-0.771999,0.039570,0.108666,-0.056218,18.756485,9.643062,-7.643860,,,,,,,
1523697266.394019,-0.689163,-0.046800,-0.200877,0.076857,-0.089017,0.027879,-0.635193,0.046783,-0.770930,0.048676,0.087296,-0.069585,18.453201,9.269511,-7.567505,,,,,,,
1523697266.423987,-0.690565,-0.045243,-0.198933,0.093015,-0.078305,0.009766,-0.636318,0.045227,-0.770094,0.049404,0.041854,-0.042604,18.224884,9.120234,-7.867004,,,,,,,
1523697266.453955,-0.691493,-0.044052,-0.197400,0.070946,-0.019685,-0.007358,-0.637067,0.044038,-0.769544,0.058499,0.016249,-0.028948,19.051498,9.416286,-8.092834,,,,,,,
1523697266.483923,-0.691536,-0.042890,-0.196695,0.075312,-0.023762,-0.031868,-0.637132,0.042877,-0.769556,0.050951,0.007737,-0.000586,18.675323,9.118281,-7.791809,,,,,,,
1523697266.513892,-0.690416,-0.041057,-0.195954,0.062776,0.037891,-0.030872,-0.636319,0.041046,-0.770328,0.023175,0.009278,-0.002545,19.273499,8.890666,-7.715637,,,,,,,
1523697266.543860,-0.687484,-0.040792,-0.196110,-0.043002,0.061273,0.005257,-0.634065,0.040781,-0.772199,-0.012496,0.000830,-0.080783,19.649536,9.038905,-7.791016,,,,,,,
1523697266.573828,-0.686809,-0.044230,-0.197193,-0.136440,0.000575,0.057457,-0.633450,0.044215,-0.772514,-0.044223,0.010915,-0.115730,19.053009,9.117030,-7.341614,,,,,,,
1523697266.603796,-0.686974,-0.048627,-0.197730,-0.110103,-0.046467,0.087368,-0.633449,0.048608,-0.772252,-0.034978,-0.003503,-0.120906,18.674423,8.893519,-7.565918,,,,,,,
1523697266.633795,-0.690360,-0.052872,-0.198241,-0.134003,-0.167329,0.058691,-0.635923,0.052847,-0.769936,-0.018801,0.029154,-0.045081,19.276337,9.265513,-7.867065,,,,,,,
1523697266.663763,-0.696649,-0.056325,-0.200441,-0.119900,-0.195597,-0.007329,-0.640631,0.056295,-0.765777,0.020208,0.038111,0.029068,17.931503,9.422160,-7.268372,,,,,,,
1523697266.693732,-0.699636,-0.056972,-0.202007,0.014585,-0.009732,-0.042575,-0.642892,0.056941,-0.763833,0.028283,0.054158,0.063210,17.709671,9.872935,-7.495300,,,,,,,
1523697266.723700,-0.697740,-0.054206,-0.202119,0.091970,0.065765,-0.076694,-0.641541,0.054179,-0.765168,0.016968,0.038030,0.052994,18.310974,10.095057,-7.645874,,,,,,,
1523697266.753668,-0.697074,-0.051270,-0.202307,0.070287,-0.001163,-0.071315,-0.641131,0.051248,-0.765713,0.005450,0.019095,0.053128,17.853958,9.571834,-7.944031,,,,,,,
1523697266.783636,-0.696520,-0.050529,-0.202963,-0.016290,0.039045,-0.017073,-0.640731,0.050508,-0.766098,-0.019212,0.027831,0.023254,18.005615,9.646297,-7.794312,,,,,,,
1523697266.813605,-0.695362,-0.052143,-0.203397,-0.054975,0.060971,0.051075,-0.639790,0.052120,-0.766775,-0.017452,0.012486,0.013418,18.226822,9.719554,-8.544495,,,,,,,
1523697266.843573,-0.693094,-0.056056,-0.202179,-0.086432,0.116404,0.190568,-0.637915,0.056027,-0.768061,0.018957,-0.068173,-0.112828,17.550507,9.273128,-8.018005,,,,,,,
1523697266.873541,-0.687105,-0.067273,-0.196689,-0.290963,0.319965,0.481095,-0.632864,0.067223,-0.771334,-0.062158,-0.025505,-0.288343,18.373245,9.044414,-8.016663,,,,,,,
1523697266.903510,-0.676926,-0.084429,-0.197548,-0.431979,0.111427,0.113599,-0.624166,0.084328,-0.776723,-0.202387,0.197379,-0.368022,18.375351,9.119639,-7.791992,,,,,,,
1523697266.933478,-0.690773,-0.077413,-0.199690,0.551125,-0.752514,-0.382392,-0.635223,0.077335,-0.768442,0.191955,0.206905,0.003199,18.900757,9.341975,-8.092590,,,,,,,
1523697266.963435,-0.716249,-0.047458,-0.198628,0.845306,-0.872495,-0.801878,-0.655818,0.047440,-0.753422,0.199901,0.156295,0.456653,18.225616,10.093715,-9.370911,,,,,,,
1523697266.993403,-0.736390,-0.009411,-0.197313,1.074849,-0.315698,-0.729815,-0.671585,0.009411,-0.740862,0.228485,0.089664,0.533617,18.980530,10.315761,-8.921448,,,,,,,
1523697267.023372,-0.716936,0.019137,-0.187193,0.692007,1.235357,-0.090209,-0.656955,-0.019136,-0.753681,-0.006039,-0.057448,0.226536,17.930435,9.946101,-8.320496,,,,,,,
,,,,,,,,,,,,,,,,25.315393,51.436833,10.727532,5.510000,356.484375,1523697266.995281,
1523697267.053340,-0.677094,0.009682,-0.177171,-0.671559,1.320475,0.831444,-0.626499,-0.009682,-0.779357,-0.104199,-0.185066,-0.040406,18.231628,9.795207,-7.869690,,,,,,,
1523697267.083308,-0.639028,-0.043559,-0.179888,-1.693378,0.993725,0.967394,-0.595848,0.043546,-0.801912,-0.149117,-0.062405,-0.422545,18.157547,9.121821,-6.592102,,,,,,,
1523697267.113276,-0.639992,-0.076538,-0.182449,-0.276708,-0.531993,0.288040,-0.595439,0.076464,-0.799750,-0.083394,-0.070467,-0.207315,18.235703,9.571239,-6.818848,,,,,,,
1523697267.143245,-0.652252,-0.067945,-0.178557,0.606848,-0.321071,-0.253858,-0.605576,0.067892,-0.792882,0.024918,0.064462,0.016851,18.084824,9.571773,-6.968933,,,,,,,
1523697267.173213,-0.658753,-0.045159,-0.173789,0.649862,-0.115498,-0.339273,-0.611506,0.045144,-0.789947,0.046167,0.100104,0.063552,18.083771,9.646464,-7.269226,,,,,,,
1523697267.203181,-0.656481,-0.032807,-0.172284,0.112873,0.178477,-0.095965,-0.610003,0.032801,-0.791716,0.068621,0.045583,0.000594,18.380142,9.419917,-7.493164,,,,,,,
1523697267.233149,-0.650717,-0.037233,-0.174503,-0.297918,0.181592,0.060357,-0.605335,0.037224,-0.795096,-0.039913,0.094230,0.031592,19.653885,9.339107,-7.567200,,,,,,,
1523697267.263118,-0.647273,-0.043308,-0.179315,-0.135428,0.087471,-0.060902,-0.602446,0.043295,-0.796980,-0.003892,0.083613,0.008772,19.210068,9.641627,-7.043640,,,,,,,
1523697267.293086,-0.640619,-0.042806,-0.181515,0.009965,0.350736,-0.074912,-0.597142,0.042793,-0.800989,-0.059993,0.059426,-0.056387,18.376999,9.194774,-7.642273,,,,,,,
1523697267.323085,-0.629835,-0.045223,-0.184203,-0.168806,0.307224,-0.020651,-0.588407,0.045207,-0.807296,-0.119219,0.042455,-0.194535,18.451111,8.969676,-7.416382,,,,,,,
1523697267.353053,-0.630924,-0.048888,-0.186706,-0.080870,-0.266023,0.021536,-0.589184,0.048868,-0.806516,-0.097415,0.024526,-0.143893,18.753937,9.118526,-7.191772,,,,,,,
1523697267.383021,-0.640071,-0.050598,-0.184453,0.032759,-0.266091,0.140968,-0.596486,0.050577,-0.801024,-0.027156,0.012595,0.006270,18.602432,8.969218,-7.191223,,,,,,,
1523697267.412990,-0.643688,-0.053228,-0.179075,0.024666,-0.029924,0.257929,-0.599297,0.053203,-0.798752,0.040765,-0.020870,-0.074310,19.499573,8.814952,-7.415222,,,,,,,
1523697267.442958,-0.638263,-0.062430,-0.173709,-0.303031,0.282929,0.309585,-0.594638,0.062389,-0.801565,-0.138119,0.114994,-0.159342,18.382706,9.270579,-6.817566,,,,,,,
1523697267.472926,-0.634151,-0.069994,-0.177460,-0.078775,-0.003399,-0.153474,-0.591041,0.069937,-0.803600,0.040138,0.020304,-0.139683,18.824142,8.817912,-7.490540,,,,,,,
1523697267.502894,-0.640954,-0.053700,-0.175657,0.816338,-0.350873,-0.321862,-0.597097,0.053674,-0.800368,0.222829,-0.007410,0.137144,19.278000,9.565272,-8.093323,,,,,,,
1523697267.532863,-0.655053,-0.022866,-0.163585,1.194094,-0.589002,-0.287255,-0.609040,0.022864,-0.792806,0.250428,0.044733,0.393529,18.083145,10.170482,-8.246277,,,,,,,
1523697267.562831,-0.672359,0.011572,-0.146510,1.247074,-0.385470,-0.237336,-0.622790,-0.011572,-0.782299,0.198626,0.017431,0.464108,18.233276,10.094951,-8.095947,,,,,,,
1523697267.592799,-0.664036,0.039134,-0.130225,0.785268,0.862018,-0.072708,-0.615826,-0.039124,-0.786906,0.091503,0.007020,0.307246,18.604660,9.868083,-8.319824,,,,,,,
1523697267.622767,-0.625177,0.034190,-0.129835,-1.019367,1.426346,0.255676,-0.584897,-0.034184,-0.810383,-0.119937,0.006687,-0.060726,17.857117,9.572337,-7.419067,,,,,,,
1523697267.652736,-0.584342,-0.021174,-0.156476,-2.263433,0.902367,0.257415,-0.551525,0.021172,-0.833886,-0.302128,0.029014,-0.646613,18.080765,9.121867,-6.892151,,,,,,,
1523697267.682704,-0.596177,-0.058932,-0.178814,-0.821173,-0.892879,-0.031655,-0.560507,0.058898,-0.826050,-0.151804,-0.008879,-0.347489,18.755585,9.193675,-7.042114,,,,,,,
1523697267.712672,-0.619841,-0.057691,-0.183236,0.447859,-0.659295,-0.153471,-0.579937,0.057659,-0.812614,-0.047825,0.112095,0.110390,18.829681,9.193187,-7.192017,,,,,,,
1523697267.742640,-0.633799,-0.034563,-0.169208,1.104467,-0.235927,0.006407,-0.591855,0.034557,-0.805300,0.020764,0.161244,0.220613,18.894775,8.517375,-7.714294,,,,,,,
1523697267.772609,-0.624866,-0.012512,-0.148779,0.797583,0.567009,0.172652,-0.584941,0.012511,-0.810976,0.065547,0.033204,0.026765,19.128922,9.116847,-7.191589,,,,,,,
1523697267.802577,-0.607636,-0.005238,-0.137996,0.138664,0.461710,0.115806,-0.570919,0.005238,-0.820987,0.035823,0.002040,-0.039167,18.601990,8.969142,-7.266235,,,,,,,
1523697267.832545,-0.598101,-0.008468,-0.140449,-0.283056,0.231450,-0.084593,-0.563053,0.008468,-0.826374,0.022739,0.060655,-0.046062,18.004272,9.196834,-7.267456,,,,,,,
1523697267.862513,-0.590526,-0.015278,-0.150699,-0.409986,0.363291,-0.200970,-0.556732,0.015278,-0.830549,-0.083252,0.113537,-0.116534,18.908707,9.418132,-6.892883,,,,,,,
1523697267.892482,-0.578141,-0.021227,-0.161653,-0.305600,0.344763,-0.171044,-0.546344,0.021225,-0.837289,-0.146833,0.118439,-0.239905,18.838989,9.718822,-6.519104,,,,,,,
1523697267.922450,-0.577249,-0.023962,-0.166176,-0.073049,-0.215934,-0.001951,-0.545563,0.023960,-0.837725,-0.086869,0.050930,-0.169569,18.615189,9.794902,-6.444519,,,,,,,
1523697267.952418,-0.587842,-0.024155,-0.161440,0.196770,-0.278643,0.207159,-0.554404,0.024153,-0.831894,-0.011423,-0.004011,0.070343,19.059311,9.567302,-7.043457,,,,,,,
1523697267.982409,-0.593544,-0.020342,-0.151532,0.350010,-0.191695,0.177362,-0.559185,0.020341,-0.828790,0.086468,0.034164,0.090173,18.386597,9.795329,-7.044678,,,,,,,
1523697268.012377,-0.597630,-0.013545,-0.144857,0.249909,-0.153750,-0.045450,-0.562632,0.013544,-0.826593,0.107935,0.045095,-0.056997,18.154388,9.345927,-7.492981,,,,,,,
