timestamp(unix),attitude_roll(radians),attitude_pitch(radians),attitude_yaw(radians),rotation_rate_x(radians/s),rotation_rate_y(radians/s),rotation_rate_z(radians/s),gravity_x(G),gravity_y(G),gravity_z(G),user_acc_x(G),user_acc_y(G),user_acc_z(G),magnetic_field_x(microteslas),magnetic_field_y(microteslas),magnetic_field_z(microteslas),latitude(degree),longitude(degree),altitude(meter),speed(m/s),course(degree),timestamp(unix),User Mark
,,,,,,,,,,,,,,,,25.306101,51.445722,10.999997,-1.000000,-1.000000,1522139253.528052,
1522139259.041224,-0.099152,0.018245,-1.383081,0.009776,0.006505,0.029912,-0.098973,-0.018244,-0.994923,-0.010829,0.003229,0.062367,15.029297,2.088820,-45.861511,,,,,,,
1522139259.071192,-0.099014,0.018548,-1.381367,0.010826,0.001196,0.028854,-0.098835,-0.018547,-0.994931,-0.052776,-0.005287,0.011227,15.106827,2.388395,-45.937622,,,,,,,
1522139259.101160,-0.099098,0.018726,-1.378875,0.004446,0.005467,0.027781,-0.098919,-0.018725,-0.994919,-0.021336,-0.007673,-0.002243,15.107880,2.313688,-45.637329,,,,,,,
1522139259.131128,-0.098961,0.018651,-1.377199,0.001222,0.004407,0.029904,-0.098782,-0.018650,-0.994934,-0.042835,-0.015484,-0.026901,14.729309,2.090178,-45.861694,,,,,,,
1522139259.161097,-0.099015,0.018319,-1.374650,-0.011621,-0.001967,0.032043,-0.098837,-0.018318,-0.994935,-0.022944,-0.014443,-0.021819,15.779556,2.384993,-46.312256,,,,,,,
1522139259.191065,-0.099105,0.017713,-1.372942,-0.014802,0.002287,0.032039,-0.098927,-0.017712,-0.994937,-0.023723,-0.000644,-0.046994,14.579758,2.090925,-45.786743,,,,,,,
1522139259.221033,-0.099324,0.017282,-1.371199,-0.009468,0.004406,0.033097,-0.099146,-0.017281,-0.994923,-0.070684,0.004327,0.071461,15.101746,2.013197,-46.161194,,,,,,,
1522139259.251001,-0.099077,0.017541,-1.368738,0.026997,0.032010,0.024567,-0.098900,-0.017540,-0.994943,-0.036812,0.056022,0.100518,15.773865,1.859953,-46.385193,,,,,,,
1522139259.280971,-0.098666,0.018823,-1.367247,0.040901,0.026716,0.016062,-0.098488,-0.018822,-0.994960,-0.029243,-0.026832,0.045314,15.696030,1.485456,-46.233765,,,,,,,
1522139259.310939,-0.098121,0.019908,-1.364993,0.044089,0.020326,0.015015,-0.097945,-0.019907,-0.994993,0.010161,0.028604,-0.011538,15.175690,1.862944,-46.085510,,,,,,,
1522139259.340907,-0.097640,0.021126,-1.363711,0.044096,0.011900,0.005428,-0.097463,-0.021125,-0.995015,-0.019572,0.023078,-0.041072,14.877502,1.864592,-45.785706,,,,,,,
1522139259.370876,-0.097092,0.021630,-1.361853,0.000369,0.024744,0.007515,-0.096917,-0.021628,-0.995057,-0.008216,-0.001367,-0.021865,15.027649,2.013685,-46.011169,,,,,,,
1522139259.400844,-0.096603,0.021612,-1.360982,0.006783,0.013107,-0.003119,-0.096430,-0.021610,-0.995105,0.014308,0.009830,-0.087384,14.430817,2.241514,-45.862427,,,,,,,
1522139259.430782,-0.096624,0.021219,-1.359559,-0.033827,0.002618,-0.006344,-0.096452,-0.021217,-0.995111,0.062028,-0.082329,-0.152594,15.108627,2.388685,-45.637634,,,,,,,
1522139259.460750,-0.097516,0.019378,-1.358793,-0.072663,-0.055904,0.019255,-0.097343,-0.019376,-0.995062,-0.116539,-0.080202,-0.018823,14.431122,2.091825,-45.561768,,,,,,,
1522139259.490718,-0.098632,0.017402,-1.357166,-0.051178,-0.052613,-0.003108,-0.098458,-0.017401,-0.994989,0.066689,0.096716,0.160440,14.362122,2.467497,-45.188293,,,,,,,
1522139259.520686,-0.099047,0.017369,-1.356420,0.016136,-0.040037,-0.002005,-0.098870,-0.017368,-0.994949,-0.013877,-0.053036,-0.104722,14.883347,2.314787,-45.562439,,,,,,,
1522139259.550655,-0.099826,0.016906,-1.355661,-0.035972,0.003659,-0.003147,-0.099646,-0.016906,-0.994879,0.032019,0.027343,0.090354,13.686996,2.545393,-45.338989,,,,,,,
1522139259.580623,-0.100088,0.017156,-1.355000,0.053651,-0.021990,-0.013712,-0.099907,-0.017156,-0.994849,-0.000969,0.054753,-0.018060,15.036346,2.389463,-45.187683,,,,,,,
1522139259.610590,-0.100550,0.017952,-1.355038,0.002298,-0.029382,-0.000961,-0.100364,-0.017951,-0.994789,-0.085030,-0.023721,0.096183,15.562057,2.686735,-45.563599,,,,,,,
1522139259.640558,-0.100636,0.018150,-1.354946,0.024902,0.009868,-0.000977,-0.100450,-0.018149,-0.994777,0.045061,0.174856,0.100459,15.561615,2.462034,-45.262695,,,,,,,
1522139259.670527,-0.101130,0.019287,-1.354929,0.038570,-0.036937,0.000151,-0.100939,-0.019286,-0.994706,0.019014,-0.011888,0.003953,15.707428,2.086302,-45.336121,,,,,,,
1522139259.700495,-0.101873,0.019748,-1.354689,0.007612,-0.026260,0.006498,-0.101677,-0.019747,-0.994621,0.015526,0.052401,0.052910,16.165192,2.684538,-45.038330,,,,,,,
1522139259.730464,-0.102044,0.020213,-1.354549,0.034442,-0.003958,-0.000964,-0.101846,-0.020211,-0.994595,-0.030326,0.049539,-0.022815,15.259232,2.313246,-45.412292,,,,,,,
1522139259.760432,-0.102195,0.020830,-1.352812,0.011043,0.020491,0.004329,-0.101995,-0.020828,-0.994567,-0.001444,0.018311,-0.044297,15.185135,2.313719,-45.262329,,,,,,,
1522139259.790401,-0.102192,0.021348,-1.351916,0.042915,-0.026264,-0.006258,-0.101991,-0.021346,-0.994556,0.011567,-0.069672,-0.009594,16.083420,2.459150,-45.787476,,,,,,,
1522139259.820369,-0.101218,0.022217,-1.350687,0.001592,0.034472,-0.014877,-0.101020,-0.022215,-0.994636,-0.020760,-0.101122,-0.132500,15.403091,1.787443,-45.560059,,,,,,,
1522139259.850337,-0.099668,0.022115,-1.350445,0.027204,0.018536,-0.025492,-0.099479,-0.022113,-0.994794,0.059394,-0.021619,0.043637,15.102493,1.863569,-45.785583,,,,,,,
1522139259.880305,-0.098264,0.023348,-1.350173,0.020768,0.014320,-0.025505,-0.098079,-0.023346,-0.994905,-0.021534,0.060303,-0.089003,16.307373,2.532850,-46.087646,,,,,,,
1522139259.910243,-0.097264,0.023731,-1.349221,0.032466,0.012092,-0.016961,-0.097083,-0.023729,-0.994993,-0.005868,-0.045592,0.021269,15.252487,1.862898,-45.785522,,,,,,,
1522139259.940211,-0.096413,0.024050,-1.348633,-0.029353,0.052518,-0.002128,-0.096236,-0.024047,-0.995068,-0.019517,-0.001237,0.058865,15.627914,2.085905,-46.086182,,,,,,,
1522139259.970180,-0.096088,0.023171,-1.347116,-0.024398,-0.016645,0.010726,-0.095915,-0.023169,-0.995120,-0.116167,0.045507,-0.205869,16.152603,2.008619,-46.010620,,,,,,,
1522139260.000148,-0.096362,0.022372,-1.346193,-0.039335,-0.015538,0.009648,-0.096189,-0.022370,-0.995112,-0.058489,0.000473,-0.018926,15.703064,2.010725,-45.935852,,,,,,,
1522139260.030116,-0.096642,0.021219,-1.344384,-0.024585,-0.057033,0.011833,-0.096470,-0.021217,-0.995110,-0.031109,0.004875,-0.048775,15.330475,2.162550,-45.786682,,,,,,,
1522139260.060085,-0.097252,0.020581,-1.343379,-0.017960,-0.007130,0.013924,-0.097078,-0.020579,-0.995064,0.000872,-0.046559,0.046379,15.557709,2.386518,-45.787415,,,,,,,
1522139260.090053,-0.098087,0.020156,-1.341492,-0.004207,-0.041112,0.007568,-0.097910,-0.020155,-0.994991,0.013911,0.022520,-0.033512,15.180634,2.312986,-46.012329,,,,,,,
1522139260.120021,-0.098925,0.020474,-1.340947,0.015108,-0.024142,0.004372,-0.098743,-0.020472,-0.994902,0.019183,-0.018697,0.011199,14.651611,1.865446,-45.935791,,,,,,,
1522139260.149989,-0.099923,0.020945,-1.340839,0.018167,-0.057064,0.002269,-0.099735,-0.020943,-0.994794,-0.006100,0.018914,0.028302,15.254883,2.013044,-45.636047,,,,,,,
1522139260.179958,-0.100866,0.021691,-1.340790,0.029036,-0.018820,-0.000954,-0.100671,-0.021689,-0.994683,0.000039,-0.011148,-0.029349,14.655960,2.165663,-45.711975,,,,,,,
1522139260.209926,-0.101893,0.022236,-1.340834,0.011882,-0.037879,-0.004146,-0.101692,-0.022234,-0.994567,-0.001503,0.022066,-0.027543,15.404877,2.236982,-46.011902,,,,,,,
1522139260.239894,-0.102707,0.022661,-1.340959,0.015215,-0.014484,-0.008426,-0.102500,-0.022659,-0.994475,0.005744,0.000046,-0.078554,15.101746,1.788572,-45.785278,,,,,,,
1522139260.269839,-0.103464,0.022814,-1.341154,-0.002966,-0.016596,-0.004175,-0.103253,-0.022812,-0.994394,-0.023959,0.002853,-0.065421,14.728256,1.940260,-45.786072,,,,,,,
1522139260.299808,-0.103923,0.022718,-1.340168,-0.004933,0.019546,-0.005278,-0.103710,-0.022716,-0.994348,-0.048863,-0.029835,-0.059149,15.560272,2.237181,-45.111877,,,,,,,
1522139260.329776,-0.104333,0.022416,-1.339624,-0.017851,-0.004868,-0.005259,-0.104118,-0.022414,-0.994312,-0.031334,-0.003862,0.007938,15.629715,2.310820,-46.162109,,,,,,,
1522139260.359744,-0.104370,0.022194,-1.338274,-0.003907,0.011032,-0.004201,-0.104155,-0.022192,-0.994313,-0.022935,-0.013514,-0.021098,14.581116,2.091139,-45.561707,,,,,,,
1522139260.389682,-0.104266,0.022035,-1.337657,-0.012521,-0.001707,-0.002068,-0.104052,-0.022033,-0.994328,-0.011655,-0.033830,-0.013729,14.730957,2.165312,-45.711975,,,,,,,
1522139260.419650,-0.103834,0.021601,-1.336191,-0.010324,0.016335,0.001108,-0.103623,-0.021599,-0.994382,-0.017486,-0.001228,-0.045230,14.507767,2.166624,-45.412109,,,,,,,
1522139260.449618,-0.103436,0.021354,-1.335419,-0.012562,-0.003863,0.003257,-0.103228,-0.021353,-0.994429,-0.004499,-0.004908,-0.026095,14.880203,2.089643,-45.711548,,,,,,,
1522139260.479587,-0.102581,0.020967,-1.335021,-0.012401,0.028019,0.001102,-0.102379,-0.020965,-0.994525,0.001061,0.020599,-0.013349,16.232681,2.383482,-45.787109,,,,,,,
1522139260.509555,-0.102047,0.020662,-1.334925,-0.007217,-0.003889,0.003270,-0.101848,-0.020661,-0.994585,0.000789,0.000229,-0.044935,15.558472,2.236891,-45.411865,,,,,,,
1522139260.539523,-0.101192,0.020292,-1.334812,-0.007113,0.019475,0.004316,-0.100998,-0.020291,-0.994680,0.009232,0.010601,0.021260,15.932251,2.384764,-45.862244,,,,,,,
1522139260.569491,-0.100660,0.020169,-1.334717,0.000281,0.001406,0.003270,-0.100470,-0.020167,-0.994736,0.000509,0.005702,0.048676,15.932266,2.160139,-45.486328,,,,,,,
1522139260.599460,-0.099988,0.020293,-1.334669,0.008914,0.018429,-0.001011,-0.099801,-0.020292,-0.994800,-0.011725,0.005476,-0.004147,15.781204,2.235518,-45.786743,,,,,,,
1522139260.629428,-0.099578,0.020503,-1.334263,0.008844,0.000362,-0.002052,-0.099393,-0.020501,-0.994837,-0.012958,-0.003089,-0.002630,15.258179,2.387953,-45.712585,,,,,,,
1522139260.659396,-0.099248,0.020902,-1.333466,0.020643,0.013071,-0.000987,-0.099064,-0.020901,-0.994862,0.018421,0.016445,0.015781,16.381332,2.382597,-46.011963,,,,,,,
1522139260.689364,-0.098933,0.021560,-1.331949,0.022767,0.008837,-0.003117,-0.098749,-0.021559,-0.994879,0.004709,0.012983,-0.036386,15.184830,2.463423,-45.562866,,,,,,,
1522139260.719333,-0.098953,0.022255,-1.331258,0.022686,-0.011320,-0.006300,-0.098767,-0.022253,-0.994862,0.011060,0.007437,-0.021114,15.783005,2.460432,-45.862610,,,,,,,
1522139260.749301,-0.098987,0.022660,-1.329767,0.011980,-0.013453,-0.002041,-0.098800,-0.022658,-0.994849,0.004242,0.014205,-0.057046,16.232986,2.458403,-45.862427,,,,,,,
1522139260.779269,-0.099319,0.022857,-1.329089,0.007709,-0.017690,-0.004162,-0.099130,-0.022855,-0.994812,0.005823,-0.001239,-0.021790,15.556961,2.311522,-45.787109,,,,,,,
1522139260.809238,-0.099663,0.022878,-1.327630,-0.005128,-0.019791,-0.002043,-0.099472,-0.022876,-0.994777,-0.013717,0.002323,-0.065617,16.081039,2.084394,-45.560913,,,,,,,
1522139260.839206,-0.100186,0.022728,-1.326946,-0.005139,-0.022985,-0.002036,-0.099993,-0.022726,-0.994729,-0.026899,-0.000376,-0.065574,16.529831,2.231916,-46.011292,,,,,,,
1522139260.869144,-0.100643,0.022522,-1.326230,-0.007300,-0.027252,0.000103,-0.100448,-0.022520,-0.994687,-0.011521,-0.016466,-0.072482,16.079681,2.084181,-45.785950,,,,,,,
1522139260.899112,-0.101186,0.022341,-1.324671,-0.005140,-0.018767,0.002224,-0.100988,-0.022339,-0.994637,0.006475,0.001984,-0.008064,15.854858,2.234953,-46.011658,,,,,,,
1522139260.929080,-0.101625,0.022398,-1.323870,0.005524,-0.019844,0.002224,-0.101425,-0.022396,-0.994591,-0.000214,-0.003177,-0.017860,15.861298,2.610380,-45.563171,,,,,,,
1522139260.959048,-0.102025,0.022571,-1.322269,0.007668,-0.018792,0.002229,-0.101822,-0.022569,-0.994547,-0.001769,0.003999,-0.016699,15.854111,2.159971,-46.011353,,,,,,,
1522139260.989017,-0.102274,0.022816,-1.321379,0.016291,-0.000767,0.003289,-0.102069,-0.022814,-0.994516,0.002353,0.028124,-0.015692,15.781204,2.235518,-45.786743,,,,,,,
1522139261.018985,-0.102376,0.023422,-1.319700,0.020499,-0.011396,0.004359,-0.102169,-0.023420,-0.994491,-0.003910,0.012159,-0.042465,16.455704,2.457029,-46.237305,,,,,,,
1522139261.048953,-0.102322,0.023776,-1.318840,0.013102,0.000339,0.000080,-0.102115,-0.023774,-0.994489,-0.009946,0.021287,-0.020633,15.923264,1.709425,-46.234558,,,,,,,
1522139261.078921,-0.102100,0.024070,-1.317281,0.004659,0.022678,0.000050,-0.101893,-0.024068,-0.994504,-0.008047,-0.023036,-0.106128,15.326431,1.937269,-46.085754,,,,,,,
1522139261.108890,-0.101824,0.023977,-1.316529,-0.003986,-0.000681,0.000069,-0.101619,-0.023975,-0.994534,-0.020558,0.013935,-0.101276,16.374741,1.857405,-46.234924,,,,,,,
1522139261.138858,-0.101487,0.023947,-1.315098,-0.004982,0.012101,-0.003145,-0.101284,-0.023945,-0.994569,-0.010792,-0.027630,-0.050719,15.552628,2.011320,-46.010925,,,,,,,
1522139261.168826,-0.101004,0.023500,-1.314457,-0.018880,0.007866,-0.002078,-0.100805,-0.023498,-0.994629,-0.003398,0.005645,-0.054642,15.853363,1.860350,-45.635132,,,,,,,
1522139261.198794,-0.100577,0.023162,-1.313808,-0.008124,0.026978,-0.002097,-0.100380,-0.023160,-0.994680,-0.001091,-0.009876,-0.010356,15.481079,2.087095,-45.561218,,,,,,,
1522139261.228763,-0.100141,0.022796,-1.312427,-0.016684,0.017428,-0.004210,-0.099947,-0.022794,-0.994732,-0.020017,-0.001544,-0.025715,15.777466,1.860533,-45.785217,,,,,,,
1522139261.258731,-0.099757,0.022384,-1.311835,-0.013485,0.018498,-0.004219,-0.099567,-0.022383,-0.994779,-0.010586,0.001432,-0.024371,15.624329,1.636076,-45.934387,,,,,,,
1522139261.288691,-0.099398,0.021902,-1.310444,-0.019954,0.007846,0.000058,-0.099210,-0.021900,-0.994825,-0.023196,0.013737,-0.026064,16.001862,1.934294,-46.010376,,,,,,,
1522139261.318659,-0.099260,0.021574,-1.309839,-0.010398,-0.003832,-0.002068,-0.099074,-0.021572,-0.994846,-0.004350,0.029369,0.022800,16.005005,2.159437,-45.861328,,,,,,,
1522139261.348597,-0.099229,0.021190,-1.308553,-0.015738,-0.009119,-0.005256,-0.099044,-0.021189,-0.994857,0.013259,0.031824,-0.006714,15.549774,1.861113,-46.235352,,,,,,,
1522139261.378565,-0.099422,0.020750,-1.308024,-0.006143,-0.015510,-0.007370,-0.099237,-0.020749,-0.994847,-0.010397,0.024136,-0.014842,16.378784,2.082685,-45.935791,,,,,,,
1522139261.408534,-0.099844,0.020556,-1.306796,-0.007268,-0.029312,-0.008423,-0.099657,-0.020554,-0.994810,-0.007078,-0.007140,-0.039660,15.555313,2.236387,-45.936829,,,,,,,
1522139261.438502,-0.100390,0.020201,-1.306371,-0.005098,-0.023989,-0.010558,-0.100201,-0.020199,-0.994762,0.003460,0.030102,-0.023442,15.181244,2.013594,-45.411133,,,,,,,
1522139261.468470,-0.101287,0.020386,-1.305261,0.010947,-0.019747,-0.013754,-0.101093,-0.020385,-0.994668,-0.019040,-0.022111,-0.006354,15.698578,1.560743,-45.934021,,,,,,,
1522139261.498439,-0.102116,0.020526,-1.304963,0.000250,-0.029253,-0.018014,-0.101917,-0.020525,-0.994581,-0.040172,0.003374,-0.013186,15.180206,1.863676,-45.335510,,,,,,,
1522139261.528407,-0.102973,0.020627,-1.303944,0.002471,-0.011168,-0.020170,-0.102769,-0.020625,-0.994491,-0.028960,-0.003102,0.030762,16.079086,2.158949,-46.011230,,,,,,,
1522139261.558375,-0.103643,0.020527,-1.303682,-0.013491,0.004775,-0.015932,-0.103435,-0.020525,-0.994424,-0.019611,0.006548,0.032297,15.326736,1.787565,-45.785156,,,,,,,
1522139261.588343,-0.104440,0.020105,-1.303415,-0.018956,-0.019658,-0.013786,-0.104229,-0.020104,-0.994350,-0.025395,-0.006370,0.007747,15.252487,1.862898,-45.785522,,,,,,,
1522139261.618312,-0.104944,0.019278,-1.302424,-0.035938,0.002666,-0.011677,-0.104732,-0.019276,-0.994314,-0.028401,0.000798,0.054693,16.675034,1.930967,-46.309998,,,,,,,
1522139261.648280,-0.105308,0.018180,-1.302186,-0.036027,-0.015403,-0.010596,-0.105096,-0.018179,-0.994296,-0.024115,-0.003199,-0.014158,16.606033,2.082029,-45.560669,,,,,,,
1522139261.678248,-0.105398,0.016990,-1.301212,-0.041298,-0.005815,-0.013798,-0.105188,-0.016989,-0.994307,-0.037909,0.027121,-0.032548,15.255188,2.087965,-45.711365,,,,,,,
1522139261.708216,-0.105180,0.016030,-1.301030,-0.028343,0.022887,-0.018089,-0.104973,-0.016029,-0.994346,-0.006920,0.010536,-0.105050,15.781357,2.160673,-45.636414,,,,,,,
1522139261.738185,-0.104812,0.015303,-1.300096,-0.028393,0.013318,-0.017015,-0.104608,-0.015302,-0.994396,-0.021231,0.020093,-0.058308,15.331818,2.387388,-45.937500,,,,,,,
1522139261.768153,-0.104432,0.014810,-1.299923,-0.011224,0.032402,-0.017021,-0.104231,-0.014809,-0.994443,-0.016008,0.025994,-0.014789,15.330795,2.012846,-45.486084,,,,,,,
1522139261.798121,-0.103848,0.014603,-1.299009,-0.002659,0.035588,-0.019152,-0.103650,-0.014603,-0.994507,0.011655,0.037781,-0.033753,16.379089,2.157606,-46.011108,,,,,,,
1522139261.828059,-0.103442,0.014775,-1.298908,0.006864,0.011133,-0.022308,-0.103246,-0.014775,-0.994546,0.001729,0.015294,0.004251,15.781204,2.235518,-45.786743,,,,,,,
1522139261.858027,-0.102942,0.014942,-1.298128,0.010188,0.036616,-0.022324,-0.102749,-0.014941,-0.994595,-0.020970,0.041431,-0.035816,15.558167,2.386595,-45.712402,,,,,,,
1522139261.887995,-0.102745,0.015478,-1.298112,0.020671,-0.011180,-0.027602,-0.102552,-0.015478,-0.994607,0.006010,0.022146,-0.011420,16.607071,2.456572,-46.012146,,,,,,,
1522139261.917964,-0.102559,0.016064,-1.298179,0.023921,-0.002668,-0.029742,-0.102366,-0.016063,-0.994617,0.015162,0.059032,0.013553,15.256226,2.237883,-45.786987,,,,,,,
1522139261.947932,-0.102553,0.016964,-1.297550,0.034583,-0.010096,-0.033994,-0.102358,-0.016963,-0.994603,0.010134,0.030681,-0.000529,15.781799,2.385359,-45.937256,,,,,,,
1522139261.977900,-0.102552,0.017901,-1.297689,0.033539,-0.003744,-0.031862,-0.102356,-0.017900,-0.994587,-0.006912,0.040346,0.012333,16.006348,2.384275,-46.012207,,,,,,,
1522139262.007868,-0.102485,0.018815,-1.297065,0.030384,0.005819,-0.031868,-0.102287,-0.018813,-0.994577,-0.018867,0.020431,0.020395,15.331375,2.387312,-46.012512,,,,,,,
1522139262.037837,-0.102331,0.019635,-1.297152,0.033558,0.001560,-0.030801,-0.102132,-0.019634,-0.994577,-0.000071,0.032466,0.019586,15.625977,1.711226,-45.784729,,,,,,,
1522139262.067805,-0.102136,0.020423,-1.296462,0.021843,0.014305,-0.025496,-0.101937,-0.020422,-0.994581,0.000329,0.044409,0.044813,15.628372,2.085981,-46.011169,,,,,,,
1522139262.097773,-0.101793,0.021040,-1.296432,0.025054,0.016425,-0.025498,-0.101595,-0.021039,-0.994603,0.006258,0.014707,-0.016917,15.329285,2.087477,-45.861389,,,,,,,
1522139262.127742,-0.101441,0.021458,-1.295599,-0.000575,0.018605,-0.023392,-0.101244,-0.021456,-0.994630,0.002061,0.029833,-0.023741,15.179443,2.013304,-45.711121,,,,,,,
1522139262.157710,-0.101002,0.021415,-1.295383,0.012221,0.022764,-0.015923,-0.100807,-0.021413,-0.994676,0.008751,0.036702,-0.058761,15.702759,2.160414,-46.236450,,,,,,,
1522139262.187678,-0.100662,0.021980,-1.294304,0.021751,0.009975,-0.012712,-0.100468,-0.021979,-0.994697,-0.012843,0.025778,-0.031960,15.704712,2.085859,-45.786133,,,,,,,
1522139262.217646,-0.100351,0.022698,-1.293929,0.029208,0.002523,-0.014823,-0.100157,-0.022696,-0.994713,-0.000108,0.026816,0.010948,15.253540,2.012815,-45.861084,,,,,,,
1522139262.247615,-0.100056,0.023610,-1.293555,0.032429,0.006784,-0.015898,-0.099861,-0.023608,-0.994721,0.003486,0.012240,0.018113,16.000809,2.009001,-46.310669,,,,,,,
1522139262.277587,-0.100006,0.024553,-1.292384,0.032392,-0.000648,-0.015895,-0.099809,-0.024550,-0.994704,0.016573,0.020125,0.047530,15.703812,2.085722,-45.936096,,,,,,,
1522139262.307525,-0.100045,0.025244,-1.291988,0.018512,-0.003808,-0.016958,-0.099846,-0.025242,-0.994683,0.052651,-0.024426,0.030556,15.325989,1.937193,-46.160767,,,,,,,
1522139262.337493,-0.100057,0.025667,-1.290924,0.018542,0.001512,-0.018029,-0.099857,-0.025664,-0.994671,0.013935,0.008803,0.014843,16.078476,2.233732,-46.236572,,,,,,,
1522139262.367461,-0.100084,0.026081,-1.290661,0.001438,0.002593,-0.013784,-0.099883,-0.026078,-0.994657,0.020354,-0.041121,0.005598,15.854111,2.159971,-46.011353,,,,,,,
1522139262.397429,-0.100002,0.025779,-1.289725,-0.014595,-0.000565,-0.012726,-0.099802,-0.025776,-0.994673,0.070582,-0.010128,-0.032579,15.553375,2.086317,-46.011230,,,,,,,
1522139262.427398,-0.100150,0.025920,-1.289537,0.004561,-0.022893,-0.019075,-0.099949,-0.025917,-0.994655,0.014439,-0.023201,-0.073979,16.299744,1.857740,-46.234985,,,,,,,
1522139262.457366,-0.100253,0.026006,-1.288703,-0.004991,-0.011170,-0.020162,-0.100051,-0.026003,-0.994642,0.033920,0.002504,-0.006624,15.103531,2.238111,-46.237061,,,,,,,
1522139262.487334,-0.100082,0.026164,-1.288532,0.002483,-0.005902,-0.015901,-0.099881,-0.026161,-0.994655,0.025449,0.020958,-0.060047,14.728409,2.090025,-46.011658,,,,,,,
1522139262.517302,-0.100214,0.026166,-1.287625,-0.006093,-0.013300,-0.016974,-0.100013,-0.026163,-0.994642,0.035697,0.020670,0.029570,15.552170,2.011244,-46.085938,,,,,,,
1522139262.547271,-0.100012,0.025920,-1.287454,-0.007076,-0.001612,-0.020165,-0.099812,-0.025917,-0.994669,0.035497,0.010231,-0.045828,15.473877,1.861296,-46.385376,,,,,,,
1522139262.577239,-0.099916,0.025553,-1.287285,-0.019945,-0.005851,-0.014854,-0.099718,-0.025551,-0.994688,0.015291,-0.027397,-0.014696,14.952942,2.088942,-46.086548,,,,,,,
1522139262.607207,-0.099896,0.024939,-1.286350,-0.019892,0.006890,-0.013800,-0.099699,-0.024936,-0.994705,0.038374,0.007679,-0.041199,15.333618,2.612303,-46.013428,,,,,,,
1522139262.637175,-0.099987,0.024694,-1.286076,-0.003981,-0.017584,-0.014828,-0.099790,-0.024692,-0.994702,0.037611,0.040225,-0.040653,15.177490,2.087858,-46.161438,,,,,,,
1522139262.667144,-0.100252,0.024653,-1.285073,-0.010380,-0.014401,-0.012701,-0.100054,-0.024651,-0.994677,0.031939,-0.002357,-0.057020,16.001389,2.158857,-46.461304,,,,,,,
1522139262.697112,-0.100547,0.024288,-1.284734,-0.005046,-0.006980,-0.008460,-0.100348,-0.024286,-0.994656,0.030890,0.024377,-0.042759,16.074142,1.933531,-46.460327,,,,,,,
1522139262.727080,-0.100987,0.024232,-1.283564,-0.010427,-0.014457,-0.004179,-0.100786,-0.024229,-0.994613,0.016938,-0.002672,0.006088,15.554413,2.236235,-46.086853,,,,,,,
1522139262.757048,-0.101328,0.023618,-1.283102,-0.021043,-0.002720,-0.006334,-0.101126,-0.023616,-0.994593,0.017813,0.056087,-0.029439,15.546021,1.710752,-46.609741,,,,,,,
1522139262.786986,-0.101842,0.023008,-1.281892,-0.018922,-0.011199,-0.010584,-0.101639,-0.023006,-0.994555,0.011032,0.008555,-0.035779,15.775818,2.010023,-46.310791,,,,,,,
1522139262.816954,-0.102342,0.022442,-1.281385,-0.018941,-0.009111,-0.005259,-0.102138,-0.022440,-0.994517,0.059733,0.008157,0.033168,15.259369,2.687635,-46.013794,,,,,,,
1522139262.846923,-0.102712,0.021921,-1.280127,-0.014728,-0.017641,-0.002053,-0.102507,-0.021920,-0.994491,0.018325,0.006478,-0.026673,15.553955,2.460783,-46.537720,,,,,,,
1522139262.876891,-0.102760,0.021845,-1.279576,0.007725,-0.017684,-0.006287,-0.102554,-0.021843,-0.994488,-0.006531,0.007836,-0.057896,15.028244,2.163527,-46.161804,,,,,,,
1522139262.906859,-0.102336,0.022295,-1.279115,0.018601,0.021670,-0.012725,-0.102132,-0.022294,-0.994521,0.023122,-0.012023,-0.010636,15.179276,2.312773,-46.237366,,,,,,,
1522139262.936828,-0.101631,0.022785,-1.277918,0.014348,0.028026,-0.009532,-0.101429,-0.022783,-0.994582,0.008717,0.023393,-0.016878,15.851242,2.234373,-46.611694,,,,,,,
1522139262.966796,-0.100833,0.023249,-1.277470,0.021759,0.012068,-0.010572,-0.100635,-0.023247,-0.994652,0.006458,0.000954,0.017357,15.550674,1.861250,-46.085327,,,,,,,
1522139262.996764,-0.099743,0.023643,-1.276401,0.005826,0.028064,-0.012732,-0.099549,-0.023640,-0.994752,-0.001311,-0.008266,-0.035491,15.103989,2.238188,-46.162048,,,,,,,
1522139263.026732,-0.098642,0.023703,-1.276133,0.011116,0.013227,-0.018051,-0.098455,-0.023701,-0.994859,0.010198,-0.000927,0.038301,15.850662,2.084532,-46.461060,,,,,,,
1522139263.056701,-0.097363,0.023915,-1.275240,0.002794,0.057865,-0.019154,-0.097181,-0.023913,-0.994979,0.013807,-0.001524,0.041854,15.257126,2.462645,-46.012878,,,,,,,
1522139263.086669,-0.096189,0.024075,-1.275074,0.002572,0.007950,-0.021244,-0.096012,-0.024073,-0.995089,0.016178,0.028894,-0.020444,15.028534,2.238447,-46.237122,,,,,,,
1522139263.116637,-0.095066,0.024252,-1.274217,0.010031,0.001567,-0.023360,-0.094895,-0.024250,-0.995192,0.010971,0.039097,-0.040819,15.701721,2.010496,-46.160889,,,,,,,
1522139263.146605,-0.094468,0.024552,-1.273980,0.012114,-0.005896,-0.020156,-0.094299,-0.024549,-0.995241,0.013412,0.035108,0.063753,15.552017,2.086103,-46.236267,,,,,,,
1522139263.176574,-0.094001,0.024620,-1.273061,-0.000608,0.018541,-0.015925,-0.093835,-0.024618,-0.995283,0.020363,0.024282,0.033903,15.400986,1.936857,-46.160706,,,,,,,
1522139263.206542,-0.093988,0.024547,-1.272748,-0.004997,0.001520,-0.009528,-0.093821,-0.024545,-0.995286,0.017390,0.020852,0.004137,16.000198,2.083784,-46.536011,,,,,,,
1522139263.236480,-0.094271,0.024139,-1.272370,-0.016772,-0.004840,-0.008461,-0.094104,-0.024137,-0.995270,0.021671,0.028730,0.053741,15.176895,1.938017,-46.010803,,,,,,,
1522139263.266431,-0.094809,0.023811,-1.271278,-0.011576,-0.033555,-0.006299,-0.094640,-0.023809,-0.995227,0.031042,0.000554,0.059192,14.731400,2.390013,-46.012817,,,,,,,
1522139263.296399,-0.095197,0.023407,-1.270776,-0.007174,-0.002789,-0.003119,-0.095027,-0.023405,-0.995200,0.015132,0.035780,-0.056116,15.932388,2.534529,-46.087830,,,,,,,
1522139263.326367,-0.095917,0.023418,-1.269575,-0.000847,-0.018732,-0.003106,-0.095744,-0.023416,-0.995131,0.004893,0.004663,-0.050524,14.881393,2.389341,-46.012756,,,,,,,
1522139263.356336,-0.096586,0.023313,-1.269058,-0.000928,-0.039975,-0.005212,-0.096409,-0.023311,-0.995069,0.016331,0.036983,-0.040042,15.028244,2.163527,-46.161804,,,,,,,
1522139263.386304,-0.097219,0.023531,-1.267870,0.017359,-0.014469,-0.010560,-0.097039,-0.023529,-0.995002,0.024132,0.056183,-0.036034,15.776413,2.159864,-46.461426,,,,,,,
1522139263.416272,-0.097724,0.024209,-1.267453,0.018449,-0.009156,-0.010566,-0.097540,-0.024206,-0.994937,0.033788,0.005102,-0.044903,15.030334,2.463362,-46.312988,,,,,,,
1522139263.446240,-0.098291,0.024610,-1.266447,0.015101,-0.046310,-0.014792,-0.098103,-0.024607,-0.994872,0.011875,0.038325,-0.029969,15.177032,2.087782,-46.236450,,,,,,,
1522139263.476209,-0.098715,0.025033,-1.266276,0.010977,-0.014426,-0.014825,-0.098524,-0.025031,-0.994820,-0.018984,-0.015527,0.001488,15.781204,2.460142,-46.162598,,,,,,,
1522139263.506177,-0.098887,0.025033,-1.265443,-0.007110,-0.002677,-0.016981,-0.098695,-0.025030,-0.994803,0.028612,0.014547,-0.063867,15.253235,1.937895,-45.785767,,,,,,,
1522139263.536145,-0.099217,0.024993,-1.265410,-0.006082,-0.017518,-0.022294,-0.099023,-0.024990,-0.994771,0.018472,-0.004001,-0.066233,15.177185,2.012938,-46.086121,,,,,,,
1522139263.566114,-0.099434,0.024710,-1.265394,-0.014583,-0.006891,-0.020176,-0.099240,-0.024707,-0.994757,0.027127,0.016330,0.044043,15.026749,2.013533,-46.161194,,,,,,,
1522139263.596082,-0.099252,0.024345,-1.264661,-0.018740,0.015446,-0.022331,-0.099059,-0.024343,-0.994784,0.026016,0.007268,-0.003935,15.330170,2.312254,-46.087219,,,,,,,
1522139263.626050,-0.099292,0.023835,-1.264530,-0.012426,0.002652,-0.016992,-0.099101,-0.023832,-0.994792,0.015452,0.027189,-0.065221,15.100693,1.863279,-46.085571,,,,,,,
1522139263.656018,-0.099383,0.023689,-1.263690,-0.008217,-0.012226,-0.018041,-0.099191,-0.023687,-0.994786,0.014902,0.020407,0.020162,14.801300,2.014479,-46.236328,,,,,,,
1522139263.685987,-0.099569,0.023327,-1.263470,-0.017865,-0.015417,-0.013785,-0.099377,-0.023325,-0.994776,0.030438,0.013911,0.077052,14.806396,2.389677,-46.012817,,,,,,,
1522139263.715924,-0.099276,0.022962,-1.262454,0.005860,0.038680,-0.010615,-0.099087,-0.022960,-0.994814,0.021023,0.053325,-0.085463,15.408005,2.686750,-46.238708,,,,,,,
1522139263.745893,-0.099136,0.023728,-1.262164,0.019581,0.001490,-0.013773,-0.098946,-0.023725,-0.994810,-0.010444,0.021574,-0.032137,15.480316,2.461348,-46.312744,,,,,,,
1522139263.775861,-0.098949,0.024227,-1.261311,0.026023,0.000443,-0.020151,-0.098759,-0.024225,-0.994816,-0.009228,0.034113,0.097279,15.557404,2.536222,-46.088013,,,,,,,
1522139263.805829,-0.098291,0.025026,-1.261132,0.023026,0.052500,-0.015951,-0.098102,-0.025024,-0.994862,0.011264,-0.012986,0.021092,15.183029,2.463133,-45.862915,,,,,,,
1522139263.835797,-0.097682,0.025585,-1.260209,0.013296,0.028052,-0.012731,-0.097495,-0.025582,-0.994907,0.006904,0.027856,-0.007580,15.032135,2.463667,-46.013000,,,,,,,
1522139263.865766,-0.096965,0.025886,-1.260042,0.013278,0.017476,-0.019117,-0.096781,-0.025883,-0.994969,-0.012670,0.019871,-0.000270,15.183914,2.687910,-46.088806,,,,,,,
1522139263.895734,-0.095994,0.026147,-1.259236,0.007026,0.054673,-0.017031,-0.095813,-0.026144,-0.995056,-0.002056,0.005727,0.078735,15.782837,2.759916,-46.388794,,,,,,,
1522139263.925702,-0.094824,0.026184,-1.259013,-0.005783,0.059952,-0.010638,-0.094649,-0.026181,-0.995166,0.009215,0.016934,0.009449,15.334808,2.687376,-45.938721,,,,,,,
1522139263.955670,-0.093844,0.026248,-1.258746,0.006925,0.036557,-0.011676,-0.093674,-0.026245,-0.995257,0.014740,0.005310,-0.023282,15.104279,2.313108,-46.237366,,,,,,,
1522139263.985639,-0.093271,0.026491,-1.257750,0.002662,0.036588,-0.013814,-0.093103,-0.026487,-0.995304,0.013040,0.020979,0.051670,16.229385,2.457823,-46.462402,,,,,,,
1522139264.015607,-0.092782,0.026521,-1.257368,-0.009126,0.036557,-0.005297,-0.092616,-0.026518,-0.995349,-0.011769,-0.001329,0.055529,15.034378,2.688658,-46.013855,,,,,,,
1522139264.045575,-0.092604,0.026247,-1.256359,-0.003862,0.013198,-0.010594,-0.092440,-0.026244,-0.995372,0.012255,0.022506,-0.013966,15.632553,2.461027,-45.937683,,,,,,,
1522139264.075543,-0.092591,0.026127,-1.256085,-0.011378,0.002615,-0.012727,-0.092427,-0.026124,-0.995377,0.032323,0.025636,-0.011459,16.081619,2.458860,-46.087463,,,,,,,
1522139264.105512,-0.093064,0.026001,-1.255237,-0.004009,-0.019728,-0.011631,-0.092898,-0.025998,-0.995336,0.012454,0.020032,-0.000925,15.181824,2.612684,-46.313477,,,,,,,
1522139264.135480,-0.093562,0.026065,-1.255129,0.001384,-0.015432,-0.019095,-0.093394,-0.026062,-0.995288,0.011134,0.014175,-0.068768,14.957733,2.389219,-45.787720,,,,,,,
1522139264.165448,-0.094197,0.026138,-1.254363,-0.003972,-0.018618,-0.018027,-0.094025,-0.026135,-0.995227,0.021821,0.010281,-0.044995,15.854385,2.459517,-46.462585,,,,,,,
1522139264.195386,-0.094855,0.025937,-1.254296,-0.010345,-0.015395,-0.021230,-0.094681,-0.025934,-0.995170,0.002960,0.025431,-0.072411,15.779114,2.160307,-46.011414,,,,,,,
1522139264.225354,-0.095410,0.025695,-1.253619,-0.013551,-0.017524,-0.021222,-0.095233,-0.025692,-0.995123,0.013111,-0.018528,-0.075418,15.777771,1.935453,-45.860535,,,,,,,
1522139264.255322,-0.095941,0.025146,-1.253622,-0.016877,-0.045129,-0.022268,-0.095764,-0.025143,-0.995086,0.038314,0.045636,-0.119370,15.927902,2.309187,-46.461914,,,,,,,
1522139264.285299,-0.096770,0.024750,-1.253685,-0.015834,-0.052534,-0.025465,-0.096590,-0.024747,-0.995017,0.038408,0.025236,-0.023965,15.258026,2.462797,-45.862915,,,,,,,
1522139264.315267,-0.097363,0.024021,-1.253036,-0.022239,-0.044090,-0.016945,-0.097181,-0.024019,-0.994977,0.038999,0.017183,-0.092380,14.881393,2.389341,-46.012756,,,,,,,
1522139264.345235,-0.098201,0.023643,-1.252966,-0.007392,-0.065371,-0.016918,-0.098016,-0.023640,-0.994904,0.014840,0.022511,-0.140869,15.631210,2.460814,-46.162720,,,,,,,
1522139264.375204,-0.098826,0.023810,-1.252242,0.003586,-0.004793,-0.022298,-0.098637,-0.023808,-0.994839,-0.016674,0.043400,0.026424,14.731552,2.315168,-45.862549,,,,,,,
1522139264.405172,-0.099384,0.023549,-1.252168,-0.022197,-0.037685,-0.020153,-0.099193,-0.023547,-0.994790,-0.000035,0.007846,-0.072410,15.328827,2.312025,-46.312195,,,,,,,
1522139264.435140,-0.099974,0.023024,-1.251353,-0.006223,-0.045185,-0.017997,-0.099781,-0.023022,-0.994743,0.005069,0.004528,0.049431,15.780304,2.459990,-46.312561,,,,,,,
1522139264.465108,-0.100218,0.022595,-1.251154,-0.015636,-0.001594,-0.018048,-0.100025,-0.022593,-0.994728,-0.023953,0.003718,-0.011299,14.960129,2.763990,-46.014221,,,,,,,
1522139264.495077,-0.100137,0.021992,-1.250291,-0.026305,0.010063,-0.009545,-0.099946,-0.021990,-0.994750,-0.047210,0.031573,-0.076768,14.506699,2.465956,-46.088257,,,,,,,
1522139264.525045,-0.099888,0.021525,-1.250143,-0.001674,0.019612,-0.015931,-0.099698,-0.021523,-0.994785,-0.013095,0.000405,-0.019162,15.556503,2.536070,-46.238037,,,,,,,
1522139264.555013,-0.099049,0.021430,-1.249175,-0.006888,0.051470,-0.011702,-0.098865,-0.021429,-0.994870,0.030963,0.037328,-0.107486,14.733932,2.689924,-46.089050,,,,,,,
1522139264.584981,-0.098363,0.021447,-1.248965,0.000486,0.029135,-0.011673,-0.098181,-0.021445,-0.994937,0.020972,0.020926,-0.165295,14.880646,2.314344,-46.012451,,,,,,,
1522139264.614950,-0.098766,0.021024,-1.248666,-0.016665,0.019588,-0.007417,-0.098584,-0.021023,-0.994907,-0.005603,-0.008671,-0.023633,15.705154,2.535185,-46.462952,,,,,,,
1522139264.644918,-0.099048,0.020971,-1.247687,0.002451,-0.005934,-0.010578,-0.098865,-0.020970,-0.994880,0.021731,0.029881,0.101936,15.109222,2.538542,-45.788269,,,,,,,
1522139264.674856,-0.100308,0.020628,-1.247515,-0.033928,-0.022858,-0.009518,-0.100118,-0.020626,-0.994762,-0.023142,-0.084705,-0.032307,15.109222,2.538542,-45.788269,,,,,,,
1522139264.704824,-0.101309,0.019545,-1.246717,-0.026442,-0.023934,-0.011636,-0.101116,-0.019543,-0.994683,-0.005909,0.039532,0.016686,14.960129,2.763990,-46.014221,,,,,,,
1522139264.734792,-0.102478,0.019718,-1.246449,-0.000965,-0.057979,-0.013718,-0.102279,-0.019716,-0.994560,-0.008805,-0.024076,-0.021995,14.658188,2.615263,-46.088806,,,,,,,
1522139264.764760,-0.103457,0.019462,-1.245444,0.000238,-0.029284,-0.014812,-0.103253,-0.019461,-0.994465,-0.006946,0.095801,0.077289,15.783295,2.759977,-46.313782,,,,,,,
1522139264.794729,-0.103900,0.020266,-1.245369,0.020597,-0.029257,-0.027575,-0.103692,-0.020264,-0.994403,0.101266,0.013444,-0.079923,15.558456,2.686140,-46.163635,,,,,,,
1522139264.824697,-0.103718,0.019646,-1.244489,-0.026159,0.040900,-0.011711,-0.103512,-0.019645,-0.994434,-0.053928,-0.009087,-0.081692,14.811188,2.689955,-45.713989,,,,,,,
1522139264.854665,-0.103047,0.019360,-1.244240,-0.001693,0.012201,-0.019123,-0.102845,-0.019359,-0.994509,-0.025665,0.040782,0.055239,14.960724,2.689207,-45.788940,,,,,,,
1522139264.884633,-0.101713,0.019082,-1.243409,-0.020831,0.036621,-0.011693,-0.101519,-0.019081,-0.994651,0.010729,0.018334,-0.085580,15.264023,3.062773,-45.865295,,,,,,,
1522139264.914602,-0.100515,0.018258,-1.243253,-0.030235,0.076017,-0.018140,-0.100329,-0.018257,-0.994787,0.002154,0.028511,0.045202,15.111328,2.613752,-45.563538,,,,,,,
1522139264.944570,-0.098782,0.017870,-1.243044,-0.011139,0.057837,-0.009578,-0.098605,-0.017869,-0.994966,0.017474,0.027406,-0.025221,15.111923,2.763609,-45.714172,,,,,,,
1522139264.974538,-0.097231,0.017654,-1.242052,0.007985,0.035498,-0.011678,-0.097063,-0.017653,-0.995122,-0.010771,0.052794,0.057774,15.412521,2.912107,-45.864624,,,,,,,
1522139265.004507,-0.095568,0.017836,-1.241692,-0.007919,0.061030,-0.010648,-0.095407,-0.017835,-0.995279,0.006662,0.010358,0.032113,15.032578,2.463728,-45.937988,,,,,,,
1522139265.034475,-0.094210,0.017593,-1.240708,0.008980,0.021665,-0.009531,-0.094056,-0.017592,-0.995412,-0.013336,0.030379,-0.033122,16.010696,2.909101,-46.164307,,,,,,,
1522139265.064443,-0.093156,0.017941,-1.240304,0.004762,0.032310,-0.010611,-0.093007,-0.017940,-0.995504,0.013890,-0.010273,0.080434,15.262207,2.837858,-45.789368,,,,,,,
1522139265.094411,-0.092383,0.017848,-1.239323,0.000453,0.024891,-0.010613,-0.092237,-0.017847,-0.995577,0.030622,0.018946,0.009783,15.112976,2.913527,-45.789795,,,,,,,
1522139265.124380,-0.091978,0.018256,-1.239048,0.021788,0.008943,-0.019095,-0.091833,-0.018255,-0.995607,-0.016458,0.030340,-0.059370,15.711609,2.910597,-46.014404,,,,,,,
1522139265.154317,-0.092250,0.018956,-1.238208,0.014171,-0.020793,-0.018009,-0.092102,-0.018955,-0.995569,0.032440,0.010746,0.013758,15.264771,3.137770,-45.865601,,,,,,,
1522139265.184286,-0.093033,0.019510,-1.238027,0.030077,-0.048453,-0.020095,-0.092881,-0.019509,-0.995486,0.015656,0.047585,-0.051389,15.710846,2.835600,-46.014160,,,,,,,
1522139265.214254,-0.094348,0.020231,-1.237217,0.018238,-0.066500,-0.017957,-0.094189,-0.020230,-0.995349,0.049206,0.001934,0.028460,16.085220,2.908689,-46.239258,,,,,,,
1522139265.244222,-0.096204,0.020803,-1.237037,0.026661,-0.090947,-0.017936,-0.096035,-0.020802,-0.995161,-0.005619,0.051518,-0.026492,14.887543,2.914457,-45.864868,,,,,,,
1522139265.274171,-0.098450,0.021698,-1.236893,0.021382,-0.081364,-0.020074,-0.098268,-0.021696,-0.994923,0.024110,0.003599,0.019292,15.187973,2.913191,-45.789734,,,,,,,
1522139265.304140,-0.100521,0.022029,-1.236005,0.006446,-0.070757,-0.012635,-0.100328,-0.022027,-0.994711,-0.006636,0.016260,-0.094370,16.008896,2.908812,-46.464294,,,,,,,
1522139265.334108,-0.102704,0.022401,-1.235687,0.018164,-0.078220,-0.013682,-0.102497,-0.022399,-0.994481,-0.013897,0.025191,-0.049968,15.186768,2.838118,-45.864441,,,,,,,
1522139265.364076,-0.104366,0.022767,-1.234768,0.006510,-0.053767,-0.010523,-0.104150,-0.022765,-0.994301,-0.020072,0.017577,-0.105751,15.031525,2.538435,-46.238342,,,,,,,
1522139265.394044,-0.105573,0.023026,-1.234404,0.009804,-0.032532,-0.009475,-0.105349,-0.023024,-0.994169,-0.023054,0.021513,-0.078600,15.708450,2.685469,-46.163574,,,,,,,
1522139265.424013,-0.106083,0.023371,-1.233338,0.017308,-0.022999,-0.007350,-0.105855,-0.023369,-0.994107,0.002476,0.020836,-0.098895,14.813736,2.989866,-45.790222,,,,,,,
1522139265.453981,-0.106019,0.024046,-1.232900,0.027046,0.000363,-0.010554,-0.105790,-0.024044,-0.994098,-0.016921,0.025417,-0.054517,14.583939,2.690611,-46.089111,,,,,,,
1522139265.483949,-0.105371,0.025043,-1.231845,0.034638,0.022680,-0.013766,-0.105143,-0.025040,-0.994142,-0.028783,0.020920,-0.002944,15.631348,2.610594,-46.388245,,,,,,,
1522139265.513917,-0.104324,0.025975,-1.231474,0.028237,0.026938,-0.011648,-0.104100,-0.025972,-0.994228,-0.001537,-0.021102,-0.000416,15.258621,2.612638,-46.013489,,,,,,,
1522139265.543886,-0.102888,0.026769,-1.230487,0.018692,0.040806,-0.013811,-0.102670,-0.026765,-0.994355,0.017816,-0.003676,-0.017852,15.260269,2.687788,-45.863831,,,,,,,
1522139265.573854,-0.101128,0.026889,-1.230239,-0.003633,0.058935,-0.015973,-0.100919,-0.026886,-0.994531,-0.016146,-0.006974,0.008386,16.153641,2.383162,-46.462097,,,,,,,
1522139265.603792,-0.099206,0.026540,-1.230043,-0.018575,0.060018,-0.014913,-0.099009,-0.026537,-0.994733,0.012751,0.003664,0.067990,15.636612,2.910948,-46.014465,,,,,,,
1522139265.633760,-0.097374,0.025858,-1.229228,-0.028172,0.064287,-0.013861,-0.097188,-0.025855,-0.994930,0.019231,0.001777,0.056911,15.555618,2.311308,-46.012085,,,,,,,
1522139265.663728,-0.095712,0.025040,-1.229001,-0.028217,0.056818,-0.010651,-0.095536,-0.025037,-0.995111,0.010758,0.021986,0.049692,16.306915,2.757399,-46.538574,,,,,,,
1522139265.693697,-0.094306,0.024540,-1.228126,-0.013348,0.040852,-0.010631,-0.094138,-0.024537,-0.995257,0.030371,-0.016280,0.010592,15.033478,2.688505,-46.163879,,,,,,,
1522139265.723665,-0.093512,0.023964,-1.227866,-0.025223,0.013248,-0.009547,-0.093349,-0.023962,-0.995345,0.002834,0.016851,0.026717,15.254868,2.462278,-46.387878,,,,,,,
1522139265.753633,-0.093188,0.023552,-1.226998,-0.007088,0.003660,-0.013780,-0.093027,-0.023550,-0.995385,0.030924,0.012884,0.075951,15.409363,2.686964,-46.013672,,,,,,,
1522139265.783601,-0.093299,0.023487,-1.226839,-0.007117,-0.006948,-0.016963,-0.093138,-0.023485,-0.995376,0.042311,0.000886,0.058776,15.258621,2.612638,-46.013489,,,,,,,
1522139265.813570,-0.093911,0.023509,-1.226132,0.005646,-0.021802,-0.022278,-0.093747,-0.023507,-0.995318,0.007444,0.015862,0.018558,15.856491,2.534727,-46.237915,,,,,,,
1522139265.843538,-0.094707,0.023786,-1.226101,-0.000772,-0.020780,-0.016943,-0.094539,-0.023784,-0.995237,0.003490,0.013026,0.042631,16.379074,2.382231,-46.386963,,,,,,,
1522139265.873506,-0.095434,0.024042,-1.225337,0.017320,-0.034612,-0.019055,-0.095261,-0.024039,-0.995162,0.001618,0.053214,-0.026353,15.257431,2.312956,-45.712280,,,,,,,
1522139265.903474,-0.095901,0.024657,-1.225321,0.009968,-0.010138,-0.021216,-0.095725,-0.024654,-0.995102,0.001120,0.012462,-0.034759,15.328384,2.087324,-46.011353,,,,,,,
1522139265.933443,-0.095969,0.024323,-1.225170,-0.021020,-0.005870,-0.012719,-0.095793,-0.024321,-0.995104,0.019240,0.012755,-0.031538,16.305130,2.532484,-46.462646,,,,,,,
1522139265.963411,-0.095601,0.023654,-1.224259,-0.009210,0.015335,-0.008478,-0.095428,-0.023652,-0.995155,-0.006210,0.048234,-0.084831,15.329269,2.312101,-46.237244,,,,,,,
1522139265.993379,-0.094959,0.023377,-1.223906,-0.010192,0.032325,-0.008487,-0.094791,-0.023374,-0.995223,-0.024457,0.049955,-0.097505,15.404724,2.311842,-46.162231,,,,,,,
1522139266.023347,-0.094173,0.023213,-1.222861,-0.001635,0.036543,-0.007416,-0.094009,-0.023210,-0.995301,0.000198,0.022325,-0.017562,15.405777,2.237135,-45.861938,,,,,,,
1522139266.053316,-0.093362,0.023287,-1.222385,0.014244,0.009932,-0.005252,-0.093201,-0.023285,-0.995375,0.016022,0.024841,0.016356,15.255768,2.462431,-46.237915,,,,,,,
1522139266.083253,-0.092576,0.023806,-1.221212,0.023940,0.027962,-0.005256,-0.092418,-0.023804,-0.995436,0.022456,-0.001785,0.020216,16.078629,2.383497,-46.462158,,,,,,,
1522139266.113222,-0.092088,0.024433,-1.220696,0.027096,0.015235,-0.008445,-0.091930,-0.024431,-0.995466,0.016475,0.036653,-0.020846,15.031677,2.463591,-46.088013,,,,,,,
1522139266.143190,-0.091995,0.025234,-1.219713,0.021623,-0.019807,-0.011602,-0.091837,-0.025231,-0.995454,0.022485,-0.040031,-0.025542,14.956833,2.389082,-45.937683,,,,,,,
1522139266.173158,-0.092246,0.025847,-1.219280,0.029113,-0.014515,-0.010539,-0.092085,-0.025844,-0.995416,0.026441,0.106059,0.022088,14.952042,2.088804,-46.236572,,,,,,,
1522139266.203126,-0.092689,0.027126,-1.218414,0.035480,-0.032533,-0.019043,-0.092522,-0.027123,-0.995341,0.050454,-0.034584,-0.048223,15.030045,2.163816,-45.861816,,,,,,,
1522139266.233095,-0.093598,0.027233,-1.218091,-0.014655,-0.011222,-0.009513,-0.093427,-0.027229,-0.995254,0.005444,0.044838,0.041396,15.252029,2.087446,-46.236389,,,,,,,
1522139266.263063,-0.094864,0.027159,-1.217311,0.000097,-0.062204,-0.016914,-0.094687,-0.027155,-0.995137,-0.012460,-0.009390,-0.094829,16.076080,2.083586,-46.385925,,,,,,,
1522139266.293036,-0.096268,0.026118,-1.217065,-0.067030,-0.017533,-0.002077,-0.096087,-0.026115,-0.995030,0.004763,-0.111687,0.057118,15.484955,2.611845,-45.788391,,,,,,,
1522139266.323004,-0.098141,0.024627,-1.216749,-0.019181,-0.069633,-0.011592,-0.097954,-0.024625,-0.994886,0.003166,0.069776,-0.032824,15.035126,2.763655,-46.014160,,,,,,,
1522139266.352973,-0.099511,0.024758,-1.215977,-0.003109,-0.055886,-0.009455,-0.099316,-0.024755,-0.994748,0.020169,-0.044215,-0.039081,15.553970,2.236158,-46.161865,,,,,,,
1522139266.382941,-0.100533,0.024595,-1.215696,-0.000901,-0.042060,-0.011601,-0.100334,-0.024592,-0.994650,0.016441,0.085689,0.009222,14.803406,2.089689,-46.011597,,,,,,,
1522139266.412909,-0.100917,0.025377,-1.214903,0.029163,-0.009145,-0.016947,-0.100714,-0.025374,-0.994592,-0.021738,-0.031266,-0.028449,14.656097,2.315428,-45.937561,,,,,,,
1522139266.442878,-0.100490,0.025892,-1.214543,0.005846,0.037599,-0.008480,-0.100287,-0.025889,-0.994622,-0.023126,0.073283,-0.058876,15.256516,2.537428,-46.238220,,,,,,,
1522139266.472846,-0.099349,0.026625,-1.213867,0.030613,0.064220,-0.025536,-0.099150,-0.026622,-0.994716,0.036238,-0.026311,-0.003132,15.260117,2.538008,-45.638184,,,,,,,
1522139266.502814,-0.097451,0.026881,-1.213754,-0.008924,0.078007,-0.007466,-0.097262,-0.026878,-0.994896,-0.021894,0.012916,-0.060677,14.808487,2.464888,-45.788147,,,,,,,
1522139266.532782,-0.095260,0.026932,-1.212899,0.017791,0.073735,-0.014896,-0.095082,-0.026929,-0.995105,-0.003108,0.053922,-0.054761,15.781647,2.460218,-46.087585,,,,,,,
1522139266.562720,-0.093215,0.027102,-1.212606,-0.023888,0.076951,-0.004274,-0.093046,-0.027099,-0.995293,0.028226,-0.029740,0.102486,15.253082,2.012739,-45.936035,,,,,,,
1522139266.592687,-0.091354,0.026169,-1.211547,-0.020696,0.072712,-0.006401,-0.091196,-0.026166,-0.995489,0.025018,0.011090,0.154608,15.552780,1.936476,-45.860657,,,,,,,
1522139266.622657,-0.089752,0.025473,-1.210973,-0.019852,0.031229,0.000031,-0.089603,-0.025470,-0.995652,0.119769,0.070316,-0.109969,16.306625,2.457853,-46.087341,,,,,,,
1522139266.652624,-0.089459,0.026108,-1.210509,0.041942,-0.010293,-0.010537,-0.089310,-0.026105,-0.995662,0.112579,0.065488,-0.073552,15.703506,2.235411,-46.236755,,,,,,,
1522139266.682592,-0.090374,0.026408,-1.209413,-0.011531,-0.019813,0.000099,-0.090220,-0.026405,-0.995572,0.016962,-0.093484,0.037045,15.323135,1.786985,-46.385132,,,,,,,
1522139266.712560,-0.091702,0.026875,-1.208942,0.061012,-0.038014,-0.005161,-0.091541,-0.026872,-0.995439,0.004398,0.173539,0.015000,16.599869,2.006163,-46.460388,,,,,,,
1522139266.742529,-0.093311,0.029456,-1.209062,0.067272,-0.069904,-0.005128,-0.093135,-0.029452,-0.995218,0.056880,-0.053846,-0.014960,15.099945,1.788282,-46.085266,,,,,,,
1522139266.772497,-0.095180,0.030584,-1.209168,0.036147,-0.112296,-0.010434,-0.094992,-0.030580,-0.995008,-0.054117,0.152925,0.094999,15.622086,1.635710,-46.309387,,,,,,,
1522139266.802465,-0.096717,0.032282,-1.209442,0.083361,-0.056101,-0.008331,-0.096516,-0.032276,-0.994808,-0.047328,-0.089733,-0.043415,15.702911,2.085569,-46.086121,,,,,,,
1522139266.832433,-0.097548,0.032980,-1.209425,-0.024304,-0.015497,-0.004180,-0.097341,-0.032974,-0.994705,-0.010951,-0.043900,-0.168046,15.478516,2.236433,-46.236877,,,,,,,
1522139266.862402,-0.097226,0.032515,-1.209283,0.030287,0.015197,-0.005241,-0.097021,-0.032509,-0.994751,-0.096384,0.035530,-0.386673,15.025681,2.088240,-46.461487,,,,,,,
1522139266.892370,-0.097053,0.033372,-1.208789,-0.005052,-0.015484,-0.011630,-0.096847,-0.033366,-0.994740,-0.001832,-0.115148,0.353611,15.997940,2.083418,-46.911011,,,,,,,
1522139266.922338,-0.094734,0.031702,-1.207562,-0.056915,0.106707,0.007390,-0.094545,-0.031697,-0.995016,0.018160,0.055104,0.146688,15.397980,1.861494,-46.535400,,,,,,,
1522139266.952307,-0.091954,0.031491,-1.206810,0.012380,0.077884,0.002142,-0.091779,-0.031486,-0.995282,-0.039172,-0.010277,-0.042545,15.473877,1.861296,-46.385376,,,,,,,
1522139266.982275,-0.089131,0.031276,-1.206138,-0.020603,0.099222,-0.000028,-0.088969,-0.031271,-0.995543,-0.002629,-0.031427,0.151748,15.774750,2.084715,-46.611145,,,,,,,
1522139267.012244,-0.086450,0.030652,-1.205054,0.001569,0.044998,-0.001034,-0.086301,-0.030647,-0.995798,-0.019686,-0.040978,-0.060324,15.400681,1.861937,-46.085388,,,,,,,
1522139267.042181,-0.084189,0.030280,-1.204611,-0.025989,0.085464,-0.004289,-0.084051,-0.030275,-0.996001,0.041616,-0.086042,0.108993,14.799210,1.714643,-46.085144,,,,,,,
1522139267.072150,-0.082637,0.030195,-1.203580,0.005991,0.065227,-0.010629,-0.082506,-0.030190,-0.996133,0.014085,0.022805,0.169549,15.625519,1.935774,-46.235596,,,,,,,
1522139267.102118,-0.081318,0.030313,-1.203365,-0.013294,0.053593,-0.009576,-0.081191,-0.030308,-0.996238,0.070220,-0.053585,0.120826,15.173904,1.638029,-46.009583,,,,,,,
1522139267.132087,-0.080822,0.029569,-1.202591,-0.018869,-0.003760,-0.012713,-0.080699,-0.029565,-0.996300,0.081554,0.013940,0.051918,15.782104,2.460279,-46.012573,,,,,,,
1522139267.162055,-0.081321,0.028939,-1.202433,-0.027495,-0.015459,-0.007384,-0.081197,-0.028935,-0.996278,0.015264,-0.039577,0.089509,15.781952,2.535139,-46.162903,,,,,,,
1522139267.192023,-0.082229,0.027892,-1.201446,-0.035141,-0.051587,-0.005220,-0.082104,-0.027889,-0.996233,0.013165,0.041500,-0.133298,16.379837,2.232603,-46.011414,,,,,,,
1522139267.221991,-0.083729,0.027395,-1.201009,0.005526,-0.032543,-0.007342,-0.083600,-0.027392,-0.996123,0.022413,0.037768,-0.069261,16.676956,2.305662,-46.611572,,,,,,,
1522139267.251960,-0.084989,0.027867,-1.199946,0.017245,-0.036829,-0.006265,-0.084853,-0.027863,-0.996004,-0.011811,0.051728,-0.086882,15.774918,2.009871,-46.460815,,,,,,,
1522139267.281906,-0.086406,0.028176,-1.199420,0.008583,-0.058103,-0.000918,-0.086264,-0.028172,-0.995874,-0.003030,-0.006618,0.046716,15.705612,2.310637,-46.012024,,,,,,,
1522139267.311874,-0.087573,0.027831,-1.198838,-0.028714,-0.036783,0.003292,-0.087428,-0.027828,-0.995782,0.103160,-0.031193,0.034860,15.481064,2.311720,-45.937134,,,,,,,
1522139267.341841,-0.088422,0.027039,-1.197545,-0.018006,-0.028331,0.005427,-0.088274,-0.027036,-0.995729,0.021853,0.074979,-0.239012,15.331375,2.387312,-46.012512,,,,,,,
1522139267.371811,-0.089571,0.026715,-1.196985,-0.020105,-0.029339,-0.002030,-0.089420,-0.026712,-0.995636,0.022540,-0.060843,-0.065415,15.550674,2.085875,-46.461243,,,,,,,
1522139267.401778,-0.090212,0.025996,-1.195757,-0.010433,-0.011318,0.001154,-0.090059,-0.025993,-0.995597,0.054400,0.065270,-0.065163,16.599274,2.080931,-46.685669,,,,,,,
1522139267.431746,-0.090621,0.026460,-1.195161,0.016269,-0.016656,-0.005212,-0.090466,-0.026457,-0.995548,-0.004291,-0.023134,-0.031643,15.624313,2.085325,-46.686157,,,,,,,
1522139267.461715,-0.090195,0.025956,-1.193955,-0.036972,0.026984,0.004289,-0.090043,-0.025953,-0.995600,0.018830,-0.033999,0.001825,16.376236,2.007399,-46.235535,,,,,,,
1522139267.491683,-0.090012,0.025102,-1.193399,-0.014655,0.003549,0.004330,-0.089862,-0.025100,-0.995638,0.017261,-0.015580,-0.112654,16.153473,2.458021,-46.612427,,,,,,,
1522139267.521621,-0.090387,0.025516,-1.192235,0.029173,0.002446,-0.006287,-0.090234,-0.025513,-0.995594,-0.011984,0.039490,0.024036,15.022537,1.863111,-46.610596,,,,,,,
1522139267.551589,-0.090682,0.026656,-1.191952,0.033330,-0.029392,-0.012649,-0.090526,-0.026653,-0.995537,0.025585,-0.075077,0.050240,15.772964,1.859800,-46.535217,,,,,,,
1522139267.581558,-0.090885,0.026878,-1.190898,-0.000756,0.001441,-0.002055,-0.090727,-0.026874,-0.995513,0.003904,0.071781,-0.006425,16.147186,2.007750,-46.910645,,,,,,,
1522139267.611526,-0.091049,0.028084,-1.190589,0.062171,-0.031562,-0.016886,-0.090887,-0.028080,-0.995465,0.036154,-0.055065,-0.023883,15.173874,2.087278,-46.761414,,,,,,,
1522139267.641494,-0.091840,0.028583,-1.190300,-0.019063,-0.038851,-0.007359,-0.091674,-0.028579,-0.995379,-0.004029,-0.061768,0.136385,15.176437,2.162565,-46.461731,,,,,,,
1522139267.671463,-0.092405,0.028069,-1.189316,0.009865,-0.014501,-0.005229,-0.092238,-0.028065,-0.995341,0.039351,0.087650,-0.056813,16.076065,2.308210,-46.761841,,,,,,,
1522139267.701431,-0.092810,0.029204,-1.188919,0.036551,-0.021986,-0.009457,-0.092637,-0.029200,-0.995272,0.123093,0.041682,0.018984,14.425705,2.090940,-46.461792,,,,,,,
1522139267.731399,-0.092883,0.029946,-1.187779,0.032217,-0.027323,-0.003068,-0.092708,-0.029941,-0.995243,0.027370,0.061863,-0.021069,15.777756,2.160078,-46.236450,,,,,,,
1522139267.761367,-0.092791,0.030995,-1.187134,0.030148,-0.016689,-0.005203,-0.092613,-0.030990,-0.995220,0.026009,0.028381,0.050502,16.373825,2.081877,-46.760803,,,,,,,
1522139267.791336,-0.092073,0.031682,-1.185910,0.021880,0.047079,-0.003146,-0.091897,-0.031677,-0.995265,0.047784,0.035034,-0.027792,14.955338,2.463713,-46.312988,,,,,,,
1522139267.821304,-0.091998,0.032478,-1.185296,0.020503,-0.021992,-0.003075,-0.091820,-0.032472,-0.995246,0.024834,0.003923,-0.052438,16.002747,2.159071,-46.236328,,,,,,,
1522139267.851272,-0.091611,0.033000,-1.184045,0.018420,-0.005010,0.001166,-0.091433,-0.032994,-0.995264,0.042834,0.024114,0.027049,15.775055,2.159651,-46.686401,,,,,,,
1522139267.881241,-0.091427,0.033710,-1.183438,0.034346,-0.030530,-0.003054,-0.091248,-0.033704,-0.995258,0.040940,0.022458,-0.048443,15.623276,1.710783,-46.234741,,,,,,,
1522139267.911209,-0.091166,0.034491,-1.182290,0.023791,-0.004977,-0.005224,-0.090985,-0.034484,-0.995255,0.027768,-0.014176,-0.025222,16.595673,2.080351,-47.285706,,,,,,,
1522139267.941177,-0.090994,0.034827,-1.181822,0.006710,-0.003867,-0.005242,-0.090813,-0.034820,-0.995259,0.012429,-0.036255,0.001500,16.674255,2.305220,-47.061523,,,,,,,
1522139267.971145,-0.090848,0.034838,-1.181348,-0.004943,0.016335,-0.004199,-0.090668,-0.034831,-0.995272,0.045456,-0.011662,0.002215,15.549164,2.160505,-46.836548,,,,,,,
1522139268.001083,-0.090680,0.034844,-1.180340,-0.003897,0.008923,-0.007392,-0.090501,-0.034836,-0.995287,0.019258,-0.038894,0.033754,15.996445,1.933424,-46.910400,,,,,,,
1522139268.031051,-0.090140,0.034677,-1.180047,-0.012279,0.039777,-0.010622,-0.089964,-0.034670,-0.995341,0.009123,-0.018233,0.001414,16.593582,1.780516,-47.134460,,,,,,,
1522139268.061020,-0.089502,0.034407,-1.179187,-0.019856,0.022771,-0.006353,-0.089330,-0.034401,-0.995408,0.023748,0.006340,0.046555,15.695862,2.009550,-47.135864,,,,,,,
1522139268.090988,-0.088470,0.034004,-1.178917,-0.015627,0.015303,-0.004209,-0.088304,-0.033998,-0.995513,0.008073,-0.015990,-0.058137,15.847504,2.084013,-46.986084,,,,,,,
1522139268.120955,-0.087364,0.033573,-1.178130,-0.014421,0.045080,-0.006376,-0.087204,-0.033567,-0.995625,0.022491,-0.013507,0.071690,15.475510,2.161070,-46.611572,,,,,,,
1522139268.150923,-0.085947,0.033483,-1.178004,0.001739,0.065273,-0.014898,-0.085793,-0.033477,-0.995750,0.005837,0.043364,0.013680,15.248581,2.012022,-46.686035,,,,,,,
1522139268.180892,-0.084602,0.033710,-1.177321,0.002750,0.052535,-0.015956,-0.084453,-0.033704,-0.995857,0.060558,0.015027,0.066917,16.372040,1.856962,-46.684875,,,,,,,
1522139268.210860,-0.083300,0.033816,-1.177162,-0.000499,0.040859,-0.017010,-0.083156,-0.033809,-0.995963,0.087108,0.025280,0.073172,16.298386,2.082136,-46.835815,,,,,,,
1522139268.240829,-0.082407,0.033776,-1.176394,-0.000622,0.016391,-0.013785,-0.082267,-0.033770,-0.996038,0.065742,0.057665,0.015981,16.000046,2.158628,-46.686279,,,,,,,
1522139268.270802,-0.081610,0.033723,-1.176204,-0.003787,0.023846,-0.014862,-0.081473,-0.033716,-0.996105,0.087699,0.047953,0.063763,17.048050,2.228468,-47.136047,,,,,,,
1522139268.300771,-0.081236,0.033352,-1.175833,-0.021047,-0.003802,-0.005260,-0.081101,-0.033346,-0.996148,0.062348,0.012853,-0.005409,17.050293,2.228834,-46.761047,,,,,,,
1522139268.330739,-0.080666,0.032759,-1.174790,-0.005033,0.000375,-0.000987,-0.080535,-0.032753,-0.996213,0.056960,0.067894,0.034040,16.217545,1.632277,-47.059082,,,,,,,
1522139268.360707,-0.080463,0.033078,-1.174239,0.018446,-0.004953,-0.005236,-0.080332,-0.033072,-0.996219,0.083918,0.018790,0.004932,15.766373,1.559233,-47.133972,,,,,,,
1522139268.390675,-0.080349,0.033124,-1.173140,-0.006203,-0.020881,0.000098,-0.080218,-0.033118,-0.996227,0.073917,0.042105,-0.047901,15.923096,2.008909,-46.760742,,,,,,,
1522139268.420644,-0.080184,0.032718,-1.172728,0.002460,0.003570,-0.003124,-0.080055,-0.032712,-0.996253,0.072472,-0.072863,-0.116814,15.621155,2.084806,-47.211182,,,,,,,
1522139268.450612,-0.080683,0.032196,-1.171556,-0.031802,-0.013398,0.002205,-0.080553,-0.032190,-0.996230,0.041002,-0.029135,-0.137910,15.842560,1.633970,-47.059265,,,,,,,
1522139268.480550,-0.081518,0.031499,-1.171106,-0.019004,-0.021887,-0.003108,-0.081388,-0.031494,-0.996185,0.056317,0.006713,-0.133713,14.565369,1.414717,-47.059021,,,,,,,
1522139268.510518,-0.082966,0.031040,-1.170221,-0.021291,-0.062228,-0.008394,-0.082831,-0.031035,-0.996080,0.032416,-0.001360,-0.031981,15.247086,1.862028,-46.685486,,,,,,,
1522139268.540486,-0.084764,0.030735,-1.169903,-0.013817,-0.063300,-0.009454,-0.084623,-0.030730,-0.995939,0.029905,0.003082,-0.071505,15.921005,1.933683,-46.985474,,,,,,,
1522139268.570455,-0.086749,0.030345,-1.168982,-0.014887,-0.059063,-0.006267,-0.086600,-0.030341,-0.995781,0.006156,-0.024988,-0.040657,14.802200,2.014631,-46.086304,,,,,,,
,,,,,,,,,,,,,,,,25.306101,51.445722,10.999998,-1.000000,-1.000000,1522139268.533090,
1522139268.600423,-0.088488,0.029722,-1.168784,-0.033021,-0.060063,-0.009472,-0.088334,-0.029718,-0.995647,0.022324,-0.011008,-0.045185,14.427063,2.091154,-46.236816,,,,,,,
1522139268.630391,-0.089547,0.028976,-1.168651,-0.017921,-0.028222,-0.010554,-0.089389,-0.028972,-0.995575,0.002964,0.016079,-0.164550,15.548416,1.860884,-46.460327,,,,,,,
1522139268.660359,-0.090207,0.028243,-1.167962,-0.015940,-0.063266,-0.012657,-0.090049,-0.028240,-0.995537,-0.027658,-0.029347,-0.206718,15.102646,2.013350,-46.011169,,,,,,,
1522139268.690328,-0.089956,0.027633,-1.167892,-0.026142,0.038764,-0.013823,-0.089801,-0.027629,-0.995576,0.047900,0.014492,0.054811,15.250244,1.862532,-46.160522,,,,,,,
1522139268.720296,-0.089132,0.027007,-1.167184,-0.017693,0.022787,-0.010608,-0.088981,-0.027003,-0.995667,0.026481,-0.001332,-0.046569,16.006638,2.459196,-46.087463,,,,,,,
1522139268.750264,-0.087948,0.026398,-1.166990,-0.017579,0.047220,-0.010628,-0.087804,-0.026394,-0.995788,0.008367,0.047085,-0.010255,15.103394,2.088346,-46.011475,,,,,,,
1522139268.780232,-0.086816,0.026151,-1.166198,-0.001728,0.011070,-0.011653,-0.086677,-0.026148,-0.995893,0.009941,-0.005163,0.045805,15.778503,2.235075,-46.236755,,,,,,,
1522139268.810201,-0.085543,0.025819,-1.165801,-0.017526,0.067373,-0.004260,-0.085410,-0.025816,-0.996011,0.102241,0.037504,0.095148,16.074585,1.933592,-46.385315,,,,,,,
1522139268.840169,-0.084493,0.025572,-1.164884,0.008916,0.005695,-0.008434,-0.084365,-0.025569,-0.996107,0.034987,0.034709,-0.016375,15.401581,2.086699,-46.311279,,,,,,,
1522139268.870137,-0.083678,0.025770,-1.164474,-0.002698,0.040769,-0.004222,-0.083553,-0.025767,-0.996170,0.038860,0.024897,0.066635,15.852615,2.009977,-46.010742,,,,,,,
1522139268.900105,-0.083069,0.025959,-1.163454,0.021646,-0.010276,-0.007348,-0.082946,-0.025956,-0.996216,0.064513,0.042527,-0.003769,16.076233,2.008741,-46.235657,,,,,,,
1522139268.930074,-0.082792,0.026784,-1.163048,0.028093,-0.004957,-0.010545,-0.082668,-0.026781,-0.996217,0.051754,-0.010389,0.041429,15.699905,2.010206,-46.460876,,,,,,,
1522139268.960011,-0.082604,0.027556,-1.162555,0.035541,-0.003946,-0.005216,-0.082479,-0.027553,-0.996212,0.051641,0.078838,0.016796,16.298080,2.007215,-46.760498,,,,,,,
1522139268.989980,-0.082601,0.028700,-1.161590,0.038705,-0.017740,-0.009460,-0.082473,-0.028696,-0.996180,0.034759,-0.022848,-0.050085,16.821396,1.929716,-46.909973,,,,,,,
1522139269.019948,-0.082836,0.029428,-1.161183,0.024863,-0.010275,-0.009473,-0.082706,-0.029424,-0.996140,0.023608,0.056508,0.032333,16.070679,1.858091,-46.910095,,,,,,,
1522139269.049916,-0.082874,0.030160,-1.160310,0.022697,-0.015571,-0.009477,-0.082741,-0.030155,-0.996115,0.017846,-0.019954,-0.045160,15.771606,1.859587,-46.760193,,,,,,,
1522139269.079884,-0.083206,0.030382,-1.159966,0.002381,-0.017661,-0.006298,-0.083072,-0.030377,-0.996080,0.036380,0.031979,-0.049314,15.997498,2.083342,-46.986023,,,,,,,
1522139269.109853,-0.083631,0.030669,-1.159032,0.020550,-0.017704,-0.008407,-0.083495,-0.030664,-0.996036,0.018141,-0.015051,-0.014446,15.766068,1.484312,-47.058716,,,,,,,
1522139269.139821,-0.084046,0.031322,-1.158751,0.010957,-0.015549,-0.009481,-0.083906,-0.031317,-0.995981,0.030363,0.022879,0.063593,15.015961,1.337919,-46.833496,,,,,,,
1522139269.169789,-0.084074,0.031584,-1.158032,0.015333,0.002549,-0.014828,-0.083933,-0.031579,-0.995971,0.034327,0.012871,-0.029404,15.245590,1.712034,-46.684875,,,,,,,
1522139269.199758,-0.084104,0.031805,-1.157828,-0.005019,-0.006992,-0.010572,-0.083963,-0.031800,-0.995961,0.047006,-0.039871,0.027089,14.944550,1.563459,-46.609436,,,,,,,
1522139269.229726,-0.084012,0.031642,-1.157093,0.002523,0.003632,-0.013770,-0.083871,-0.031637,-0.995974,0.019204,0.045171,-0.042737,15.620712,1.860121,-46.910278,,,,,,,
1522139269.259694,-0.083612,0.031645,-1.156932,-0.003865,0.008955,-0.012716,-0.083473,-0.031640,-0.996008,0.027641,-0.039253,-0.022578,15.472824,1.936003,-46.685669,,,,,,,
1522139269.289649,-0.083114,0.031540,-1.156830,-0.003816,0.012169,-0.018039,-0.082977,-0.031535,-0.996052,0.032684,0.041636,-0.009410,15.096939,1.712919,-46.459961,,,,,,,
1522139269.319618,-0.082943,0.031628,-1.156135,-0.003858,0.009996,-0.011642,-0.082807,-0.031622,-0.996064,0.083081,-0.012140,0.046296,14.499649,2.165312,-46.762085,,,,,,,
