timestamp(unix),attitude_roll(radians),attitude_pitch(radians),attitude_yaw(radians),rotation_rate_x(radians/s),rotation_rate_y(radians/s),rotation_rate_z(radians/s),gravity_x(G),gravity_y(G),gravity_z(G),user_acc_x(G),user_acc_y(G),user_acc_z(G),magnetic_field_x(microteslas),magnetic_field_y(microteslas),magnetic_field_z(microteslas),latitude(degree),longitude(degree),altitude(meter),speed(m/s),course(degree),timestamp(unix),User Mark
1523694984.864561,-0.575509,-0.072592,-0.621551,0.351486,0.075284,-0.393384,-0.542824,0.072529,-0.836699,-0.012351,0.089276,-0.031267,2.215485,24.507130,13.033875,,,,,,,
,,,,,,,,,,,,,,,,25.301192,51.439058,14.716021,2.160000,46.757812,1523694983.996101,
1523694984.894529,-0.575374,-0.056949,-0.624380,0.342193,-0.018619,-0.332570,-0.543262,0.056918,-0.837622,-0.012128,0.054883,-0.013345,2.361710,24.580723,12.283630,,,,,,,
1523694984.924497,-0.575371,-0.050383,-0.628434,-0.060874,0.062955,-0.155005,-0.543451,0.050361,-0.837919,0.008325,0.045739,0.018599,2.590302,24.804920,12.507935,,,,,,,
1523694984.954466,-0.573885,-0.053899,-0.635643,-0.272564,0.015560,-0.140197,-0.542106,0.053873,-0.838572,-0.048043,-0.018808,0.037272,1.539322,24.659718,12.582886,,,,,,,
1523694984.984434,-0.573677,-0.058971,-0.643140,-0.261884,0.050389,-0.110389,-0.541776,0.058937,-0.838444,-0.042437,-0.071678,-0.005794,1.540665,24.659946,12.807922,,,,,,,
1523694985.014402,-0.572509,-0.065105,-0.650444,-0.330368,0.031356,-0.098704,-0.540591,0.065059,-0.838757,-0.047727,-0.014644,-0.085926,1.387222,24.360554,12.734070,,,,,,,
1523694985.044371,-0.575022,-0.069970,-0.659089,-0.225883,-0.123307,-0.203957,-0.542518,0.069913,-0.837120,-0.035134,0.041248,-0.053963,1.318359,24.661396,13.257874,,,,,,,
,,,,,,,,,,,,,,,,25.301225,51.439081,14.615313,2.130000,61.171875,1523694984.996086,
1523694985.074339,-0.582268,-0.064859,-0.666825,0.163857,-0.278427,-0.345226,-0.548759,0.064813,-0.833455,-0.011559,0.017142,0.038853,1.161774,24.586124,12.283020,,,,,,,
1523694985.104307,-0.592109,-0.050415,-0.670531,0.401698,-0.349052,-0.358832,-0.557398,0.050394,-0.828704,0.007121,-0.073206,0.080535,0.783493,24.662144,11.607544,,,,,,,
1523694985.134275,-0.602225,-0.037660,-0.672067,0.219718,-0.298544,-0.223695,-0.566071,0.037651,-0.823486,-0.007858,-0.112144,0.088165,0.557571,24.663013,11.457397,,,,,,,
1523694985.164244,-0.609168,-0.038844,-0.676243,-0.360568,-0.160505,-0.002641,-0.571748,0.038834,-0.819498,-0.007826,-0.129135,0.088694,1.832520,24.881901,11.082153,,,,,,,
1523694985.194212,-0.609957,-0.055226,-0.685120,-0.743124,0.114985,0.093761,-0.571954,0.055198,-0.818416,-0.022437,-0.099036,0.061565,1.537643,25.033833,11.681458,,,,,,,
1523694985.224180,-0.606657,-0.071252,-0.695539,-0.505448,0.098356,-0.044560,-0.568672,0.071192,-0.819467,-0.034340,-0.073206,0.041558,1.393051,25.035374,12.581360,,,,,,,
1523694985.254148,-0.604783,-0.075848,-0.704871,-0.192734,0.086188,-0.238243,-0.566944,0.075775,-0.820253,-0.036343,-0.058685,0.038072,1.241714,24.811207,12.732178,,,,,,,
1523694985.284117,-0.604233,-0.071953,-0.714053,-0.040770,0.036643,-0.348895,-0.566656,0.071891,-0.820802,-0.048640,0.003594,0.075395,0.495926,25.189640,12.805298,,,,,,,
1523694985.314085,-0.604441,-0.067706,-0.722546,-0.087270,0.020112,-0.248748,-0.566995,0.067655,-0.820927,-0.039190,0.001605,0.101445,0.274689,25.341007,13.179565,,,,,,,
1523694985.344053,-0.602057,-0.073307,-0.730530,-0.534146,0.175685,-0.000966,-0.564813,0.073242,-0.821951,-0.021597,-0.000350,0.017081,1.481552,25.711094,13.703674,,,,,,,
1523694985.374021,-0.595812,-0.097369,-0.743003,-1.139662,0.350207,0.177416,-0.558518,0.097215,-0.823765,-0.029250,0.017302,-0.040050,0.435669,25.491856,14.754089,,,,,,,
1523694985.403990,-0.585100,-0.128880,-0.759154,-1.032979,0.461117,0.083613,-0.547698,0.128524,-0.826736,-0.036516,0.054459,-0.145722,0.887146,25.415211,15.129639,,,,,,,
1523694985.433958,-0.579627,-0.140516,-0.770523,-0.168706,-0.024432,-0.231718,-0.542309,0.140054,-0.828413,-0.085865,0.038001,-0.237459,1.269333,25.414677,16.329773,,,,,,,
1523694985.463926,-0.588987,-0.130320,-0.777348,0.293201,-0.350380,-0.435621,-0.550804,0.129951,-0.824446,-0.061928,0.030312,-0.089693,0.742554,25.416752,16.029480,,,,,,,
1523694985.493894,-0.599005,-0.117404,-0.784509,0.136494,-0.269404,-0.411310,-0.559934,0.117134,-0.820204,-0.043627,0.041466,-0.000856,-0.007263,25.569904,15.803528,,,,,,,
1523694985.523863,-0.605628,-0.110328,-0.792084,0.038229,-0.136091,-0.292191,-0.565812,0.110104,-0.817139,-0.045470,0.064014,0.023361,0.370865,25.793354,15.952820,,,,,,,
1523694985.553831,-0.609292,-0.103794,-0.796346,0.121290,-0.091201,-0.209053,-0.569202,0.103608,-0.815633,-0.033017,0.009262,-0.033534,-0.378525,26.171192,15.425964,,,,,,,
1523694985.583799,-0.613415,-0.098087,-0.799302,0.086642,-0.162539,-0.177037,-0.572891,0.097930,-0.813749,-0.018174,-0.040954,-0.023928,0.070587,25.944401,15.652039,,,,,,,
1523694985.613768,-0.619647,-0.093584,-0.802203,0.072478,-0.219911,-0.172730,-0.578201,0.093448,-0.810514,-0.019989,-0.074786,-0.020846,-0.001740,26.169804,15.726135,,,,,,,
1523694985.643736,-0.626706,-0.087069,-0.805509,0.162663,-0.209948,-0.261116,-0.584253,0.086959,-0.806888,-0.013556,-0.098266,0.009921,-0.524918,26.397083,15.649963,,,,,,,
1523694985.673704,-0.631654,-0.076324,-0.808974,0.241278,-0.115233,-0.309103,-0.588756,0.076250,-0.804695,-0.006184,-0.078981,-0.008721,-1.199020,26.849506,15.047852,,,,,,,
1523694985.703672,-0.636760,-0.064536,-0.812052,0.253522,-0.232202,-0.301519,-0.593350,0.064491,-0.802345,-0.000751,-0.053764,-0.042641,-0.151901,26.694569,14.823914,,,,,,,
1523694985.733641,-0.647149,-0.052847,-0.814299,0.229088,-0.374921,-0.244926,-0.602067,0.052823,-0.796684,-0.012771,-0.073330,0.020699,-1.651855,26.925953,14.447266,,,,,,,
1523694985.763609,-0.658182,-0.046916,-0.817148,0.000265,-0.355824,-0.160930,-0.611000,0.046898,-0.790227,0.001152,-0.113686,0.137898,-1.804230,26.776478,14.297791,,,,,,,
1523694985.793577,-0.662109,-0.048968,-0.822235,-0.343414,0.063836,-0.027362,-0.614038,0.048949,-0.787744,-0.024084,-0.093626,0.180307,-2.100479,27.152821,14.296143,,,,,,,
1523694985.823545,-0.652058,-0.066881,-0.834559,-0.997400,0.539656,0.084624,-0.605461,0.066831,-0.793051,-0.027962,-0.052824,0.073584,-1.799576,26.926991,14.822205,,,,,,,
1523694985.853514,-0.636981,-0.100826,-0.856150,-1.535452,0.588616,0.114001,-0.591744,0.100656,-0.799805,0.016961,-0.042459,0.102219,-2.319168,26.930225,15.721924,,,,,,,
1523694985.883482,-0.620528,-0.139046,-0.880796,-1.340749,0.605514,0.057667,-0.575847,0.138598,-0.805712,0.017360,0.001844,-0.043501,-2.163559,26.181705,17.899963,,,,,,,
1523694985.913450,-0.613415,-0.158661,-0.896742,-0.432198,0.124383,-0.145754,-0.568427,0.157996,-0.807409,-0.036782,0.025537,-0.156062,-1.937241,26.180912,18.125122,,,,,,,
1523694985.943418,-0.615466,-0.152466,-0.902736,0.311763,-0.154465,-0.346304,-0.570636,0.151876,-0.807025,-0.041394,0.057749,-0.096601,-2.761154,26.334538,18.049133,,,,,,,
1523694985.973402,-0.621773,-0.137172,-0.904559,0.352081,-0.183407,-0.323874,-0.577000,0.136743,-0.805204,-0.020580,0.044669,0.037290,-1.784241,26.704838,17.748108,,,,,,,
1523694986.003370,-0.624481,-0.129128,-0.908122,-0.023561,0.000488,-0.199672,-0.579803,0.128770,-0.804505,-0.032151,0.030303,0.073914,-3.061005,26.710285,17.447388,,,,,,,
1523694986.033338,-0.623675,-0.132109,-0.915240,-0.285288,0.067442,-0.110417,-0.578928,0.131725,-0.804656,-0.041388,-0.029125,-0.000397,-3.059509,26.635654,17.822693,,,,,,,
,,,,,,,,,,,,,,,,25.301269,51.439107,15.038590,2.120000,72.773438,1523694985.996072,
1523694986.063306,-0.624680,-0.135184,-0.920926,-0.092751,-0.064949,-0.088832,-0.579496,0.134772,-0.803742,-0.053865,-0.065680,-0.052047,-2.983307,26.710392,17.897461,,,,,,,
1523694986.093275,-0.627329,-0.133539,-0.923101,0.064221,-0.065276,-0.096183,-0.581753,0.133143,-0.802382,-0.056400,-0.057917,-0.037110,-2.978973,27.010593,18.121277,,,,,,,
1523694986.123243,-0.629340,-0.129454,-0.923952,0.081474,-0.029196,-0.096202,-0.583681,0.129093,-0.801644,-0.028319,-0.071903,-0.013511,-3.731339,26.863834,17.971497,,,,,,,
1523694986.153211,-0.629510,-0.127126,-0.926262,-0.030433,-0.020185,-0.128266,-0.583992,0.126783,-0.801785,0.001656,-0.083433,0.033338,-2.746933,27.759464,18.043396,,,,,,,
1523694986.183179,-0.632452,-0.122902,-0.930345,0.089351,-0.088856,-0.227204,-0.586660,0.122593,-0.800489,0.007375,-0.099156,0.111539,-3.653046,27.463017,17.519104,,,,,,,
1523694986.213148,-0.636028,-0.113440,-0.934151,0.211427,-0.092917,-0.298494,-0.590181,0.113196,-0.799283,0.013582,-0.123618,0.149350,-3.650345,27.688084,17.593262,,,,,,,
1523694986.243116,-0.637243,-0.105367,-0.938006,0.015007,0.024837,-0.201791,-0.591676,0.105172,-0.799274,-0.025679,-0.124917,0.117068,-2.748901,28.058659,17.217224,,,,,,,
1523694986.273084,-0.633474,-0.111657,-0.946020,-0.591346,0.275723,-0.002177,-0.588256,0.111425,-0.800949,-0.054657,-0.133062,0.057556,-3.872635,27.689533,18.043152,,,,,,,
1523694986.303053,-0.624934,-0.136651,-0.960566,-1.184551,0.324944,0.161413,-0.579584,0.136226,-0.803433,-0.060583,-0.096080,-0.046695,-4.097916,27.166370,18.870117,,,,,,,
1523694986.333021,-0.620493,-0.168436,-0.977149,-1.070982,0.183276,0.169103,-0.573203,0.167641,-0.802070,-0.029993,-0.043892,0.030051,-3.487411,27.315128,20.369812,,,,,,,
1523694986.362989,-0.619297,-0.185720,-0.987079,-0.370269,0.061566,0.002457,-0.570475,0.184654,-0.800276,-0.048284,-0.009880,0.007307,-4.155792,27.394108,21.344177,,,,,,,
1523694986.392957,-0.617255,-0.184985,-0.991006,0.077541,0.196625,-0.172090,-0.568918,0.183931,-0.801550,-0.056906,0.017408,-0.063272,-3.552963,27.541630,21.568848,,,,,,,
1523694986.422926,-0.610734,-0.177966,-1.001014,0.083499,0.189005,-0.298881,-0.564406,0.177028,-0.806281,-0.038973,0.091191,-0.147058,-3.400589,27.691090,21.718323,,,,,,,
1523694986.452894,-0.610905,-0.169043,-1.014131,0.150291,-0.047350,-0.410466,-0.565427,0.168239,-0.807446,-0.003023,0.157292,-0.054401,-4.301270,27.844761,21.342285,,,,,,,
1523694986.482862,-0.614379,-0.156487,-1.031157,0.287590,-0.100036,-0.371946,-0.569402,0.155849,-0.807140,-0.024119,0.121464,-0.044194,-4.901733,28.072025,20.891052,,,,,,,
1523694986.512830,-0.618496,-0.142268,-1.039302,0.356784,-0.107844,-0.342062,-0.573947,0.141789,-0.806512,0.002429,0.034862,-0.010276,-4.677612,27.846226,21.117126,,,,,,,
1523694986.542799,-0.619376,-0.127926,-1.051891,0.350678,0.020350,-0.286780,-0.575778,0.127578,-0.807580,-0.020581,-0.053679,-0.024451,-5.958282,27.776173,20.291748,,,,,,,
1523694986.572767,-0.616808,-0.116889,-1.057485,0.254537,0.136710,-0.177222,-0.574482,0.116623,-0.810155,-0.036739,-0.097412,-0.069697,-6.112320,27.551563,19.992554,,,,,,,
1523694986.602735,-0.612954,-0.109878,-1.057274,0.142948,0.097158,-0.104805,-0.571812,0.109657,-0.813012,-0.077694,-0.131340,-0.069358,-6.563202,27.778065,19.466431,,,,,,,
1523694986.632703,-0.612534,-0.106654,-1.058611,-0.010406,-0.038540,-0.094135,-0.571671,0.106452,-0.813537,-0.062424,-0.107551,-0.043961,-6.938950,27.929386,19.090637,,,,,,,
1523694986.662672,-0.614490,-0.106213,-1.062480,-0.083994,-0.040375,-0.110166,-0.573287,0.106013,-0.812456,-0.089310,-0.080272,0.008531,-5.813995,27.924320,19.091187,,,,,,,
1523694986.692640,-0.615995,-0.105858,-1.065665,-0.044733,-0.032332,-0.057939,-0.574531,0.105660,-0.811623,-0.070900,-0.114922,0.016869,-6.188980,27.926014,19.091003,,,,,,,
1523694986.722608,-0.616299,-0.106493,-1.067150,-0.051288,-0.000823,-0.002570,-0.574740,0.106292,-0.811393,-0.023451,-0.125884,0.027350,-6.792694,27.778355,18.716309,,,,,,,
1523694986.752576,-0.617735,-0.106163,-1.068763,-0.024351,-0.047057,-0.087738,-0.575924,0.105964,-0.810595,0.045101,-0.139106,0.092074,-5.438416,28.072483,18.940796,,,,,,,
1523694986.782545,-0.618089,-0.107022,-1.071890,-0.171569,0.062284,-0.018707,-0.576158,0.106818,-0.810317,0.014940,-0.174674,0.108535,-7.691010,27.857548,18.865540,,,,,,,
1523694986.812543,-0.616245,-0.114434,-1.076870,-0.445057,0.091248,0.038603,-0.574190,0.114184,-0.810710,0.038805,-0.194736,0.094737,-6.559311,28.078205,19.615234,,,,,,,
1523694986.842512,-0.613514,-0.131594,-1.086925,-0.808997,0.168380,0.078744,-0.570761,0.131214,-0.810553,0.014258,-0.187016,0.078116,-5.956802,28.150791,19.915222,,,,,,,
1523694986.872480,-0.609741,-0.155603,-1.100262,-0.905082,0.191876,0.096758,-0.565731,0.154975,-0.809884,-0.002384,-0.137855,0.032220,-6.177261,27.927906,21.041016,,,,,,,
1523694986.902448,-0.606442,-0.172873,-1.111013,-0.493602,0.176625,0.003318,-0.561447,0.172013,-0.809426,-0.046906,-0.096940,-0.012839,-6.476929,27.779560,21.341431,,,,,,,
1523694986.932417,-0.601047,-0.179477,-1.116672,-0.180360,0.233433,-0.026339,-0.556418,0.178515,-0.811489,-0.057840,-0.004503,-0.103871,-5.421280,28.075260,21.790833,,,,,,,
1523694986.962361,-0.597370,-0.179167,-1.119691,0.003022,0.060472,-0.126188,-0.553461,0.178209,-0.813575,-0.039999,0.020826,-0.083184,-6.095642,27.778889,22.391663,,,,,,,
1523694986.992329,-0.599637,-0.174593,-1.123327,0.089288,-0.091058,-0.216544,-0.555758,0.173707,-0.812983,-0.012037,0.052276,0.031290,-6.169144,27.929218,22.390991,,,,,,,
1523694987.022297,-0.601380,-0.166521,-1.126878,0.188247,0.030064,-0.250683,-0.557950,0.165753,-0.813142,-0.019336,0.035816,0.010240,-5.641617,28.226765,22.315063,,,,,,,
1523694987.052266,-0.598038,-0.158130,-1.128922,0.208832,0.151902,-0.204981,-0.555993,0.157471,-0.816123,-0.049201,0.034942,-0.108453,-6.693985,28.081364,22.165161,,,,,,,
,,,,,,,,,,,,,,,,25.301261,51.439100,15.058809,1.590000,83.671875,1523694986.996058,
1523694987.082234,-0.597495,-0.148365,-1.129571,0.286850,-0.074608,-0.208950,-0.556388,0.147821,-0.817658,-0.054605,0.034567,-0.097305,-6.692657,28.306202,22.014221,,,,,,,
1523694987.112202,-0.602761,-0.137046,-1.129500,0.336018,-0.247162,-0.166127,-0.561598,0.136617,-0.816043,-0.048402,0.030726,0.010134,-6.468109,28.529728,21.563416,,,,,,,
1523694987.142170,-0.611653,-0.123826,-1.126544,0.493838,-0.319632,-0.191510,-0.569820,0.123510,-0.812424,0.043422,-0.052343,0.099701,-7.067047,28.682362,21.487549,,,,,,,
1523694987.172139,-0.618537,-0.107331,-1.121653,0.559503,-0.198662,-0.190521,-0.576502,0.107125,-0.810032,0.036875,-0.105355,0.125675,-7.592331,29.059040,20.810730,,,,,,,
1523694987.202107,-0.623046,-0.092268,-1.125097,0.437899,-0.140139,-0.159764,-0.581024,0.092138,-0.808643,0.012985,-0.111455,0.155674,-7.069336,29.355869,19.984863,,,,,,,
1523694987.232075,-0.623196,-0.084037,-1.128702,0.074481,0.108801,-0.071849,-0.581568,0.083938,-0.809144,-0.071554,-0.038971,0.097688,-7.670044,29.283558,19.984863,,,,,,,
1523694987.262043,-0.614135,-0.093143,-1.145149,-0.729778,0.443478,0.068927,-0.573748,0.093009,-0.813723,-0.078855,0.050912,-0.043272,-8.272095,28.761799,20.511597,,,,,,,
1523694987.292012,-0.605234,-0.123584,-1.164206,-1.358043,0.213765,0.166723,-0.564611,0.123269,-0.816090,-0.028056,0.092414,-0.080181,-7.741730,29.209568,20.660095,,,,,,,
1523694987.321980,-0.609859,-0.158874,-1.181659,-1.116453,-0.119909,0.233310,-0.565533,0.158206,-0.809398,-0.002658,0.036099,-0.057774,-8.188828,28.463306,22.387878,,,,,,,
1523694987.351948,-0.606604,-0.178266,-1.186615,-0.328592,0.316044,0.216408,-0.561041,0.177323,-0.808562,-0.059794,-0.056840,-0.213686,-7.215942,27.934452,22.915466,,,,,,,
1523694987.381916,-0.599618,-0.183843,-1.185284,-0.067365,0.096291,0.094289,-0.554812,0.182809,-0.811632,-0.032407,-0.117212,-0.174513,-7.596481,27.560871,22.616821,,,,,,,
1523694987.411885,-0.599545,-0.186410,-1.186528,-0.115392,-0.063035,-0.048374,-0.554486,0.185332,-0.811282,0.004773,-0.164153,-0.032620,-7.740173,28.011814,22.914917,,,,,,,
1523694987.441853,-0.604683,-0.186524,-1.192039,-0.072172,-0.124791,-0.198513,-0.558635,0.185444,-0.808405,-0.023793,-0.197392,0.113886,-8.042419,28.012806,22.539734,,,,,,,
1523694987.471821,-0.605177,-0.185028,-1.197969,-0.089477,0.084439,-0.178486,-0.559192,0.183974,-0.808356,-0.053632,-0.178740,0.051886,-7.215652,28.009373,22.840149,,,,,,,
1523694987.501790,-0.603070,-0.185527,-1.203418,-0.121679,0.137108,-0.100783,-0.557435,0.184465,-0.809457,-0.105300,-0.137773,-0.039817,-7.819244,27.562244,22.991699,,,,,,,
1523694987.531758,-0.598520,-0.187138,-1.205483,-0.016685,0.139068,0.036749,-0.553578,0.186047,-0.811739,-0.110240,-0.068570,-0.148710,-8.190140,27.789219,23.290588,,,,,,,
1523694987.561726,-0.596235,-0.182678,-1.200204,0.377277,-0.038672,0.089430,-0.552183,0.181664,-0.813680,-0.115832,-0.037179,-0.136287,-7.365051,28.159901,22.689453,,,,,,,
1523694987.591694,-0.597899,-0.168828,-1.193711,0.748941,-0.109148,0.006666,-0.554899,0.168027,-0.814762,0.032453,-0.077481,0.044406,-7.965485,28.387150,22.238281,,,,,,,
1523694987.621663,-0.596719,-0.144049,-1.185317,0.991138,-0.097984,-0.156189,-0.556107,0.143552,-0.818609,0.028107,-0.106213,0.050222,-8.190796,28.762486,21.561646,,,,,,,
1523694987.651631,-0.604374,-0.118587,-1.184789,0.787451,-0.363689,-0.227466,-0.564251,0.118310,-0.817072,0.061504,-0.147225,0.144403,-7.816742,29.209904,20.660095,,,,,,,
1523694987.681599,-0.609425,-0.101394,-1.185031,0.340330,-0.002790,-0.165295,-0.569451,0.101221,-0.815759,0.021920,-0.148126,0.077569,-7.964935,29.435490,20.584106,,,,,,,
1523694987.711567,-0.602515,-0.103794,-1.199373,-0.523581,0.343810,-0.038419,-0.563662,0.103608,-0.819472,0.023958,-0.112015,-0.002397,-7.137711,29.432148,20.959534,,,,,,,
1523694987.741536,-0.593484,-0.122711,-1.217931,-0.879374,0.348576,0.014586,-0.555043,0.122404,-0.822757,-0.035717,-0.066190,0.035098,-7.435455,29.209232,21.710266,,,,,,,
1523694987.771504,-0.587155,-0.148765,-1.242342,-1.079184,0.194335,0.111539,-0.547871,0.148217,-0.823318,-0.025859,-0.049721,0.057632,-8.178772,28.839314,23.436340,,,,,,,
1523694987.801472,-0.584318,-0.179109,-1.261146,-1.079493,0.229801,0.204215,-0.542802,0.178153,-0.820738,-0.010970,-0.013449,0.101866,-8.250763,28.690388,24.186890,,,,,,,
1523694987.831440,-0.576388,-0.208028,-1.273972,-0.919064,0.368142,0.270257,-0.533244,0.206531,-0.820353,-0.016560,-0.026599,-0.047567,-7.048279,28.760273,24.487305,,,,,,,
1523694987.861409,-0.569508,-0.226427,-1.279644,-0.332874,0.158668,0.082306,-0.525450,0.224497,-0.820663,0.026457,-0.024607,-0.097932,-8.318542,28.467258,25.762756,,,,,,,
1523694987.891377,-0.569888,-0.223108,-1.280035,0.271555,-0.065555,-0.132243,-0.526161,0.221262,-0.821086,-0.004845,-0.043909,-0.072606,-8.091309,28.691242,25.762024,,,,,,,
1523694987.921345,-0.573920,-0.215893,-1.280800,0.067139,-0.199801,-0.157847,-0.530320,0.214220,-0.820277,-0.001602,-0.041628,-0.043416,-8.697723,28.318516,25.313171,,,,,,,
1523694987.951310,-0.580450,-0.215761,-1.286504,-0.196254,-0.138555,-0.163419,-0.535680,0.214091,-0.816820,-0.048686,-0.014857,-0.009153,-9.068054,28.470707,25.837402,,,,,,,
1523694987.981279,-0.585881,-0.218139,-1.292622,-0.106951,-0.167804,-0.115374,-0.539825,0.216413,-0.813472,-0.074768,0.016710,-0.000050,-8.094604,28.765583,25.086731,,,,,,,
1523694988.011247,-0.588328,-0.210369,-1.292623,0.482135,-0.024520,-0.147056,-0.542731,0.208821,-0.813523,-0.067071,-0.017537,-0.047134,-8.467636,28.692707,25.536804,,,,,,,
1523694988.041215,-0.587260,-0.187586,-1.282968,0.976538,-0.022509,-0.156271,-0.544357,0.186488,-0.817851,-0.002334,-0.062785,0.024516,-9.074677,28.844013,24.110901,,,,,,,
,,,,,,,,,,,,,,,,25.301266,51.439128,15.039063,2.120000,89.648438,1523694987.996044,
1523694988.071183,-0.584767,-0.161859,-1.269004,0.843737,0.011109,-0.051994,-0.544786,0.161154,-0.822935,-0.017897,-0.028463,-0.041338,-8.102753,29.213520,22.984924,,,,,,,
1523694988.101152,-0.586677,-0.152261,-1.261981,0.052272,-0.191586,0.039259,-0.547188,0.151673,-0.823143,0.060798,-0.040147,-0.067665,-8.707962,28.915867,22.610840,,,,,,,
1523694988.131120,-0.595434,-0.156597,-1.265887,-0.211158,-0.271873,-0.085525,-0.554000,0.155958,-0.817768,0.042587,0.005755,0.073093,-8.930115,29.067081,22.835083,,,,,,,
1523694988.161088,-0.601270,-0.153003,-1.270711,0.148297,-0.070742,-0.254884,-0.559077,0.152407,-0.814978,-0.019735,-0.052813,0.077017,-8.257843,29.063618,22.385437,,,,,,,
1523694988.191057,-0.600297,-0.143841,-1.273353,0.155201,0.098900,-0.203904,-0.559049,0.143346,-0.816639,-0.045138,-0.063604,0.019505,-9.156296,28.993031,22.760254,,,,,,,
1523694988.221025,-0.596745,-0.142816,-1.277216,-0.210702,0.097719,-0.058192,-0.556227,0.142331,-0.818741,-0.100130,-0.045438,-0.130401,-8.856155,28.916828,22.910706,,,,,,,
1523694988.250993,-0.599523,-0.151823,-1.285294,-0.399364,-0.176713,0.050616,-0.557753,0.151241,-0.816101,-0.074739,-0.028957,-0.083740,-8.478485,29.140202,22.985046,,,,,,,
1523694988.280961,-0.603820,-0.159074,-1.292735,-0.151287,-0.055377,0.084782,-0.560618,0.158404,-0.812772,-0.029272,-0.080767,0.010633,-8.700165,29.291492,23.284302,,,,,,,
1523694988.310930,-0.605192,-0.161926,-1.300704,-0.009149,-0.041837,0.072095,-0.561472,0.161219,-0.811628,0.010005,-0.111811,0.045789,-8.401215,28.915607,23.735962,,,,,,,
1523694988.340898,-0.603650,-0.160038,-1.302923,0.141324,0.087990,-0.007841,-0.560392,0.159356,-0.812742,0.013059,-0.122384,-0.001818,-8.098541,29.363941,23.434265,,,,,,,
1523694988.370866,-0.600587,-0.156013,-1.309800,0.085849,0.077633,-0.025989,-0.558258,0.155381,-0.814977,0.002442,-0.087983,-0.106624,-8.552567,28.916065,23.510864,,,,,,,
1523694988.400834,-0.600924,-0.155934,-1.315824,-0.127199,-0.091632,-0.059001,-0.558540,0.155303,-0.814799,-0.004860,-0.046920,-0.070562,-8.627563,28.916401,23.510803,,,,,,,
1523694988.430803,-0.607762,-0.158267,-1.329492,-0.232183,-0.214365,-0.097314,-0.563890,0.157607,-0.810660,0.026765,-0.055572,0.051780,-7.723099,29.137699,23.885376,,,,,,,
1523694988.460771,-0.612776,-0.163397,-1.340965,-0.331039,-0.098378,-0.083662,-0.567475,0.162671,-0.807151,-0.005249,-0.082135,0.088431,-8.623505,28.917057,24.185791,,,,,,,
1523694988.490739,-0.615872,-0.169087,-1.356018,-0.224146,-0.050961,-0.065511,-0.569427,0.168283,-0.804621,0.009094,-0.119119,0.149073,-8.773483,28.693104,24.561646,,,,,,,
1523694988.520707,-0.615766,-0.169523,-1.360497,0.047594,0.091686,-0.047337,-0.569299,0.168712,-0.804622,-0.013922,-0.115535,0.130778,-7.948990,29.138569,23.735291,,,,,,,
1523694988.550676,-0.607954,-0.165709,-1.357999,0.175361,0.348961,0.039880,-0.563360,0.164952,-0.809567,-0.080317,-0.123051,-0.059574,-9.598007,28.921513,24.260315,,,,,,,
1523694988.580644,-0.595572,-0.167805,-1.355614,-0.209383,0.381101,0.139717,-0.553098,0.167018,-0.816193,-0.102771,-0.092708,-0.305359,-8.921539,29.068470,24.260071,,,,,,,
1523694988.610612,-0.594140,-0.178273,-1.358816,-0.338415,-0.159865,0.049587,-0.550919,0.177330,-0.815490,-0.054809,-0.010872,-0.202622,-8.397919,29.065891,24.035339,,,,,,,
1523694988.640580,-0.602219,-0.180493,-1.361639,0.061064,-0.273666,-0.078922,-0.557265,0.179514,-0.810686,-0.019395,0.012655,-0.031797,-9.371078,29.070576,24.334839,,,,,,,
1523694988.670549,-0.610150,-0.172800,-1.359488,0.345249,-0.244557,-0.088328,-0.564452,0.171942,-0.807349,0.026290,0.006037,0.075797,-9.517776,29.446156,24.258240,,,,,,,
1523694988.700517,-0.614204,-0.163718,-1.359705,0.219628,-0.128626,-0.058705,-0.568597,0.162988,-0.806297,0.051812,-0.041940,0.097709,-8.693283,29.666996,23.807800,,,,,,,
1523694988.730485,-0.618939,-0.164228,-1.365305,-0.223668,-0.130975,-0.020675,-0.572360,0.163491,-0.803527,0.057986,-0.139031,0.118362,-9.224838,29.144169,23.584656,,,,,,,
1523694988.760454,-0.621187,-0.172274,-1.373812,-0.383099,0.014027,-0.033726,-0.573380,0.171423,-0.801143,0.019410,-0.164648,0.074581,-9.226181,28.919315,23.735535,,,,,,,
1523694988.790422,-0.618900,-0.182238,-1.382054,-0.490075,0.220344,-0.020162,-0.570527,0.181231,-0.801021,-0.079543,-0.115038,-0.062229,-8.547012,29.066715,24.185242,,,,,,,
1523694988.820390,-0.612246,-0.195725,-1.392647,-0.610222,0.310029,-0.038455,-0.563729,0.194477,-0.802726,-0.131904,-0.029606,-0.174141,-9.890793,28.924030,25.460205,,,,,,,
1523694988.850358,-0.608032,-0.206443,-1.405065,-0.422190,0.139687,-0.209697,-0.559118,0.204980,-0.803338,-0.150934,0.023124,-0.087669,-9.965485,28.774677,25.760742,,,,,,,
1523694988.880327,-0.608815,-0.204837,-1.413003,0.172525,-0.072300,-0.193062,-0.559934,0.203408,-0.803169,0.007978,0.056846,0.044944,-9.139771,29.070576,25.384949,,,,,,,
1523694988.910295,-0.610472,-0.191172,-1.407492,0.704127,-0.060445,0.046018,-0.562805,0.190009,-0.804443,0.060181,0.053963,0.086654,-10.117279,28.999668,25.084778,,,,,,,
1523694988.940263,-0.608485,-0.173264,-1.392630,0.855995,-0.015390,0.236803,-0.563061,0.172398,-0.808222,0.032269,-0.020543,0.015559,-9.441284,29.371189,24.633606,,,,,,,
1523694988.970236,-0.603168,-0.164632,-1.382834,0.316783,0.047150,0.298141,-0.559580,0.163889,-0.812400,0.028314,-0.098459,-0.160974,-9.364197,29.895313,24.106567,,,,,,,
1523694989.000205,-0.607864,-0.165363,-1.381167,0.036762,-0.332793,0.026609,-0.563319,0.164610,-0.809665,0.013408,-0.117446,-0.055234,-9.438599,29.820866,24.331787,,,,,,,
1523694989.030173,-0.620724,-0.158270,-1.390621,0.217646,-0.388259,-0.310970,-0.574349,0.157610,-0.803283,0.020913,-0.141741,0.094436,-8.843872,29.742451,23.582397,,,,,,,
,,,,,,,,,,,,,,,,25.301270,51.439152,14.781859,2.180000,92.109375,1523694988.996029,
1523694989.060141,-0.627978,-0.149543,-1.399554,0.030876,-0.077838,-0.263480,-0.580947,0.148987,-0.800178,-0.021928,-0.149811,0.150932,-8.842224,29.817585,23.732178,,,,,,,
1523694989.090109,-0.624898,-0.151047,-1.414195,-0.336743,0.296889,-0.079795,-0.578348,0.150473,-0.801781,-0.105108,-0.100547,0.078652,-9.662979,29.747105,24.556946,,,,,,,
1523694989.120078,-0.615308,-0.165877,-1.426082,-0.696402,0.357825,0.147893,-0.569282,0.165118,-0.805380,-0.097024,-0.026797,-0.081400,-9.961151,29.524128,25.232788,,,,,,,
1523694989.150046,-0.609116,-0.183320,-1.440243,-0.457018,0.175489,0.152519,-0.562551,0.182295,-0.806404,-0.012385,0.008669,-0.072685,-10.107697,29.600239,25.682312,,,,,,,
1523694989.180014,-0.608656,-0.186809,-1.442098,0.197642,-0.099815,0.085087,-0.561813,0.185725,-0.806136,0.023666,-0.024561,-0.041169,-10.108749,29.674931,25.382080,,,,,,,
1523694989.209982,-0.610057,-0.178280,-1.437545,0.440472,-0.066015,0.026637,-0.563829,0.177337,-0.806617,0.005616,-0.091903,-0.096810,-10.111298,29.599659,25.082336,,,,,,,
1523694989.239951,-0.612156,-0.169069,-1.438550,0.250543,-0.131911,-0.054425,-0.566435,0.168265,-0.806735,0.002134,-0.129675,-0.049527,-10.262512,29.749882,24.631653,,,,,,,
1523694989.269919,-0.618577,-0.164500,-1.442748,0.046631,-0.245466,-0.154619,-0.572043,0.163759,-0.803699,0.009604,-0.114992,0.105198,-10.038879,29.973270,24.030945,,,,,,,
1523694989.299887,-0.622767,-0.162400,-1.451591,-0.127641,0.003238,-0.099597,-0.575604,0.161687,-0.801573,-0.042834,-0.128361,0.104994,-8.993698,29.443653,24.108582,,,,,,,
1523694989.329855,-0.617287,-0.170068,-1.457957,-0.487896,0.310175,0.049009,-0.570469,0.169249,-0.803680,-0.081814,-0.112532,-0.052094,-9.966415,29.448399,24.483093,,,,,,,
1523694989.359824,-0.612285,-0.184187,-1.465625,-0.556203,0.118826,0.084315,-0.565013,0.183147,-0.804488,-0.055562,-0.059337,-0.064897,-10.495255,28.701374,25.085754,,,,,,,
1523694989.389792,-0.611933,-0.196385,-1.472133,-0.381054,0.105801,0.062077,-0.563404,0.195125,-0.802798,0.012439,-0.036068,0.026004,-10.268188,29.000202,24.934631,,,,,,,
1523694989.419760,-0.606521,-0.202147,-1.475113,-0.146476,0.245641,0.038673,-0.558401,0.200773,-0.804898,0.027609,-0.035352,-0.001331,-9.738403,29.073490,25.609680,,,,,,,
1523694989.449729,-0.599390,-0.206772,-1.476261,-0.240829,0.223130,0.098306,-0.552117,0.205301,-0.808085,-0.007011,-0.023447,-0.132803,-9.741241,28.698658,25.761169,,,,,,,
1523694989.479697,-0.598364,-0.218913,-1.480611,-0.494230,-0.077026,0.110128,-0.549843,0.217169,-0.806531,-0.043861,-0.005697,-0.190234,-8.836029,28.994968,26.135437,,,,,,,
1523694989.509665,-0.605349,-0.227317,-1.485271,-0.114233,-0.269256,-0.038573,-0.554404,0.225364,-0.801142,-0.031487,-0.075965,0.000819,-9.213104,28.696812,26.286438,,,,,,,
1523694989.539633,-0.615147,-0.219903,-1.489850,0.392580,-0.289622,-0.194799,-0.563176,0.218135,-0.797014,0.010488,-0.147868,0.135149,-9.212067,29.071354,25.834900,,,,,,,
1523694989.569602,-0.619213,-0.202476,-1.489381,0.618995,-0.099593,-0.249167,-0.568533,0.201095,-0.797692,0.026663,-0.174271,0.189111,-8.614044,29.143208,25.384949,,,,,,,
1523694989.599570,-0.617939,-0.184226,-1.486110,0.557132,0.073844,-0.109797,-0.569547,0.183186,-0.801275,-0.018862,-0.161182,0.113897,-9.286484,29.446156,25.308350,,,,,,,
1523694989.629538,-0.611432,-0.177357,-1.487488,0.044670,0.284272,0.067552,-0.565031,0.176429,-0.805975,-0.081927,-0.095389,-0.097254,-9.809219,29.673512,25.307190,,,,,,,
1523694989.659506,-0.601922,-0.184918,-1.492482,-0.389840,0.285393,0.061899,-0.556569,0.183866,-0.810189,-0.123958,-0.010816,-0.202292,-8.984695,29.669727,25.232666,,,,,,,
1523694989.689475,-0.600002,-0.191597,-1.504564,-0.120483,-0.070126,-0.098437,-0.554307,0.190427,-0.810225,-0.000960,0.049243,-0.132768,-10.029846,29.525486,26.282715,,,,,,,
1523694989.719443,-0.608004,-0.183343,-1.507690,0.481866,-0.333680,-0.156329,-0.561651,0.182318,-0.807026,0.087652,0.065943,0.098072,-9.582413,29.448170,25.983276,,,,,,,
1523694989.749411,-0.612966,-0.163125,-1.505231,0.811516,-0.119034,-0.123259,-0.567653,0.162402,-0.807080,0.087261,0.019025,0.187222,-9.136810,30.044437,24.256042,,,,,,,
1523694989.779379,-0.610901,-0.144510,-1.497149,0.565304,0.114541,-0.005417,-0.567621,0.144008,-0.810586,0.074335,0.018361,0.069620,-10.560410,30.051075,24.480347,,,,,,,
1523694989.809348,-0.602183,-0.143017,-1.493871,-0.283016,0.339062,0.098156,-0.560655,0.142530,-0.815681,-0.038055,-0.065488,-0.207665,-10.264160,29.674732,24.481995,,,,,,,
1523694989.839316,-0.604319,-0.157986,-1.502371,-0.647176,-0.277704,-0.010182,-0.561121,0.157330,-0.812634,-0.081366,-0.085751,-0.179188,-9.587250,30.046391,24.180786,,,,,,,
1523694989.869284,-0.614908,-0.169502,-1.514383,-0.440273,-0.264427,-0.159212,-0.568611,0.168692,-0.805113,-0.047814,-0.106253,-0.041002,-10.337936,29.300892,25.308411,,,,,,,
1523694989.899252,-0.622561,-0.173431,-1.523686,-0.181292,-0.134350,-0.162345,-0.574364,0.172562,-0.800193,-0.052162,-0.097047,0.135398,-10.566818,29.001774,25.159546,,,,,,,
1523694989.929221,-0.622993,-0.174811,-1.526637,-0.062721,0.133724,0.056968,-0.574571,0.173922,-0.799751,-0.031295,-0.075563,0.078574,-9.814453,29.148548,25.309265,,,,,,,
1523694989.959164,-0.616029,-0.179199,-1.525929,-0.042180,0.174855,0.246600,-0.568540,0.178242,-0.803102,-0.043184,-0.089542,-0.081480,-10.640762,29.152027,25.083862,,,,,,,
1523694989.989132,-0.613512,-0.185046,-1.523386,-0.084832,-0.029189,0.264888,-0.565908,0.183992,-0.803665,-0.006419,-0.086930,-0.099290,-10.267120,28.925495,25.234985,,,,,,,
1523694990.019101,-0.617301,-0.191308,-1.526370,-0.141503,-0.178108,0.154188,-0.568271,0.190143,-0.800559,0.023837,-0.124973,-0.026391,-9.218216,28.770863,25.311096,,,,,,,
1523694990.049099,-0.621854,-0.194459,-1.527104,-0.066496,-0.098347,-0.033369,-0.571558,0.193236,-0.797472,0.012949,-0.106978,0.038943,-9.891541,28.849033,25.460449,,,,,,,
,,,,,,,,,,,,,,,,25.301271,51.439181,14.614427,2.920000,93.867188,1523694989.996015,
1523694990.079068,-0.623852,-0.190849,-1.529439,0.129690,-0.073470,-0.165373,-0.573554,0.189693,-0.796890,-0.020181,-0.112392,0.023574,-9.590195,28.847904,25.685608,,,,,,,
1523694990.109036,-0.625910,-0.181407,-1.529000,0.273774,-0.038999,-0.129087,-0.576216,0.180413,-0.797124,-0.038332,-0.107568,-0.022990,-9.292480,29.070820,24.934875,,,,,,,
1523694990.139004,-0.624442,-0.174331,-1.527207,0.157427,0.062689,-0.044022,-0.575777,0.173450,-0.798985,-0.062681,-0.117221,-0.065410,-9.440964,28.996861,25.310059,,,,,,,
1523694990.168972,-0.623748,-0.171649,-1.526300,0.016025,0.005377,-0.003579,-0.575493,0.170807,-0.799759,-0.016442,-0.114472,-0.002136,-9.667770,29.222202,24.634094,,,,,,,
1523694990.198941,-0.622818,-0.172505,-1.527704,-0.137343,0.088654,-0.004846,-0.574663,0.171651,-0.800174,-0.018461,-0.089498,0.055652,-9.737213,29.373188,25.308411,,,,,,,
1523694990.228909,-0.618808,-0.177100,-1.535313,-0.279691,0.206162,-0.042367,-0.570986,0.176176,-0.801822,-0.017713,-0.043119,0.048129,-9.962494,29.299274,25.383606,,,,,,,
1523694990.258877,-0.611749,-0.182134,-1.544576,-0.265120,0.339057,-0.058467,-0.564795,0.181129,-0.805096,-0.004129,-0.003043,0.020520,-9.661758,29.372929,25.383484,,,,,,,
1523694990.288845,-0.604610,-0.185651,-1.555253,-0.148531,0.172857,-0.037967,-0.558668,0.184586,-0.808579,-0.009081,0.015533,-0.051895,-10.110672,29.075626,26.059448,,,,,,,
1523694990.318814,-0.604954,-0.188443,-1.559196,-0.103282,-0.075658,0.078458,-0.558650,0.187330,-0.807960,-0.005085,-0.007459,-0.060204,-10.031631,29.300571,26.358643,,,,,,,
1523694990.348782,-0.608543,-0.194651,-1.564122,-0.179923,-0.167395,0.157334,-0.560872,0.193424,-0.804979,-0.019695,-0.081135,-0.070021,-10.482071,29.302509,26.283386,,,,,,,
1523694990.378750,-0.613682,-0.199251,-1.565098,0.004032,-0.179075,0.089298,-0.564482,0.197935,-0.801350,-0.037019,-0.147276,-0.071300,-9.209213,29.221561,26.059326,,,,,,,
1523694990.408718,-0.618593,-0.195140,-1.568066,0.213081,-0.180561,-0.075703,-0.568878,0.193903,-0.799225,-0.037445,-0.140498,0.011947,-9.957535,29.300083,26.208618,,,,,,,
1523694990.438687,-0.621055,-0.189594,-1.571387,0.044286,-0.020418,-0.122874,-0.571461,0.188460,-0.798684,-0.018932,-0.107451,0.071770,-10.108139,29.375538,25.983276,,,,,,,
1523694990.468655,-0.620375,-0.187816,-1.579359,-0.031426,0.082342,-0.051643,-0.571112,0.186713,-0.799344,-0.002970,-0.042289,0.022793,-10.559906,29.152637,26.058899,,,,,,,
1523694990.498623,-0.615962,-0.185093,-1.580333,0.234277,0.117410,0.006055,-0.567870,0.184038,-0.802268,-0.029725,-0.001696,-0.148660,-10.934616,29.453876,25.607544,,,,,,,
1523694990.528591,-0.615485,-0.171042,-1.578361,0.672964,-0.081352,-0.141529,-0.568924,0.170209,-0.804571,-0.007385,-0.006726,-0.044901,-10.115204,29.524143,24.557617,,,,,,,
1523694990.558560,-0.620297,-0.149240,-1.572877,0.722608,-0.295562,-0.222251,-0.574810,0.148687,-0.804653,0.048672,-0.048375,0.104946,-10.866379,29.677067,24.106689,,,,,,,
1523694990.588528,-0.627046,-0.133638,-1.573460,0.319293,-0.153765,-0.148097,-0.581518,0.133241,-0.802536,0.022406,-0.023652,0.151535,-10.795883,29.451374,23.732666,,,,,,,
1523694990.618496,-0.624947,-0.130582,-1.577314,-0.117390,0.211065,-0.041187,-0.580068,0.130211,-0.804082,-0.029689,-0.010476,0.012395,-10.116425,29.898319,23.731201,,,,,,,
1523694990.648465,-0.619735,-0.139502,-1.585269,-0.458797,0.146374,0.060919,-0.575172,0.139050,-0.806116,-0.064828,-0.036694,-0.120336,-10.192749,29.449192,24.257935,,,,,,,
1523694990.678433,-0.621000,-0.152066,-1.594159,-0.433247,-0.086519,0.078219,-0.575128,0.151480,-0.803904,-0.060797,-0.020178,-0.086171,-10.266388,29.225117,24.858826,,,,,,,
1523694990.708401,-0.624085,-0.162114,-1.598526,-0.292233,-0.058251,0.087888,-0.576688,0.161405,-0.800850,-0.016086,-0.040235,0.015267,-10.339279,29.300678,25.083435,,,,,,,
1523694990.738369,-0.624881,-0.168747,-1.599249,-0.153360,0.013322,0.135870,-0.576686,0.167947,-0.799505,-0.002217,-0.071466,0.013372,-10.337479,29.300968,25.383423,,,,,,,
1523694990.768338,-0.622491,-0.174715,-1.598142,-0.129551,0.084445,0.136886,-0.574178,0.173827,-0.800052,0.003973,-0.097167,0.024875,-10.037338,29.224766,25.533936,,,,,,,
1523694990.798306,-0.621552,-0.177297,-1.597069,0.018028,0.014705,0.029443,-0.573164,0.176370,-0.800224,0.014173,-0.128442,0.094764,-9.359375,29.521717,25.533081,,,,,,,
1523694990.828274,-0.619174,-0.175627,-1.596585,0.013377,0.118090,-0.013286,-0.571429,0.174725,-0.801823,0.022250,-0.156827,0.067601,-9.963242,28.999668,25.759827,,,,,,,
1523694990.858242,-0.615219,-0.179677,-1.603407,-0.279257,0.174666,0.053569,-0.567841,0.178712,-0.803493,-0.044556,-0.133225,-0.021077,-10.032684,29.375263,26.058289,,,,,,,
1523694990.888211,-0.611393,-0.188687,-1.610388,-0.330706,0.139679,0.061021,-0.563815,0.187570,-0.804308,-0.056912,-0.041192,-0.122694,-8.984970,29.145557,26.059692,,,,,,,
1523694990.918179,-0.608998,-0.192899,-1.618002,-0.078571,0.078005,-0.022902,-0.561431,0.191705,-0.805001,-0.083406,-0.011224,-0.161720,-10.178925,29.301670,26.808472,,,,,,,
1523694990.948147,-0.609847,-0.190449,-1.621988,0.091027,-0.063087,-0.115342,-0.562381,0.189300,-0.804907,-0.039106,-0.003585,-0.013163,-9.657242,29.149036,26.509399,,,,,,,
1523694990.978125,-0.610889,-0.186961,-1.624833,0.018106,-0.027442,-0.021659,-0.563595,0.185874,-0.804856,0.029369,-0.029792,0.041016,-9.356216,29.297596,26.433899,,,,,,,
1523694991.008095,-0.609673,-0.189880,-1.629320,-0.090851,0.076251,0.079385,-0.562302,0.188742,-0.805092,0.022904,-0.043005,-0.004966,-10.328629,29.601902,26.357300,,,,,,,
1523694991.038062,-0.608334,-0.187664,-1.629165,0.277551,-0.030189,-0.024662,-0.561462,0.186565,-0.806186,0.010116,-0.039943,-0.030591,-10.630417,29.378330,26.432983,,,,,,,
,,,,,,,,,,,,,,,,25.301277,51.439219,14.530066,3.510000,94.570312,1523694990.996000,
1523694991.068030,-0.609662,-0.175806,-1.629214,0.439127,-0.089275,-0.142751,-0.563759,0.174901,-0.807197,-0.036079,-0.097051,-0.013207,-9.882858,29.674076,25.532166,,,,,,,
1523694991.097998,-0.610964,-0.166359,-1.629862,0.111445,-0.048195,-0.125990,-0.565732,0.165593,-0.807780,-0.033267,-0.106831,-0.025564,-10.785965,29.228367,25.758484,,,,,,,
1523694991.127967,-0.614840,-0.169148,-1.638911,-0.354076,-0.153068,-0.007953,-0.568590,0.168343,-0.805200,-0.022536,-0.043236,0.044199,-10.259933,29.375919,25.683167,,,,,,,
1523694991.157935,-0.618818,-0.180870,-1.648316,-0.484154,-0.020475,0.071729,-0.570605,0.179885,-0.801269,-0.036146,-0.038589,0.078506,-9.360565,29.222019,25.834229,,,,,,,
1523694991.187903,-0.617238,-0.189934,-1.656332,-0.182535,0.123166,0.090979,-0.568371,0.188794,-0.800807,-0.017810,-0.011349,-0.010777,-10.635498,29.003132,26.209473,,,,,,,
1523694991.217871,-0.614363,-0.190338,-1.657619,0.073948,0.064725,-0.002525,-0.566022,0.189190,-0.802376,0.008283,-0.051754,0.034142,-10.184921,28.926334,26.434998,,,,,,,
1523694991.247840,-0.612146,-0.186045,-1.659676,0.189586,0.118766,-0.020614,-0.564703,0.184973,-0.804286,0.088309,-0.051428,0.082881,-10.266220,28.701023,25.760864,,,,,,,
1523694991.277808,-0.607152,-0.182610,-1.659963,0.047726,0.145717,-0.025011,-0.561039,0.181597,-0.807613,0.004399,-0.044817,-0.006397,-10.415161,28.851612,25.685181,,,,,,,
1523694991.307776,-0.603087,-0.184347,-1.662684,-0.192256,0.166695,-0.052911,-0.557572,0.183305,-0.809626,-0.047332,-0.037126,-0.110341,-10.936691,28.929417,26.134644,,,,,,,
1523694991.337745,-0.601250,-0.190320,-1.668539,-0.312431,0.042614,-0.045415,-0.555455,0.189173,-0.809732,-0.102763,-0.014307,-0.213980,-9.433899,29.072880,26.359863,,,,,,,
1523694991.367713,-0.605555,-0.195808,-1.675534,-0.222459,-0.220594,-0.122866,-0.558336,0.194559,-0.806468,-0.102690,-0.032953,-0.075490,-10.784149,29.004032,26.434387,,,,,,,
1523694991.397681,-0.614441,-0.195754,-1.678429,0.094926,-0.290020,-0.033056,-0.565486,0.194506,-0.801483,0.012904,-0.031146,0.113174,-10.409012,28.927494,26.584900,,,,,,,
1523694991.427649,-0.619569,-0.189298,-1.672065,0.432513,-0.134255,0.061867,-0.570306,0.188169,-0.799578,0.028176,-0.078947,0.108172,-9.587189,28.923267,26.060303,,,,,,,
1523694991.457618,-0.621507,-0.172739,-1.660228,0.848485,-0.127047,-0.053967,-0.573590,0.171881,-0.800895,0.065580,-0.127066,0.142127,-10.485825,29.376789,25.533081,,,,,,,
1523694991.487586,-0.618077,-0.151001,-1.645763,0.757542,0.136302,0.004301,-0.572870,0.150428,-0.805713,0.027170,-0.126777,-0.029507,-10.259354,29.750385,25.156677,,,,,,,
1523694991.517555,-0.609893,-0.144770,-1.641163,-0.065600,0.293633,0.134594,-0.566783,0.144265,-0.811127,-0.071461,-0.128701,-0.268737,-9.886322,29.823261,24.706604,,,,,,,
1523694991.547523,-0.606984,-0.161575,-1.650120,-0.883784,-0.042078,0.113003,-0.562958,0.160873,-0.810667,-0.085556,0.006150,-0.280169,-10.334335,29.526096,25.532532,,,,,,,
1523694991.577492,-0.612951,-0.187176,-1.670670,-0.961348,-0.116386,-0.022298,-0.565231,0.186085,-0.803660,-0.097886,0.002148,-0.093984,-9.881195,29.299961,26.433655,,,,,,,
1523694991.607460,-0.621433,-0.200150,-1.684907,-0.268894,-0.291928,-0.085541,-0.570573,0.198817,-0.796806,0.034852,-0.019450,0.153450,-10.028183,29.375996,26.808289,,,,,,,
1523694991.637427,-0.627826,-0.197939,-1.689197,0.186646,-0.046053,-0.005520,-0.575912,0.196649,-0.793496,0.066497,-0.104257,0.218377,-10.930099,29.229984,26.733459,,,,,,,
1523694991.667395,-0.622058,-0.196060,-1.686100,0.083484,0.246278,0.167782,-0.571540,0.194806,-0.797104,0.027076,-0.169599,0.016632,-10.935806,29.154194,25.908752,,,,,,,
1523694991.697364,-0.613390,-0.199461,-1.684116,-0.078570,0.202639,0.084591,-0.564225,0.198142,-0.801482,-0.011596,-0.164252,-0.141359,-9.580460,29.373615,26.433533,,,,,,,
1523694991.727332,-0.614281,-0.200308,-1.687890,-0.122278,-0.105578,-0.194300,-0.564841,0.198971,-0.800842,-0.055154,-0.119045,0.002914,-10.637146,28.703373,26.435669,,,,,,,
1523694991.757300,-0.618388,-0.202308,-1.698829,-0.357251,0.000864,-0.289408,-0.567894,0.200931,-0.798189,-0.056282,-0.020755,0.062151,-10.486847,28.552998,26.736389,,,,,,,
1523694991.787268,-0.618417,-0.205059,-1.714519,-0.319694,0.194683,-0.363098,-0.567594,0.203625,-0.797719,-0.122225,-0.023601,0.076436,-10.935318,28.480381,27.111450,,,,,,,
1523694991.817237,-0.614615,-0.202953,-1.721163,0.067218,0.158688,-0.064427,-0.564804,0.201563,-0.800220,-0.001893,0.075308,0.028949,-11.685287,28.483768,27.111084,,,,,,,
1523694991.847205,-0.608508,-0.204327,-1.715575,0.032958,0.169510,0.373473,-0.559747,0.202908,-0.803427,-0.022757,0.025776,-0.122126,-10.110504,28.551517,26.961548,,,,,,,
1523694991.877173,-0.604274,-0.214905,-1.706758,-0.161643,0.036148,0.518378,-0.555090,0.213255,-0.803978,-0.024393,-0.037931,-0.147011,-10.484589,28.553349,27.111389,,,,,,,
1523694991.907142,-0.605104,-0.223137,-1.701231,0.109706,-0.220950,0.264171,-0.554740,0.221290,-0.802046,0.012717,-0.157646,-0.178835,-9.808273,28.775166,26.960815,,,,,,,
1523694991.937110,-0.616895,-0.211020,-1.695086,0.701025,-0.566596,-0.206005,-0.565667,0.209457,-0.797578,0.051263,-0.190368,0.036408,-8.981522,29.220997,26.509460,,,,,,,
1523694991.967066,-0.625724,-0.185518,-1.693459,0.758653,-0.125240,-0.432293,-0.575629,0.184456,-0.796624,0.031485,-0.112465,0.197899,-10.256500,29.675983,25.756958,,,,,,,
1523694991.997034,-0.626504,-0.164193,-1.697719,0.351801,0.030260,-0.490293,-0.578425,0.163457,-0.799180,0.036433,-0.064870,0.316026,-10.558731,29.676960,25.381836,,,,,,,
1523694992.027003,-0.623067,-0.154361,-1.707538,-0.097274,0.319239,-0.322572,-0.576585,0.153749,-0.802429,0.072496,-0.003999,0.369263,-10.481644,29.976475,25.230713,,,,,,,
1523694992.056971,-0.603649,-0.163441,-1.726524,-0.851930,0.988546,-0.188478,-0.560081,0.162715,-0.812291,-0.061547,0.044286,0.101720,-10.706757,29.378452,26.207947,,,,,,,
,,,,,,,,,,,,,,,,25.301281,51.439253,14.449668,3.420000,94.921875,1523694991.995986,
1523694992.086939,-0.581531,-0.183115,-1.743195,-0.605419,0.526153,0.049784,-0.540116,0.182094,-0.821645,-0.001663,0.078831,-0.298960,-11.607452,28.858265,26.959595,,,,,,,
1523694992.116907,-0.571597,-0.189742,-1.746189,0.096602,0.317417,0.170917,-0.531263,0.188605,-0.825938,-0.105135,0.023217,-0.531118,-10.631744,28.928867,26.959778,,,,,,,
1523694992.146876,-0.568790,-0.182712,-1.736694,0.549532,-0.317175,0.192141,-0.529643,0.181697,-0.828522,-0.015858,-0.000484,-0.359191,-11.905807,29.159367,26.733276,,,,,,,
1523694992.176844,-0.582582,-0.172769,-1.725428,0.464964,-0.599643,0.195559,-0.541987,0.171911,-0.822607,0.036264,0.044673,-0.039652,-11.910309,29.158649,25.983276,,,,,,,
1523694992.206812,-0.601025,-0.164354,-1.715696,0.388620,-0.671620,0.031481,-0.557863,0.163615,-0.813635,0.048250,-0.038448,0.216559,-10.110992,29.449940,25.382935,,,,,,,
1523694992.236780,-0.613408,-0.155324,-1.710619,0.287436,-0.235180,-0.044673,-0.568723,0.154701,-0.807840,0.031308,-0.101447,0.195047,-11.310501,29.680042,25.081421,,,,,,,
1523694992.266749,-0.612374,-0.153531,-1.709536,-0.115895,0.130955,0.015379,-0.568045,0.152929,-0.808654,-0.028176,-0.196538,-0.086931,-11.015305,29.153797,25.158691,,,,,,,
1523694992.296717,-0.612327,-0.162744,-1.714961,-0.509807,-0.045790,0.054684,-0.567173,0.162027,-0.807493,-0.108959,-0.176874,-0.156908,-10.190933,29.000233,25.309692,,,,,,,
1523694992.326685,-0.616322,-0.178660,-1.724052,-0.636130,-0.117747,0.056792,-0.568832,0.177711,-0.803014,-0.116181,-0.151801,-0.126002,-10.713638,28.778339,26.060303,,,,,,,
1523694992.356653,-0.621522,-0.195963,-1.735458,-0.692522,-0.068764,0.062030,-0.571123,0.194711,-0.797426,-0.107237,-0.114190,0.002931,-10.564392,28.478046,26.436584,,,,,,,
1523694992.386622,-0.621474,-0.214490,-1.747117,-0.569554,0.135002,0.204705,-0.568887,0.212849,-0.794384,-0.087836,-0.048893,-0.013051,-9.890289,28.025608,27.038757,,,,,,,
1523694992.416590,-0.617333,-0.224863,-1.747393,0.033515,0.122735,0.225408,-0.564285,0.222973,-0.794889,-0.046540,-0.043743,-0.083544,-10.263031,28.027668,27.413574,,,,,,,
1523694992.446558,-0.612768,-0.217524,-1.740792,0.584766,-0.001762,0.054394,-0.561576,0.215813,-0.798774,0.050299,-0.092262,0.012657,-10.113205,28.326466,26.887451,,,,,,,
1523694992.476526,-0.613959,-0.200940,-1.731784,0.615749,-0.151811,-0.077552,-0.564512,0.199590,-0.800920,0.129102,-0.128408,0.142229,-9.511597,28.848148,26.285706,,,,,,,
1523694992.506495,-0.618190,-0.189754,-1.732099,0.140089,-0.124558,-0.156792,-0.569153,0.188617,-0.800294,0.130524,-0.116306,0.235810,-10.035080,29.000507,26.284790,,,,,,,
1523694992.536463,-0.617023,-0.192041,-1.741056,-0.428371,0.280451,-0.128854,-0.567968,0.190863,-0.800604,0.033803,-0.084006,0.164541,-10.037323,28.775517,26.285706,,,,,,,
1523694992.566431,-0.606263,-0.205687,-1.756797,-0.619093,0.464166,-0.045003,-0.557784,0.204240,-0.804454,-0.068177,-0.043428,-0.169027,-10.331741,28.702900,27.335815,,,,,,,
1523694992.596400,-0.598678,-0.215133,-1.766175,-0.195562,0.163369,-0.033722,-0.550555,0.213478,-0.807031,-0.108243,0.020897,-0.313895,-11.230499,28.557392,27.786011,,,,,,,
1523694992.626368,-0.603374,-0.211964,-1.769534,0.243384,-0.334661,-0.082986,-0.554719,0.210381,-0.804990,-0.046019,0.025749,0.020902,-11.156418,28.781528,27.260132,,,,,,,
1523694992.656336,-0.613266,-0.202058,-1.765938,0.433012,-0.336765,-0.002922,-0.563827,0.200686,-0.801128,0.077362,-0.039217,0.144848,-9.882233,28.925419,26.885193,,,,,,,
1523694992.686304,-0.616282,-0.189225,-1.756335,0.652762,-0.053080,0.074742,-0.567683,0.188098,-0.801460,0.063151,-0.084506,0.080787,-10.403610,29.152988,27.109009,,,,,,,
1523694992.716273,-0.611278,-0.173073,-1.746954,0.652023,0.155808,-0.012843,-0.565336,0.172211,-0.806674,0.005109,-0.098373,-0.032285,-10.550034,30.052753,26.205322,,,,,,,
1523694992.746241,-0.605538,-0.155623,-1.741704,0.598820,0.141752,-0.263264,-0.562321,0.154996,-0.812253,0.033054,-0.093259,-0.025714,-10.106064,29.899998,25.456177,,,,,,,
1523694992.776209,-0.605578,-0.132538,-1.744364,0.643791,-0.147601,-0.536775,-0.564241,0.132151,-0.814956,0.022706,0.010321,0.111327,-11.911545,29.982075,24.404968,,,,,,,
1523694992.806177,-0.612700,-0.110194,-1.751546,0.387306,-0.211710,-0.546495,-0.571586,0.109972,-0.813130,0.017661,0.029509,0.211994,-12.364517,29.684116,24.405884,,,,,,,
1523694992.836146,-0.612772,-0.098556,-1.764523,-0.086446,0.258120,-0.401341,-0.572342,0.098396,-0.814080,-0.048447,0.064415,0.117883,-13.039948,29.687077,24.330566,,,,,,,
1523694992.866114,-0.601917,-0.109355,-1.778248,-0.861805,0.379400,0.156297,-0.562837,0.109138,-0.819322,-0.046645,0.035134,-0.200973,-13.115829,29.462650,24.556396,,,,,,,
1523694992.896082,-0.596253,-0.144978,-1.792001,-1.223386,0.155762,0.506807,-0.555651,0.144470,-0.818758,-0.159269,0.142502,-0.376173,-11.688156,28.782795,26.134827,,,,,,,
1523694992.926050,-0.599395,-0.174910,-1.792140,-0.413040,-0.475828,0.579438,-0.555531,0.174020,-0.813073,-0.120724,0.145667,-0.383476,-11.306564,28.857059,27.109741,,,,,,,
1523694992.956009,-0.623042,-0.182088,-1.783087,0.216429,-0.837109,0.355444,-0.573856,0.181084,-0.798674,0.024052,-0.038917,0.024001,-11.082642,29.155369,26.433655,,,,,,,
1523694992.985977,-0.634248,-0.182861,-1.774966,0.093826,-0.223882,0.234322,-0.582687,0.181844,-0.792080,0.056961,-0.209676,0.232342,-10.564102,28.777592,25.985474,,,,,,,
1523694993.015945,-0.628798,-0.190725,-1.774501,-0.338985,0.438940,0.270629,-0.577502,0.189571,-0.794063,0.030215,-0.292781,-0.003300,-10.558853,28.853321,26.735168,,,,,,,
1523694993.045913,-0.612265,-0.207535,-1.777716,-0.560048,0.561249,0.181902,-0.562385,0.206049,-0.800781,-0.057900,-0.310083,-0.205399,-10.631287,28.928944,27.034790,,,,,,,
,,,,,,,,,,,,,,,,25.301281,51.439285,14.434285,3.330000,96.679688,1523694992.995971,
1523694993.075882,-0.605598,-0.219921,-1.784419,-0.371335,0.024562,-0.026262,-0.555538,0.218153,-0.802353,-0.088657,-0.240705,-0.104920,-11.231262,28.707020,27.410400,,,,,,,
1523694993.105850,-0.612901,-0.224690,-1.791219,-0.206643,-0.253642,-0.113231,-0.560778,0.222804,-0.797414,-0.088286,-0.156657,0.032644,-11.230957,28.557316,27.710999,,,,,,,
1523694993.135818,-0.616966,-0.227942,-1.796941,-0.185099,0.081720,-0.062398,-0.563593,0.225973,-0.794532,-0.092077,-0.050863,0.155448,-10.631424,28.554539,27.636292,,,,,,,
1523694993.165786,-0.606101,-0.230886,-1.802128,-0.166652,0.621484,-0.062929,-0.554546,0.228840,-0.800059,-0.082555,-0.046360,0.038737,-10.560318,28.254078,27.487549,,,,,,,
1523694993.195785,-0.587454,-0.231718,-1.801234,0.145920,0.435160,0.030192,-0.539426,0.229650,-0.810102,0.054501,-0.015783,-0.166888,-11.680466,28.334797,28.161682,,,,,,,
1523694993.225754,-0.585042,-0.220546,-1.796397,0.619429,-0.210695,-0.015691,-0.538854,0.218763,-0.813488,0.096547,0.025973,0.085507,-10.929611,28.556187,27.936096,,,,,,,
1523694993.255722,-0.591580,-0.200995,-1.787154,0.747918,-0.260155,-0.129560,-0.546442,0.199645,-0.813343,0.188501,-0.027159,0.309620,-10.629654,29.228703,26.808594,,,,,,,
1523694993.285690,-0.590042,-0.182985,-1.781653,0.555413,0.208536,-0.072639,-0.547103,0.181966,-0.817038,0.177458,-0.046590,0.287314,-11.604034,29.607578,26.281616,,,,,,,
1523694993.315658,-0.575128,-0.174309,-1.779350,0.037677,0.715516,-0.058608,-0.535695,0.173427,-0.826401,-0.026683,-0.020656,-0.127304,-11.380539,29.456562,26.282288,,,,,,,
1523694993.345627,-0.554535,-0.181424,-1.790973,-0.502798,0.456728,-0.238828,-0.517903,0.180430,-0.836186,-0.105770,0.012685,-0.604961,-11.908356,29.084080,26.433533,,,,,,,
1523694993.375595,-0.564297,-0.180448,-1.808894,-0.032940,-0.640729,-0.587932,-0.526134,0.179470,-0.831239,-0.020085,0.066807,-0.046690,-12.810410,28.788303,26.584290,,,,,,,
1523694993.405563,-0.592143,-0.166254,-1.821929,0.282812,-0.839769,-0.501188,-0.550440,0.165489,-0.818299,0.078119,-0.004326,0.310914,-12.136185,28.934879,26.208984,,,,,,,
1523694993.435531,-0.604257,-0.153693,-1.821370,0.414442,0.018354,-0.025671,-0.561449,0.153089,-0.813217,-0.029738,0.081378,0.274491,-11.841156,28.932728,25.384155,,,,,,,
1523694993.465500,-0.589942,-0.146603,-1.810198,0.304076,0.529663,0.288067,-0.550341,0.146079,-0.822053,-0.049330,-0.058127,-0.084396,-12.514938,29.010838,25.458496,,,,,,,
1523694993.495468,-0.583452,-0.151201,-1.800613,-0.105964,-0.149651,0.325740,-0.544618,0.150625,-0.825038,-0.009764,-0.124411,-0.023229,-12.294281,28.709629,25.234863,,,,,,,
1523694993.525436,-0.591417,-0.160767,-1.797683,-0.279790,-0.245077,0.205306,-0.550344,0.160076,-0.819440,0.022619,-0.131801,-0.005283,-11.092545,28.929142,25.159546,,,,,,,
1523694993.555404,-0.594838,-0.173363,-1.799940,-0.498578,0.002086,0.194226,-0.551970,0.172496,-0.815817,0.008147,-0.126674,-0.146829,-11.837692,28.558918,26.585693,,,,,,,
1523694993.585373,-0.591748,-0.193866,-1.805074,-0.757559,0.192384,0.271633,-0.547358,0.192654,-0.814412,-0.080724,-0.029462,-0.398479,-11.765228,28.258671,26.661926,,,,,,,
1523694993.615341,-0.594198,-0.220334,-1.813517,-0.876214,-0.315234,0.269924,-0.546305,0.218555,-0.808559,-0.126257,-0.014530,-0.448582,-10.333237,28.328281,27.712341,,,,,,,
1523694993.645309,-0.613435,-0.236628,-1.822690,-0.354145,-0.664064,-0.025548,-0.559633,0.234426,-0.794882,-0.099379,-0.064596,-0.012338,-10.782745,28.105747,28.163025,,,,,,,
1523694993.675277,-0.633076,-0.235733,-1.829021,0.127501,-0.555917,-0.161690,-0.575260,0.233556,-0.783906,0.047275,-0.150365,0.258714,-10.257629,28.253162,27.937683,,,,,,,
1523694993.705246,-0.638916,-0.229118,-1.832427,0.056990,0.188908,-0.126273,-0.580736,0.227119,-0.781757,0.092577,-0.277229,0.334232,-10.029510,28.701908,27.710999,,,,,,,
1523694993.735214,-0.617605,-0.233972,-1.836003,-0.328710,0.931657,0.161465,-0.563300,0.231843,-0.793047,-0.035363,-0.293580,0.041414,-10.931107,28.406193,27.936707,,,,,,,
1523694993.765182,-0.597327,-0.248813,-1.837810,-0.368414,0.364271,0.321828,-0.545109,0.246254,-0.801372,-0.073162,-0.284492,-0.289707,-11.228836,28.183277,28.687439,,,,,,,
1523694993.795151,-0.599557,-0.256601,-1.837388,-0.009146,-0.283085,0.073425,-0.545796,0.253794,-0.798547,-0.088634,-0.201319,-0.204474,-10.179779,28.178410,28.538025,,,,,,,
1523694993.825119,-0.603833,-0.248733,-1.839535,0.346712,0.049242,-0.316633,-0.550322,0.246176,-0.797825,-0.187806,-0.003134,0.193012,-11.525528,28.559544,28.610840,,,,,,,
1523694993.855087,-0.591031,-0.230032,-1.849560,0.404139,0.753009,-0.687031,-0.542535,0.228009,-0.808487,0.066491,-0.097500,0.116333,-11.974472,28.711491,28.534973,,,,,,,
1523694993.885055,-0.573424,-0.204964,-1.854130,0.714947,0.326693,-0.463677,-0.531152,0.203532,-0.822458,0.079019,0.070791,0.034143,-12.277618,28.936954,27.633911,,,,,,,
1523694993.915024,-0.580658,-0.181470,-1.848103,0.802914,-0.668037,-0.173849,-0.539562,0.180475,-0.822366,0.050945,0.178778,0.066308,-12.579559,29.012852,27.183472,,,,,,,
1523694993.944992,-0.597337,-0.160824,-1.836842,0.732633,-0.410928,0.010167,-0.555180,0.160132,-0.816160,0.142994,0.142145,0.112714,-12.507431,29.311558,26.207336,,,,,,,
1523694993.974959,-0.596820,-0.146030,-1.826973,0.479085,0.186884,0.010443,-0.556029,0.145511,-0.818317,0.091124,0.048138,0.075427,-11.459137,29.456318,25.682251,,,,,,,
1523694994.004927,-0.589100,-0.139776,-1.821948,0.114877,0.141106,-0.001492,-0.550190,0.139321,-0.823326,0.076679,-0.025445,-0.022469,-12.210907,29.459400,25.381836,,,,,,,
1523694994.034896,-0.590788,-0.139216,-1.824593,-0.136487,-0.132408,-0.152721,-0.551622,0.138767,-0.822460,-0.061384,0.005688,-0.023487,-12.288605,29.234669,25.307739,,,,,,,
1523694994.064864,-0.593302,-0.142373,-1.833851,-0.294358,-0.028309,-0.091145,-0.553440,0.141893,-0.820704,-0.053539,-0.049714,-0.104025,-12.736481,29.311909,25.532227,,,,,,,
,,,,,,,,,,,,,,,,25.301282,51.439311,14.288821,2.970000,96.679688,1523694993.995956,
1523694994.094832,-0.592050,-0.151593,-1.843521,-0.449200,0.062848,-0.005038,-0.551659,0.151013,-0.820275,-0.135689,-0.013455,-0.146552,-12.358643,29.235813,26.132690,,,,,,,
1523694994.124800,-0.598938,-0.162409,-1.848647,-0.308115,-0.349307,0.226713,-0.556342,0.161696,-0.815059,-0.032342,-0.021819,0.034953,-12.508026,28.937077,26.733826,,,,,,,
1523694994.154769,-0.602880,-0.174449,-1.845268,-0.176496,-0.000654,0.468323,-0.558406,0.173565,-0.811197,-0.013829,-0.041272,0.065775,-11.906998,29.084309,26.658569,,,,,,,
1523694994.184737,-0.596790,-0.186237,-1.838129,-0.201978,0.223892,0.429717,-0.552268,0.185162,-0.812834,-0.033639,-0.099530,0.051893,-11.457626,29.157063,26.433411,,,,,,,
1523694994.214705,-0.589450,-0.200091,-1.836472,-0.401873,0.271969,0.312311,-0.544808,0.198758,-0.814655,0.033471,-0.199368,-0.065502,-10.553146,29.153736,27.183899,,,,,,,
1523694994.244673,-0.583309,-0.216482,-1.842029,-0.577197,0.177398,0.070405,-0.537928,0.214795,-0.815156,0.022151,-0.182553,-0.122084,-10.554794,28.853977,27.410156,,,,,,,
1523694994.274642,-0.582166,-0.225987,-1.855112,-0.363741,0.130676,-0.160613,-0.535850,0.224068,-0.814028,-0.039681,-0.038994,-0.207349,-10.930939,28.106724,28.462952,,,,,,,
1523694994.304610,-0.578248,-0.228398,-1.865295,-0.141830,0.251724,-0.227693,-0.532359,0.226418,-0.815667,-0.134023,0.049858,-0.361869,-11.905457,28.111179,28.537415,,,,,,,
1523694994.334578,-0.575043,-0.225784,-1.874091,-0.010555,-0.000411,-0.231604,-0.530062,0.223870,-0.817863,-0.144056,0.102653,-0.373269,-11.753510,28.260563,28.611938,,,,,,,
1523694994.364546,-0.585429,-0.226247,-1.882313,-0.257395,-0.402146,-0.132300,-0.538470,0.224322,-0.812227,-0.078137,0.009610,-0.079894,-12.270401,28.713490,29.209839,,,,,,,
1523694994.394515,-0.598516,-0.233362,-1.888606,-0.163934,-0.463623,0.115038,-0.548140,0.231249,-0.803771,0.020354,-0.090472,0.173308,-11.303238,28.333469,28.536865,,,,,,,
1523694994.424483,-0.614235,-0.228321,-1.882704,0.591928,-0.557468,0.045375,-0.561371,0.226342,-0.795998,0.122269,-0.176187,0.346993,-11.978058,28.486286,28.310852,,,,,,,
1523694994.454451,-0.615918,-0.208919,-1.867848,0.897177,0.197919,0.105583,-0.565141,0.207403,-0.798487,0.136674,-0.238836,0.335627,-11.600388,28.934269,28.009277,,,,,,,
1523694994.484420,-0.593134,-0.193225,-1.851449,0.589665,0.837365,0.250681,-0.548555,0.192025,-0.813754,0.020265,-0.270272,-0.098782,-11.308075,28.931690,26.734436,,,,,,,
1523694994.514388,-0.575758,-0.192227,-1.847064,-0.186052,0.132569,-0.040072,-0.534437,0.191045,-0.823324,-0.129503,-0.221487,-0.379695,-11.158081,28.931004,26.734558,,,,,,,
1523694994.544356,-0.585115,-0.197943,-1.865986,-0.553425,-0.211650,-0.524817,-0.541506,0.196653,-0.817363,-0.059859,0.007662,-0.090871,-12.507111,28.712605,27.259705,,,,,,,
1523694994.574324,-0.593450,-0.199048,-1.893073,-0.366951,-0.073523,-0.742177,-0.548178,0.197736,-0.812640,0.050772,0.085055,0.068133,-12.506653,28.712681,27.334717,,,,,,,
1523694994.604293,-0.605965,-0.187003,-1.908205,0.490958,-0.480868,-0.386318,-0.559620,0.185915,-0.807615,0.105626,0.163328,0.298795,-13.032684,28.565128,27.410034,,,,,,,
1523694994.634261,-0.612539,-0.162627,-1.894345,1.160642,-0.064306,0.130545,-0.567355,0.161911,-0.807387,0.066256,0.092956,0.257339,-13.409790,28.940845,26.433350,,,,,,,
1523694994.664229,-0.600952,-0.140903,-1.864647,1.030409,0.379658,0.509328,-0.559819,0.140437,-0.816616,0.067235,-0.029536,0.002377,-11.538956,29.605625,24.631592,,,,,,,
1523694994.694197,-0.593766,-0.133724,-1.839324,0.384049,-0.110122,0.575403,-0.554486,0.133325,-0.821433,0.043119,-0.192194,-0.120645,-11.686691,29.606663,25.006531,,,,,,,
1523694994.724166,-0.598497,-0.146208,-1.827708,-0.463693,-0.212591,0.487498,-0.557385,0.145687,-0.817361,0.002575,-0.197949,-0.103400,-11.161560,29.529453,25.157104,,,,,,,
1523694994.754134,-0.604349,-0.169341,-1.835197,-0.928127,-0.049790,0.013897,-0.560093,0.168533,-0.811094,-0.061840,-0.157623,-0.066667,-10.707825,29.677784,25.531738,,,,,,,
1523694994.784102,-0.607458,-0.189539,-1.858803,-0.972466,0.022486,-0.428399,-0.560555,0.188406,-0.806389,-0.093468,-0.112203,-0.083199,-11.678711,29.233585,26.958069,,,,,,,
1523694994.814070,-0.614602,-0.194885,-1.886186,-0.397014,-0.129992,-0.556751,-0.565712,0.193654,-0.801529,-0.068230,-0.108937,0.096787,-12.502319,29.012882,27.558472,,,,,,,
1523694994.844039,-0.616955,-0.194274,-1.897449,-0.081761,0.063215,-0.035667,-0.567665,0.193054,-0.800292,-0.103874,-0.026703,0.044814,-11.374359,29.083179,27.933777,,,,,,,
1523694994.874007,-0.613463,-0.196226,-1.891427,0.167886,0.086944,0.431199,-0.564648,0.194969,-0.801960,-0.080631,-0.060204,-0.135220,-12.126572,28.861576,27.934265,,,,,,,
1523694994.903975,-0.607963,-0.200739,-1.876656,0.193656,-0.059085,0.484653,-0.559721,0.199394,-0.804323,-0.061449,-0.153022,-0.203337,-11.825989,29.010059,27.783875,,,,,,,
1523694994.933943,-0.615078,-0.197409,-1.867577,0.403760,-0.399621,0.028035,-0.565810,0.196129,-0.800857,0.002730,-0.149239,0.080078,-10.701355,29.379322,27.107971,,,,,,,
1523694994.963903,-0.623060,-0.179477,-1.866019,0.595395,-0.118379,-0.444139,-0.574144,0.178515,-0.799044,0.061113,-0.115404,0.153734,-12.046356,29.835453,27.180420,,,,,,,
