timestamp(unix),attitude_roll(radians),attitude_pitch(radians),attitude_yaw(radians),rotation_rate_x(radians/s),rotation_rate_y(radians/s),rotation_rate_z(radians/s),gravity_x(G),gravity_y(G),gravity_z(G),user_acc_x(G),user_acc_y(G),user_acc_z(G),magnetic_field_x(microteslas),magnetic_field_y(microteslas),magnetic_field_z(microteslas),latitude(degree),longitude(degree),altitude(meter),speed(m/s),course(degree),timestamp(unix),User Mark
1522139668.741473,-0.008260,-0.058981,-2.657007,0.058763,-0.005012,-0.157680,-0.008246,0.058947,-0.998227,-0.006647,0.105894,-0.051730,-30.930878,-8.123947,18.942688,,,,,,,
,,,,,,,,,,,,,,,,25.306158,51.445662,10.999999,-1.000000,-1.000000,1522139352.930785,
1522139668.771441,-0.008710,-0.058021,-2.661840,0.036162,-0.045338,-0.157654,-0.008696,0.057989,-0.998279,-0.020876,0.110255,0.049061,-26.266388,-7.169113,19.766235,,,,,,,
1522139668.801410,-0.009225,-0.057747,-2.666399,0.037321,-0.021990,-0.154477,-0.009210,0.057715,-0.998291,0.031777,0.125528,0.060714,-24.761993,-6.052017,18.637512,,,,,,,
1522139668.831378,-0.009476,-0.056975,-2.670747,0.039434,-0.017794,-0.147023,-0.009460,0.056944,-0.998333,0.036011,0.059190,-0.091420,-20.399338,-3.973007,17.281433,,,,,,,
1522139668.861346,-0.010522,-0.056785,-2.674871,0.006091,-0.060293,-0.136348,-0.010505,0.056754,-0.998333,0.058540,0.032617,0.080837,-16.865982,-2.415100,16.076904,,,,,,,
1522139668.891314,-0.011069,-0.057280,-2.678707,0.004068,-0.029528,-0.129980,-0.011051,0.057248,-0.998299,0.026340,0.099536,0.008843,-13.649292,-0.633942,11.721436,,,,,,,
1522139668.921252,-0.011613,-0.056902,-2.682349,0.025454,-0.009464,-0.119331,-0.011594,0.056871,-0.998314,-0.023608,0.058028,-0.084877,-12.832458,-0.189713,9.619995,,,,,,,
1522139668.951220,-0.012430,-0.056327,-2.685873,0.024280,-0.031766,-0.119316,-0.012410,0.056297,-0.998337,0.044560,0.047966,-0.031006,-14.880249,0.414703,4.816589,,,,,,,
1522139668.981189,-0.013471,-0.055579,-2.689315,0.032707,-0.054113,-0.117159,-0.013450,0.055550,-0.998365,0.047538,0.039161,-0.016115,-16.910431,0.572708,3.689941,,,,,,,
1522139669.011157,-0.014493,-0.055115,-2.692534,0.017830,-0.027595,-0.106535,-0.014471,0.055087,-0.998377,0.027730,0.042447,-0.042257,-18.497345,-0.170898,2.942139,,,,,,,
1522139669.041125,-0.015368,-0.054885,-2.695566,0.018994,0.000009,-0.102305,-0.015344,0.054858,-0.998376,0.043847,0.049421,-0.062018,-24.496155,-1.042252,4.592651,,,,,,,
1522139669.071093,-0.016345,-0.054423,-2.698636,0.002773,-0.045659,-0.101200,-0.016320,0.054396,-0.998386,0.035607,0.000536,0.021351,-27.640121,-1.925629,7.069580,,,,,,,
1522139669.101062,-0.017287,-0.054738,-2.701656,-0.017359,-0.005267,-0.095928,-0.017260,0.054711,-0.998353,0.040362,0.020042,-0.069915,-29.051346,-3.339630,11.724548,,,,,,,
1522139669.131030,-0.017693,-0.055007,-2.704681,-0.008728,0.011743,-0.099140,-0.017665,0.054979,-0.998331,0.023768,0.021590,-0.056066,-28.145493,-4.016602,13.827698,,,,,,,
1522139669.160998,-0.018340,-0.055310,-2.707655,-0.016362,-0.023317,-0.098041,-0.018311,0.055282,-0.998303,0.072129,0.043992,0.046566,-26.040710,-5.522766,17.134766,,,,,,,
1522139669.190967,-0.018591,-0.055703,-2.710642,-0.013079,-0.004205,-0.096993,-0.018561,0.055674,-0.998276,0.053717,0.091619,0.004166,-23.493805,-5.834229,17.137268,,,,,,,
1522139669.220935,-0.018343,-0.055913,-2.713611,-0.015039,0.039352,-0.093847,-0.018313,0.055883,-0.998269,-0.044645,0.016840,-0.159262,-18.557663,-6.457703,15.867249,,,,,,,
1522139669.250903,-0.018167,-0.056477,-2.716444,-0.017344,-0.001043,-0.093793,-0.018137,0.056447,-0.998241,0.076258,0.057567,0.061550,-15.940140,-6.395828,14.518311,,,,,,,
1522139669.280871,-0.017509,-0.056996,-2.719246,-0.007456,0.062705,-0.093861,-0.017480,0.056965,-0.998223,0.025185,0.055828,0.008614,-12.428116,-5.215759,10.390320,,,,,,,
1522139669.310840,-0.016842,-0.057202,-2.722076,-0.005530,0.015941,-0.093809,-0.016813,0.057171,-0.998223,0.046980,0.026631,-0.096977,-12.283081,-4.767990,8.813599,,,,,,,
1522139669.340808,-0.016210,-0.057371,-2.724869,-0.000156,0.026542,-0.091687,-0.016183,0.057340,-0.998224,0.088525,0.071307,0.059411,-13.188629,-4.465347,7.386963,,,,,,,
1522139669.370776,-0.015064,-0.057556,-2.727635,0.004273,0.060526,-0.091712,-0.015038,0.057524,-0.998231,0.060082,0.046937,0.024735,-13.187180,-2.967606,5.130981,,,,,,,
1522139669.400714,-0.014527,-0.057422,-2.730347,0.005154,0.024384,-0.088486,-0.014503,0.057391,-0.998246,0.034004,0.084821,-0.006835,-14.683838,-2.361328,4.677795,,,,,,,
1522139669.430682,-0.013683,-0.057157,-2.733178,0.023435,0.047724,-0.091683,-0.013660,0.057126,-0.998273,-0.016155,0.023303,-0.104784,-17.460861,-1.525558,2.948059,,,,,,,
1522139669.460650,-0.012990,-0.056719,-2.735899,0.003091,0.043505,-0.086379,-0.012969,0.056689,-0.998308,0.002883,0.022306,0.021745,-18.437485,-1.147064,2.046021,,,,,,,
1522139669.490619,-0.012580,-0.056857,-2.738465,0.022013,-0.024550,-0.087356,-0.012559,0.056826,-0.998305,0.082765,0.083829,0.125701,-23.161255,-0.751266,1.592163,,,,,,,
1522139669.520587,-0.011938,-0.056114,-2.741027,0.028734,0.046604,-0.085286,-0.011919,0.056084,-0.998355,0.062914,0.026313,-0.059384,-26.459152,-1.035599,2.416565,,,,,,,
1522139669.550555,-0.011477,-0.055502,-2.743592,0.027622,0.037045,-0.085278,-0.011459,0.055474,-0.998394,0.016982,0.035072,-0.065708,-30.351288,-1.466064,4.441406,,,,,,,
1522139669.580523,-0.011331,-0.054641,-2.746038,0.032816,0.009370,-0.080981,-0.011313,0.054614,-0.998443,0.042090,-0.012148,-0.035507,-32.895752,-2.127579,6.467773,,,,,,,
1522139669.610492,-0.011403,-0.054291,-2.748302,0.006031,0.000860,-0.070336,-0.011386,0.054264,-0.998462,0.042010,0.043575,0.048465,-34.674652,-2.265823,10.217468,,,,,,,
1522139669.640445,-0.011577,-0.053902,-2.750426,0.027316,-0.011960,-0.068177,-0.011560,0.053876,-0.998481,0.018488,0.002413,-0.030175,-32.714218,-2.123154,11.717834,,,,,,,
1522139669.670413,-0.011900,-0.053379,-2.752394,0.008188,0.016726,-0.060761,-0.011883,0.053354,-0.998505,0.047757,-0.042047,0.005982,-32.332016,-2.348297,13.293884,,,,,,,
1522139669.700381,-0.012253,-0.053253,-2.754253,-0.009111,-0.025778,-0.055400,-0.012235,0.053228,-0.998507,0.041181,-0.034917,-0.045438,-27.372330,-1.695084,13.818787,,,,,,,
1522139669.730350,-0.012554,-0.053461,-2.755944,0.000559,-0.011968,-0.056481,-0.012535,0.053435,-0.998493,0.087838,0.018861,-0.031842,-23.706207,-1.638153,12.245361,,,,,,,
1522139669.760318,-0.012752,-0.052663,-2.757671,0.017742,0.011358,-0.055425,-0.012734,0.052639,-0.998532,0.037911,-0.024593,-0.010318,-21.634796,-2.251221,8.498840,,,,,,,
1522139669.790286,-0.013567,-0.052031,-2.759377,0.007951,-0.023711,-0.051137,-0.013549,0.052008,-0.998555,0.023619,-0.035330,-0.091579,-21.879761,-2.852448,6.176147,,,,,,,
1522139669.820255,-0.014068,-0.051614,-2.761132,0.008014,-0.015185,-0.055404,-0.014049,0.051591,-0.998569,0.002788,-0.037690,-0.066235,-24.684174,-4.267365,3.630432,,,,,,,
1522139669.850223,-0.014404,-0.051487,-2.762797,-0.002628,-0.006651,-0.055425,-0.014385,0.051464,-0.998571,0.023540,-0.001461,-0.010279,-27.618484,-5.154236,3.557495,,,,,,,
1522139669.880161,-0.014919,-0.051357,-2.764544,0.007912,-0.044890,-0.061770,-0.014898,0.051334,-0.998570,0.052054,-0.017200,0.104695,-32.567307,-6.479568,5.960327,,,,,,,
1522139669.910129,-0.015128,-0.051353,-2.766260,-0.013231,0.008258,-0.056512,-0.015107,0.051331,-0.998567,-0.017791,-0.078217,-0.115736,-33.534912,-6.773483,7.685974,,,,,,,
1522139669.940097,-0.015416,-0.051422,-2.768029,0.003723,-0.028940,-0.062849,-0.015395,0.051399,-0.998560,0.003157,-0.080574,0.080392,-35.459427,-6.835480,12.035339,,,,,,,
1522139669.970065,-0.015630,-0.051223,-2.769741,-0.012358,-0.040583,-0.061793,-0.015609,0.051200,-0.998566,0.054885,0.045479,0.118378,-34.389969,-6.238052,14.283447,,,,,,,
1522139670.000034,-0.015411,-0.051094,-2.771317,0.016716,0.018819,-0.057568,-0.015391,0.051072,-0.998576,-0.006673,-0.039201,-0.037556,-31.973434,-5.347641,15.556091,,,,,,,
1522139670.030002,-0.015449,-0.050451,-2.772896,0.005944,0.004969,-0.050096,-0.015428,0.050429,-0.998608,0.032381,-0.034209,0.028333,-27.008179,-4.768417,17.131287,,,,,,,
1522139670.059970,-0.014866,-0.050274,-2.774192,0.007908,-0.021668,-0.040479,-0.014847,0.050253,-0.998626,0.018829,0.015467,-0.041398,-22.434738,-4.339966,16.156860,,,,,,,
1522139670.089938,-0.014745,-0.049789,-2.775415,0.017735,0.029301,-0.038393,-0.014726,0.049769,-0.998652,0.022492,0.067053,0.071147,-15.481064,-4.449631,12.785767,,,,,,,
1522139670.119907,-0.014361,-0.048983,-2.776536,0.018567,-0.020660,-0.036210,-0.014343,0.048963,-0.998698,-0.025955,-0.022413,-0.140997,-14.519638,-4.456207,10.536255,,,,,,,
1522139670.149875,-0.014369,-0.048235,-2.777641,0.031485,0.005863,-0.034099,-0.014352,0.048216,-0.998734,-0.020942,-0.047103,-0.040054,-13.352280,-4.392014,4.986633,,,,,,,
1522139670.179843,-0.014113,-0.047470,-2.778583,0.021754,-0.018567,-0.031952,-0.014096,0.047452,-0.998774,0.074018,-0.010373,0.134608,-13.584229,-3.867996,2.959351,,,,,,,
1522139670.209811,-0.014445,-0.046793,-2.779445,0.027113,-0.011171,-0.028754,-0.014429,0.046776,-0.998801,-0.019842,-0.013237,-0.032342,-20.122177,-3.541275,0.254761,,,,,,,
1522139670.239780,-0.014394,-0.046173,-2.780140,0.007958,0.011136,-0.021330,-0.014379,0.046156,-0.998831,0.003758,-0.019026,-0.021174,-23.417404,-2.926682,0.025696,,,,,,,
1522139670.269748,-0.014790,-0.045657,-2.780771,0.015330,-0.005927,-0.015976,-0.014774,0.045641,-0.998849,0.035190,-0.063952,0.064004,-31.275864,-2.439377,1.969849,,,,,,,
1522139670.299716,-0.015202,-0.045152,-2.781345,0.014075,-0.049455,-0.019139,-0.015186,0.045137,-0.998865,-0.040951,-0.048371,0.059626,-34.481201,-2.047318,4.591675,,,,,,,
1522139670.329684,-0.015495,-0.044619,-2.781756,0.006913,0.020669,-0.017076,-0.015478,0.044604,-0.998885,-0.020075,-0.050982,-0.000108,-37.084488,-1.358139,7.062561,,,,,,,
1522139670.359653,-0.015274,-0.044297,-2.782272,0.003635,0.010030,-0.012812,-0.015258,0.044282,-0.998902,0.013107,-0.101579,-0.015441,-37.717117,-0.449753,12.608643,,,,,,,
1522139670.389590,-0.015555,-0.043992,-2.782726,0.001445,-0.010115,-0.019182,-0.015539,0.043978,-0.998912,0.029684,-0.061861,0.125758,-37.028046,-0.076126,14.332520,,,,,,,
1522139670.419559,-0.015362,-0.043631,-2.783308,0.006714,-0.027143,-0.019153,-0.015347,0.043617,-0.998930,0.002331,-0.061089,0.002516,-32.288834,-0.095047,16.734924,,,,,,,
1522139670.449527,-0.015032,-0.043464,-2.783883,-0.014328,0.047267,-0.014984,-0.015018,0.043450,-0.998943,0.000598,-0.041818,0.055080,-30.034256,-0.179291,17.636414,,,,,,,
1522139670.479495,-0.014499,-0.042877,-2.784629,0.014557,0.051515,-0.023498,-0.014486,0.042864,-0.998976,-0.012751,-0.118105,-0.056322,-25.696869,-1.398880,17.568420,,,,,,,
1522139670.509464,-0.014394,-0.042454,-2.785297,-0.011434,-0.027084,-0.020236,-0.014381,0.042441,-0.998995,0.023551,-0.074805,-0.011625,-23.383499,-1.935333,16.521790,,,,,,,
1522139670.539432,-0.014149,-0.042336,-2.785922,0.012232,0.012207,-0.022401,-0.014136,0.042323,-0.999004,0.007407,-0.091868,0.017040,-21.084259,-2.848450,13.751526,,,,,,,
1522139670.569400,-0.013933,-0.041943,-2.786601,-0.019872,-0.002612,-0.020274,-0.013920,0.041931,-0.999024,-0.013531,-0.082901,-0.008621,-20.495392,-2.927826,12.027161,,,,,,,
1522139670.599368,-0.013889,-0.042332,-2.787271,-0.016655,-0.004716,-0.024531,-0.013876,0.042319,-0.999008,-0.002711,-0.059622,0.015243,-19.829620,-1.958969,8.873596,,,,,,,
1522139670.629337,-0.013984,-0.042691,-2.787845,-0.034717,0.018685,-0.021372,-0.013971,0.042678,-0.998991,0.039911,-0.054305,-0.036623,-22.681931,-1.647049,7.970947,,,,,,,
1522139670.659294,-0.014142,-0.043096,-2.788421,-0.015735,-0.031305,-0.020247,-0.014128,0.043083,-0.998972,0.000105,-0.043480,0.034448,-22.972061,-0.745590,8.117188,,,,,,,
1522139670.689262,-0.014512,-0.043299,-2.788882,-0.023024,0.019644,-0.010709,-0.014498,0.043285,-0.998958,-0.040571,-0.030865,-0.058110,-22.957077,0.529709,8.487061,,,,,,,
1522139670.719230,-0.014787,-0.043121,-2.789363,0.017518,0.006811,-0.014922,-0.014772,0.043108,-0.998961,0.019365,-0.063066,-0.020311,-23.623962,0.983307,9.084961,,,,,,,
1522139670.749199,-0.015280,-0.042507,-2.789747,0.002497,-0.001677,-0.009605,-0.015266,0.042495,-0.998980,0.022804,-0.055587,-0.063947,-22.496140,0.903839,9.685852,,,,,,,
1522139670.779167,-0.015886,-0.041890,-2.790050,0.036526,-0.035728,-0.013813,-0.015871,0.041878,-0.998997,-0.013471,0.010094,0.029270,-20.248642,0.968201,9.161682,,,,,,,
1522139670.809135,-0.016016,-0.040789,-2.790331,0.020701,0.008894,-0.009596,-0.016002,0.040778,-0.999040,-0.030110,-0.092002,-0.084288,-18.755890,0.511032,8.714294,,,,,,,
1522139670.839103,-0.016476,-0.040225,-2.790532,0.017420,-0.001758,-0.004262,-0.016462,0.040214,-0.999055,-0.025408,-0.050849,-0.011671,-18.164780,0.432022,7.364868,,,,,,,
1522139670.869041,-0.016703,-0.039490,-2.790759,0.019612,0.006757,-0.007463,-0.016690,0.039480,-0.999081,-0.022800,-0.077001,-0.025623,-15.862518,-0.854980,5.721191,,,,,,,
1522139670.899009,-0.016964,-0.038863,-2.790955,0.015190,-0.025115,-0.006371,-0.016950,0.038854,-0.999101,-0.066668,-0.030507,-0.035521,-17.304077,-1.974380,4.824951,,,,,,,
1522139670.928978,-0.016913,-0.037845,-2.791090,0.026174,0.052383,0.001013,-0.016900,0.037836,-0.999141,-0.050650,-0.041544,-0.210164,-18.537888,-4.595093,3.559753,,,,,,,
1522139670.958946,-0.016795,-0.036950,-2.791240,0.022794,0.008841,-0.002138,-0.016783,0.036942,-0.999177,-0.024691,-0.094971,0.025208,-18.626831,-5.495529,2.738403,,,,,,,
1522139670.988914,-0.016673,-0.036036,-2.791404,0.019556,-0.002819,-0.005324,-0.016661,0.036028,-0.999212,0.039336,-0.047701,0.044073,-20.136337,-6.313950,2.515869,,,,,,,
1522139671.018882,-0.016164,-0.035496,-2.791532,0.012268,0.040767,-0.004314,-0.016153,0.035488,-0.999240,-0.000799,-0.083324,-0.067975,-22.258270,-8.105072,1.846985,,,,,,,
1522139671.048851,-0.015552,-0.034848,-2.791725,-0.000480,0.052504,-0.006467,-0.015542,0.034841,-0.999272,-0.029029,-0.083654,-0.137493,-23.091614,-8.851471,1.699524,,,,,,,
1522139671.078819,-0.015265,-0.034557,-2.791997,0.004642,0.004657,-0.005343,-0.015256,0.034550,-0.999287,-0.027027,-0.051075,0.021992,-24.826096,-10.342758,2.604675,,,,,,,
1522139671.108787,-0.014821,-0.034042,-2.792310,0.005868,0.033380,-0.010698,-0.014812,0.034035,-0.999311,-0.037587,-0.113533,-0.012683,-24.379395,-10.719696,2.681396,,,,,,,
1522139671.138755,-0.014468,-0.033962,-2.792531,-0.014636,-0.007005,-0.003211,-0.014460,0.033955,-0.999319,-0.046652,-0.037358,0.046590,-22.581726,-10.503540,1.931396,,,,,,,
1522139671.168724,-0.013788,-0.034088,-2.792726,-0.010121,0.048231,-0.002197,-0.013779,0.034081,-0.999324,-0.055648,-0.090081,-0.111027,-22.501648,-9.904037,1.779053,,,,,,,
1522139671.198692,-0.013776,-0.034072,-2.792911,-0.024326,-0.025029,-0.004271,-0.013767,0.034065,-0.999325,0.026661,-0.059593,0.102444,-21.822983,-8.408981,-0.101624,,,,,,,
1522139671.228660,-0.013469,-0.034263,-2.793091,-0.011292,0.020621,-0.005361,-0.013460,0.034256,-0.999322,0.002001,-0.051880,-0.030127,-21.142197,-7.512573,-0.629822,,,,,,,
1522139671.258629,-0.013635,-0.034258,-2.793316,-0.025314,-0.004852,-0.002161,-0.013627,0.034251,-0.999320,0.019150,-0.058116,-0.025597,-23.013275,-6.305511,-1.985596,,,,,,,
1522139671.288597,-0.013633,-0.034214,-2.793513,-0.008232,-0.010196,-0.005332,-0.013624,0.034207,-0.999322,0.041456,-0.047070,0.122079,-23.387375,-5.854431,-2.587585,,,,,,,
1522139671.318565,-0.014134,-0.033902,-2.793766,0.000193,-0.043144,-0.009544,-0.014125,0.033896,-0.999326,0.013622,-0.081579,0.015408,-25.927521,-4.867996,-2.592773,,,,,,,
1522139671.348503,-0.014506,-0.033612,-2.793956,-0.001752,0.001525,-0.010674,-0.014498,0.033606,-0.999330,0.001863,-0.079214,-0.058791,-27.944794,-4.408401,-2.070679,,,,,,,
1522139671.378471,-0.014890,-0.033466,-2.794134,-0.004049,-0.030367,-0.007449,-0.014881,0.033460,-0.999329,-0.001278,-0.029721,0.039612,-28.837708,-4.103699,-1.397278,,,,,,,
1522139671.408439,-0.015194,-0.033450,-2.794281,-0.009282,-0.003816,-0.004280,-0.015185,0.033444,-0.999325,0.011965,-0.081265,-0.016941,-31.143402,-3.566010,0.924377,,,,,,,
1522139671.438408,-0.015674,-0.033589,-2.794428,-0.011550,-0.035689,-0.005310,-0.015664,0.033583,-0.999313,0.025414,-0.095808,0.020218,-31.888565,-3.486984,1.598694,,,,,,,
1522139671.468376,-0.015827,-0.033872,-2.794492,-0.016697,0.008969,-0.005369,-0.015817,0.033865,-0.999301,-0.061820,-0.087607,-0.076901,-31.435852,-4.162445,3.176575,,,,,,,
1522139671.498344,-0.016040,-0.034251,-2.794541,-0.032811,-0.004862,0.002094,-0.016030,0.034244,-0.999285,-0.057685,-0.116413,-0.016722,-31.511566,-4.686356,3.928650,,,,,,,
1522139671.528312,-0.015806,-0.034978,-2.794445,-0.024183,0.012119,0.001023,-0.015796,0.034971,-0.999264,-0.014691,0.002078,0.070568,-32.135971,-6.634369,3.111206,,,,,,,
1522139671.558281,-0.015390,-0.034692,-2.794455,0.003663,0.025907,-0.004302,-0.015380,0.034685,-0.999280,0.009246,-0.068071,-0.013370,-32.670670,-7.382324,2.738892,,,,,,,
1522139671.588249,-0.015089,-0.034287,-2.794497,0.002559,0.025853,0.003159,-0.015079,0.034281,-0.999299,-0.052334,-0.028848,-0.006683,-35.610657,-9.018860,2.968933,,,,,,,
1522139671.618217,-0.014758,-0.033700,-2.794603,0.030154,-0.016682,-0.002106,-0.014749,0.033694,-0.999323,-0.019568,-0.116839,-0.031744,-37.640503,-9.909058,3.646484,,,,,,,
1522139671.648175,-0.014530,-0.032970,-2.794682,0.016459,0.026906,-0.000030,-0.014522,0.032964,-0.999351,0.015178,-0.029561,0.092918,-40.795090,-11.767532,5.977356,,,,,,,
1522139671.678145,-0.014011,-0.031969,-2.794790,0.020729,0.021609,-0.004282,-0.014004,0.031964,-0.999391,-0.043827,-0.068387,-0.004195,-43.192093,-12.729630,8.080017,,,,,,,
1522139671.708112,-0.014056,-0.030831,-2.794944,0.029211,0.003554,-0.008519,-0.014049,0.030826,-0.999426,-0.062474,-0.097996,-0.028498,-43.338913,-13.626953,10.108521,,,,,,,
1522139671.738081,-0.013872,-0.029882,-2.795078,0.022666,-0.026157,-0.009572,-0.013865,0.029878,-0.999457,-0.005010,-0.084062,0.120521,-41.612411,-15.281708,13.116028,,,,,,,
1522139671.768049,-0.013866,-0.029406,-2.794933,-0.003945,0.008853,0.006362,-0.013859,0.029402,-0.999472,0.010624,-0.050047,0.026541,-41.003571,-15.432724,14.841919,,,,,,,
1522139671.798018,-0.014217,-0.029433,-2.794655,0.015062,-0.036913,0.008561,-0.014210,0.029428,-0.999466,-0.004375,-0.083658,0.006576,-36.039383,-14.329544,15.364990,,,,,,,
1522139671.827986,-0.014504,-0.028548,-2.794282,0.001369,0.004563,0.008509,-0.014497,0.028544,-0.999487,-0.019636,-0.132899,-0.037668,-32.653320,-12.995163,14.986328,,,,,,,
1522139671.857924,-0.014578,-0.028553,-2.793782,-0.000854,-0.007144,0.013838,-0.014571,0.028549,-0.999486,-0.011842,-0.067978,-0.033534,-28.732574,-9.789688,13.100464,,,,,,,
1522139671.887892,-0.014714,-0.028012,-2.793279,0.011949,-0.008267,0.015989,-0.014708,0.028008,-0.999499,-0.039431,-0.107781,-0.060254,-26.699799,-7.925644,11.294067,,,,,,,
1522139671.917860,-0.015085,-0.027228,-2.792710,0.011816,-0.035898,0.017079,-0.015079,0.027225,-0.999516,0.017826,-0.086963,0.127720,-24.817154,-5.312195,8.209534,,,,,,,
1522139671.947829,-0.014813,-0.026644,-2.792030,0.017518,0.042723,0.015943,-0.014807,0.026641,-0.999535,-0.004098,-0.039977,-0.101066,-27.060486,-4.327637,7.679443,,,,,,,
1522139671.977797,-0.015225,-0.025157,-2.791638,0.037490,-0.030607,0.011762,-0.015219,0.025154,-0.999568,-0.028574,-0.145622,-0.023259,-29.663971,-2.215851,7.744690,,,,,,,
1522139672.007765,-0.015316,-0.024758,-2.791148,-0.028609,-0.000743,0.019143,-0.015311,0.024756,-0.999576,-0.000879,-0.084799,0.004368,-30.396439,-0.861877,8.413940,,,,,,,
1522139672.037733,-0.015138,-0.024706,-2.790687,0.020605,0.018286,0.015963,-0.015133,0.024704,-0.999580,-0.043919,-0.040084,-0.096810,-32.709915,-0.475204,9.686218,,,,,,,
1522139672.067702,-0.015147,-0.023599,-2.790540,0.003564,0.020501,0.009553,-0.015142,0.023596,-0.999607,0.035573,-0.107306,0.065220,-34.705261,0.287445,13.357178,,,,,,,
1522139672.097670,-0.015405,-0.023547,-2.790352,0.001166,-0.044294,0.005362,-0.015400,0.023545,-0.999604,-0.003765,-0.020478,0.015702,-34.094482,0.286499,15.157471,,,,,,,
1522139672.127638,-0.015412,-0.022934,-2.790194,0.020749,0.037484,0.005290,-0.015407,0.022932,-0.999618,-0.042942,-0.130583,-0.061035,-33.099213,-0.163849,19.284790,,,,,,,
1522139672.157606,-0.015244,-0.022389,-2.789951,-0.013598,0.003530,0.010625,-0.015240,0.022387,-0.999633,0.032314,-0.052477,-0.009598,-31.298828,-0.845749,20.488403,,,,,,,
1522139672.187575,-0.015259,-0.022149,-2.789571,0.004491,-0.000829,0.019170,-0.015254,0.022148,-0.999638,0.026424,-0.044624,0.018651,-25.220001,-1.097046,21.542480,,,,,,,
1522139672.217543,-0.015320,-0.021900,-2.789252,-0.013522,0.022641,0.012738,-0.015316,0.021898,-0.999643,-0.039326,-0.052278,-0.041235,-22.601089,-1.708832,21.546204,,,,,,,
1522139672.247511,-0.014692,-0.021801,-2.788727,-0.002754,0.053358,0.022308,-0.014688,0.021800,-0.999654,-0.017050,-0.061961,-0.147150,-16.317108,-2.413605,20.052185,,,,,,,
1522139672.277479,-0.014659,-0.022061,-2.788178,-0.016882,-0.007150,0.018099,-0.014655,0.022060,-0.999649,0.020331,-0.074031,-0.043594,-12.508926,-2.882751,18.031006,,,,,,,
1522139672.307448,-0.014590,-0.022107,-2.787735,-0.010269,0.033254,0.012733,-0.014586,0.022105,-0.999649,-0.028566,-0.101130,-0.093246,-8.346313,-4.330307,14.213867,,,,,,,
1522139672.337384,-0.014760,-0.022270,-2.787147,-0.014791,-0.011414,0.021292,-0.014756,0.022268,-0.999643,-0.044921,-0.092611,0.005274,-6.567261,-4.716156,11.366272,,,,,,,
1522139672.367354,-0.014676,-0.022179,-2.786522,0.001564,0.060812,0.019104,-0.014672,0.022178,-0.999646,-0.018683,-0.029929,-0.052722,-4.269669,-5.704422,8.446350,,,,,,,
1522139672.397321,-0.015227,-0.021236,-2.786114,0.020285,-0.046570,0.021355,-0.015223,0.021234,-0.999659,-0.028799,-0.149789,-0.083502,-4.840546,-7.281876,3.427429,,,,,,,
1522139672.427289,-0.015600,-0.020923,-2.785583,-0.009242,0.033202,0.020191,-0.015596,0.020922,-0.999659,-0.047896,-0.033342,-0.070165,-5.307632,-7.507248,0.953064,,,,,,,
1522139672.457258,-0.016644,-0.020087,-2.785232,0.029821,-0.077335,0.009677,-0.016640,0.020086,-0.999660,0.004891,-0.115652,0.051204,-6.318329,-8.332260,-3.619141,,,,,,,
1522139672.487226,-0.017195,-0.019800,-2.784836,-0.015759,-0.004936,0.007431,-0.017191,0.019799,-0.999656,-0.016760,-0.004632,0.024269,-8.653732,-8.473251,-5.119751,,,,,,,
1522139672.517195,-0.018130,-0.019813,-2.784388,0.009784,-0.018866,0.012802,-0.018125,0.019812,-0.999639,-0.028902,-0.105078,-0.062403,-12.263229,-7.934494,-7.598755,,,,,,,
1522139672.547163,-0.018998,-0.019566,-2.784060,-0.018079,-0.044286,0.010677,-0.018994,0.019564,-0.999628,0.003338,-0.077914,0.045984,-13.018768,-7.857147,-8.649414,,,,,,,
1522139672.577131,-0.019484,-0.020119,-2.783756,-0.018909,0.012029,0.012744,-0.019478,0.020118,-0.999608,-0.007987,-0.064917,-0.134074,-16.468781,-7.317520,-9.553284,,,,,,,
1522139672.607100,-0.020169,-0.020212,-2.783403,-0.014770,-0.014561,0.014905,-0.020163,0.020211,-0.999592,-0.020425,-0.050347,-0.025997,-19.167480,-6.781067,-10.231812,,,,,,,
1522139672.637068,-0.020870,-0.020307,-2.783150,-0.004143,-0.035783,0.006412,-0.020864,0.020306,-0.999576,0.020025,-0.040921,0.078632,-23.953964,-5.559296,-10.014099,,,,,,,
1522139672.667027,-0.020551,-0.020378,-2.782937,-0.019605,0.087491,0.008416,-0.020546,0.020377,-0.999581,-0.085152,-0.110495,-0.306418,-25.895325,-5.099899,-9.341858,,,,,,,
1522139672.696995,-0.021137,-0.020750,-2.782715,-0.012613,-0.012445,0.013847,-0.021131,0.020748,-0.999561,-0.021731,-0.073086,0.080647,-28.810318,-4.635880,-8.445190,,,,,,,
1522139672.726964,-0.020600,-0.020970,-2.782412,-0.009186,0.038563,0.013790,-0.020594,0.020968,-0.999568,-0.053747,-0.027316,-0.079915,-33.136871,-4.313034,-5.073669,,,,,,,
1522139672.756932,-0.020372,-0.020918,-2.782353,-0.006965,0.043953,0.002065,-0.020366,0.020917,-0.999574,0.053463,-0.072415,0.073747,-34.924011,-4.153122,-3.200195,,,,,,,
1522139672.786900,-0.019620,-0.021163,-2.782311,-0.013522,0.016284,0.008490,-0.019614,0.021161,-0.999584,-0.036172,-0.028455,-0.176304,-35.571518,-3.696381,0.622681,,,,,,,
1522139672.816838,-0.019147,-0.021249,-2.782161,-0.006095,0.010922,0.012763,-0.019141,0.021247,-0.999591,-0.030984,-0.056205,0.012271,-35.554993,-3.394211,2.871460,,,,,,,
1522139672.846806,-0.018449,-0.021503,-2.781916,-0.018738,0.049215,0.012711,-0.018444,0.021501,-0.999599,-0.049076,-0.004259,-0.006123,-34.860214,-2.944794,5.420044,,,,,,,
1522139672.876775,-0.017453,-0.021658,-2.781816,-0.000542,0.052389,0.007397,-0.017448,0.021656,-0.999613,-0.035302,-0.122563,-0.033804,-33.879410,-2.723602,6.019653,,,,,,,
1522139672.906743,-0.016365,-0.021885,-2.781571,-0.030580,0.023763,0.009532,-0.016360,0.021883,-0.999627,-0.022214,-0.058947,0.027627,-31.907303,-1.680527,7.966492,,,,,,,
1522139672.936711,-0.015426,-0.022833,-2.781273,-0.017621,0.054584,0.006303,-0.015422,0.022831,-0.999620,-0.055806,-0.071918,-0.047895,-30.698654,-1.085526,8.414673,,,,,,,
1522139672.966679,-0.014454,-0.022986,-2.780997,-0.028278,0.055664,0.005240,-0.014449,0.022984,-0.999631,-0.054139,-0.055028,-0.065829,-27.833191,-0.122437,9.387268,,,,,,,
1522139672.996648,-0.014302,-0.023617,-2.780773,-0.010388,-0.000688,0.005302,-0.014298,0.023615,-0.999619,-0.044189,-0.104441,0.076233,-27.005203,-0.275421,10.138306,,,,,,,
1522139673.026616,-0.013846,-0.024054,-2.780560,-0.025382,-0.015510,0.002114,-0.013841,0.024052,-0.999615,-0.003844,-0.083057,0.054760,-24.229401,-0.512375,10.665588,,,,,,,
1522139673.056584,-0.013525,-0.024649,-2.780262,-0.002955,-0.008167,0.007451,-0.013521,0.024647,-0.999605,-0.015181,0.012768,0.017366,-22.058258,-0.672531,10.292358,,,,,,,
1522139673.086552,-0.013667,-0.024019,-2.780204,-0.003997,-0.004962,0.005316,-0.013663,0.024017,-0.999618,-0.021509,-0.143677,-0.066254,-21.091705,-1.202393,9.769958,,,,,,,
1522139673.116521,-0.014343,-0.024243,-2.780218,-0.016901,-0.037813,-0.004243,-0.014339,0.024240,-0.999603,0.047221,-0.024484,0.046997,-18.635239,-2.115021,8.199829,,,,,,,
1522139673.146489,-0.015256,-0.023854,-2.780294,0.016289,-0.012407,-0.001053,-0.015251,0.023851,-0.999599,-0.054085,-0.098055,-0.109013,-17.819885,-2.270035,6.850891,,,,,,,
1522139673.176457,-0.016876,-0.023811,-2.780315,-0.010712,-0.083520,-0.003133,-0.016870,0.023809,-0.999574,0.011423,-0.008642,-0.010787,-18.664215,-2.718719,4.377197,,,,,,,
1522139673.206424,-0.018281,-0.023304,-2.780505,0.027882,-0.056981,-0.011662,-0.018275,0.023301,-0.999561,0.015742,-0.081971,-0.012951,-18.519333,-2.645340,3.402039,,,,,,,
1522139673.236394,-0.019904,-0.022593,-2.780789,-0.003034,-0.043147,-0.006358,-0.019898,0.022591,-0.999547,-0.034042,-0.033455,-0.015514,-20.843079,-1.661316,1.971924,,,,,,,
1522139673.266361,-0.021682,-0.022718,-2.780886,0.008634,-0.061216,-0.008468,-0.021675,0.022716,-0.999507,-0.002404,-0.033229,-0.074819,-22.410950,-1.353577,2.644897,,,,,,,
1522139673.296300,-0.022849,-0.022274,-2.780932,0.003467,-0.008159,0.004259,-0.022842,0.022272,-0.999491,0.018386,-0.057947,-0.087026,-24.804138,-0.667816,2.640991,,,,,,,
1522139673.326267,-0.023983,-0.022073,-2.780937,0.011716,-0.074053,0.003265,-0.023975,0.022071,-0.999469,-0.053143,-0.045356,0.067248,-25.545700,-0.138962,3.163452,,,,,,,
1522139673.356236,-0.025014,-0.021468,-2.780902,0.012879,-0.057036,0.000055,-0.025006,0.021466,-0.999457,-0.045566,-0.022000,0.056815,-28.767227,-0.872665,4.964844,,,,,,,
1522139673.386204,-0.024605,-0.021145,-2.780746,0.013486,0.089527,0.010564,-0.024597,0.021143,-0.999474,-0.006851,-0.051676,-0.170326,-29.452225,-1.919495,5.043640,,,,,,,
1522139673.416173,-0.024488,-0.020480,-2.780522,0.008772,-0.011378,0.007460,-0.024481,0.020478,-0.999491,-0.093241,-0.050294,0.052072,-29.983002,-2.816589,5.571960,,,,,,,
1522139673.446141,-0.023664,-0.020314,-2.780253,0.012258,0.051306,0.007400,-0.023657,0.020313,-0.999514,-0.023050,-0.017795,0.023348,-32.844528,-5.051895,7.379456,,,,,,,
1522139673.476109,-0.022416,-0.019687,-2.780011,0.014416,0.054474,0.007408,-0.022410,0.019685,-0.999555,0.013865,-0.059755,0.001462,-33.156189,-6.400192,7.684692,,,,,,,
1522139673.506078,-0.021080,-0.019391,-2.779751,0.008975,0.031123,0.006358,-0.021074,0.019390,-0.999590,-0.064894,-0.047023,0.004290,-32.861099,-7.974716,9.491211,,,,,,,
1522139673.536046,-0.019641,-0.018763,-2.779515,0.024010,0.051281,0.006345,-0.019637,0.018761,-0.999631,-0.031312,-0.081017,0.035520,-33.081573,-8.197601,10.616943,,,,,,,
1522139673.566014,-0.018105,-0.017652,-2.779313,0.026119,0.048073,0.008481,-0.018101,0.017651,-0.999680,-0.051952,-0.045193,0.020997,-30.902603,-8.206726,11.293091,,,,,,,
1522139673.595982,-0.016871,-0.016530,-2.779084,0.030374,0.048039,0.011682,-0.016868,0.016529,-0.999721,0.030494,-0.108356,-0.069004,-29.397568,-7.613647,11.141418,,,,,,,
1522139673.625951,-0.015861,-0.016121,-2.778883,-0.017642,0.049248,0.007385,-0.015858,0.016121,-0.999744,-0.022396,-0.065025,0.023044,-28.791916,-6.866684,10.838745,,,,,,,
1522139673.655904,-0.015418,-0.015758,-2.778818,0.010973,-0.002846,0.002125,-0.015415,0.015757,-0.999757,-0.033184,-0.157374,-0.066100,-28.339264,-6.194397,10.161316,,,,,,,
1522139673.685872,-0.015090,-0.015819,-2.778766,-0.030587,0.014257,0.002079,-0.015088,0.015818,-0.999761,0.013775,-0.013895,0.053243,-27.290665,-6.199341,9.936829,,,,,,,
1522139673.715840,-0.015023,-0.015944,-2.778881,0.007831,0.004639,-0.003213,-0.015020,0.015944,-0.999760,-0.048685,-0.081724,-0.040004,-27.894379,-6.571625,9.937988,,,,,,,
1522139673.745809,-0.015673,-0.015791,-2.778955,-0.027607,-0.041001,-0.001048,-0.015671,0.015791,-0.999753,0.019226,-0.067823,0.052380,-28.342255,-6.719009,10.538391,,,,,,,
1522139673.775746,-0.016095,-0.016214,-2.778906,-0.013615,-0.013404,-0.000008,-0.016092,0.016213,-0.999739,-0.053000,-0.022576,-0.066209,-27.890610,-6.870514,11.064209,,,,,,,
1522139673.805715,-0.017430,-0.015738,-2.778959,-0.000991,-0.055946,0.000048,-0.017427,0.015737,-0.999724,0.011904,-0.076605,0.064559,-27.516663,-7.246735,11.515930,,,,,,,
1522139673.835683,-0.018486,-0.015919,-2.778945,-0.025511,-0.044220,0.003216,-0.018482,0.015919,-0.999702,0.030049,-0.005970,-0.044426,-25.416901,-7.181335,11.366760,,,,,,,
1522139673.865651,-0.019796,-0.016236,-2.778916,0.004417,-0.040017,0.000034,-0.019792,0.016236,-0.999672,-0.043318,-0.046021,-0.008247,-24.368439,-7.336060,11.367859,,,,,,,
1522139673.895619,-0.020827,-0.016467,-2.778970,-0.031771,-0.015490,-0.000016,-0.020822,0.016466,-0.999648,0.017496,-0.098985,0.016890,-23.474609,-7.640594,10.844543,,,,,,,
1522139673.925588,-0.021394,-0.017161,-2.778929,-0.017829,-0.011211,-0.008536,-0.021389,0.017160,-0.999624,-0.043827,0.009878,-0.105646,-22.874039,-7.493454,10.694214,,,,,,,
1522139673.955556,-0.021976,-0.017021,-2.778978,-0.009209,0.011033,-0.003216,-0.021971,0.017020,-0.999614,0.028120,-0.076758,0.036525,-21.456192,-7.351257,9.269348,,,,,,,
1522139673.985524,-0.022095,-0.017446,-2.779063,-0.020913,0.019594,-0.005375,-0.022090,0.017445,-0.999604,-0.051610,-0.072148,-0.110351,-20.337097,-7.132645,7.919067,,,,,,,
1522139674.015492,-0.022278,-0.017460,-2.779163,-0.003974,-0.012327,-0.005330,-0.022273,0.017459,-0.999599,-0.025731,-0.049182,0.007793,-18.992020,-6.091248,5.365601,,,,,,,
1522139674.045461,-0.021741,-0.017776,-2.779241,-0.017730,0.020607,-0.000043,-0.021736,0.017775,-0.999606,-0.020333,0.027696,0.040972,-20.340775,-5.785477,5.063660,,,,,,,
1522139674.075429,-0.021263,-0.017961,-2.779419,-0.005907,0.028057,-0.007493,-0.021258,0.017960,-0.999613,-0.020841,-0.044297,-0.036871,-20.860352,-5.108383,4.835693,,,,,,,
1522139674.105397,-0.020773,-0.018037,-2.779646,-0.015665,0.001515,-0.004291,-0.020768,0.018036,-0.999622,0.001237,-0.026932,0.022144,-19.805756,-4.513336,4.608887,,,,,,,
1522139674.135366,-0.020013,-0.018441,-2.779824,-0.003792,0.026982,-0.005365,-0.020008,0.018440,-0.999630,-0.015758,-0.038963,0.052852,-20.482544,-4.735229,4.684387,,,,,,,
1522139674.165334,-0.019578,-0.018243,-2.780015,-0.006075,-0.007008,-0.006398,-0.019574,0.018242,-0.999642,-0.017292,0.014503,0.052880,-20.718933,-4.885818,3.034912,,,,,,,
1522139674.195302,-0.019078,-0.018293,-2.780177,-0.000579,0.034384,-0.001109,-0.019073,0.018292,-0.999651,-0.062485,-0.057293,-0.056853,-20.803528,-5.261398,2.061279,,,,,,,
1522139674.225270,-0.018905,-0.018289,-2.780279,-0.020031,-0.014458,0.001054,-0.018901,0.018288,-0.999654,-0.047093,-0.020119,-0.024058,-23.663452,-6.073837,1.763123,,,,,,,
1522139674.255208,-0.018969,-0.018268,-2.780376,0.017507,0.017351,-0.003208,-0.018965,0.018267,-0.999653,-0.014513,-0.015566,0.067372,-24.942612,-5.993896,0.937195,,,,,,,
1522139674.285176,-0.018966,-0.017827,-2.780611,-0.004765,0.045060,-0.007512,-0.018962,0.017826,-0.999661,-0.040929,-0.056171,-0.012012,-27.419006,-6.132751,0.936462,,,,,,,
1522139674.315145,-0.019203,-0.017772,-2.780875,0.001394,-0.007037,-0.005325,-0.019198,0.017771,-0.999658,0.002673,-0.026774,-0.118140,-30.037552,-6.344543,2.361084,,,,,,,
1522139674.345113,-0.020013,-0.017545,-2.781185,-0.003065,-0.050572,-0.007419,-0.020008,0.017544,-0.999646,0.009052,-0.059277,0.065335,-32.728729,-6.630493,4.310852,,,,,,,
1522139674.375081,-0.020299,-0.017611,-2.781479,-0.009216,0.006830,-0.007486,-0.020294,0.017610,-0.999639,0.003556,-0.015275,-0.033854,-32.497879,-6.630554,5.285950,,,,,,,
1522139674.405049,-0.021052,-0.017364,-2.781863,-0.000746,-0.013345,-0.011725,-0.021047,0.017364,-0.999628,-0.035838,-0.053466,-0.117895,-34.210968,-6.246506,6.633545,,,,,,,
1522139674.435018,-0.021607,-0.017333,-2.782288,-0.006005,-0.002676,-0.017063,-0.021602,0.017332,-0.999616,-0.017445,0.000444,-0.028750,-35.389908,-5.488953,8.879944,,,,,,,
1522139674.464986,-0.022054,-0.017399,-2.782642,0.002566,0.005768,-0.013859,-0.022049,0.017399,-0.999605,-0.034149,-0.066639,-0.074018,-34.476273,-4.891785,10.153015,,,,,,,
1522139674.494954,-0.022462,-0.017338,-2.782982,-0.009275,-0.013328,-0.012789,-0.022457,0.017338,-0.999597,-0.044682,0.021618,-0.042486,-33.639145,-4.893524,12.178406,,,,,,,
1522139674.524922,-0.022501,-0.017251,-2.783347,-0.000507,0.040838,-0.010713,-0.022496,0.017250,-0.999598,-0.078456,-0.057900,-0.127157,-32.666733,-5.197830,12.255127,,,,,,,
1522139674.554891,-0.022551,-0.017376,-2.783576,-0.009149,0.024869,-0.004305,-0.022546,0.017375,-0.999595,-0.033424,-0.040248,-0.039452,-31.174301,-5.729919,11.882996,,,,,,,
1522139674.584859,-0.022758,-0.017137,-2.783809,0.016230,-0.036797,-0.009546,-0.022753,0.017136,-0.999594,-0.042662,-0.031098,0.145468,-32.150146,-6.174927,12.484375,,,,,,,
1522139674.614827,-0.022136,-0.016989,-2.783966,-0.000332,0.080126,-0.008612,-0.022131,0.016988,-0.999611,-0.004725,-0.070272,0.048042,-32.676453,-6.397400,12.634949,,,,,,,
1522139674.644788,-0.021341,-0.016828,-2.784114,0.006859,0.019537,-0.007484,-0.021336,0.016827,-0.999631,-0.002452,-0.008450,-0.050739,-32.673019,-6.097336,12.708740,,,,,,,
1522139674.674757,-0.020499,-0.016328,-2.784364,0.006967,0.042911,-0.007505,-0.020495,0.016327,-0.999657,-0.060468,-0.061249,0.023888,-33.869019,-7.139557,15.112366,,,,,,,
1522139674.704725,-0.019351,-0.016168,-2.784542,-0.009962,0.074832,-0.008611,-0.019347,0.016168,-0.999682,0.051818,-0.036813,0.117251,-33.419754,-8.115082,16.616455,,,,,,,
1522139674.734693,-0.018328,-0.015966,-2.784625,0.003671,0.029088,-0.003240,-0.018325,0.015966,-0.999705,-0.011933,-0.002187,-0.049169,-31.917999,-8.346161,17.293152,,,,,,,
1522139674.764631,-0.017604,-0.015354,-2.784861,0.003788,0.054555,-0.001120,-0.017601,0.015354,-0.999727,0.003807,-0.091846,0.015062,-28.985306,-8.432922,18.719971,,,,,,,
1522139674.794599,-0.017172,-0.015241,-2.785074,-0.014645,-0.009131,-0.003208,-0.017169,0.015240,-0.999736,0.027225,-0.001614,-0.004826,-27.559616,-8.364334,18.720398,,,,,,,
1522139674.824568,-0.017295,-0.014885,-2.785373,0.027074,0.000385,-0.010648,-0.017292,0.014885,-0.999740,-0.023769,-0.008476,0.023437,-24.113388,-7.931198,17.370422,,,,,,,
1522139674.854536,-0.017242,-0.014199,-2.785754,0.007008,0.045084,-0.013902,-0.017239,0.014199,-0.999751,-0.051715,-0.076592,-0.137212,-23.589172,-7.334686,16.243286,,,,,,,
1522139674.884504,-0.018031,-0.013777,-2.786151,0.025653,-0.083534,-0.014823,-0.018028,0.013776,-0.999743,-0.047630,-0.025571,0.095583,-21.941376,-6.518829,14.515808,,,,,,,
1522139674.914472,-0.019027,-0.013211,-2.786553,0.012018,-0.027199,-0.012756,-0.019024,0.013210,-0.999732,-0.062290,-0.108715,0.028128,-20.813019,-5.549957,13.462463,,,,,,,
1522139674.944441,-0.020051,-0.013024,-2.786907,0.014124,-0.043080,-0.021266,-0.020048,0.013024,-0.999714,-0.023745,-0.005089,-0.040523,-20.728333,-3.676849,11.955017,,,,,,,
1522139674.974409,-0.021227,-0.012468,-2.787328,0.007747,-0.029295,-0.014892,-0.021224,0.012468,-0.999697,-0.066102,-0.058259,-0.043592,-21.097336,-2.850571,11.576538,,,,,,,
1522139675.004377,-0.021921,-0.012799,-2.787667,-0.022043,0.004729,-0.006428,-0.021918,0.012799,-0.999678,-0.044458,-0.063656,-0.106752,-21.910034,-1.347366,11.120117,,,,,,,
1522139675.034345,-0.022913,-0.013095,-2.787951,-0.009502,-0.063267,-0.012741,-0.022909,0.013095,-0.999652,-0.018335,-0.011737,0.102633,-22.202103,-0.595978,11.191956,,,,,,,
1522139675.064314,-0.023321,-0.013493,-2.788226,-0.025342,-0.021783,-0.011736,-0.023316,0.013492,-0.999637,-0.030669,-0.002765,0.031848,-21.747787,-0.073181,11.040100,,,,,,,
1522139675.094282,-0.023337,-0.014044,-2.788657,-0.016502,0.041933,-0.011781,-0.023333,0.014044,-0.999629,-0.003614,-0.045141,-0.039830,-21.071182,0.448181,10.438354,,,,,,,
1522139675.124250,-0.023948,-0.014578,-2.788993,-0.021261,-0.063247,-0.010623,-0.023943,0.014578,-0.999607,-0.042921,-0.026297,-0.019466,-20.924332,0.446991,9.913391,,,,,,,
1522139675.154218,-0.023750,-0.014939,-2.789331,-0.002715,0.020640,-0.011745,-0.023745,0.014939,-0.999606,-0.009580,-0.013672,0.048755,-20.180664,0.217972,9.239746,,,,,,,
1522139675.184187,-0.023605,-0.014803,-2.789719,-0.008101,0.007936,-0.014941,-0.023600,0.014802,-0.999612,0.014841,-0.045732,-0.036033,-19.589691,-0.684677,9.243652,,,,,,,
1522139675.214155,-0.023317,-0.015045,-2.790103,-0.011177,0.040854,-0.010713,-0.023313,0.015044,-0.999615,-0.031421,-0.026412,-0.076786,-21.022858,-1.503235,9.246155,,,,,,,
1522139675.244093,-0.022838,-0.015018,-2.790500,-0.002790,0.006815,-0.009602,-0.022834,0.015017,-0.999626,-0.005166,-0.012133,0.018654,-21.258163,-2.177765,8.648804,,,,,,,
1522139675.274061,-0.022227,-0.014635,-2.790854,0.011120,0.014224,-0.009603,-0.022223,0.014634,-0.999646,0.000601,0.033416,0.024915,-21.416702,-3.301605,9.103210,,,,,,,
1522139675.304029,-0.022010,-0.014088,-2.791282,0.007881,0.001512,-0.013856,-0.022006,0.014087,-0.999659,0.021793,-0.001895,0.102976,-21.575211,-4.200806,9.181702,,,,,,,
1522139675.333997,-0.021404,-0.013937,-2.791715,0.006025,0.065270,-0.012859,-0.021400,0.013937,-0.999674,0.012473,-0.019643,-0.056921,-20.915817,-5.404373,8.586853,,,,,,,
1522139675.363966,-0.021270,-0.013514,-2.792148,0.016408,-0.003806,-0.015976,-0.021267,0.013514,-0.999682,-0.029255,0.002737,-0.041882,-22.273254,-6.148254,8.589172,,,,,,,
1522139675.393934,-0.021420,-0.012921,-2.792588,0.005712,-0.006975,-0.014915,-0.021417,0.012920,-0.999687,-0.000724,-0.012478,0.032036,-22.505096,-6.972000,8.817322,,,,,,,
1522139675.423902,-0.021669,-0.012767,-2.793075,0.004672,-0.005881,-0.019179,-0.021666,0.012766,-0.999684,0.033919,-0.011942,0.112690,-21.834641,-7.200378,8.443542,,,,,,,
1522139675.453871,-0.022056,-0.012544,-2.793488,0.002502,-0.005918,-0.012789,-0.022053,0.012544,-0.999678,-0.005138,-0.027513,0.071150,-21.836731,-7.500214,8.594788,,,,,,,
1522139675.483839,-0.022237,-0.012680,-2.793823,-0.012509,-0.017585,-0.010656,-0.022233,0.012680,-0.999672,-0.030272,-0.034790,-0.097023,-20.569107,-8.106155,8.372864,,,,,,,
1522139675.513807,-0.022799,-0.012567,-2.794174,0.001405,-0.015468,-0.014908,-0.022796,0.012567,-0.999661,-0.016069,-0.000207,-0.007770,-19.526337,-8.561279,7.925171,,,,,,,
1522139675.543775,-0.023436,-0.012489,-2.794544,-0.004966,-0.005893,-0.013859,-0.023432,0.012489,-0.999647,0.010767,-0.022499,-0.022661,-18.712189,-9.015991,6.877441,,,,,,,
1522139675.573744,-0.023559,-0.012760,-2.794723,-0.020884,0.025970,-0.005382,-0.023555,0.012760,-0.999641,-0.008016,-0.002491,-0.089272,-18.042755,-8.945068,5.827454,,,,,,,
1522139675.603712,-0.024336,-0.012809,-2.795030,0.008724,-0.046310,-0.012746,-0.024332,0.012808,-0.999622,-0.035666,-0.027945,-0.038128,-15.426773,-8.583939,3.727295,,,,,,,
1522139675.633680,-0.024816,-0.012435,-2.795514,-0.004881,0.005810,-0.018122,-0.024812,0.012435,-0.999615,-0.033858,-0.038115,-0.072132,-16.333023,-8.805527,3.052734,,,,,,,
1522139675.663643,-0.025255,-0.012450,-2.796110,0.002537,-0.005876,-0.019180,-0.025251,0.012450,-0.999604,0.018140,0.012956,-0.006210,-16.580215,-9.407120,0.355042,,,,,,,
1522139675.693612,-0.025622,-0.012060,-2.796805,-0.000539,0.022809,-0.018142,-0.025617,0.012060,-0.999599,-0.025027,-0.043844,-0.051289,-15.687469,-9.412338,-0.844543,,,,,,,
1522139675.723549,-0.025917,-0.012137,-2.797562,-0.011407,-0.022829,-0.021304,-0.025913,0.012137,-0.999591,0.001743,-0.014410,-0.036588,-18.319138,-9.401611,-1.970886,,,,,,,
1522139675.753518,-0.026166,-0.012235,-2.798372,-0.001689,-0.000519,-0.023453,-0.026161,0.012234,-0.999583,-0.008507,0.038501,-0.001760,-19.738998,-8.795380,-2.123962,,,,,,,
1522139675.783486,-0.025951,-0.012200,-2.799226,-0.012204,0.033514,-0.024557,-0.025946,0.012200,-0.999589,-0.046411,-0.038537,-0.118087,-19.065125,-7.825211,-3.927551,,,,,,,
1522139675.813454,-0.025680,-0.012642,-2.800117,-0.010053,0.031407,-0.028812,-0.025675,0.012642,-0.999590,-0.013631,-0.031746,-0.061033,-22.891342,-6.685104,-6.033997,,,,,,,
1522139675.843422,-0.025236,-0.012887,-2.800934,-0.011150,0.028214,-0.026683,-0.025231,0.012887,-0.999599,-0.009864,0.023292,0.002269,-25.359833,-5.624680,-6.714478,,,,,,,
1522139675.873391,-0.024520,-0.013002,-2.801728,0.002681,0.016484,-0.026656,-0.024516,0.013002,-0.999615,0.015849,-0.056917,0.061764,-30.887268,-3.948837,-5.748962,,,,,,,
1522139675.903359,-0.023698,-0.013257,-2.802430,-0.015474,0.014413,-0.027734,-0.023694,0.013256,-0.999631,-0.016391,0.002521,0.024518,-34.619141,-3.030548,-4.254517,,,,,,,
1522139675.933327,-0.023273,-0.013455,-2.803108,-0.000543,0.019655,-0.021343,-0.023268,0.013455,-0.999639,0.026244,-0.018612,0.016698,-38.259140,-2.184753,0.165283,,,,,,,
1522139675.963295,-0.022266,-0.013632,-2.803660,-0.012150,0.051523,-0.018176,-0.022262,0.013632,-0.999659,-0.012833,0.024271,-0.010991,-38.466278,-1.656723,2.263123,,,,,,,
1522139675.993264,-0.022127,-0.013542,-2.804261,0.012145,-0.011184,-0.023429,-0.022123,0.013542,-0.999664,-0.018053,0.056862,0.099319,-39.419617,-1.648834,5.862549,,,,,,,
1522139676.023232,-0.021454,-0.013226,-2.804907,0.002767,0.041934,-0.020284,-0.021451,0.013226,-0.999682,0.001065,-0.016003,0.045123,-38.893692,-2.324921,7.140564,,,,,,,
1522139676.053200,-0.021034,-0.013245,-2.805509,0.000536,0.025990,-0.017081,-0.021031,0.013244,-0.999691,-0.008251,0.013153,-0.011707,-37.762680,-3.527008,10.145935,,,,,,,
1522139676.083168,-0.021122,-0.013030,-2.806245,0.014142,-0.050471,-0.029774,-0.021119,0.013030,-0.999692,0.008027,0.058244,0.169385,-36.787247,-4.429810,11.725037,,,,,,,
1522139676.113137,-0.020579,-0.012561,-2.806981,0.000903,0.101475,-0.022486,-0.020576,0.012560,-0.999709,-0.024880,-0.053591,-0.135300,-36.191879,-5.256897,12.328613,,,,,,,
1522139676.143105,-0.020615,-0.012348,-2.807792,0.009124,0.017594,-0.034119,-0.020612,0.012347,-0.999711,-0.013613,-0.023364,-0.107238,-33.043335,-6.169785,13.608887,,,,,,,
1522139676.173073,-0.020992,-0.011858,-2.808591,0.014205,-0.033479,-0.027664,-0.020989,0.011858,-0.999709,-0.039146,-0.025178,0.049041,-31.246262,-6.328079,13.385376,,,,,,,
1522139676.203011,-0.021027,-0.011660,-2.809475,0.011261,0.021801,-0.029854,-0.021024,0.011660,-0.999711,0.031873,0.010359,0.055970,-27.574890,-5.970810,12.185791,,,,,,,
1522139676.232979,-0.021208,-0.011057,-2.810388,0.010094,0.002649,-0.026635,-0.021205,0.011057,-0.999714,-0.031422,-0.052653,-0.145458,-26.154755,-6.052872,11.511841,,,,,,,
1522139676.262948,-0.022113,-0.011091,-2.811326,-0.007212,-0.050415,-0.029792,-0.022110,0.011091,-0.999694,-0.012146,0.071108,0.014144,-26.529739,-6.051178,11.511597,,,,,,,
1522139676.292916,-0.022852,-0.011125,-2.812187,0.002536,-0.015375,-0.027698,-0.022849,0.011125,-0.999677,-0.067437,-0.028810,-0.060565,-26.009705,-6.278976,11.062805,,,,,,,
1522139676.322884,-0.023780,-0.011145,-2.812934,-0.006127,-0.033486,-0.019156,-0.023777,0.011144,-0.999655,-0.107617,0.056116,-0.076150,-25.045197,-7.557938,11.443359,,,,,,,
1522139676.352852,-0.024691,-0.011097,-2.813688,0.003565,-0.016468,-0.022375,-0.024687,0.011097,-0.999634,-0.015657,-0.016468,0.041885,-23.931488,-8.238693,10.696655,,,,,,,
1522139676.382821,-0.025829,-0.010890,-2.814469,-0.004292,-0.102528,-0.022288,-0.025825,0.010890,-0.999607,0.045386,-0.035426,0.190525,-21.341522,-10.352661,8.381470,,,,,,,
1522139676.412789,-0.026529,-0.011369,-2.815009,-0.016647,0.000539,-0.019195,-0.026524,0.011369,-0.999584,-0.040233,0.016417,-0.081441,-21.508911,-11.552811,7.486145,,,,,,,
1522139676.442757,-0.027164,-0.011258,-2.815650,-0.001748,-0.010107,-0.020246,-0.027159,0.011258,-0.999568,0.021132,-0.042233,-0.041295,-21.679886,-12.753525,5.990845,,,,,,,
1522139676.472725,-0.027781,-0.011489,-2.816372,-0.011537,-0.057859,-0.026595,-0.027776,0.011489,-0.999548,0.049886,0.025941,0.123495,-23.281952,-14.023712,3.595093,,,,,,,
1522139676.502694,-0.027969,-0.011598,-2.817141,0.000407,-0.017471,-0.030895,-0.027963,0.011598,-0.999542,-0.027167,-0.012041,0.101547,-26.360992,-14.609558,3.895996,,,,,,,
1522139676.532662,-0.027495,-0.011702,-2.817859,-0.010014,0.045194,-0.024566,-0.027489,0.011702,-0.999554,0.009469,0.003175,-0.044987,-29.952454,-14.292496,4.792847,,,,,,,
1522139676.562630,-0.027103,-0.011561,-2.818575,0.010080,0.000515,-0.025566,-0.027098,0.011561,-0.999566,-0.006700,-0.001170,-0.018241,-30.990143,-13.237534,5.088135,,,,,,,
1522139676.592598,-0.026601,-0.011006,-2.819559,0.014600,0.048382,-0.033076,-0.026597,0.011006,-0.999586,0.029679,-0.044712,0.095167,-32.988358,-11.726608,7.031067,,,,,,,
1522139676.622567,-0.025730,-0.010882,-2.820473,-0.001527,0.026076,-0.029863,-0.025726,0.010882,-0.999610,-0.021515,-0.011187,-0.069146,-33.124878,-10.825241,7.777405,,,,,,,
1522139676.652548,-0.024995,-0.010962,-2.821346,-0.013229,0.046241,-0.021371,-0.024991,0.010962,-0.999628,0.008954,0.035364,0.068323,-33.466492,-7.972885,8.590881,,,,,,,
1522139676.682516,-0.024200,-0.011229,-2.822285,-0.017663,0.008017,-0.023470,-0.024196,0.011229,-0.999644,0.042110,-0.013731,0.092280,-34.053848,-7.294281,9.562805,,,,,,,
1522139676.712454,-0.023514,-0.011877,-2.823106,-0.030374,0.030380,-0.024574,-0.023511,0.011877,-0.999653,0.036481,0.022120,-0.017406,-33.796799,-5.118713,11.279297,,,,,,,
1522139676.742422,-0.023023,-0.012702,-2.823953,-0.025030,0.028266,-0.027766,-0.023019,0.012701,-0.999654,-0.021171,0.013651,-0.052760,-31.916504,-4.452408,11.052551,,,,,,,
1522139676.772390,-0.022902,-0.013384,-2.824792,-0.028420,-0.014221,-0.028792,-0.022898,0.013384,-0.999648,0.030268,0.088133,0.091537,-31.687317,-4.078354,11.126160,,,,,,,
1522139676.802359,-0.023214,-0.013760,-2.825712,-0.002690,0.006966,-0.029854,-0.023209,0.013760,-0.999636,-0.019988,-0.051708,-0.044431,-31.102753,-5.356445,10.681519,,,,,,,
1522139676.832327,-0.023411,-0.014312,-2.826611,-0.033643,0.006009,-0.033077,-0.023406,0.014312,-0.999624,-0.009446,-0.009063,-0.073512,-30.664474,-6.258850,10.235413,,,,,,,
1522139676.862295,-0.023930,-0.014812,-2.827678,-0.002616,0.016580,-0.036261,-0.023925,0.014811,-0.999604,-0.036775,0.028188,-0.104766,-33.385269,-8.795853,10.994202,,,,,,,
1522139676.892264,-0.024616,-0.014930,-2.828832,-0.015655,-0.041826,-0.040457,-0.024611,0.014930,-0.999586,0.025572,-0.006766,-0.024340,-33.998734,-10.367706,11.375183,,,,,,,
1522139676.922232,-0.025589,-0.015479,-2.830127,-0.002790,-0.033298,-0.045799,-0.025583,0.015478,-0.999553,-0.023336,0.054239,0.091975,-33.400635,-11.643600,13.180603,,,,,,,
1522139676.952200,-0.025768,-0.015503,-2.831630,-0.015372,0.016652,-0.044781,-0.025762,0.015502,-0.999548,0.004323,-0.018050,-0.052485,-32.728958,-12.470795,14.009216,,,,,,,
1522139676.982168,-0.025844,-0.016133,-2.833083,-0.016586,-0.021542,-0.051145,-0.025838,0.016132,-0.999536,-0.036891,0.074627,-0.049063,-29.799423,-11.884201,13.783325,,,,,,,
1522139677.012137,-0.025621,-0.016374,-2.834740,-0.021679,0.028464,-0.056536,-0.025615,0.016374,-0.999538,-0.056096,0.043487,0.009639,-27.170227,-10.921936,12.880798,,,,,,,
1522139677.042105,-0.025005,-0.017061,-2.836351,-0.010957,0.040105,-0.054405,-0.024998,0.017060,-0.999542,-0.049571,0.028991,-0.103638,-24.235641,-9.286270,11.750732,,,,,,,
1522139677.072073,-0.023964,-0.017589,-2.837945,-0.023843,0.029487,-0.050145,-0.023958,0.017588,-0.999558,0.019334,0.020132,0.082108,-22.951004,-7.643188,10.619812,,,,,,,
1522139677.102041,-0.023192,-0.018536,-2.839565,-0.008898,0.019920,-0.056510,-0.023186,0.018535,-0.999559,-0.031349,0.080403,0.023302,-20.913696,-5.778412,9.563354,,,,,,,
1522139677.132010,-0.022322,-0.018620,-2.841102,0.003938,0.030485,-0.052250,-0.022316,0.018619,-0.999578,-0.001793,0.013134,-0.041850,-19.762421,-2.334946,8.200134,,,,,,,
1522139677.161978,-0.021751,-0.018688,-2.842727,0.008132,0.005010,-0.058609,-0.021745,0.018687,-0.999589,-0.014235,0.053228,0.037141,-18.774323,-0.615082,7.518799,,,,,,,
1522139677.191916,-0.021349,-0.018559,-2.844379,-0.003615,0.015598,-0.049039,-0.021344,0.018558,-0.999600,-0.004062,-0.002994,-0.052845,-18.378281,2.306778,6.157227,,,,,,,
1522139677.221884,-0.021577,-0.019021,-2.845944,0.007976,-0.025828,-0.055382,-0.021572,0.019020,-0.999586,-0.007908,0.075463,0.097914,-17.101868,3.124908,5.029602,,,,,,,
1522139677.251852,-0.022010,-0.018681,-2.847541,0.002662,-0.022610,-0.057521,-0.022005,0.018680,-0.999583,0.030839,-0.030857,0.008372,-16.573486,4.545731,3.224182,,,,,,,
1522139677.281820,-0.022775,-0.019239,-2.849121,-0.019758,-0.017270,-0.053282,-0.022769,0.019238,-0.999556,0.000094,0.063099,-0.118608,-16.869431,4.996979,3.147217,,,,,,,
1522139677.311789,-0.023835,-0.019372,-2.850691,0.016574,-0.012025,-0.055396,-0.023828,0.019370,-0.999528,-0.005240,-0.032264,-0.041045,-17.781418,4.924210,1.272095,,,,,,,
1522139677.341757,-0.024618,-0.019133,-2.852290,-0.003764,-0.021540,-0.054340,-0.024611,0.019132,-0.999514,-0.031664,0.067538,-0.165296,-17.795807,4.248001,-0.000183,,,,,,,
1522139677.371725,-0.025714,-0.018879,-2.853926,0.019782,-0.010972,-0.055394,-0.025707,0.018878,-0.999491,-0.033787,0.066434,0.059214,-21.266342,3.137054,-1.572510,,,,,,,
1522139677.401693,-0.026177,-0.018971,-2.855560,-0.013124,0.036902,-0.051207,-0.026169,0.018970,-0.999478,-0.065490,0.037411,-0.008930,-23.671494,2.622864,-1.571655,,,,,,,
1522139677.431662,-0.027040,-0.019144,-2.857168,0.003687,-0.024783,-0.051125,-0.027032,0.019142,-0.999451,-0.046409,0.020607,-0.009811,-29.080841,1.597366,-1.420227,,,,,,,
1522139677.461630,-0.026873,-0.019173,-2.858823,0.003749,-0.018363,-0.057525,-0.026864,0.019172,-0.999455,0.030786,0.032128,0.103535,-32.608063,1.013840,-0.819702,,,,,,,
1522139677.491598,-0.026523,-0.019045,-2.860526,-0.008805,0.033765,-0.061848,-0.026516,0.019044,-0.999467,-0.089863,0.014449,-0.165770,-35.822845,0.730484,1.354858,,,,,,,
1522139677.521566,-0.026111,-0.019631,-2.862328,-0.021686,0.022104,-0.059721,-0.026103,0.019629,-0.999467,-0.021474,0.074136,-0.006698,-38.504837,0.371140,4.954956,,,,,,,
1522139677.551535,-0.025470,-0.019942,-2.864139,0.004958,0.014571,-0.056493,-0.025462,0.019941,-0.999477,0.012050,0.050295,-0.019719,-40.446777,-0.217789,7.281311,,,,,,,
1522139677.581503,-0.024992,-0.020266,-2.865885,-0.007857,0.007215,-0.062892,-0.024984,0.020265,-0.999482,0.051367,0.072448,0.038820,-40.749207,-2.762589,11.116333,,,,,,,
1522139677.611471,-0.024759,-0.020394,-2.867834,0.007194,0.023131,-0.067149,-0.024752,0.020393,-0.999486,-0.012800,-0.039024,-0.046306,-40.827606,-4.185440,12.921997,,,,,,,
1522139677.641440,-0.024262,-0.020717,-2.869739,-0.012180,-0.004463,-0.062884,-0.024254,0.020715,-0.999491,0.045159,0.027258,0.005015,-40.314804,-7.933533,17.137268,,,,,,,
1522139677.671356,-0.024105,-0.020946,-2.871565,-0.001342,0.029515,-0.063972,-0.024097,0.020944,-0.999490,0.001835,0.077154,-0.049048,-38.669632,-9.139725,18.342896,,,,,,,
1522139677.701325,-0.024429,-0.021074,-2.873543,-0.002493,0.006155,-0.067140,-0.024422,0.021073,-0.999480,0.011696,0.055740,-0.075029,-33.509186,-11.411591,19.704590,,,,,,,
1522139677.731293,-0.024686,-0.021128,-2.875753,-0.000396,-0.009745,-0.073515,-0.024678,0.021127,-0.999472,0.030431,0.020133,0.075980,-31.943665,-12.318695,19.634033,,,,,,,
1522139677.761261,-0.024794,-0.021815,-2.877835,-0.025039,-0.020362,-0.066064,-0.024786,0.021813,-0.999455,-0.047937,0.082389,-0.128017,-28.204498,-12.187546,17.610352,,,,,,,
1522139677.791229,-0.025049,-0.022594,-2.879962,-0.006721,0.010460,-0.072480,-0.025040,0.022592,-0.999431,-0.001465,0.079215,-0.065190,-26.780640,-11.445389,16.183105,,,,,,,
1522139677.821198,-0.024966,-0.022758,-2.882137,-0.005757,-0.011868,-0.071389,-0.024957,0.022756,-0.999430,0.023050,0.055262,0.019892,-27.304428,-11.143326,15.881653,,,,,,,
1522139677.851166,-0.025207,-0.023193,-2.884329,0.004012,0.022134,-0.073552,-0.025198,0.023191,-0.999413,-0.048258,0.063006,-0.103049,-26.022461,-9.949921,15.052490,,,,,,,
1522139677.881134,-0.025073,-0.022960,-2.886540,0.018818,-0.003430,-0.069257,-0.025064,0.022958,-0.999422,-0.005606,0.060661,0.014605,-24.516571,-8.682831,13.923157,,,,,,,
1522139677.911102,-0.024978,-0.022751,-2.888729,0.009401,0.031688,-0.074621,-0.024969,0.022749,-0.999429,-0.014566,0.096941,-0.105154,-25.206879,-8.906906,11.748718,,,,,,,
1522139677.941071,-0.024949,-0.022547,-2.890875,0.003884,-0.001273,-0.069266,-0.024940,0.022545,-0.999435,-0.026818,0.062233,-0.013016,-26.040237,-8.979431,10.473572,,,,,,,
1522139677.971039,-0.024904,-0.022617,-2.893080,0.017902,0.023169,-0.074608,-0.024895,0.022616,-0.999434,-0.034508,0.115690,-0.062333,-28.969040,-8.592529,9.195557,,,,,,,
1522139678.001007,-0.024801,-0.022321,-2.895215,0.014595,0.007191,-0.068199,-0.024792,0.022319,-0.999443,-0.003146,0.009068,-0.066948,-31.133011,-7.757339,9.641174,,,,,,,
1522139678.030975,-0.025082,-0.022709,-2.897418,-0.000389,-0.006562,-0.072455,-0.025073,0.022707,-0.999428,0.031711,0.068770,0.074654,-34.170883,-5.116882,11.429077,,,,,,,
1522139678.060944,-0.024998,-0.022708,-2.899656,0.004866,-0.032029,-0.078822,-0.024989,0.022706,-0.999430,-0.041219,0.038528,-0.070257,-34.225220,-3.540817,12.247742,,,,,,,
1522139678.090912,-0.025348,-0.022918,-2.901914,-0.012025,0.015804,-0.074622,-0.025339,0.022916,-0.999416,0.024622,0.104449,0.065792,-33.039124,0.282654,16.058044,,,,,,,
1522139678.120880,-0.025673,-0.023148,-2.904258,-0.004810,-0.050061,-0.080937,-0.025663,0.023145,-0.999403,0.015135,0.072161,-0.081087,-30.544144,1.922028,16.652710,,,,,,,
1522139678.150818,-0.026272,-0.023625,-2.906740,-0.020568,0.006310,-0.082075,-0.026262,0.023623,-0.999376,0.035417,0.024152,0.051897,-26.184036,3.251877,16.124634,,,,,,,
1522139678.180786,-0.026798,-0.024466,-2.909162,-0.028153,-0.013895,-0.077795,-0.026787,0.024463,-0.999342,0.050804,0.072613,0.021665,-22.665970,4.358032,13.121948,,,,,,,
1522139678.210754,-0.027822,-0.024895,-2.911617,-0.002644,-0.047908,-0.085202,-0.027810,0.024892,-0.999303,-0.012900,0.071543,-0.107005,-22.306900,3.754776,11.474487,,,,,,,
1522139678.240723,-0.028103,-0.024844,-2.914205,0.003027,0.021196,-0.090602,-0.028091,0.024842,-0.999297,-0.019181,0.070251,-0.054292,-21.976852,0.601059,9.237305,,,,,,,
,,,,,,,,,,,,,,,,25.320834,51.445503,10.999999,-1.000000,-1.000000,1522139678.220979,
1522139678.270691,-0.028704,-0.024766,-2.916864,0.004086,0.021158,-0.087396,-0.028692,0.024764,-0.999282,-0.005870,0.096635,-0.112306,-22.686111,-2.246719,8.273376,,,,,,,
1522139678.300659,-0.028835,-0.024651,-2.919513,0.022111,-0.007568,-0.088420,-0.028822,0.024649,-0.999281,0.022490,0.065118,-0.001040,-24.246841,-7.341324,6.642944,,,,,,,
1522139678.330628,-0.028877,-0.024333,-2.922073,-0.000139,0.030744,-0.088477,-0.028865,0.024331,-0.999287,-0.000554,0.085029,-0.052425,-24.651917,-9.815399,5.752625,,,,,,,
1522139678.360596,-0.028138,-0.024630,-2.924736,-0.012810,0.070036,-0.081065,-0.028125,0.024627,-0.999301,-0.026806,0.057144,-0.160932,-28.964600,-13.770676,6.066284,,,,,,,
1522139678.390564,-0.027737,-0.025112,-2.927283,-0.012045,0.006285,-0.079945,-0.027725,0.025109,-0.999300,0.001617,0.084739,0.014895,-29.577744,-15.042984,5.996094,,,,,,,
1522139678.420532,-0.026949,-0.025660,-2.929771,0.000886,0.031750,-0.079957,-0.026937,0.025657,-0.999308,-0.013911,0.116295,0.028162,-32.199905,-15.704605,7.572449,,,,,,,
1522139678.450501,-0.025951,-0.025698,-2.932254,0.002031,0.049801,-0.078907,-0.025939,0.025695,-0.999333,-0.003022,0.060731,-0.022822,-32.642349,-15.851120,9.072815,,,,,,,
1522139678.480469,-0.024777,-0.026155,-2.934645,-0.008738,0.032801,-0.075699,-0.024766,0.026152,-0.999351,-0.048400,0.027422,-0.142052,-32.182632,-15.552063,10.196838,,,,,,,
1522139678.510437,-0.024283,-0.026654,-2.937006,-0.008774,0.015850,-0.083140,-0.024272,0.026650,-0.999350,-0.029241,0.040839,0.100607,-29.924774,-15.486023,11.397705,,,,,,,
1522139678.540405,-0.023185,-0.026890,-2.939281,0.000011,0.081647,-0.073613,-0.023175,0.026886,-0.999370,0.032208,0.082473,0.028682,-28.874359,-15.490677,11.473206,,,,,,,
1522139678.570374,-0.023025,-0.027180,-2.941587,0.015489,-0.053243,-0.087319,-0.023014,0.027176,-0.999366,-0.021694,0.043869,0.132331,-26.406265,-15.053650,9.597656,,,,,,,
1522139678.600342,-0.023160,-0.026349,-2.944109,0.033697,-0.041608,-0.087312,-0.023150,0.026346,-0.999385,-0.009001,0.048834,0.004542,-25.796692,-14.006546,9.443848,,,,,,,
1522139678.630310,-0.023331,-0.025630,-2.946572,0.038202,0.008323,-0.088419,-0.023321,0.025627,-0.999400,-0.017969,0.056511,-0.044576,-26.450134,-11.304520,8.532654,,,,,,,
1522139678.660244,-0.024136,-0.024508,-2.949145,0.025058,-0.058621,-0.083037,-0.024127,0.024506,-0.999408,0.040133,-0.002854,0.101124,-26.437561,-9.954742,8.377319,,,,,,,
1522139678.690212,-0.025191,-0.024484,-2.951688,0.006996,-0.044705,-0.089466,-0.025181,0.024482,-0.999383,-0.008480,0.127068,-0.005362,-27.660431,-4.998810,8.806824,,,,,,,
1522139678.720180,-0.026396,-0.023893,-2.954411,0.033741,-0.040495,-0.094771,-0.026386,0.023891,-0.999366,0.012409,0.025593,0.024894,-28.312210,-2.670883,8.797180,,,,,,,
1522139678.750149,-0.027571,-0.023795,-2.957044,-0.011199,-0.051076,-0.085204,-0.027560,0.023793,-0.999337,0.041842,0.048244,0.011407,-28.061340,0.102676,8.486267,,,,,,,
1522139678.780117,-0.028746,-0.023907,-2.959607,0.022928,-0.064931,-0.090497,-0.028734,0.023905,-0.999301,0.029207,0.100668,0.021228,-29.184204,0.407578,8.334473,,,,,,,
1522139678.810085,-0.029333,-0.023476,-2.962175,-0.000214,0.025349,-0.077812,-0.029321,0.023474,-0.999294,-0.033820,0.070871,-0.122623,-30.992966,-0.334503,8.111511,,,,,,,
1522139678.840053,-0.029802,-0.023293,-2.964578,0.010206,-0.027814,-0.075625,-0.029790,0.023291,-0.999285,-0.035747,0.102182,-0.080412,-33.332947,-2.198364,8.717834,,,,,,,
1522139678.870022,-0.030085,-0.023314,-2.967000,-0.000341,0.003010,-0.073531,-0.030073,0.023312,-0.999276,-0.048144,0.077915,0.085000,-35.590317,-3.836700,10.223267,,,,,,,
1522139678.899990,-0.029239,-0.023573,-2.969320,-0.007628,0.047649,-0.071454,-0.029227,0.023571,-0.999295,-0.018563,0.034840,-0.112537,-37.552017,-6.225845,12.256836,,,,,,,
1522139678.929958,-0.028748,-0.024344,-2.971675,-0.018353,0.023285,-0.081015,-0.028736,0.024341,-0.999291,-0.048398,0.036450,0.007332,-36.732697,-7.203842,12.936096,,,,,,,
1522139678.959927,-0.027640,-0.025179,-2.974097,-0.026780,0.049879,-0.081054,-0.027628,0.025177,-0.999301,0.003519,-0.002731,-0.103314,-36.294952,-9.379227,14.520081,,,,,,,
1522139678.989895,-0.026604,-0.026245,-2.976228,-0.020459,0.033912,-0.078904,-0.026591,0.026242,-0.999302,-0.007253,0.095432,-0.005901,-34.727798,-10.660461,15.350952,,,,,,,
