timestamp(unix),attitude_roll(radians),attitude_pitch(radians),attitude_yaw(radians),rotation_rate_x(radians/s),rotation_rate_y(radians/s),rotation_rate_z(radians/s),gravity_x(G),gravity_y(G),gravity_z(G),user_acc_x(G),user_acc_y(G),user_acc_z(G),magnetic_field_x(microteslas),magnetic_field_y(microteslas),magnetic_field_z(microteslas),latitude(degree),longitude(degree),altitude(meter),speed(m/s),course(degree),timestamp(unix),User Mark
,,,,,,,,,,,,,,,,25.314546,51.449356,11.767696,-1.000000,-1.000000,1522136960.117631,
1522136962.553733,-0.182067,0.006224,0.854779,0.159343,-0.050990,-0.137632,-0.181059,-0.006224,-0.983452,0.043456,0.016188,-0.069740,31.814819,-38.446564,-5.716003,,,,,,,
1522136962.583701,-0.185423,0.011972,0.852970,0.211912,-0.165225,-0.079938,-0.184349,-0.011971,-0.982787,0.019737,0.055306,-0.074342,33.328995,-37.253006,-5.344971,,,,,,,
1522136962.613670,-0.193086,0.019661,0.851282,0.240332,-0.302104,-0.119199,-0.191851,-0.019660,-0.981226,-0.008100,0.073066,-0.062597,34.382385,-36.733047,-5.646545,,,,,,,
1522136962.643638,-0.201975,0.025886,0.849261,0.144151,-0.284015,-0.087329,-0.200538,-0.025883,-0.979343,0.026710,0.038991,0.007313,33.939850,-35.756439,-6.025635,,,,,,,
1522136962.673606,-0.208377,0.026517,0.846403,-0.093298,-0.138937,-0.084451,-0.206799,-0.026514,-0.978023,0.015897,0.031061,0.011882,35.215851,-35.612259,-6.100586,,,,,,,
1522136962.703574,-0.210654,0.021543,0.842990,-0.203046,-0.080266,-0.077137,-0.209051,-0.021541,-0.977667,-0.032771,0.054714,0.008184,36.417130,-35.168182,-6.626831,,,,,,,
1522136962.733543,-0.214038,0.014801,0.839248,-0.283659,-0.155785,-0.038758,-0.212384,-0.014801,-0.977073,0.003293,0.034011,0.012504,36.640167,-34.645386,-7.828796,,,,,,,
1522136962.763511,-0.218570,0.005899,0.835677,-0.294194,-0.143933,-0.056898,-0.216830,-0.005899,-0.976191,-0.038648,0.038949,0.077585,37.465851,-34.349487,-8.204590,,,,,,,
1522136962.793479,-0.220987,0.000122,0.831122,-0.160994,-0.012239,-0.096346,-0.219193,-0.000122,-0.975681,-0.031204,0.026016,0.106616,38.511017,-34.205231,-9.254639,,,,,,,
1522136962.823447,-0.220866,-0.001723,0.827300,-0.038352,-0.028557,-0.084524,-0.219074,0.001723,-0.975706,-0.051006,0.025575,0.041914,38.282700,-34.129883,-9.930054,,,,,,,
1522136962.853416,-0.222528,-0.002566,0.824697,-0.060047,-0.040600,-0.028047,-0.220695,0.002566,-0.975339,-0.085076,0.017866,0.008771,38.429810,-33.606903,-11.282043,,,,,,,
1522136962.883384,-0.225536,-0.005308,0.823135,-0.120486,-0.160646,-0.008800,-0.223625,0.005308,-0.974660,-0.056740,0.040941,0.044545,39.027679,-33.460190,-11.882324,,,,,,,
1522136962.913352,-0.226608,-0.010310,0.820942,-0.218403,0.137176,-0.015567,-0.224661,0.010310,-0.974381,-0.033121,0.045141,0.051103,37.746735,-33.380554,-13.008301,,,,,,,
1522136962.943320,-0.220972,-0.014186,0.820107,0.006852,0.187282,0.032500,-0.219156,0.014185,-0.975586,-0.074362,0.050664,-0.023499,38.272141,-33.158218,-13.308899,,,,,,,
1522136962.973289,-0.218146,-0.010157,0.821424,0.199495,0.078254,0.055133,-0.216409,0.010157,-0.976249,-0.101386,0.009985,-0.004555,37.070831,-33.153030,-13.534546,,,,,,,
1522136963.003257,-0.216817,-0.006269,0.824258,0.111324,-0.010037,0.098847,-0.215118,0.006269,-0.976567,-0.098054,0.003985,0.007085,36.395401,-32.925446,-13.985779,,,,,,,
1522136963.033225,-0.215641,-0.005463,0.828725,0.046689,0.193584,0.179570,-0.213971,0.005463,-0.976824,-0.052219,0.020538,0.018328,36.094955,-32.699554,-14.436829,,,,,,,
1522136963.063193,-0.204443,-0.006455,0.833222,-0.019115,0.481953,0.147257,-0.203017,0.006455,-0.979153,-0.051072,0.035354,-0.088581,35.351898,-32.545303,-13.537781,,,,,,,
1522136963.093162,-0.193031,-0.008439,0.834488,-0.068679,0.244879,0.029185,-0.191827,0.008439,-0.981392,-0.063132,-0.001114,-0.101769,34.456146,-32.166199,-13.464844,,,,,,,
,,,,,,,,,,,,,,,,25.314620,51.449309,11.839655,0.658310,-1.000000,1522136963.103674,
1522136963.123130,-0.192224,-0.011163,0.833211,-0.108443,-0.094796,-0.008857,-0.191031,0.011163,-0.981520,-0.078165,-0.036019,-0.009294,33.715149,-31.262865,-13.468811,,,,,,,
1522136963.153098,-0.194639,-0.013485,0.831778,-0.044845,0.012535,-0.032360,-0.193395,0.013484,-0.981028,-0.073863,-0.010173,0.057810,33.193298,-31.035372,-13.319946,,,,,,,
1522136963.183067,-0.190716,-0.012528,0.829723,0.073435,0.168627,-0.058003,-0.189547,0.012528,-0.981791,-0.040616,0.015441,0.003703,31.400436,-30.726641,-12.647095,,,,,,,
1522136963.213035,-0.186634,-0.009371,0.827261,0.067198,0.124504,-0.128287,-0.185544,0.009371,-0.982591,-0.082980,0.010999,-0.056609,30.584442,-30.272219,-11.899292,,,,,,,
1522136963.243003,-0.187139,-0.008315,0.822778,-0.012762,-0.092044,-0.132388,-0.186042,0.008315,-0.982506,-0.068170,0.011201,0.000603,29.845581,-29.742907,-10.926758,,,,,,,
1522136963.272971,-0.191988,-0.007078,0.820878,0.068689,-0.137627,-0.025727,-0.190806,0.007078,-0.981602,-0.052358,0.044054,0.055256,29.318680,-30.115236,-10.625549,,,,,,,
1522136963.302940,-0.193591,-0.002323,0.820960,0.221061,0.027801,-0.030049,-0.192383,0.002323,-0.981316,-0.014602,0.062526,0.011147,29.400436,-30.114489,-9.500488,,,,,,,
1522136963.332906,-0.193286,0.005143,0.820144,0.232724,-0.088533,-0.114095,-0.192082,-0.005143,-0.981365,-0.055034,0.044312,-0.036335,28.649429,-30.710283,-8.673523,,,,,,,
1522136963.362874,-0.202549,0.010713,0.816264,0.112081,-0.404405,-0.183126,-0.201155,-0.010713,-0.979500,-0.099748,0.014283,0.028603,29.101044,-30.637163,-8.523621,,,,,,,
1522136963.392842,-0.214074,0.013180,0.811297,0.040957,-0.284301,-0.159869,-0.212424,-0.013180,-0.977088,-0.063058,0.036098,0.125739,29.329498,-30.338121,-8.449646,,,,,,,
1522136963.422811,-0.214353,0.014231,0.807079,-0.020912,0.202504,-0.158266,-0.212693,-0.014231,-0.977014,-0.071349,0.063837,0.069651,28.957214,-30.335985,-7.999878,,,,,,,
1522136963.452779,-0.206367,0.012535,0.802163,-0.143817,0.235384,-0.106179,-0.204890,-0.012534,-0.978704,-0.094137,0.056953,-0.028483,30.983017,-30.344957,-7.848816,,,,,,,
1522136963.482747,-0.200265,0.007660,0.798299,-0.190917,0.226888,-0.090223,-0.198923,-0.007660,-0.979984,-0.107016,0.055298,0.002186,31.585571,-30.496981,-7.172852,,,,,,,
1522136963.512715,-0.191589,0.002903,0.795250,-0.140455,0.367592,-0.021059,-0.190418,-0.002903,-0.981698,-0.065426,0.019627,-0.015143,32.252441,-30.725969,-8.146667,,,,,,,
1522136963.542684,-0.179621,-0.001051,0.795725,-0.114023,0.421047,0.074805,-0.178656,0.001051,-0.983910,-0.030008,0.007966,-0.099738,32.551224,-30.577761,-8.597107,,,,,,,
1522136963.572652,-0.170706,-0.004449,0.796005,-0.083733,0.191950,0.004726,-0.169876,0.004449,-0.985455,-0.078735,0.035163,-0.129871,33.900238,-30.134722,-9.498169,,,,,,,
1522136963.602620,-0.172838,-0.005107,0.795224,0.014741,-0.250220,-0.013927,-0.171976,0.005107,-0.985087,-0.090460,-0.017833,-0.027104,33.746353,-30.209566,-10.023010,,,,,,,
1522136963.632588,-0.181582,-0.003950,0.794783,0.040553,-0.210935,-0.017151,-0.180584,0.003950,-0.983551,-0.087406,0.017992,0.066040,32.688736,-29.981462,-11.674377,,,,,,,
1522136963.662557,-0.181463,-0.003445,0.793815,-0.011206,0.132509,-0.031383,-0.180468,0.003445,-0.983574,-0.066786,0.016758,-0.003166,33.732834,-29.987123,-12.648865,,,,,,,
1522136963.692525,-0.177264,-0.005046,0.793040,-0.079691,0.125092,-0.009055,-0.176335,0.005046,-0.984317,-0.108639,0.029042,-0.060376,32.535873,-29.681749,-12.650696,,,,,,,
1522136963.722493,-0.175512,-0.006681,0.791044,-0.024422,-0.011612,-0.080274,-0.174609,0.006681,-0.984615,-0.114820,0.034716,-0.034856,31.409088,-29.227724,-13.703064,,,,,,,
1522136963.752462,-0.178757,-0.005520,0.788948,0.043412,-0.103313,-0.062003,-0.177804,0.005520,-0.984050,-0.049003,0.022724,0.029201,31.554581,-29.229128,-14.453003,,,,,,,
1522136963.782430,-0.179409,-0.004914,0.787471,0.003467,0.040224,-0.058986,-0.178446,0.004914,-0.983937,-0.093252,0.052215,-0.005138,30.209396,-28.698153,-14.530823,,,,,,,
1522136963.812398,-0.181920,-0.004888,0.784711,-0.022922,-0.188895,-0.108847,-0.180915,0.004888,-0.983486,-0.084771,0.034830,-0.009266,29.457779,-28.769930,-14.680847,,,,,,,
1522136963.842366,-0.191190,-0.005273,0.781987,-0.041909,-0.333592,-0.074626,-0.190024,0.005273,-0.981764,-0.092294,0.014823,0.088820,29.302841,-28.770052,-15.505920,,,,,,,
1522136963.872335,-0.196197,-0.007294,0.779786,-0.087314,0.057329,-0.039899,-0.194936,0.007294,-0.980788,-0.108363,0.042420,0.149062,27.949768,-29.213732,-15.279846,,,,,,,
1522136963.902303,-0.188200,-0.009971,0.778508,-0.065924,0.333354,-0.012452,-0.187082,0.009971,-0.982293,-0.094809,0.064339,0.043115,27.645767,-30.111544,-14.451416,,,,,,,
1522136963.932271,-0.180528,-0.010884,0.777914,-0.024884,0.188816,-0.022935,-0.179538,0.010884,-0.983690,-0.128842,0.025340,-0.052534,28.099945,-29.963137,-14.001770,,,,,,,
1522136963.962239,-0.180575,-0.010274,0.777576,0.064501,-0.092088,-0.002334,-0.179586,0.010273,-0.983688,-0.104029,0.004207,0.040130,27.266769,-31.458254,-12.871216,,,,,,,
1522136963.992208,-0.182999,-0.007660,0.778275,0.099078,-0.000773,-0.003473,-0.181974,0.007660,-0.983273,-0.068774,0.020218,0.026150,26.659485,-32.504990,-12.342346,,,,,,,
1522136964.022176,-0.180369,-0.005401,0.778602,0.065562,0.179728,0.028288,-0.179389,0.005401,-0.983763,-0.058480,0.014359,-0.056276,27.107239,-33.405884,-11.213562,,,,,,,
1522136964.052144,-0.176534,-0.003037,0.780009,0.055294,0.025716,0.022045,-0.175617,0.003037,-0.984453,-0.107861,0.028992,-0.012083,28.152420,-34.160126,-10.760010,,,,,,,
1522136964.082112,-0.176704,-0.002123,0.781010,0.039204,0.008751,0.022052,-0.175785,0.002123,-0.984426,-0.121532,0.000044,0.007253,27.695419,-34.907990,-10.682190,,,,,,,
1522136964.112081,-0.175180,-0.000888,0.782277,0.066217,0.110522,0.047538,-0.174285,0.000888,-0.984694,-0.080629,-0.018862,0.009139,28.973663,-35.212692,-9.630371,,,,,,,
,,,,,,,,,,,,,,,,25.314667,51.449295,11.837940,0.951460,-1.000000,1522136964.106940,
1522136964.142049,-0.171106,0.000886,0.783793,0.063353,0.163798,0.028301,-0.170272,-0.000886,-0.985396,-0.059327,0.009034,-0.012971,28.818893,-35.736923,-9.553345,,,,,,,
1522136964.172017,-0.168460,0.001259,0.784088,-0.032055,0.011385,-0.027009,-0.167665,-0.001259,-0.985843,-0.084289,0.012642,-0.026257,29.863464,-36.191757,-9.700989,,,,,,,
1522136964.201985,-0.172454,-0.000069,0.783553,-0.058733,-0.191646,-0.003400,-0.171601,0.000069,-0.985166,-0.111374,-0.006448,0.055128,30.610580,-36.345352,-9.924988,,,,,,,
1522136964.231954,-0.175361,-0.002339,0.783901,-0.086670,0.026112,0.015548,-0.174463,0.002339,-0.984660,-0.095526,0.023952,0.077159,30.606705,-36.870117,-9.697937,,,,,,,
1522136964.261922,-0.171022,-0.004787,0.784246,-0.084808,0.203573,0.015364,-0.170188,0.004787,-0.985399,-0.097436,-0.005992,-0.009306,30.454895,-36.869736,-9.997986,,,,,,,
1522136964.291890,-0.167580,-0.008171,0.784221,-0.126875,0.081642,-0.007986,-0.166791,0.008171,-0.985958,-0.083590,0.005424,-0.065388,30.602951,-37.020477,-10.072327,,,,,,,
1522136964.321858,-0.169315,-0.011281,0.782951,-0.098651,-0.098787,-0.048275,-0.168497,0.011281,-0.985637,-0.093756,0.009334,0.001125,30.673141,-37.321075,-10.371094,,,,,,,
1522136964.351838,-0.173517,-0.013691,0.781810,-0.089270,-0.121316,-0.022665,-0.172632,0.013691,-0.984891,-0.094885,-0.016193,0.046338,30.890610,-37.398193,-11.495667,,,,,,,
1522136964.381806,-0.175144,-0.016116,0.781075,-0.084436,0.014635,-0.014279,-0.174227,0.016116,-0.984573,-0.070448,-0.007144,0.039352,30.140350,-37.694366,-11.044861,,,,,,,
1522136964.411774,-0.172976,-0.019070,0.780743,-0.109707,0.094390,-0.013315,-0.172084,0.019069,-0.984897,-0.095067,0.023656,-0.005886,29.911484,-37.993484,-11.193787,,,,,,,
1522136964.441743,-0.170590,-0.021085,0.779000,-0.043979,0.124595,-0.101732,-0.169726,0.021083,-0.985265,-0.105924,0.023579,-0.011958,30.197983,-38.670883,-12.315918,,,,,,,
1522136964.471711,-0.168073,-0.019134,0.775750,0.091579,0.077729,-0.134612,-0.167252,0.019132,-0.985728,-0.066543,0.001421,-0.022664,30.195297,-39.120575,-12.014099,,,,,,,
1522136964.501679,-0.166683,-0.014359,0.773296,0.165986,0.008452,-0.131291,-0.165895,0.014359,-0.986038,-0.062590,0.009125,-0.051849,28.985443,-40.015289,-12.161133,,,,,,,
1522136964.531647,-0.170401,-0.008113,0.771297,0.213028,-0.189462,-0.109746,-0.169572,0.008113,-0.985484,-0.100874,0.041417,-0.023290,28.907028,-40.539627,-11.859070,,,,,,,
1522136964.561616,-0.177604,-0.000821,0.770230,0.222531,-0.214969,-0.111847,-0.176672,0.000821,-0.984269,-0.095957,0.044330,0.070588,28.373367,-41.137680,-12.307007,,,,,,,
1522136964.591584,-0.179609,0.004714,0.767227,0.131074,0.041713,-0.164383,-0.178643,-0.004714,-0.983902,-0.115409,0.067732,0.074783,28.294037,-41.662155,-12.154907,,,,,,,
1522136964.621552,-0.175888,0.007945,0.764394,0.064279,0.182970,-0.131540,-0.174977,-0.007945,-0.984540,-0.104625,0.042429,-0.000186,28.744324,-41.813889,-11.854065,,,,,,,
1522136964.651520,-0.172505,0.010166,0.762432,0.069964,0.096448,-0.068586,-0.171641,-0.010166,-0.985106,-0.105763,0.020557,-0.038865,27.766068,-42.409027,-11.402161,,,,,,,
1522136964.681489,-0.172466,0.013066,0.762565,0.121538,-0.037744,-0.042843,-0.171597,-0.013065,-0.985080,-0.063709,0.031681,-0.022641,27.238708,-43.006073,-10.800049,,,,,,,
1522136964.711457,-0.174367,0.015855,0.763272,0.072160,-0.032715,0.013596,-0.173463,-0.015854,-0.984712,-0.063415,0.043762,0.020540,28.212021,-43.085587,-10.949219,,,,,,,
1522136964.741425,-0.174828,0.015304,0.764306,-0.071743,0.026042,0.019823,-0.173918,-0.015304,-0.984641,-0.111498,0.054427,0.022650,27.607880,-43.682571,-10.647156,,,,,,,
1522136964.771393,-0.173665,0.010504,0.766085,-0.209553,0.045288,0.051667,-0.172783,-0.010504,-0.984903,-0.092323,0.005941,0.011438,27.154160,-44.280136,-10.270020,,,,,,,
1522136964.801362,-0.171173,0.001757,0.766821,-0.326623,0.150664,0.069580,-0.170338,-0.001757,-0.985384,-0.124492,-0.009123,-0.007658,27.075562,-44.505020,-10.494080,,,,,,,
1522136964.831330,-0.166529,-0.008620,0.767352,-0.326554,0.133856,0.041893,-0.165754,0.008620,-0.986129,-0.057680,0.005830,-0.032899,26.997131,-45.253998,-9.816162,,,,,,,
1522136964.861298,-0.163389,-0.016604,0.766267,-0.228184,0.125357,0.006812,-0.162641,0.016603,-0.986545,-0.056247,0.007491,-0.031918,26.619476,-45.926605,-9.138672,,,,,,,
1522136964.891266,-0.161858,-0.021047,0.765003,-0.094024,-0.008542,-0.038773,-0.161117,0.021046,-0.986710,-0.081117,-0.004978,-0.044204,27.889954,-46.606949,-8.760315,,,,,,,
1522136964.921235,-0.166597,-0.020516,0.764145,0.075659,-0.253451,-0.028799,-0.165792,0.020515,-0.985947,-0.071513,-0.007896,0.001846,28.038467,-47.431488,-7.631958,,,,,,,
1522136964.951203,-0.174327,-0.017069,0.764128,0.115535,-0.178041,-0.036312,-0.173420,0.017068,-0.984699,-0.107418,0.014166,0.085041,28.712875,-48.258255,-6.353271,,,,,,,
1522136964.981171,-0.178204,-0.013508,0.762920,0.092693,-0.076783,-0.072657,-0.177246,0.013508,-0.984073,-0.095505,0.039227,0.066089,30.437500,-48.565552,-5.901245,,,,,,,
1522136965.011139,-0.176239,-0.011547,0.761303,0.039973,0.082665,-0.062202,-0.175316,0.011547,-0.984444,-0.056694,0.037449,-0.017631,31.794388,-48.870010,-4.249329,,,,,,,
1522136965.041108,-0.177785,-0.009526,0.759929,0.076441,-0.101358,-0.048136,-0.176842,0.009526,-0.984193,-0.057091,0.045268,-0.001098,33.894302,-48.879456,-4.248230,,,,,,,
1522136965.071076,-0.182802,-0.007567,0.759417,0.067433,-0.173761,-0.022505,-0.181780,0.007567,-0.983309,-0.087614,0.059572,0.043704,35.924438,-48.363586,-4.249268,,,,,,,
1522136965.101044,-0.187770,-0.005803,0.759652,0.063277,-0.108102,0.011519,-0.186665,0.005803,-0.982406,-0.075496,0.052898,0.085204,39.005569,-47.253296,-5.077209,,,,,,,
,,,,,,,,,,,,,,,,25.314717,51.449276,11.906178,1.237519,-1.000000,1522136965.110842,
1522136965.131013,-0.186704,-0.005379,0.761131,-0.014803,0.168968,0.075126,-0.185618,0.005379,-0.982607,-0.060933,0.011360,0.034578,40.891724,-45.912155,-5.456604,,,,,,,
1522136965.160981,-0.180182,-0.008974,0.764008,-0.136624,0.213492,0.133594,-0.179201,0.008974,-0.983771,-0.097105,0.012205,-0.063089,44.870987,-43.907700,-8.087646,,,,,,,
1522136965.190949,-0.177649,-0.014819,0.766645,-0.176854,0.027801,0.111369,-0.176697,0.014818,-0.984153,-0.099930,0.007505,-0.041253,45.996033,-42.864487,-9.816223,,,,,,,
1522136965.220917,-0.178082,-0.020555,0.768826,-0.175794,0.015116,0.101792,-0.177105,0.020554,-0.983977,-0.073780,-0.011124,-0.000795,48.313171,-40.629929,-14.848999,,,,,,,
1522136965.250886,-0.174329,-0.026236,0.770877,-0.167392,0.229657,0.111184,-0.173388,0.026233,-0.984504,-0.025480,-0.023990,-0.048532,49.209503,-39.511459,-17.328003,,,,,,,
1522136965.280854,-0.168234,-0.030629,0.773403,-0.097182,0.138323,0.080422,-0.167363,0.030624,-0.985419,-0.039760,-0.007324,-0.103051,47.326218,-37.632492,-21.836487,,,,,,,
1522136965.310822,-0.167913,-0.031725,0.774125,0.020729,-0.118379,-0.025783,-0.167041,0.031720,-0.985439,-0.101239,0.009937,-0.124104,45.962173,-37.329193,-24.688416,,,,,,,
1522136965.340762,-0.177448,-0.028193,0.771908,0.146784,-0.452710,-0.124455,-0.176448,0.028189,-0.983906,-0.043400,0.000772,0.005527,40.833679,-37.161148,-29.716553,,,,,,,
1522136965.370731,-0.190036,-0.023106,0.769125,0.141986,-0.307296,-0.101155,-0.188844,0.023104,-0.981735,-0.053984,0.001600,0.132339,37.748581,-36.999222,-31.668762,,,,,,,
1522136965.400699,-0.193119,-0.018085,0.766489,0.160661,0.004261,-0.137685,-0.191889,0.018084,-0.981249,-0.070486,0.044950,0.083331,31.653885,-38.023376,-33.242737,,,,,,,
1522136965.430667,-0.193807,-0.011298,0.762953,0.219232,-0.078468,-0.180181,-0.192583,0.011297,-0.981215,-0.102034,0.065409,0.014021,28.191620,-39.207855,-33.314758,,,,,,,
1522136965.460635,-0.198871,-0.004206,0.758430,0.179393,-0.155932,-0.182259,-0.197561,0.004206,-0.980281,-0.066508,0.038107,0.066508,24.059021,-40.238815,-32.862671,,,,,,,
1522136965.490604,-0.201778,-0.000164,0.755014,0.075033,-0.021162,-0.118544,-0.200411,0.000164,-0.979711,-0.079511,0.083302,0.027380,18.204971,-42.085068,-30.458191,,,,,,,
1522136965.520572,-0.199742,0.001309,0.752432,0.007057,0.092483,-0.087804,-0.198416,-0.001309,-0.980116,-0.074884,0.070782,-0.017748,16.775421,-43.127655,-29.479736,,,,,,,
1522136965.550540,-0.198787,0.000273,0.750075,-0.067140,0.013821,-0.055821,-0.197480,-0.000273,-0.980306,-0.094543,0.045347,0.016225,12.065704,-44.301956,-24.977478,,,,,,,
1522136965.580508,-0.197702,-0.001768,0.749630,-0.042628,0.108761,0.034670,-0.196416,0.001768,-0.980518,-0.067988,0.026888,0.039204,10.796631,-44.969147,-22.875427,,,,,,,
1522136965.610477,-0.190288,-0.004594,0.751581,-0.111223,0.366659,0.103621,-0.189140,0.004594,-0.981939,-0.052636,0.026473,-0.068797,9.761139,-45.860580,-18.972412,,,,,,,
1522136965.640445,-0.179727,-0.011039,0.753322,-0.254423,0.300293,0.071617,-0.178750,0.011039,-0.983832,-0.046744,0.021401,-0.164102,10.218964,-46.385468,-16.795044,,,,,,,
1522136965.670413,-0.176726,-0.019967,0.753247,-0.304896,-0.042581,0.037837,-0.175772,0.019966,-0.984228,-0.059320,-0.028648,-0.103999,12.183762,-46.841080,-13.567200,,,,,,,
1522136965.700382,-0.182064,-0.027817,0.753337,-0.203262,-0.215071,0.052996,-0.180990,0.027813,-0.983091,-0.041895,-0.027233,-0.006640,13.172089,-46.768433,-11.467041,,,,,,,
1522136965.730350,-0.187762,-0.031512,0.753797,-0.063897,-0.128057,0.019984,-0.186568,0.031507,-0.981936,-0.064424,0.001559,0.062121,16.851761,-47.158554,-10.038635,,,,,,,
1522136965.760318,-0.190469,-0.031816,0.752670,0.004011,-0.092511,-0.072701,-0.189223,0.031810,-0.981418,-0.067292,0.014683,0.042972,19.108093,-46.793259,-9.588989,,,,,,,
1522136965.790286,-0.193986,-0.031122,0.750101,0.010426,-0.110458,-0.090797,-0.192678,0.031117,-0.980768,-0.087123,0.007229,0.067850,20.756088,-46.726120,-10.038452,,,,,,,
1522136965.820255,-0.197308,-0.029242,0.748418,0.082943,-0.085408,-0.052407,-0.195946,0.029238,-0.980178,-0.060401,0.023710,0.094192,21.722778,-47.106232,-10.786438,,,,,,,
1522136965.850223,-0.197398,-0.025987,0.748016,0.107030,0.076952,-0.028053,-0.196052,0.025984,-0.980248,-0.049416,0.048006,0.037744,21.497192,-46.805801,-11.387695,,,,,,,
1522136965.880191,-0.193620,-0.023008,0.748295,0.098759,0.175549,0.005943,-0.192361,0.023006,-0.981054,-0.045646,0.058003,-0.014765,19.549957,-46.347351,-11.690491,,,,,,,
1522136965.910159,-0.188832,-0.019916,0.749694,0.136758,0.122065,0.043317,-0.187674,0.019914,-0.982029,-0.060724,0.039335,-0.049740,18.205124,-45.966080,-11.467712,,,,,,,
1522136965.940128,-0.186687,-0.015948,0.751782,0.151456,0.074149,0.050842,-0.185581,0.015948,-0.982499,-0.045117,0.022825,-0.080810,16.879608,-44.683167,-9.523499,,,,,,,
1522136965.970096,-0.184389,-0.014096,0.754203,0.022124,0.056345,0.061410,-0.183328,0.014095,-0.982950,-0.057425,0.007145,-0.108008,14.645599,-43.846848,-8.252930,,,,,,,
1522136966.000064,-0.183747,-0.015972,0.755259,-0.087989,0.003616,0.043267,-0.182691,0.015971,-0.983040,-0.022692,0.001363,-0.070442,12.508011,-41.584747,-5.788086,,,,,,,
1522136966.030032,-0.184094,-0.019596,0.755735,-0.131770,-0.007923,0.035795,-0.183021,0.019595,-0.982913,-0.027581,0.008176,-0.037503,12.601151,-40.533905,-4.517212,,,,,,,
1522136966.060001,-0.185141,-0.022440,0.755293,-0.043138,-0.080985,-0.031200,-0.184039,0.022438,-0.982662,-0.071546,0.036552,-0.053303,10.838272,-39.246933,-0.473267,,,,,,,
1522136966.089969,-0.190886,-0.020649,0.753539,0.090824,-0.253180,-0.071416,-0.189688,0.020647,-0.981627,-0.072305,0.006987,-0.017366,10.928116,-38.795609,1.249939,,,,,,,
1522136966.119937,-0.197955,-0.018056,0.751814,0.051656,-0.186093,-0.077906,-0.196633,0.018055,-0.980310,-0.054146,0.029171,0.005365,10.193604,-38.415359,3.198059,,,,,,,
,,,,,,,,,,,,,,,,25.314757,51.449259,11.942219,1.428745,-1.000000,1522136966.111662,
1522136966.149905,-0.202425,-0.016564,0.749774,0.033757,-0.127634,-0.074776,-0.201017,0.016564,-0.979447,-0.081911,0.055229,0.004883,10.448502,-38.037170,7.546692,,,,,,,
1522136966.179874,-0.206759,-0.015620,0.748329,-0.007060,-0.133130,-0.033251,-0.205264,0.015619,-0.978581,-0.066633,0.042257,0.041341,10.611542,-38.035721,9.721802,,,,,,,
1522136966.209842,-0.209957,-0.016796,0.747932,-0.050776,-0.073802,0.007150,-0.208389,0.016795,-0.977901,-0.073792,0.030248,0.086315,13.268265,-37.518250,14.146057,,,,,,,
1522136966.239810,-0.211644,-0.018907,0.748202,-0.083681,-0.002697,0.031561,-0.210030,0.018905,-0.977511,-0.080100,0.009415,0.103946,14.259308,-37.669785,17.072144,,,,,,,
1522136966.269778,-0.208434,-0.023713,0.748003,-0.200227,0.167782,0.006797,-0.206870,0.023710,-0.978080,-0.103768,0.015733,0.058280,19.163391,-37.462341,21.573792,,,,,,,
1522136966.299747,-0.203349,-0.029703,0.746022,-0.198983,0.183863,-0.013466,-0.201861,0.029698,-0.978963,-0.097913,-0.020162,0.052083,22.999359,-37.402878,23.300415,,,,,,,
1522136966.329740,-0.197802,-0.035369,0.746083,-0.163989,0.237313,0.079211,-0.196391,0.035362,-0.979887,-0.085484,-0.014549,0.057554,29.392258,-37.278870,26.078186,,,,,,,
1522136966.359708,-0.189255,-0.038601,0.748230,-0.031142,0.328444,0.069622,-0.187987,0.038591,-0.981412,-0.103121,0.026030,-0.020190,33.595383,-37.372116,26.755615,,,,,,,
1522136966.389677,-0.178989,-0.036765,0.748849,0.116719,0.339335,-0.020847,-0.177915,0.036757,-0.983359,0.012738,0.025423,-0.080637,42.449509,-36.961945,26.758423,,,,,,,
1522136966.419645,-0.172217,-0.032316,0.749651,0.151066,0.190204,0.019816,-0.171277,0.032310,-0.984692,0.018979,-0.003379,-0.108188,46.344833,-36.755600,25.634521,,,,,,,
1522136966.449613,-0.169974,-0.027561,0.750478,0.190900,-0.022133,-0.021493,-0.169093,0.027557,-0.985214,-0.023458,0.022324,-0.101135,54.647675,-36.272461,21.136719,,,,,,,
1522136966.479581,-0.173957,-0.020886,0.751016,0.223333,-0.150902,-0.005356,-0.173043,0.020884,-0.984692,0.014733,0.028783,0.010983,58.449814,-36.218475,17.238464,,,,,,,
1522136966.509519,-0.177452,-0.016338,0.751944,0.113438,-0.122013,0.005189,-0.176499,0.016337,-0.984165,-0.012222,0.025350,0.033390,60.759232,-35.707321,13.787537,,,,,,,
1522136966.539487,-0.180946,-0.014130,0.752406,0.060051,-0.128230,0.000896,-0.179942,0.014129,-0.983575,-0.071904,0.033600,0.032022,63.486313,-35.053650,4.711304,,,,,,,
1522136966.569456,-0.184366,-0.013052,0.752680,0.035721,-0.072958,0.006155,-0.183308,0.013052,-0.982968,-0.039821,-0.001974,0.062665,64.654846,-35.139023,-0.387756,,,,,,,
1522136966.599424,-0.184451,-0.012755,0.753455,-0.002220,0.056707,0.019829,-0.183392,0.012754,-0.982956,-0.066807,0.011919,-0.007720,60.850174,-35.430511,-9.013489,,,,,,,
1522136966.629392,-0.182966,-0.013379,0.753077,-0.018169,0.018783,-0.023821,-0.181930,0.013378,-0.983220,-0.067566,0.035114,-0.031993,58.494217,-36.098969,-13.062073,,,,,,,
1522136966.659360,-0.185351,-0.013172,0.752464,0.022716,-0.118572,0.001918,-0.184275,0.013171,-0.982786,-0.075109,0.015775,-0.001620,51.100845,-37.196091,-18.461365,,,,,,,
1522136966.689329,-0.187804,-0.012487,0.753269,0.028497,0.009798,0.028435,-0.186687,0.012487,-0.982339,-0.063771,0.021129,0.000223,47.412354,-37.556152,-20.111755,,,,,,,
1522136966.719297,-0.185528,-0.011972,0.753646,0.005665,0.101538,-0.016416,-0.184452,0.011972,-0.982768,-0.071804,0.022971,-0.068318,40.948532,-38.353043,-21.086792,,,,,,,
1522136966.749265,-0.183799,-0.012909,0.752222,-0.078980,-0.015867,-0.062188,-0.182750,0.012908,-0.983074,-0.090458,-0.001098,-0.071751,38.172455,-38.640244,-20.787048,,,,,,,
1522136966.779233,-0.185788,-0.015940,0.749412,-0.117650,-0.074178,-0.067484,-0.184697,0.015939,-0.982666,-0.071620,0.015830,0.006866,33.080933,-38.915466,-18.913513,,,,,,,
1522136966.809202,-0.187462,-0.018572,0.747971,-0.083589,-0.022655,-0.002511,-0.186333,0.018571,-0.982310,-0.044242,0.019835,0.048808,32.116196,-38.609924,-17.715210,,,,,,,
1522136966.839170,-0.185615,-0.019628,0.747729,0.020550,0.113062,0.003819,-0.184516,0.019627,-0.982633,-0.099283,0.046062,0.014768,31.744232,-38.982117,-16.588867,,,,,,,
1522136966.869138,-0.183616,-0.017919,0.747799,0.044865,0.040837,-0.011000,-0.182556,0.017918,-0.983031,-0.035675,0.013591,-0.006150,30.480698,-39.274033,-14.188354,,,,,,,
1522136966.899106,-0.180869,-0.019013,0.748250,-0.078831,0.135369,0.039951,-0.179852,0.019012,-0.983509,-0.034641,0.002091,-0.016903,29.802750,-39.795593,-13.811646,,,,,,,
1522136966.929075,-0.177956,-0.022053,0.749247,-0.088717,0.081155,0.046392,-0.176975,0.022051,-0.983968,-0.045483,0.014310,-0.015346,28.378876,-40.313156,-12.760254,,,,,,,
1522136966.959043,-0.177483,-0.024556,0.750585,-0.065652,-0.024036,0.036927,-0.176500,0.024553,-0.983994,-0.015303,0.000395,0.037033,27.552139,-40.758972,-12.308899,,,,,,,
1522136966.989011,-0.178956,-0.026219,0.751605,-0.037881,-0.025128,0.032680,-0.177941,0.026216,-0.983691,-0.033637,-0.024232,0.072406,26.284714,-41.126404,-10.433044,,,,,,,
1522136967.018980,-0.178505,-0.026815,0.752837,0.005025,0.028865,0.043325,-0.177494,0.026812,-0.983756,-0.074428,-0.007876,0.038291,25.622513,-40.971542,-8.559021,,,,,,,
1522136967.048948,-0.176914,-0.027143,0.753745,-0.033051,0.076991,0.014471,-0.175927,0.027139,-0.984028,-0.063041,-0.005930,-0.002391,24.508850,-41.638519,-5.556885,,,,,,,
1522136967.078916,-0.174998,-0.028783,0.753126,-0.066025,0.049787,-0.033479,-0.174034,0.028779,-0.984318,-0.016212,0.007995,0.002247,24.515167,-41.862137,-4.130981,,,,,,,
1522136967.108884,-0.173593,-0.029810,0.752052,-0.015884,0.065433,-0.011073,-0.172645,0.029806,-0.984532,-0.030693,0.015619,-0.018275,24.599823,-42.609665,-1.277954,,,,,,,
,,,,,,,,,,,,,,,,25.314804,51.449238,11.961642,-1.000000,-1.000000,1522136967.117043,
1522136967.138853,-0.173337,-0.029183,0.752413,0.049830,-0.018825,0.009310,-0.172397,0.029179,-0.984595,-0.026181,0.026439,-0.021875,25.653687,-42.988144,-0.000854,,,,,,,
1522136967.168821,-0.174940,-0.026907,0.752297,0.078727,-0.049423,-0.031132,-0.173986,0.026903,-0.984380,-0.029032,0.012312,0.008352,26.175690,-43.739731,0.752380,,,,,,,
1522136967.198789,-0.175478,-0.026010,0.751441,-0.012775,0.011435,-0.039787,-0.174520,0.026007,-0.984309,-0.027384,-0.002295,-0.034764,28.420853,-45.173248,2.334229,,,,,,,
1522136967.228757,-0.177859,-0.026916,0.750796,-0.036055,-0.134369,-0.000228,-0.176859,0.026913,-0.983868,-0.069708,-0.007046,-0.004841,29.620514,-45.478195,2.786011,,,,,,,
1522136967.258726,-0.182109,-0.027706,0.750850,-0.009245,-0.112083,-0.004497,-0.181035,0.027703,-0.983086,-0.063548,0.034080,0.054360,33.140274,-46.093887,2.940308,,,,,,,
1522136967.288694,-0.182878,-0.027073,0.750485,0.012952,0.054808,-0.021695,-0.181794,0.027069,-0.982963,-0.055786,0.026687,0.030098,33.436981,-46.470123,3.016968,,,,,,,
1522136967.318662,-0.180396,-0.027753,0.749583,-0.049868,0.083702,-0.029226,-0.179350,0.027749,-0.983393,-0.049456,0.005576,-0.049810,36.742828,-45.885010,3.016235,,,,,,,
1522136967.348622,-0.179417,-0.029032,0.748814,-0.027880,0.015480,-0.005702,-0.178381,0.029028,-0.983533,-0.050867,-0.001913,-0.023837,38.692871,-45.519394,2.415710,,,,,,,
1522136967.378592,-0.178596,-0.029640,0.748911,-0.010765,0.037665,0.007073,-0.177570,0.029636,-0.983661,-0.050153,0.012982,-0.044110,40.570465,-44.853516,1.739014,,,,,,,
1522136967.408559,-0.178683,-0.029729,0.748556,-0.005445,-0.002496,-0.024854,-0.177655,0.029725,-0.983643,-0.044208,0.018310,-0.018218,41.846161,-44.334991,0.987610,,,,,,,
1522136967.438527,-0.179307,-0.029260,0.747160,0.018155,-0.025657,-0.065297,-0.178272,0.029256,-0.983546,-0.038205,0.008860,-0.029836,44.984299,-43.901825,-1.712585,,,,,,,
1522136967.468495,-0.180809,-0.027610,0.746183,0.058202,-0.099326,-0.028969,-0.179757,0.027606,-0.983323,-0.007682,0.003384,-0.039428,44.904938,-43.752441,-2.688232,,,,,,,
1522136967.498464,-0.184715,-0.025964,0.745319,0.039993,-0.145852,-0.056632,-0.183604,0.025961,-0.982657,-0.045476,0.038035,0.019522,45.797180,-43.083862,-5.090454,,,,,,,
1522136967.528432,-0.188915,-0.024780,0.743032,0.015832,-0.110399,-0.102507,-0.187735,0.024778,-0.981906,-0.053231,0.048251,0.078891,46.621658,-42.189148,-6.668640,,,,,,,
1522136967.558400,-0.189890,-0.023722,0.740178,0.024836,0.027499,-0.071737,-0.188697,0.023719,-0.981748,-0.019875,0.020989,0.063139,45.800430,-41.585831,-7.046448,,,,,,,
1522136967.588368,-0.186166,-0.023202,0.739665,0.028248,0.173526,0.014427,-0.185042,0.023200,-0.982456,-0.020707,0.031167,-0.031643,45.886459,-39.712509,-8.328857,,,,,,,
1522136967.618337,-0.182856,-0.022198,0.741450,0.063758,0.074164,0.079546,-0.181794,0.022196,-0.983085,-0.037841,0.036001,-0.055458,46.716522,-38.891754,-8.856750,,,,,,,
1522136967.648305,-0.181662,-0.021261,0.744388,0.039046,0.043388,0.082755,-0.180623,0.021260,-0.983322,-0.052958,0.028255,-0.053848,46.276215,-36.791672,-10.740417,,,,,,,
1522136967.678273,-0.181762,-0.021307,0.745511,-0.011128,-0.031470,0.016731,-0.180722,0.021305,-0.983303,-0.013980,0.002773,-0.039128,46.273483,-36.118225,-12.318115,,,,,,,
1522136967.708242,-0.183317,-0.023125,0.746094,-0.071265,-0.077212,0.044439,-0.182244,0.023123,-0.982981,-0.005104,-0.022055,0.027353,47.400009,-34.026535,-15.550903,,,,,,,
1522136967.738210,-0.186310,-0.024716,0.747102,-0.017903,-0.088986,0.038096,-0.185177,0.024713,-0.982394,-0.074100,0.007101,0.069643,46.722321,-33.574677,-16.753052,,,,,,,
1522136967.768178,-0.186677,-0.024873,0.747612,-0.007595,0.020699,-0.000361,-0.185537,0.024870,-0.982322,-0.077463,0.005525,0.014030,45.585754,-32.523254,-20.432800,,,,,,,
1522136967.798146,-0.185065,-0.026058,0.747280,-0.077753,0.101559,0.010160,-0.183948,0.026055,-0.982590,-0.036557,-0.023812,-0.011535,45.354752,-32.223709,-21.934143,,,,,,,
1522136967.828115,-0.180782,-0.028201,0.746996,-0.036759,0.188643,0.003705,-0.179727,0.028197,-0.983312,0.020075,-0.001037,-0.028010,42.050171,-31.236254,-24.339783,,,,,,,
1522136967.858083,-0.176255,-0.027983,0.748732,0.045906,0.147481,0.085854,-0.175275,0.027979,-0.984121,0.012891,0.002752,-0.044336,40.844955,-31.081957,-25.466003,,,,,,,
1522136967.888052,-0.174027,-0.025880,0.752291,0.092354,0.042108,0.095579,-0.173092,0.025877,-0.984565,0.001812,0.008318,-0.021920,39.867722,-30.404055,-26.969116,,,,,,,
1522136967.918020,-0.172712,-0.024216,0.754639,0.039050,0.013807,0.057217,-0.171804,0.024214,-0.984833,0.022313,-0.015898,-0.015350,33.941757,-29.778597,-28.174561,,,,,,,
1522136967.947989,-0.171552,-0.025668,0.756314,-0.078379,0.048970,0.084799,-0.170655,0.025665,-0.984996,-0.020049,-0.031448,-0.035420,31.844376,-29.244616,-28.627747,,,,,,,
1522136967.977957,-0.171314,-0.028710,0.758155,-0.083935,-0.015725,0.069939,-0.170407,0.028706,-0.984955,-0.049030,-0.003514,-0.012283,27.138290,-27.797686,-27.885864,,,,,,,
1522136968.007924,-0.171210,-0.031119,0.759904,-0.070989,0.009763,0.066729,-0.170292,0.031114,-0.984902,-0.024715,0.002425,-0.017067,23.774094,-27.705904,-26.238037,,,,,,,
1522136968.037892,-0.169295,-0.033957,0.760576,-0.108712,0.105863,0.013330,-0.168390,0.033950,-0.985135,-0.007696,-0.025054,-0.048144,18.999985,-27.455523,-22.341370,,,,,,,
1522136968.067861,-0.168154,-0.037272,0.760316,-0.111390,-0.023687,0.003859,-0.167246,0.037263,-0.985210,0.022257,-0.022264,-0.046803,18.639877,-27.451433,-19.866577,,,,,,,
1522136968.097829,-0.171017,-0.039931,0.759647,-0.060540,-0.127869,-0.008779,-0.170048,0.039920,-0.984626,-0.034389,0.000027,0.035102,17.543625,-28.040712,-14.089783,,,,,,,
,,,,,,,,,,,,,,,,25.314856,51.449214,11.972150,-1.000000,-1.000000,1522136968.100750,
1522136968.127797,-0.174936,-0.040031,0.758029,0.019011,-0.101987,-0.090793,-0.173905,0.040020,-0.983948,-0.009719,0.004704,0.055542,17.480515,-28.562578,-11.237732,,,,,,,
1522136968.157765,-0.174854,-0.038631,0.755775,0.023926,0.072086,-0.064328,-0.173835,0.038621,-0.984017,0.007880,-0.014802,-0.016701,20.200119,-29.170549,-6.958923,,,,,,,
1522136968.187734,-0.173439,-0.037513,0.754288,0.058007,0.052853,-0.063209,-0.172449,0.037504,-0.984304,-0.048864,0.048174,-0.074016,22.009506,-29.177111,-5.382935,,,,,,,
1522136968.217702,-0.174576,-0.033210,0.753701,0.180932,-0.113464,-0.028851,-0.173595,0.033204,-0.984257,-0.047078,0.043334,-0.054836,24.338638,-29.261766,-4.556458,,,,,,,
1522136968.247670,-0.180046,-0.027602,0.754434,0.183471,-0.224177,0.001088,-0.179007,0.027599,-0.983460,-0.053293,0.034855,0.001206,26.807678,-29.723085,-4.778381,,,,,,,
1522136968.277639,-0.187218,-0.023192,0.755534,0.125746,-0.226257,0.013839,-0.186076,0.023190,-0.982261,-0.035650,0.025608,0.063453,28.154022,-29.729753,-5.377686,,,,,,,
1522136968.307607,-0.192708,-0.022155,0.756957,-0.015132,-0.142391,0.075449,-0.191471,0.022153,-0.981248,-0.046338,0.026660,0.124940,30.599197,-31.093447,-8.070984,,,,,,,
1522136968.337573,-0.193242,-0.024785,0.759841,-0.063360,0.093392,0.109272,-0.191982,0.024782,-0.981085,-0.076511,0.036146,0.112249,30.957108,-31.996401,-9.417175,,,,,,,
1522136968.367541,-0.189445,-0.024899,0.762684,0.057457,0.097557,0.079518,-0.188256,0.024897,-0.981804,-0.075279,-0.005762,0.040611,29.284378,-32.966049,-11.589233,,,,,,,
1522136968.397510,-0.190085,-0.025397,0.764546,-0.069323,-0.123951,0.041292,-0.188882,0.025394,-0.981671,-0.042655,-0.010639,0.012433,28.819397,-33.565460,-13.087036,,,,,,,
1522136968.427478,-0.194385,-0.029364,0.765068,-0.139567,-0.105542,0.015655,-0.193080,0.029360,-0.980743,-0.041814,-0.002001,0.056945,26.860474,-33.782761,-14.212158,,,,,,,
1522136968.457446,-0.194151,-0.032564,0.764840,-0.067962,0.126091,-0.004783,-0.192831,0.032558,-0.980691,-0.023203,0.017476,0.047341,25.575638,-34.452499,-14.735107,,,,,,,
1522136968.487414,-0.188424,-0.031720,0.763884,0.054256,0.165532,-0.066529,-0.187217,0.031715,-0.981806,0.016700,0.001214,-0.015631,25.869202,-35.278519,-14.431641,,,,,,,
1522136968.517383,-0.184848,-0.031590,0.761127,-0.057995,0.115972,-0.081479,-0.183705,0.031585,-0.982473,-0.010264,-0.019119,-0.005762,24.667603,-35.572891,-14.206116,,,,,,,
1522136968.547351,-0.180705,-0.034068,0.759562,-0.090044,0.204721,0.000464,-0.179619,0.034061,-0.983146,-0.008507,0.032726,0.002067,24.361633,-36.171509,-14.203857,,,,,,,
1522136968.577319,-0.172052,-0.034951,0.760419,0.025319,0.296409,0.068647,-0.171100,0.034944,-0.984633,0.003192,0.036467,-0.056443,24.056564,-36.545364,-14.427490,,,,,,,
1522136968.607287,-0.164411,-0.034005,0.762558,0.029287,0.213632,0.053808,-0.163576,0.033998,-0.985944,-0.027799,0.004835,-0.070330,23.989212,-36.319153,-13.528381,,,,,,,
1522136968.637256,-0.160093,-0.035687,0.764070,-0.134177,0.142063,0.013270,-0.159309,0.035680,-0.986583,0.015541,-0.026937,-0.046833,24.220505,-35.869904,-13.230103,,,,,,,
1522136968.667224,-0.154594,-0.043637,0.763594,-0.335738,0.181951,0.003489,-0.153832,0.043624,-0.987133,0.000527,-0.032744,-0.050251,24.596817,-35.422119,-13.756714,,,,,,,
1522136968.697191,-0.151017,-0.054614,0.762045,-0.390300,0.071036,-0.071028,-0.150219,0.054587,-0.987144,-0.007694,0.008325,-0.061364,24.677200,-35.196960,-13.232544,,,,,,,
1522136968.727160,-0.150670,-0.065657,0.757684,-0.374293,0.018167,-0.114646,-0.149777,0.065610,-0.986540,-0.002231,-0.007016,-0.041521,24.827042,-34.898163,-13.758667,,,,,,,
1522136968.757128,-0.151783,-0.073188,0.754323,-0.174982,-0.044041,-0.102716,-0.150796,0.073123,-0.985856,-0.027717,-0.000552,-0.033385,26.024445,-34.754227,-14.433655,,,,,,,
1522136968.787097,-0.153964,-0.073459,0.752478,0.078836,-0.068305,-0.067335,-0.152943,0.073393,-0.985505,-0.041591,0.024233,-0.023467,24.746048,-35.273178,-14.132263,,,,,,,
1522136968.817065,-0.155288,-0.066984,0.754051,0.303927,-0.004680,0.023337,-0.154318,0.066933,-0.985751,-0.020746,0.014014,-0.008252,24.970032,-35.873352,-13.304688,,,,,,,
1522136968.847033,-0.154309,-0.057369,0.758386,0.346367,0.027588,0.103255,-0.153444,0.057337,-0.986492,0.042192,-0.001810,-0.041844,25.871475,-35.727402,-13.304871,,,,,,,
1522136968.877002,-0.153931,-0.048260,0.763678,0.296202,-0.022962,0.056385,-0.153146,0.048242,-0.987025,-0.061591,0.048270,-0.064382,25.344009,-36.923462,-11.725342,,,,,,,
1522136968.906970,-0.157598,-0.040818,0.765282,0.232857,-0.198592,-0.028734,-0.156816,0.040807,-0.986784,-0.076384,0.026698,-0.009935,24.512299,-37.819336,-11.347168,,,,,,,
1522136968.936938,-0.166202,-0.033978,0.767148,0.226341,-0.356472,0.060926,-0.165342,0.033972,-0.985650,-0.017626,-0.032156,0.067666,25.939484,-37.825378,-10.971436,,,,,,,
1522136968.966907,-0.172245,-0.030266,0.773578,0.118130,-0.051085,0.191595,-0.171316,0.030261,-0.984751,0.033591,0.014646,-0.003668,25.561996,-38.797470,-9.767700,,,,,,,
1522136968.996875,-0.172090,-0.027395,0.778696,0.143487,-0.011006,0.073303,-0.171177,0.027392,-0.984859,-0.039043,0.083586,-0.027852,26.837708,-38.952835,-9.391418,,,,,,,
1522136969.026843,-0.174396,-0.022370,0.780399,0.181830,-0.151709,-0.029880,-0.173470,0.022368,-0.984585,-0.021278,0.049958,0.011120,30.437256,-38.819336,-9.690247,,,,,,,
1522136969.056811,-0.179277,-0.018171,0.781007,0.072817,-0.114621,0.023279,-0.178289,0.018170,-0.983810,0.028570,-0.047314,0.014709,31.266251,-38.822388,-9.014771,,,,,,,
1522136969.086780,-0.180180,-0.021119,0.782085,-0.146679,0.033333,0.065586,-0.179167,0.021118,-0.983591,0.005995,-0.038055,0.021693,35.154678,-38.542297,-11.413940,,,,,,,
1522136969.116748,-0.175983,-0.026677,0.783320,-0.174648,0.214093,0.057929,-0.175013,0.026674,-0.984204,-0.066549,0.034590,-0.025028,36.876556,-37.726913,-13.291321,,,,,,,
,,,,,,,,,,,,,,,,25.314917,51.449185,11.977981,-1.000000,-1.000000,1522136969.108049,
1522136969.146716,-0.171910,-0.029153,0.782964,-0.006259,0.051683,-0.024898,-0.170992,0.029149,-0.984841,-0.035292,0.024333,-0.002693,37.457718,-36.684418,-18.170227,,,,,,,
1522136969.176684,-0.169828,-0.028955,0.782106,-0.057315,0.101707,-0.018592,-0.168942,0.028951,-0.985200,0.016583,-0.069891,-0.038497,36.998688,-36.009979,-20.798157,,,,,,,
1522136969.206653,-0.167519,-0.031939,0.782401,-0.076978,0.064206,0.033637,-0.166651,0.031934,-0.985498,0.003535,-0.003247,-0.041266,31.885437,-34.042450,-26.283569,,,,,,,
1522136969.236621,-0.167599,-0.031704,0.782177,0.059563,-0.061978,-0.052444,-0.166731,0.031699,-0.985492,-0.060258,0.057824,-0.059964,27.606705,-33.424850,-27.938110,,,,,,,
1522136969.266589,-0.173610,-0.027968,0.779764,0.141949,-0.324263,-0.107524,-0.172672,0.027964,-0.984582,0.009540,0.045446,0.021890,23.112579,-32.430313,-28.619324,,,,,,,
1522136969.296556,-0.185677,-0.021585,0.778911,0.209817,-0.332449,-0.025418,-0.184568,0.021584,-0.982582,0.016966,0.009819,0.045372,15.172501,-32.243225,-27.274109,,,,,,,
1522136969.326526,-0.188377,-0.017998,0.779713,0.066830,-0.029555,0.016798,-0.187234,0.017997,-0.982150,-0.004188,0.009118,-0.032789,11.058670,-32.747025,-24.574158,,,,,,,
1522136969.356471,-0.190749,-0.019656,0.779528,-0.147718,-0.050082,-0.011043,-0.189557,0.019655,-0.981672,-0.030322,0.005827,-0.015535,7.334686,-33.250092,-19.399048,,,,,,,
1522136969.386439,-0.189890,-0.029914,0.776971,-0.478011,0.087916,-0.024219,-0.188666,0.029909,-0.981585,-0.005838,0.006712,0.055697,8.396362,-33.477539,-17.072571,,,,,,,
1522136969.416407,-0.183094,-0.044263,0.774295,-0.462222,0.338280,0.029878,-0.181894,0.044249,-0.982321,-0.021109,0.001589,-0.052209,9.093445,-33.926239,-12.645447,,,,,,,
1522136969.446376,-0.172492,-0.055885,0.772880,-0.319199,0.295624,0.001255,-0.171370,0.055856,-0.983621,-0.002016,0.031485,-0.156088,10.517975,-34.831223,-11.216125,,,,,,,
1522136969.476344,-0.170539,-0.058538,0.772046,0.073103,-0.097312,-0.018305,-0.169423,0.058504,-0.983805,-0.005931,0.000852,-0.079061,12.855942,-34.839569,-9.039856,,,,,,,
1522136969.506312,-0.178648,-0.051137,0.772708,0.351641,-0.366837,-0.021015,-0.177467,0.051115,-0.982798,-0.009667,-0.032880,0.027002,13.984070,-35.293381,-7.762512,,,,,,,
1522136969.536280,-0.193003,-0.037927,0.774953,0.433024,-0.520249,0.005842,-0.191669,0.037918,-0.980726,0.003971,-0.043212,0.034330,15.038986,-35.521927,-6.561096,,,,,,,
1522136969.566249,-0.204098,-0.031324,0.776465,0.069099,-0.274757,-0.018130,-0.202584,0.031319,-0.978763,-0.038566,0.011909,0.016239,14.664932,-35.969330,-5.659424,,,,,,,
1522136969.596217,-0.208200,-0.034142,0.773510,-0.217537,-0.030017,-0.118739,-0.206579,0.034135,-0.977833,-0.025111,0.070387,0.009816,15.041138,-36.569824,-4.456909,,,,,,,
1522136969.626185,-0.205730,-0.039637,0.768744,-0.140186,0.110911,-0.088990,-0.204121,0.039626,-0.978142,0.000187,0.022218,-0.042716,14.966766,-36.868881,-3.855713,,,,,,,
1522136969.656154,-0.204846,-0.039970,0.767523,0.024468,0.016433,-0.009920,-0.203254,0.039960,-0.978310,0.004233,0.016086,-0.105202,15.863586,-37.547318,-3.252563,,,,,,,
1522136969.686122,-0.205474,-0.039467,0.767537,0.028415,-0.054785,-0.008776,-0.203872,0.039457,-0.978201,-0.041261,0.037493,-0.028696,14.887024,-38.741196,-1.523254,,,,,,,
1522136969.716090,-0.207777,-0.038515,0.767390,0.012219,-0.084553,-0.000237,-0.206132,0.038506,-0.977765,0.002336,0.029655,-0.010485,14.212524,-39.187347,-0.696838,,,,,,,
1522136969.746058,-0.209164,-0.040594,0.766742,-0.123968,0.003021,-0.015341,-0.207471,0.040583,-0.977398,-0.006412,0.024359,0.039029,12.125702,-39.400391,1.853027,,,,,,,
1522136969.776027,-0.206075,-0.044735,0.765655,-0.134197,0.134635,0.011149,-0.204414,0.044720,-0.977862,-0.000114,0.010227,0.006029,10.636108,-39.167343,3.201294,,,,,,,
1522136969.805995,-0.203051,-0.047179,0.765840,-0.009628,0.058841,0.014525,-0.201434,0.047162,-0.978365,-0.024290,0.001041,0.000780,10.517822,-39.011780,8.225647,,,,,,,
1522136969.835963,-0.203646,-0.045339,0.766091,0.096838,-0.035823,-0.009809,-0.202033,0.045323,-0.978329,-0.033532,0.003917,0.027279,10.085266,-38.932068,11.000061,,,,,,,
1522136969.865931,-0.204511,-0.043620,0.766403,0.014730,0.000446,0.000742,-0.202895,0.043606,-0.978228,0.004256,0.018100,0.006503,12.367798,-39.236404,16.927429,,,,,,,
1522136969.895900,-0.204421,-0.043357,0.766390,0.038294,-0.005861,-0.018409,-0.202809,0.043344,-0.978258,-0.034420,0.041785,0.052965,15.983414,-39.250046,19.554321,,,,,,,
1522136969.925868,-0.206643,-0.039197,0.766714,0.186157,-0.116769,-0.011806,-0.205018,0.039187,-0.977973,-0.002105,0.039320,0.053778,22.829025,-40.026123,24.285889,,,,,,,
1522136969.955836,-0.207982,-0.036420,0.766567,-0.000962,0.039995,-0.027013,-0.206349,0.036412,-0.977800,-0.001781,0.028102,0.009584,27.932861,-39.823792,24.587585,,,,,,,
1522136969.985804,-0.204972,-0.039201,0.766385,-0.106615,0.137487,0.048464,-0.203383,0.039191,-0.978314,-0.004030,0.024698,-0.064701,33.029205,-39.922180,24.140503,,,,,,,
1522136970.015773,-0.201474,-0.041417,0.767947,-0.000230,0.062779,0.057143,-0.199942,0.041405,-0.978932,-0.026391,0.008964,-0.008861,42.543686,-38.768661,20.465698,,,,,,,
1522136970.045741,-0.198922,-0.040834,0.769297,0.037386,0.098909,0.042224,-0.197448,0.040822,-0.979462,-0.020402,-0.027074,0.013413,46.136276,-37.662918,17.388062,,,,,,,
1522136970.075709,-0.199057,-0.040181,0.770925,0.024971,-0.025506,0.061510,-0.197586,0.040170,-0.979461,-0.024369,-0.035592,0.074951,51.057571,-35.443542,8.906616,,,,,,,
1522136970.105677,-0.195905,-0.041040,0.772429,-0.040198,0.169303,0.033565,-0.194490,0.041028,-0.980045,-0.018110,-0.003827,-0.004864,49.992584,-34.917130,5.528992,,,,,,,
,,,,,,,,,,,,,,,,25.314984,51.449199,12.025456,-1.000000,-1.000000,1522136970.112113,
1522136970.135646,-0.192553,-0.041488,0.773053,0.023247,0.038402,0.039075,-0.191200,0.041476,-0.980674,0.006294,-0.006015,-0.039682,47.048370,-32.735718,-1.306213,,,,,,,
1522136970.165614,-0.193681,-0.040449,0.773922,0.024143,-0.044199,-0.000272,-0.192315,0.040438,-0.980499,-0.008934,-0.003893,-0.014786,45.088379,-31.979815,-4.235229,,,,,,,
1522136970.195582,-0.195169,-0.040501,0.773040,-0.020449,-0.044803,-0.049322,-0.193773,0.040490,-0.980210,0.007814,0.013252,0.005372,38.565842,-30.153093,-6.870789,,,,,,,
1522136970.225551,-0.195659,-0.040955,0.772276,-0.027912,0.021772,0.006013,-0.194250,0.040944,-0.980096,-0.015222,0.006572,-0.029410,35.417282,-29.689455,-7.399231,,,,,,,
1522136970.255519,-0.194115,-0.041718,0.772344,-0.007477,0.044107,-0.003587,-0.192730,0.041706,-0.980364,-0.020832,0.026455,-0.088956,31.072876,-29.444384,-6.877380,,,,,,,
1522136970.285487,-0.193445,-0.041240,0.772584,0.037022,-0.006121,0.019945,-0.192077,0.041228,-0.980513,0.003829,0.021409,-0.006075,28.826736,-29.733156,-5.752319,,,,,,,
1522136970.315455,-0.194237,-0.039343,0.774398,0.085894,-0.019227,0.054088,-0.192868,0.039333,-0.980435,0.004010,-0.022151,0.088315,27.333115,-29.950014,-4.327209,,,,,,,
1522136970.345439,-0.194030,-0.039290,0.774841,-0.065118,0.031584,-0.016400,-0.192666,0.039280,-0.980477,-0.029792,0.014766,-0.026572,27.559052,-31.073992,-2.297607,,,,,,,
1522136970.375407,-0.192378,-0.042064,0.773370,-0.079971,0.045465,-0.021747,-0.191024,0.042052,-0.980684,0.003280,-0.007384,-0.095977,27.856659,-31.674730,-1.695068,,,,,,,
1522136970.405375,-0.191412,-0.042829,0.773142,0.007304,0.017413,0.007118,-0.190071,0.042816,-0.980836,-0.036766,0.001098,-0.141021,28.371460,-32.876740,-1.390015,,,,,,,
1522136970.435343,-0.193264,-0.041478,0.773012,0.058124,-0.113181,-0.024685,-0.191898,0.041466,-0.980538,-0.001919,0.042335,-0.047523,29.639816,-33.183044,-1.988098,,,,,,,
1522136970.465312,-0.197500,-0.039934,0.772893,0.036629,-0.124953,-0.006569,-0.196062,0.039923,-0.979778,0.000933,0.015894,0.077419,28.197815,-34.751785,-2.207581,,,,,,,
1522136970.495280,-0.197522,-0.039584,0.773444,-0.004189,0.077997,0.010239,-0.196087,0.039573,-0.979787,0.007900,0.016503,-0.005595,27.286026,-35.797897,-2.428833,,,,,,,
1522136970.525248,-0.195396,-0.040512,0.773321,-0.024599,0.028222,-0.007833,-0.193996,0.040501,-0.980165,0.004314,0.020107,-0.077223,26.303909,-37.367050,-0.998047,,,,,,,
1522136970.555216,-0.196568,-0.039986,0.772647,0.037095,-0.067280,-0.047122,-0.195149,0.039976,-0.979958,0.011753,0.013613,-0.078575,25.781677,-37.813507,0.203491,,,,,,,
1522136970.585185,-0.199321,-0.038303,0.771306,0.049896,-0.085293,-0.059877,-0.197859,0.038293,-0.979482,-0.050005,0.021002,-0.028499,27.139740,-38.267502,2.305908,,,,,,,
1522136970.615153,-0.201093,-0.036508,0.770827,0.054012,-0.054870,-0.004501,-0.199607,0.036500,-0.979195,-0.017052,0.023070,-0.028434,29.766449,-38.503647,2.983215,,,,,,,
1522136970.645121,-0.200420,-0.037164,0.771354,-0.070457,0.096031,0.038937,-0.198943,0.037155,-0.979306,-0.010987,0.017456,-0.068241,29.765549,-38.728424,3.209106,,,,,,,
1522136970.675089,-0.199517,-0.038830,0.772509,0.007928,-0.027554,0.054052,-0.198046,0.038820,-0.979423,-0.004392,0.004545,0.004356,32.077408,-39.414871,2.163025,,,,,,,
1522136970.705058,-0.201273,-0.037450,0.774406,0.061284,-0.049889,0.039191,-0.199777,0.037441,-0.979125,-0.017905,-0.015331,0.060729,32.519745,-39.418137,0.888245,,,,,,,
1522136970.735026,-0.200788,-0.037887,0.774563,-0.074635,0.058118,-0.010033,-0.199299,0.037878,-0.979206,-0.020580,-0.000479,-0.018002,32.364929,-39.493118,0.213501,,,,,,,
1522136970.764994,-0.198676,-0.039986,0.773522,-0.022376,0.044181,-0.011046,-0.197214,0.039976,-0.979544,-0.046896,-0.001692,-0.036401,32.814148,-39.345505,-0.161865,,,,,,,
1522136970.794962,-0.199104,-0.037781,0.774130,0.108653,-0.018856,-0.008753,-0.197650,0.037772,-0.979544,-0.009763,0.006936,-0.074869,33.488052,-39.049210,-0.837708,,,,,,,
1522136970.824931,-0.200075,-0.036318,0.774559,-0.009999,-0.032460,0.005017,-0.198612,0.036310,-0.979405,0.004200,0.015357,-0.052669,34.461823,-38.904053,-1.287842,,,,,,,
1522136970.854899,-0.200644,-0.038269,0.775227,-0.066631,-0.004928,0.037982,-0.199154,0.038260,-0.979220,-0.002415,0.015238,0.041049,35.660233,-38.385574,-2.414307,,,,,,,
1522136970.884867,-0.199230,-0.039645,0.776443,-0.011965,0.054363,0.048621,-0.197759,0.039635,-0.979448,0.021414,-0.008461,0.046129,35.731033,-38.536331,-2.863708,,,,,,,
1522136970.914836,-0.197108,-0.039349,0.778102,0.034048,0.061788,0.034793,-0.195683,0.039338,-0.979877,0.013707,-0.021745,0.005604,34.907364,-37.633911,-4.142639,,,,,,,
1522136970.944804,-0.196260,-0.039283,0.778634,-0.021520,0.012195,0.002845,-0.194852,0.039273,-0.980045,-0.004367,-0.021237,0.018452,34.001419,-37.780579,-4.892517,,,,,,,
1522136970.974772,-0.195432,-0.040450,0.778704,-0.041643,0.056821,0.010244,-0.194032,0.040439,-0.980161,-0.023681,-0.034061,0.033277,33.338562,-36.427826,-5.123291,,,,,,,
1522136971.004740,-0.193841,-0.041611,0.779004,-0.038425,0.053660,0.004924,-0.192463,0.041599,-0.980422,-0.026348,-0.021900,-0.043947,33.040070,-36.276489,-5.124084,,,,,,,
1522136971.034709,-0.193668,-0.042675,0.779188,-0.040984,-0.033500,0.010334,-0.192284,0.042662,-0.980411,-0.004829,-0.015883,-0.078534,33.037811,-36.052231,-5.874939,,,,,,,
1522136971.064677,-0.195351,-0.043632,0.779308,-0.039815,-0.027014,-0.004595,-0.193926,0.043618,-0.980045,-0.001508,-0.000589,0.000309,32.433304,-35.825638,-7.001160,,,,,,,
1522136971.094645,-0.194957,-0.043912,0.778946,0.019207,0.018644,-0.021641,-0.193538,0.043898,-0.980110,-0.000966,0.005907,0.044532,31.524811,-36.272217,-7.674805,,,,,,,
1522136971.124613,-0.194541,-0.042093,0.778979,0.059703,-0.001623,-0.024788,-0.193144,0.042080,-0.980267,0.004958,0.004917,0.019314,30.611633,-36.420059,-9.624695,,,,,,,
1522136971.154582,-0.194364,-0.040929,0.778290,0.003359,0.015730,-0.055743,-0.192980,0.040918,-0.980348,0.007769,0.038962,-0.036162,28.655716,-36.786636,-9.999207,,,,,,,
1522136971.184550,-0.194074,-0.041584,0.777109,-0.038407,-0.003325,-0.049371,-0.192691,0.041572,-0.980378,0.001025,0.035592,-0.076217,25.876633,-36.924576,-10.450073,,,,,,,
1522136971.214518,-0.195080,-0.041809,0.775914,0.017948,-0.025967,-0.023729,-0.193676,0.041797,-0.980174,-0.016682,0.026211,-0.051488,24.670685,-37.519150,-10.448303,,,,,,,
1522136971.244486,-0.196382,-0.040881,0.775659,0.027319,-0.063265,-0.010902,-0.194959,0.040870,-0.979959,0.006055,0.013222,-0.027091,22.040771,-39.005661,-8.793640,,,,,,,
1522136971.274455,-0.198236,-0.041355,0.775325,-0.049485,-0.052431,-0.014163,-0.196771,0.041344,-0.979577,-0.001867,0.016670,-0.016792,21.137497,-39.601151,-8.341675,,,,,,,
1522136971.304423,-0.199540,-0.042376,0.774209,0.003044,-0.036421,-0.041848,-0.198040,0.042363,-0.979277,-0.001270,0.013835,0.032180,21.883316,-40.878067,-6.911255,,,,,,,
1522136971.334368,-0.200694,-0.039302,0.773327,0.143143,-0.003740,-0.056684,-0.199196,0.039292,-0.979171,-0.017082,0.014083,0.017013,21.507477,-41.775024,-5.557861,,,,,,,
1522136971.364336,-0.200258,-0.035540,0.773124,0.075668,0.005679,-0.009871,-0.198797,0.035532,-0.979396,-0.007761,0.028326,-0.052251,22.034424,-42.076569,-4.731384,,,,,,,
1522136971.394305,-0.200211,-0.035942,0.773830,-0.052748,-0.007093,0.036938,-0.198748,0.035934,-0.979391,-0.030714,0.033493,-0.041391,23.611023,-42.457764,-3.829041,,,,,,,
1522136971.424273,-0.199330,-0.037752,0.774384,-0.029982,0.055625,0.025172,-0.197871,0.037743,-0.979500,-0.017506,0.002616,-0.042930,23.014069,-42.828949,-2.702820,,,,,,,
1522136971.454241,-0.198175,-0.037233,0.775723,0.064678,-0.015872,0.033842,-0.196744,0.037224,-0.979747,0.014035,-0.014412,-0.053059,24.080658,-41.707855,-1.806824,,,,,,,
1522136971.484210,-0.199017,-0.036736,0.778007,-0.014220,0.020410,0.042260,-0.197572,0.036728,-0.979599,-0.029479,-0.022187,0.048478,24.841278,-41.185379,-0.908508,,,,,,,
1522136971.514178,-0.197755,-0.037446,0.780439,0.004020,0.017305,0.023102,-0.196331,0.037438,-0.979822,-0.003376,-0.013802,0.039484,24.842499,-41.559555,-0.082031,,,,,,,
1522136971.544146,-0.195954,-0.037160,0.781905,0.003395,0.111903,0.019808,-0.194567,0.037152,-0.980185,-0.006681,-0.013836,-0.034357,24.916901,-41.934357,0.444519,,,,,,,
1522136971.574114,-0.193051,-0.037272,0.783522,-0.001954,0.066486,-0.017443,-0.191721,0.037263,-0.980741,0.000818,0.025222,-0.065111,26.409256,-43.963974,2.553406,,,,,,,
1522136971.604083,-0.192805,-0.037069,0.784047,0.004064,-0.002707,-0.002450,-0.191481,0.037060,-0.980796,-0.007036,-0.012722,0.036628,26.182648,-44.936600,3.907166,,,,,,,
1522136971.634051,-0.192443,-0.036904,0.784895,-0.008783,0.016301,0.019894,-0.191127,0.036895,-0.980871,0.023830,-0.009369,-0.000895,30.085556,-46.226532,6.539246,,,,,,,
1522136971.664019,-0.190599,-0.038423,0.784664,-0.044510,0.100584,-0.016441,-0.189307,0.038414,-0.981166,-0.007959,0.017342,-0.017446,32.636063,-46.312775,6.765930,,,,,,,
1522136971.693987,-0.189221,-0.037212,0.783783,0.084348,-0.004742,-0.043943,-0.187963,0.037203,-0.981471,-0.010065,0.007521,-0.041067,34.440933,-46.095444,7.215881,,,,,,,
1522136971.723956,-0.190443,-0.035092,0.783759,0.014554,-0.044176,-0.002399,-0.189178,0.035085,-0.981315,0.017104,0.008158,-0.039376,38.044937,-45.287338,6.539490,,,,,,,
1522136971.753924,-0.190596,-0.037354,0.783625,-0.108165,-0.006838,0.018789,-0.189311,0.037346,-0.981206,-0.001088,0.019204,-0.042445,40.450516,-44.323853,5.861816,,,,,,,
1522136971.783892,-0.190862,-0.039648,0.784052,-0.028094,0.009913,0.030531,-0.189556,0.039638,-0.981069,-0.025501,-0.003627,-0.023967,41.735748,-42.530914,4.580322,,,,,,,
1522136971.813860,-0.191306,-0.039658,0.785204,0.010131,-0.033792,0.034874,-0.189992,0.039648,-0.980984,0.020085,-0.009679,-0.065708,42.560669,-41.636124,3.077148,,,,,,,
1522136971.843829,-0.192533,-0.040287,0.785220,-0.024880,-0.051369,-0.022671,-0.191191,0.040276,-0.980726,0.009199,-0.005349,-0.003512,44.135834,-39.322052,-0.756287,,,,,,,
1522136971.873797,-0.194821,-0.038637,0.783887,0.105458,-0.079047,-0.061969,-0.193446,0.038628,-0.980350,-0.028737,-0.005486,0.057788,44.208679,-38.274475,-2.860474,,,,,,,
1522136971.903765,-0.196378,-0.035259,0.783061,0.060771,-0.022736,-0.043950,-0.194997,0.035252,-0.980170,0.013951,0.040264,-0.063638,42.995895,-36.848526,-7.366821,,,,,,,
1522136971.933733,-0.196625,-0.035486,0.782430,-0.041956,-0.018585,0.004991,-0.195237,0.035479,-0.980114,-0.014220,0.041380,-0.051106,42.539124,-36.622971,-8.867920,,,,,,,
1522136971.963702,-0.196769,-0.035972,0.783064,0.016568,-0.014775,0.046589,-0.195375,0.035964,-0.980068,0.020769,0.007233,-0.035663,38.400177,-36.307220,-11.721252,,,,,,,
1522136971.993670,-0.196387,-0.036882,0.784474,-0.045026,0.063985,0.050724,-0.194995,0.036873,-0.980110,-0.030393,-0.009224,-0.010902,36.888382,-36.676758,-13.070557,,,,,,,
1522136972.023638,-0.194364,-0.038262,0.785409,-0.021387,0.062005,0.020912,-0.193001,0.038253,-0.980452,0.003960,-0.024291,-0.024049,32.677017,-37.183853,-14.120605,,,,,,,
1522136972.053606,-0.191989,-0.039013,0.785380,-0.015834,0.093987,0.005958,-0.190666,0.039003,-0.980879,-0.026512,-0.028551,-0.004869,31.994690,-37.781006,-14.343567,,,,,,,
1522136972.083575,-0.190345,-0.038264,0.785769,0.043617,0.015227,0.002885,-0.189059,0.038255,-0.981220,-0.013501,-0.019700,-0.038998,29.813660,-38.296341,-14.492615,,,,,,,
1522136972.113543,-0.190827,-0.037704,0.785780,-0.012065,-0.029208,-0.004572,-0.189536,0.037695,-0.981149,0.006949,0.006662,0.008417,26.571136,-40.231445,-14.186523,,,,,,,
1522136972.143511,-0.191950,-0.037737,0.785682,0.009226,-0.029325,0.006091,-0.190637,0.037728,-0.980935,-0.002905,0.005928,0.051858,25.075409,-40.298889,-13.362000,,,,,,,
1522136972.173480,-0.191368,-0.037847,0.785453,-0.034120,0.045245,-0.008916,-0.190066,0.037838,-0.981041,0.032473,0.021900,-0.039619,22.610443,-40.735397,-10.961426,,,,,,,
1522136972.203448,-0.190815,-0.039215,0.784893,-0.031104,0.006976,-0.006749,-0.189513,0.039205,-0.981095,0.018615,0.001994,-0.029052,21.644836,-41.103882,-8.785461,,,,,,,
1522136972.233416,-0.191853,-0.038931,0.784694,0.012593,-0.021743,-0.017347,-0.190533,0.038921,-0.980908,-0.005801,0.012043,-0.052341,20.612915,-41.320847,-5.410095,,,,,,,
1522136972.263384,-0.192140,-0.039937,0.783648,-0.060999,-0.032042,-0.039759,-0.190808,0.039926,-0.980815,0.019025,0.013266,-0.080465,20.536911,-42.368927,-3.830933,,,,,,,
1522136972.293353,-0.194516,-0.040577,0.782622,0.001674,-0.080129,-0.021559,-0.193132,0.040566,-0.980333,0.001558,0.000434,-0.017714,21.431854,-44.994431,-0.294983,,,,,,,
1522136972.323321,-0.195752,-0.040190,0.782559,0.008150,-0.029376,0.010369,-0.194347,0.040179,-0.980109,-0.004628,-0.003894,0.026633,22.178421,-46.196350,1.135193,,,,,,,
1522136972.353311,-0.197002,-0.039785,0.783355,0.032371,-0.074230,0.034934,-0.195575,0.039775,-0.979881,0.010944,0.000585,0.061775,26.767807,-46.289444,3.687866,,,,,,,
1522136972.383279,-0.197418,-0.039345,0.783502,-0.013840,0.023008,-0.026993,-0.195986,0.039334,-0.979817,-0.009290,0.005694,-0.018734,28.878830,-45.997604,5.037720,,,,,,,
1522136972.413248,-0.197325,-0.040117,0.782107,-0.024703,-0.036340,-0.043998,-0.195889,0.040106,-0.979805,-0.015079,-0.001929,-0.055839,31.513000,-45.259155,5.336121,,,,,,,
1522136972.443216,-0.199962,-0.038927,0.781526,0.062418,-0.106858,-0.021478,-0.198482,0.038917,-0.979331,-0.008473,0.011498,-0.025918,37.450119,-42.962677,3.529907,,,,,,,
1522136972.473184,-0.200986,-0.037879,0.780873,-0.002173,0.021818,-0.013131,-0.199492,0.037869,-0.979167,-0.036348,0.012118,-0.031896,38.574585,-41.844696,1.575989,,,,,,,
1522136972.503152,-0.200289,-0.039270,0.781164,-0.065395,0.030151,0.035815,-0.198799,0.039260,-0.979253,0.014198,0.017457,-0.076380,40.284119,-40.282562,-3.604431,,,,,,,
1522136972.533121,-0.198874,-0.040982,0.781698,-0.019119,0.088576,0.018758,-0.197400,0.040971,-0.979466,0.010419,0.003249,0.005009,39.530960,-39.156586,-6.009277,,,,,,,
1522136972.563089,-0.197384,-0.040069,0.782474,0.057282,-0.003034,0.027415,-0.195947,0.040059,-0.979795,-0.006202,-0.026570,0.000120,34.281097,-37.560593,-8.643250,,,,,,,
1522136972.593057,-0.197458,-0.040575,0.783569,-0.076133,0.014222,0.035835,-0.196016,0.040564,-0.979761,-0.016997,-0.007513,-0.016608,31.289764,-36.871841,-8.347534,,,,,,,
1522136972.623025,-0.196793,-0.043843,0.782969,-0.088512,0.034881,-0.028120,-0.195337,0.043829,-0.979756,-0.012167,0.021738,0.069706,30.124908,-35.063751,-5.505371,,,,,,,
1522136972.652994,-0.196259,-0.042676,0.782340,0.126848,-0.014627,-0.013002,-0.194824,0.042663,-0.979909,-0.017105,-0.025268,0.107122,29.997131,-34.460480,-2.807861,,,,,,,
1522136972.682962,-0.197416,-0.038519,0.782912,0.083899,-0.058145,-0.004467,-0.195991,0.038510,-0.979849,0.044914,0.030002,-0.004877,34.510010,-34.253983,-1.006409,,,,,,,
1522136972.712930,-0.198651,-0.040581,0.781832,-0.139728,0.031911,-0.038821,-0.197184,0.040570,-0.979526,-0.012883,0.032291,0.043094,38.030197,-34.420349,-1.528931,,,,,,,
