timestamp(unix),attitude_roll(radians),attitude_pitch(radians),attitude_yaw(radians),rotation_rate_x(radians/s),rotation_rate_y(radians/s),rotation_rate_z(radians/s),gravity_x(G),gravity_y(G),gravity_z(G),user_acc_x(G),user_acc_y(G),user_acc_z(G),magnetic_field_x(microteslas),magnetic_field_y(microteslas),magnetic_field_z(microteslas),latitude(degree),longitude(degree),altitude(meter),speed(m/s),course(degree),timestamp(unix),User Mark
,,,,,,,,,,,,,,,,25.314351,51.436352,10.827644,9.130000,340.312500,1523697239.995569,
1523697240.558978,-0.679835,-0.110647,0.152748,0.044247,0.063825,0.064989,-0.624816,0.110422,-0.772915,0.092284,-0.026666,-0.011402,-1.378143,9.877513,-13.804932,,,,,,,
1523697240.588947,-0.676341,-0.111099,0.155870,0.066623,0.090145,0.093739,-0.622080,0.110871,-0.775054,0.102152,-0.049027,-0.026032,-0.255569,8.823817,-12.450073,,,,,,,
1523697240.618915,-0.673819,-0.109444,0.158456,0.120256,0.003711,-0.026531,-0.620237,0.109226,-0.776763,0.128812,-0.071415,0.042312,0.118896,7.324534,-10.043945,,,,,,,
1523697240.648883,-0.672487,-0.106512,0.159004,0.021183,0.035932,-0.040487,-0.619399,0.106311,-0.777836,0.132140,-0.109820,0.026493,0.415146,6.498958,-9.290466,,,,,,,
1523697240.678851,-0.669069,-0.106942,0.156410,-0.122052,0.195919,-0.074851,-0.616708,0.106738,-0.779913,0.023584,-0.120044,-0.041880,1.554092,6.271541,-6.588989,,,,,,,
1523697240.708820,-0.664860,-0.107100,0.151909,-0.075344,0.052860,-0.147130,-0.613410,0.106895,-0.782488,-0.042230,-0.071235,-0.152906,2.015778,6.496028,-5.014648,,,,,,,
1523697240.738788,-0.665591,-0.105571,0.147382,-0.062202,-0.067497,-0.110775,-0.614082,0.105375,-0.782167,-0.008187,-0.029051,-0.202620,3.968094,6.188151,-4.112427,,,,,,,
1523697240.768756,-0.668525,-0.106592,0.144611,-0.148457,-0.114895,0.010684,-0.616307,0.106391,-0.780277,0.037327,-0.002524,-0.103298,8.388168,4.744838,-2.529480,,,,,,,
1523697240.798724,-0.671423,-0.110105,0.143379,-0.078005,-0.065463,0.057575,-0.618329,0.109882,-0.778191,0.145001,0.007259,0.077003,10.109818,4.137553,-2.076172,,,,,,,
1523697240.828693,-0.669090,-0.110832,0.144429,0.045967,0.170289,0.033991,-0.616462,0.110605,-0.779568,0.147422,-0.059610,0.086102,14.059647,2.019114,-2.740723,,,,,,,
1523697240.858661,-0.661346,-0.109282,0.146221,0.107303,0.229978,-0.010793,-0.610511,0.109065,-0.784453,0.054023,-0.103831,-0.102693,16.302963,1.259166,-2.586548,,,,,,,
1523697240.888629,-0.658498,-0.105301,0.146521,0.083455,0.034155,-0.110772,-0.608536,0.105106,-0.786526,-0.019592,-0.109119,-0.180042,18.304062,-0.326177,-3.929199,,,,,,,
1523697240.918628,-0.661660,-0.103800,0.143710,-0.105743,-0.210044,-0.073367,-0.611116,0.103613,-0.784721,0.049013,-0.051596,-0.093849,19.414337,-1.082372,-5.125671,,,,,,,
1523697240.948602,-0.668829,-0.108734,0.139576,-0.275917,-0.173203,0.037281,-0.616401,0.108520,-0.779909,0.039695,-0.042190,-0.070753,20.958496,-2.367314,-8.119751,,,,,,,
1523697240.978570,-0.672320,-0.113956,0.136473,-0.148619,-0.120371,0.035189,-0.618759,0.113710,-0.777298,0.012207,-0.064012,-0.036163,21.389450,-3.420674,-9.540283,,,,,,,
1523697241.008539,-0.673703,-0.116555,0.136266,-0.060653,0.015138,0.074551,-0.619647,0.116292,-0.776209,0.060412,-0.108800,-0.003470,23.618362,-4.182958,-11.786133,,,,,,,
1523697241.038507,-0.670077,-0.119064,0.137586,-0.029336,0.105330,0.083002,-0.616645,0.118783,-0.778220,0.073371,-0.149911,0.028311,22.556534,-4.329900,-13.511047,,,,,,,
,,,,,,,,,,,,,,,,25.314453,51.436304,10.816308,9.720000,342.421875,1523697240.995558,
1523697241.068475,-0.670282,-0.118639,0.138892,0.022389,-0.107895,0.012933,-0.616836,0.118361,-0.778132,0.078246,-0.146467,0.030284,22.627914,-3.881566,-14.862854,,,,,,,
1523697241.098444,-0.671115,-0.119591,0.137875,-0.130612,0.060368,0.014778,-0.617413,0.119306,-0.777530,0.038159,-0.166410,-0.063962,21.272644,-2.603475,-17.868652,,,,,,,
1523697241.128412,-0.672332,-0.121075,0.135109,-0.087503,-0.184627,-0.068050,-0.618248,0.120780,-0.776638,-0.043998,-0.108146,-0.048313,20.378784,-1.175817,-19.224731,,,,,,,
1523697241.158380,-0.675555,-0.121059,0.131649,-0.151863,0.030993,-0.031029,-0.620749,0.120764,-0.774643,-0.025796,-0.076284,-0.089951,16.327255,0.339641,-22.007874,,,,,,,
1523697241.188348,-0.675768,-0.121113,0.129393,-0.011753,-0.162711,-0.038180,-0.620910,0.120817,-0.774506,-0.046448,-0.042020,-0.049743,15.729065,1.016505,-22.835815,,,,,,,
1523697241.218317,-0.681322,-0.117868,0.130709,0.144249,-0.079512,0.011939,-0.625446,0.117595,-0.771346,0.077228,-0.027476,0.109511,11.987122,2.232661,-23.517578,,,,,,,
1523697241.248285,-0.674193,-0.117448,0.134104,-0.000806,0.353463,0.147764,-0.619962,0.117178,-0.775823,0.066480,-0.115454,0.024450,10.264435,2.690028,-23.895264,,,,,,,
1523697241.278253,-0.665504,-0.121769,0.136236,-0.116740,0.182853,0.121215,-0.612879,0.121468,-0.780775,-0.080236,-0.137154,-0.271547,5.776306,3.386043,-23.075317,,,,,,,
1523697241.308221,-0.661803,-0.125929,0.136013,-0.105210,0.068452,0.064870,-0.609670,0.125596,-0.782633,-0.027492,-0.090425,-0.359671,2.781998,3.100947,-21.650696,,,,,,,
1523697241.338190,-0.665409,-0.128696,0.136262,-0.026398,-0.236542,0.041787,-0.612271,0.128341,-0.780153,-0.091251,-0.032791,-0.288054,-2.442978,2.903956,-17.152527,,,,,,,
1523697241.368158,-0.669844,-0.127453,0.137102,0.105015,-0.054729,-0.021158,-0.615823,0.127108,-0.777554,-0.048239,0.001707,-0.298404,-1.985458,2.079524,-14.524048,,,,,,,
1523697241.398126,-0.670562,-0.124598,0.138703,0.084617,-0.069602,-0.013703,-0.616605,0.124276,-0.777393,-0.080325,-0.011711,-0.323834,-1.833832,-0.915898,-9.261963,,,,,,,
1523697241.428094,-0.673992,-0.123382,0.138552,-0.009428,-0.117022,-0.037166,-0.619361,0.123070,-0.775391,-0.031152,-0.017280,-0.317795,-0.259293,-2.046178,-7.456604,,,,,,,
1523697241.458063,-0.680731,-0.120625,0.136888,0.096156,-0.282210,-0.157325,-0.624783,0.120332,-0.771460,-0.040241,-0.029207,-0.213739,1.694977,-2.428609,-6.104126,,,,,,,
1523697241.488031,-0.691654,-0.112866,0.135180,0.161207,-0.381795,-0.225358,-0.633749,0.112626,-0.765285,0.010214,-0.033372,-0.105442,3.943283,-3.636998,-4.373169,,,,,,,
1523697241.517999,-0.703864,-0.106852,0.132695,0.050620,-0.449909,-0.168910,-0.643472,0.106648,-0.757993,0.044336,0.004085,-0.048190,4.546280,-3.788960,-3.622253,,,,,,,
1523697241.547967,-0.719156,-0.103687,0.129537,-0.001235,-0.526640,-0.118791,-0.655207,0.103501,-0.748315,0.079721,0.006805,0.058740,7.332382,-2.676503,-3.625305,,,,,,,
1523697241.577936,-0.736793,-0.102740,0.127976,-0.010678,-0.581693,0.006992,-0.668367,0.102560,-0.736715,0.184557,-0.039617,0.219411,7.929489,-2.604787,-4.225281,,,,,,,
1523697241.607935,-0.747288,-0.108212,0.129437,-0.174519,-0.196045,0.228109,-0.675670,0.108001,-0.729237,0.131222,-0.077407,0.248158,10.240570,-2.467748,-6.774658,,,,,,,
1523697241.637903,-0.744712,-0.116704,0.130635,-0.151815,0.318365,0.206288,-0.673144,0.116439,-0.730275,0.028536,-0.110381,0.100102,11.663254,-2.025273,-7.900757,,,,,,,
1523697241.667871,-0.734313,-0.119688,0.132463,0.050479,0.244571,0.048825,-0.665278,0.119402,-0.736975,0.037241,-0.164095,-0.035837,10.982666,-1.049764,-10.454956,,,,,,,
1523697241.697839,-0.732279,-0.118479,0.133224,0.014671,0.013638,-0.040473,-0.663873,0.118202,-0.738433,0.074243,-0.155265,0.140136,10.078491,-0.746892,-11.656616,,,,,,,
1523697241.727808,-0.725939,-0.119949,0.131737,-0.128100,0.415078,0.043188,-0.659062,0.119662,-0.742496,0.101949,-0.204516,0.087635,7.915527,1.136699,-12.790283,,,,,,,
1523697241.757776,-0.711182,-0.123877,0.131473,-0.025572,0.441253,0.061358,-0.647722,0.123561,-0.751779,0.025332,-0.150798,0.082163,6.273392,1.744395,-12.493530,,,,,,,
1523697241.787744,-0.700859,-0.120432,0.134008,0.242500,0.328735,-0.051272,-0.640198,0.120141,-0.758747,0.116257,-0.079156,0.160388,5.387207,2.724055,-11.822876,,,,,,,
1523697241.817712,-0.685838,-0.113815,0.137349,0.203020,0.577438,-0.045156,-0.629220,0.113569,-0.768875,0.194024,-0.044554,0.135376,4.287277,4.155787,-10.029175,,,,,,,
1523697241.847681,-0.671028,-0.108567,0.140385,0.222347,0.391303,-0.024719,-0.618126,0.108354,-0.778566,0.236855,-0.005556,0.133287,3.615616,3.859874,-8.978271,,,,,,,
1523697241.877649,-0.662428,-0.102841,0.143943,0.199097,0.195893,-0.033058,-0.611779,0.102660,-0.784329,0.268640,0.008928,0.183347,5.290909,5.129420,-6.882568,,,,,,,
1523697241.907617,-0.655074,-0.101473,0.145329,-0.033671,0.319003,0.073186,-0.606080,0.101299,-0.788918,0.303254,-0.060436,0.170784,6.278595,5.950725,-6.135315,,,,,,,
1523697241.937594,-0.643207,-0.106195,0.146326,-0.128644,0.394284,0.129516,-0.596382,0.105996,-0.795663,0.145896,-0.134194,-0.004614,6.449463,6.552424,-3.662659,,,,,,,
1523697241.967563,-0.634252,-0.111586,0.146479,-0.111217,0.177802,0.081800,-0.588886,0.111355,-0.800500,-0.015805,-0.107327,-0.249640,7.434311,6.774272,-2.388062,,,,,,,
1523697241.997531,-0.635552,-0.112130,0.146554,0.018996,-0.192646,-0.023209,-0.589890,0.111895,-0.799685,-0.125061,-0.056811,-0.339719,9.626022,7.590831,-0.965210,,,,,,,
1523697242.027499,-0.646430,-0.113745,0.144660,-0.187145,-0.420710,-0.003968,-0.598444,0.113500,-0.793076,-0.036855,-0.004781,-0.042709,10.902481,7.510463,-0.589294,,,,,,,
,,,,,,,,,,,,,,,,25.314519,51.436270,10.911351,9.380000,342.070312,1523697241.995548,
1523697242.057467,-0.656595,-0.120456,0.139508,-0.298193,-0.190903,-0.006406,-0.605996,0.120164,-0.786331,-0.029533,-0.031404,0.056060,13.215958,7.123790,-1.861511,,,,,,,
1523697242.087436,-0.657507,-0.125513,0.135602,-0.119836,0.080536,0.013702,-0.606334,0.125184,-0.785286,0.013911,-0.097397,-0.025138,13.884644,6.895106,-2.535339,,,,,,,
1523697242.117404,-0.656774,-0.125381,0.135642,0.072819,-0.107671,-0.036049,-0.605768,0.125053,-0.785743,0.004664,-0.115943,-0.000817,13.654556,6.520915,-2.758911,,,,,,,
1523697242.147372,-0.665483,-0.119691,0.135713,0.184435,-0.362047,-0.165719,-0.613017,0.119405,-0.780985,0.108760,-0.091848,0.174113,12.678970,6.824702,-3.360596,,,,,,,
1523697242.177340,-0.675178,-0.114380,0.133507,-0.005263,-0.265031,-0.145702,-0.620948,0.114131,-0.775489,0.101737,-0.063273,0.256599,12.757126,7.049495,-3.211487,,,,,,,
1523697242.207309,-0.680250,-0.115696,0.127657,-0.237184,-0.033109,-0.103481,-0.624778,0.115438,-0.772212,0.004585,-0.030752,0.204524,10.583282,6.759959,-2.536438,,,,,,,
1523697242.237277,-0.677764,-0.121249,0.120774,-0.294337,0.153611,-0.039785,-0.622445,0.120952,-0.773252,-0.102226,-0.029384,0.013044,10.810379,6.609538,-1.935669,,,,,,,
1523697242.267276,-0.675304,-0.126640,0.116080,-0.204146,0.095601,0.017879,-0.620124,0.126302,-0.774261,-0.088082,-0.075139,-0.017991,11.700943,5.256206,-1.254822,,,,,,,
1523697242.297244,-0.673712,-0.132729,0.114094,-0.187815,0.037510,0.112786,-0.618399,0.132340,-0.774632,-0.011316,-0.096131,0.061634,12.747620,4.427333,-0.425964,,,,,,,
1523697242.327212,-0.669348,-0.138949,0.115366,-0.090235,0.217401,0.186194,-0.614490,0.138502,-0.776662,0.043537,-0.103697,0.135641,16.933380,3.133265,-0.643738,,,,,,,
1523697242.357181,-0.658986,-0.142059,0.119547,0.052785,0.431770,0.175428,-0.606143,0.141581,-0.782644,0.062670,-0.135554,0.134100,18.725372,2.599757,-1.090698,,,,,,,
1523697242.387149,-0.641625,-0.142233,0.125905,0.121808,0.593060,0.182777,-0.592451,0.141754,-0.793029,0.019803,-0.138382,-0.093705,21.341553,2.436793,-2.288757,,,,,,,
1523697242.417117,-0.624471,-0.140567,0.131262,0.247213,0.491995,0.002902,-0.578898,0.140104,-0.803265,-0.079046,-0.027342,-0.287891,21.860641,2.882731,-4.015320,,,,,,,
1523697242.447085,-0.615227,-0.129681,0.135109,0.364990,0.184427,-0.122435,-0.572294,0.129318,-0.809780,0.117720,0.007538,-0.110401,20.814682,4.235850,-5.596191,,,,,,,
1523697242.477054,-0.613975,-0.122515,0.136691,0.127474,-0.088524,-0.058403,-0.571799,0.122209,-0.811233,0.160666,0.000319,-0.008225,15.711868,5.081935,-7.477112,,,,,,,
1523697242.507022,-0.612835,-0.121557,0.136829,-0.016669,0.223797,0.006165,-0.570941,0.121258,-0.811979,-0.068127,-0.058788,-0.316790,13.231430,4.493175,-7.401062,,,,,,,
1523697242.536990,-0.604677,-0.121767,0.136990,0.025617,0.093150,-0.020288,-0.564283,0.121467,-0.816589,-0.241793,-0.048148,-0.702972,9.702011,2.786159,-5.295959,,,,,,,
1523697242.566958,-0.618052,-0.119044,0.134877,0.012932,-0.741054,-0.155864,-0.575344,0.118763,-0.809235,-0.131000,-0.046146,-0.368056,8.269287,1.293818,-4.090698,,,,,,,
1523697242.596927,-0.644273,-0.116869,0.130395,-0.027089,-0.867353,-0.164285,-0.596516,0.116603,-0.794077,-0.017879,0.030095,0.044825,10.205490,-1.038320,-2.505432,,,,,,,
1523697242.626895,-0.667649,-0.114664,0.126671,-0.024405,-0.685972,-0.116531,-0.615071,0.114413,-0.780117,0.017461,0.016156,0.188335,10.282913,-1.562383,-1.228271,,,,,,,
1523697242.656862,-0.683984,-0.116179,0.124344,-0.148977,-0.428545,0.039751,-0.627622,0.115918,-0.769830,0.050306,-0.066098,0.062341,12.070694,-2.246327,-2.124695,,,,,,,
1523697242.686831,-0.692588,-0.123207,0.123606,-0.215687,-0.182624,0.148146,-0.633685,0.122895,-0.763757,-0.105481,-0.076524,-0.205955,12.812241,-2.101308,-3.774841,,,,,,,
1523697242.716799,-0.696961,-0.126123,0.122741,0.041685,-0.179640,-0.065836,-0.636787,0.125789,-0.760700,-0.215539,-0.043056,-0.309308,10.266647,-0.891133,-5.055969,,,,,,,
1523697242.746768,-0.711036,-0.119344,0.121959,0.134377,-0.619897,-0.202773,-0.647971,0.119061,-0.752291,-0.053994,0.003910,-0.029264,8.631241,0.616130,-5.137878,,,,,,,
1523697242.776736,-0.726186,-0.117471,0.118150,-0.208636,-0.329629,-0.104238,-0.659441,0.117201,-0.742553,-0.084425,-0.012647,0.154144,8.139816,2.945064,-3.422363,,,,,,,
1523697242.806704,-0.728997,-0.122025,0.109524,-0.265374,0.099853,-0.112165,-0.661163,0.121722,-0.740291,-0.208115,-0.142184,-0.114507,8.317078,4.596065,-1.628906,,,,,,,
1523697242.836673,-0.723422,-0.125694,0.105252,-0.149475,0.176041,0.044474,-0.656726,0.125363,-0.743625,-0.257444,-0.182736,-0.168560,8.857208,5.344905,-0.356567,,,,,,,
1523697242.866641,-0.719663,-0.127364,0.105899,0.109518,0.092365,0.062880,-0.653787,0.127020,-0.745930,-0.035270,-0.148627,0.025227,12.701813,6.454021,1.065857,,,,,,,
1523697242.896609,-0.715648,-0.118170,0.115411,0.608770,0.159640,-0.007156,-0.651525,0.117895,-0.749399,0.154608,-0.108557,0.210581,13.316956,7.427150,1.962280,,,,,,,
1523697242.926578,-0.707740,-0.101978,0.128229,0.740630,0.240276,-0.038031,-0.646736,0.101802,-0.755879,0.230140,-0.018946,0.144002,16.385361,7.262523,1.139526,,,,,,,
1523697242.956574,-0.700817,-0.082198,0.142940,0.885438,0.125329,-0.062317,-0.642660,0.082106,-0.761729,0.223394,0.016970,0.022212,18.030060,7.179378,0.390625,,,,,,,
