timestamp(unix),attitude_roll(radians),attitude_pitch(radians),attitude_yaw(radians),rotation_rate_x(radians/s),rotation_rate_y(radians/s),rotation_rate_z(radians/s),gravity_x(G),gravity_y(G),gravity_z(G),user_acc_x(G),user_acc_y(G),user_acc_z(G),magnetic_field_x(microteslas),magnetic_field_y(microteslas),magnetic_field_z(microteslas),latitude(degree),longitude(degree),altitude(meter),speed(m/s),course(degree),timestamp(unix),User Mark
1522139411.707971,-0.039614,0.015796,-0.650027,0.003339,-0.044212,0.005942,-0.039598,-0.015795,-0.999091,-0.006804,0.030871,0.036826,-10.996475,2.912968,8.419617,,,,,,,
,,,,,,,,,,,,,,,,25.306158,51.445662,10.999999,-1.000000,-1.000000,1522139352.930785,
1522139411.737939,-0.039683,0.015832,-0.649851,0.002667,0.040796,0.004797,-0.039668,-0.015831,-0.999088,0.016047,-0.009712,-0.163800,-11.283966,2.541965,11.120911,,,,,,,
1522139411.767908,-0.040021,0.015845,-0.649675,0.003451,-0.020829,0.004854,-0.040006,-0.015844,-0.999074,-0.019992,-0.013315,-0.035762,-10.905350,2.091618,12.472961,,,,,,,
1522139411.797876,-0.040221,0.015976,-0.649520,0.004502,-0.022961,0.005921,-0.040205,-0.015976,-0.999064,-0.035204,-0.010681,0.028727,-8.952286,1.858723,13.374817,,,,,,,
1522139411.827844,-0.040598,0.015860,-0.649244,-0.010403,-0.011268,0.009101,-0.040581,-0.015860,-0.999050,-0.013252,-0.013330,-0.033436,-6.405975,1.172794,13.903870,,,,,,,
1522139411.857812,-0.040533,0.015636,-0.648904,-0.005943,0.038606,0.016517,-0.040517,-0.015635,-0.999057,-0.053477,-0.009404,-0.118482,-4.385254,1.013248,13.455505,,,,,,,
1522139411.887781,-0.041081,0.015678,-0.648642,0.004360,-0.050643,0.011288,-0.041065,-0.015678,-0.999034,-0.026211,-0.039681,0.094752,-1.464905,1.673237,11.579285,,,,,,,
1522139411.917749,-0.041175,0.015623,-0.648314,-0.002891,0.005695,0.014406,-0.041158,-0.015622,-0.999030,-0.014017,0.015241,-0.054528,-1.920898,1.524540,10.829651,,,,,,,
1522139411.947717,-0.041359,0.015887,-0.648016,0.019591,0.010991,0.008028,-0.041342,-0.015886,-0.999019,-0.034952,-0.026426,-0.082326,-1.480515,1.371204,9.480530,,,,,,,
1522139411.977686,-0.041525,0.016608,-0.647869,0.012082,-0.000675,0.005911,-0.041507,-0.016607,-0.999000,-0.027386,-0.017115,0.049537,-1.109589,1.368870,8.805725,,,,,,,
1522139412.007654,-0.041269,0.016883,-0.647681,0.006707,-0.008111,0.006982,-0.041252,-0.016882,-0.999006,0.000984,0.021796,0.031889,-1.868103,0.921604,8.132080,,,,,,,
1522139412.037622,-0.040784,0.016998,-0.647527,-0.000646,0.019541,0.006944,-0.040767,-0.016997,-0.999024,-0.009495,-0.030412,-0.090041,-1.946396,0.771656,7.832642,,,,,,,
1522139412.067590,-0.040499,0.016749,-0.647375,-0.023142,0.004718,0.008005,-0.040482,-0.016749,-0.999040,0.016114,0.005030,-0.096114,-2.992905,0.851810,8.281860,,,,,,,
1522139412.097528,-0.039880,0.016410,-0.647283,-0.002682,0.037632,0.003729,-0.039864,-0.016410,-0.999070,-0.031609,-0.043405,-0.047621,-2.693054,0.700687,8.507568,,,,,,,
1522139412.127496,-0.039546,0.016315,-0.647235,-0.018881,-0.003758,0.002690,-0.039531,-0.016315,-0.999085,0.015589,-0.006177,0.034333,-2.840530,1.225910,8.055420,,,,,,,
1522139412.157465,-0.039246,0.015767,-0.647149,-0.002786,0.015323,0.003748,-0.039232,-0.015766,-0.999106,-0.021865,-0.020565,-0.034555,-1.565887,1.369877,7.755432,,,,,,,
1522139412.187433,-0.038858,0.015558,-0.647023,-0.014621,-0.007998,0.000563,-0.038843,-0.015558,-0.999124,0.016520,-0.033179,0.080820,-2.621399,1.223942,7.080505,,,,,,,
1522139412.217401,-0.038575,0.015224,-0.646868,-0.011409,-0.001682,0.005896,-0.038561,-0.015223,-0.999140,0.053118,-0.015172,0.066981,-2.694305,1.748753,6.553406,,,,,,,
1522139412.247369,-0.038560,0.014814,-0.646613,-0.015794,-0.027159,0.004848,-0.038546,-0.014814,-0.999147,0.028872,0.050763,0.090440,-2.613770,2.348301,6.476074,,,,,,,
1522139412.277338,-0.038539,0.014834,-0.646430,0.006866,0.022738,0.002687,-0.038526,-0.014834,-0.999148,0.072110,-0.071577,-0.028456,-3.960434,2.729282,6.398865,,,,,,,
1522139412.307306,-0.038592,0.014538,-0.646247,-0.019984,-0.009099,0.005897,-0.038579,-0.014537,-0.999150,0.065251,0.016155,-0.024944,-4.703354,3.257923,6.696350,,,,,,,
1522139412.337274,-0.038799,0.014638,-0.646112,0.017392,-0.012350,0.001666,-0.038785,-0.014637,-0.999140,0.037534,0.016056,-0.026403,-5.076569,3.709156,6.244324,,,,,,,
1522139412.367242,-0.038693,0.015010,-0.646095,-0.003859,0.011086,0.001623,-0.038679,-0.015010,-0.999139,0.021101,-0.025090,-0.169349,-5.603943,3.561375,6.094727,,,,,,,
1522139412.397211,-0.038977,0.014858,-0.646047,0.000336,-0.004874,0.002710,-0.038963,-0.014857,-0.999130,0.061485,0.003917,-0.029022,-7.184738,3.792149,4.742920,,,,,,,
1522139412.427164,-0.039146,0.014814,-0.646051,0.001506,0.014274,-0.000506,-0.039132,-0.014813,-0.999124,-0.022102,-0.001972,-0.026450,-9.133469,3.875980,4.816650,,,,,,,
1522139412.457132,-0.039175,0.014750,-0.646031,-0.007091,0.004718,0.001627,-0.039161,-0.014749,-0.999124,0.015174,0.006937,0.003335,-11.678391,3.888264,5.640320,,,,,,,
1522139412.487100,-0.039208,0.014648,-0.645960,-0.000614,0.019573,0.001621,-0.039193,-0.014648,-0.999124,0.040658,-0.015824,-0.093115,-17.357758,4.291584,8.410889,,,,,,,
1522139412.517069,-0.039146,0.014608,-0.645834,-0.003972,-0.011242,0.003775,-0.039132,-0.014607,-0.999127,0.014657,-0.044475,0.058484,-20.121948,4.156055,10.435059,,,,,,,
1522139412.547037,-0.039203,0.014801,-0.645679,0.001322,-0.019762,0.004852,-0.039188,-0.014800,-0.999122,0.007923,-0.007462,0.051902,-25.124451,2.984272,16.137268,,,,,,,
1522139412.576975,-0.038927,0.014836,-0.645540,0.003621,0.007912,-0.002632,-0.038913,-0.014836,-0.999132,0.041537,0.019123,-0.035062,-25.704132,2.765629,19.887817,,,,,,,
1522139412.606943,-0.039061,0.015198,-0.645401,0.008744,-0.032526,0.003806,-0.039047,-0.015197,-0.999122,0.079742,-0.034440,0.038779,-25.900238,1.423557,26.943054,,,,,,,
1522139412.636911,-0.039002,0.014934,-0.645219,-0.007183,-0.008076,0.008032,-0.038987,-0.014933,-0.999128,0.006013,0.008402,-0.021227,-23.632721,0.967030,30.620972,,,,,,,
1522139412.666880,-0.039095,0.014987,-0.645049,0.006668,-0.014504,0.009121,-0.039081,-0.014986,-0.999124,0.019153,-0.004377,-0.021796,-15.816788,0.260700,34.452759,,,,,,,
1522139412.696848,-0.039044,0.014963,-0.644916,-0.004996,-0.000624,0.004831,-0.039029,-0.014962,-0.999126,-0.037921,-0.024360,-0.001866,-12.288010,0.095722,35.355164,,,,,,,
1522139412.726816,-0.039040,0.014800,-0.644774,-0.000605,0.023823,0.002677,-0.039026,-0.014799,-0.999129,-0.030661,-0.022493,-0.034776,-2.696075,-0.173336,34.461060,,,,,,,
1522139412.756784,-0.039115,0.014973,-0.644657,0.004486,-0.029325,0.003798,-0.039101,-0.014972,-0.999123,-0.006309,0.014667,0.016167,2.697388,0.025959,33.037964,,,,,,,
1522139412.786753,-0.039059,0.015122,-0.644647,-0.000623,0.019570,0.002683,-0.039045,-0.015121,-0.999123,0.044553,-0.032425,0.064034,7.115402,0.454212,31.163452,,,,,,,
1522139412.816721,-0.039115,0.014892,-0.644652,0.000351,-0.005887,-0.002626,-0.039101,-0.014891,-0.999124,0.019524,-0.027543,-0.095495,13.610931,1.693012,24.186829,,,,,,,
1522139412.846689,-0.039231,0.014894,-0.644632,-0.004902,0.015329,0.001625,-0.039217,-0.014893,-0.999120,0.000612,0.004411,-0.053645,15.764496,2.203892,19.760803,,,,,,,
1522139412.876657,-0.039598,0.014784,-0.644663,-0.002919,-0.016556,0.002720,-0.039584,-0.014783,-0.999107,0.028704,-0.033602,-0.023018,15.423019,2.647770,12.108887,,,,,,,
1522139412.906626,-0.039812,0.014813,-0.644652,-0.003775,0.023877,-0.003720,-0.039797,-0.014813,-0.999098,-0.009245,0.010403,-0.141619,13.834564,2.877293,9.482178,,,,,,,
1522139412.936594,-0.040156,0.015101,-0.644703,0.003640,0.014252,0.000567,-0.040141,-0.015100,-0.999080,0.009699,0.007883,-0.104832,9.091858,3.045414,6.254089,,,,,,,
1522139412.966563,-0.040501,0.015032,-0.644672,-0.004880,0.020662,0.000545,-0.040485,-0.015032,-0.999067,-0.013989,0.039674,-0.036669,6.461441,2.457325,6.330139,,,,,,,
1522139412.996531,-0.040865,0.014981,-0.644647,0.004599,-0.008051,0.000580,-0.040849,-0.014980,-0.999053,-0.024474,-0.046681,-0.011170,2.716690,2.849400,6.551697,,,,,,,
1522139413.026500,-0.041074,0.014803,-0.644614,-0.001798,-0.010140,-0.002617,-0.041058,-0.014803,-0.999047,0.035656,-0.014723,0.010171,2.795883,2.774860,7.377014,,,,,,,
1522139413.056468,-0.041165,0.014493,-0.644635,-0.007066,0.001565,-0.004756,-0.041149,-0.014492,-0.999048,-0.015567,-0.066532,-0.037039,2.202530,3.078129,7.975525,,,,,,,
1522139413.086406,-0.040885,0.013937,-0.644481,-0.018765,0.021726,0.003738,-0.040870,-0.013936,-0.999067,-0.059549,0.026494,-0.167086,2.882111,3.674854,7.748474,,,,,,,
1522139413.116373,-0.040706,0.013867,-0.644365,0.003678,0.032289,0.006930,-0.040690,-0.013867,-0.999076,0.005275,-0.030201,0.034201,4.532623,4.266514,6.846924,,,,,,,
1522139413.146341,-0.040236,0.013796,-0.644265,-0.018808,0.012162,0.003747,-0.040222,-0.013795,-0.999096,0.000182,-0.005232,0.027370,4.974792,4.562733,5.046021,,,,,,,
1522139413.176309,-0.039585,0.013614,-0.644194,0.012329,0.048228,0.001603,-0.039571,-0.013614,-0.999124,-0.005030,0.014361,-0.011832,4.897522,4.787327,4.295044,,,,,,,
1522139413.206278,-0.039225,0.014181,-0.644178,0.014300,0.004685,-0.003673,-0.039211,-0.014181,-0.999130,0.011196,-0.022684,0.023422,4.523560,5.612797,3.091553,,,,,,,
1522139413.236246,-0.038666,0.014283,-0.644143,0.000421,0.014272,0.001617,-0.038653,-0.014283,-0.999151,-0.002546,0.034256,0.029973,3.475693,5.692738,3.315674,,,,,,,
1522139413.266214,-0.038338,0.014379,-0.644126,0.008913,0.003610,0.002704,-0.038324,-0.014379,-0.999162,-0.023107,-0.031169,-0.013671,3.329163,5.993473,3.389404,,,,,,,
1522139413.296182,-0.037655,0.014495,-0.644092,-0.009121,0.029138,0.003739,-0.037642,-0.014495,-0.999186,0.004287,-0.009340,-0.039098,3.706390,6.216785,3.388733,,,,,,,
1522139413.326151,-0.037386,0.014178,-0.644023,-0.002935,-0.019741,0.002721,-0.037373,-0.014177,-0.999201,-0.046199,0.035829,0.053675,4.911713,6.661503,3.537537,,,,,,,
1522139413.356119,-0.037459,0.014293,-0.644051,-0.002828,0.000455,0.000576,-0.037446,-0.014293,-0.999196,0.015016,-0.038503,0.042989,5.134003,6.884678,2.711792,,,,,,,
1522139413.386087,-0.037363,0.013907,-0.644032,-0.013574,-0.009089,0.003763,-0.037350,-0.013907,-0.999205,0.065503,-0.009973,-0.002702,5.723755,7.030079,0.761475,,,,,,,
1522139413.416066,-0.037661,0.013769,-0.643973,0.007711,-0.030373,-0.000456,-0.037649,-0.013769,-0.999196,-0.010691,0.045995,0.009771,5.492767,6.880360,0.011963,,,,,,,
1522139413.446034,-0.037906,0.013883,-0.643974,-0.012437,-0.000542,-0.002641,-0.037894,-0.013882,-0.999185,-0.008203,0.002270,0.022623,4.141449,7.110844,-0.589600,,,,,,,
1522139413.476002,-0.038205,0.013663,-0.643834,0.008767,-0.024049,0.006995,-0.038192,-0.013662,-0.999177,0.010269,-0.021647,0.017991,1.434830,6.897266,-1.340149,,,,,,,
1522139413.505970,-0.038834,0.013747,-0.643626,-0.000941,-0.041057,0.011267,-0.038821,-0.013747,-0.999152,0.010516,0.020217,0.060721,1.131836,6.823261,-1.714966,,,,,,,
1522139413.535939,-0.039228,0.014007,-0.643576,0.022819,-0.002742,-0.006863,-0.039214,-0.014007,-0.999133,-0.010774,-0.024354,0.027148,-1.427628,5.560307,-1.186218,,,,,,,
1522139413.565876,-0.039643,0.014306,-0.643501,-0.011444,-0.013334,0.001641,-0.039628,-0.014306,-0.999112,0.037782,0.014504,0.069684,-1.881195,5.112507,-1.034668,,,,,,,
1522139413.595845,-0.039850,0.014223,-0.643388,0.015224,-0.012391,0.008059,-0.039835,-0.014223,-0.999105,0.032206,-0.022200,-0.002985,-5.720230,3.255527,-0.279114,,,,,,,
1522139413.625813,-0.040175,0.014621,-0.643204,-0.001820,-0.003849,0.008038,-0.040160,-0.014620,-0.999086,0.004989,0.004702,-0.025755,-8.120255,2.667301,0.696960,,,,,,,
1522139413.655782,-0.040447,0.014836,-0.643101,0.022693,-0.020832,-0.000464,-0.040431,-0.014836,-0.999072,0.012004,-0.031307,-0.007901,-12.463531,0.816059,4.902222,,,,,,,
1522139413.685750,-0.040212,0.015437,-0.643003,-0.000565,0.034428,0.004801,-0.040196,-0.015437,-0.999073,0.011617,-0.017721,-0.066723,-14.631943,-0.146481,7.605042,,,,,,,
1522139413.715719,-0.040292,0.015608,-0.642852,0.017424,-0.003856,0.002722,-0.040277,-0.015608,-0.999067,0.007806,0.030241,0.004941,-13.025772,-0.448009,13.307068,,,,,,,
1522139413.745687,-0.040151,0.016382,-0.642730,0.014288,0.015261,0.005894,-0.040135,-0.016381,-0.999060,-0.043377,0.006555,-0.059763,-12.336655,-0.523632,15.782654,,,,,,,
1522139413.775655,-0.040066,0.016817,-0.642702,0.017435,-0.007037,-0.000461,-0.040049,-0.016816,-0.999056,-0.032674,0.012971,0.011950,-4.444733,0.042728,17.659363,,,,,,,
1522139413.805622,-0.039648,0.017276,-0.642656,0.005810,0.030149,0.006940,-0.039632,-0.017275,-0.999065,0.016225,-0.049757,-0.005345,-0.768860,0.625355,16.833862,,,,,,,
1522139413.835592,-0.039282,0.017167,-0.642515,-0.000709,0.003604,0.005899,-0.039266,-0.017166,-0.999081,-0.019099,0.070327,-0.018070,2.378128,1.134846,15.483398,,,,,,,
1522139413.865559,-0.038842,0.017385,-0.642391,0.004680,0.013159,0.004830,-0.038826,-0.017384,-0.999095,0.009835,-0.072322,-0.072698,5.057266,1.343967,11.658875,,,,,,,
1522139413.895527,-0.038502,0.017225,-0.642198,-0.008151,0.008940,0.004824,-0.038486,-0.017225,-0.999111,0.046040,0.039472,0.068172,4.975815,1.418140,10.458557,,,,,,,
1522139413.925495,-0.037987,0.017420,-0.642043,0.013081,-0.015552,0.005924,-0.037972,-0.017419,-0.999127,-0.017844,-0.027365,-0.059909,4.895828,1.866917,8.881714,,,,,,,
1522139413.955464,-0.037609,0.017366,-0.641888,-0.008235,-0.009102,0.003767,-0.037594,-0.017365,-0.999142,0.017254,0.005021,0.025219,5.039963,1.865299,7.906799,,,,,,,
1522139413.985432,-0.036997,0.017400,-0.641780,0.002576,0.019569,0.002681,-0.036983,-0.017399,-0.999164,-0.036259,-0.020412,0.070423,5.783936,1.711201,7.157776,,,,,,,
1522139414.015400,-0.036830,0.017422,-0.641724,0.002406,-0.018705,0.003793,-0.036816,-0.017421,-0.999170,-0.005711,0.029400,0.080301,5.633347,1.562031,7.308350,,,,,,,
1522139414.045338,-0.036557,0.017355,-0.641577,0.000298,-0.011269,0.004850,-0.036544,-0.017354,-0.999181,-0.008211,-0.013576,0.110342,7.117081,1.103397,5.360901,,,,,,,
1522139414.075306,-0.036685,0.017075,-0.641470,-0.007243,-0.029288,0.001663,-0.036671,-0.017075,-0.999182,0.016957,0.006409,0.022527,8.085098,1.397404,3.710144,,,,,,,
1522139414.105275,-0.036428,0.016955,-0.641278,-0.006057,0.004655,0.009092,-0.036415,-0.016955,-0.999193,0.036338,-0.017439,0.063677,6.798294,1.476078,1.609253,,,,,,,
1522139414.135243,-0.036766,0.016740,-0.641085,-0.004067,-0.033549,0.002732,-0.036752,-0.016740,-0.999184,0.007516,-0.009078,0.070107,6.038559,1.403004,0.109131,,,,,,,
1522139414.165211,-0.036810,0.016864,-0.640975,0.003454,-0.026119,0.000602,-0.036796,-0.016864,-0.999180,0.044349,0.009295,0.059498,5.435425,1.405201,-0.416199,,,,,,,
1522139414.195179,-0.036944,0.016832,-0.640897,-0.002878,-0.006972,0.001636,-0.036931,-0.016831,-0.999176,0.006337,0.008515,0.007355,2.733154,1.042576,-0.191040,,,,,,,
1522139414.225148,-0.037138,0.016930,-0.640768,0.010981,-0.012343,0.002728,-0.037124,-0.016929,-0.999167,0.013335,-0.007149,-0.000589,1.986633,1.346012,-0.117676,,,,,,,
1522139414.255116,-0.037360,0.017063,-0.640690,0.002399,-0.020818,0.002727,-0.037346,-0.017062,-0.999157,0.029854,-0.031308,0.052761,1.778595,2.547764,0.702393,,,,,,,
1522139414.285084,-0.037450,0.016979,-0.640537,-0.002813,0.008927,0.004828,-0.037436,-0.016978,-0.999155,-0.019616,-0.012090,-0.016211,1.414993,3.150303,1.599854,,,,,,,
,,,,,,,,,,,,,,,,25.306548,51.445248,10.999999,-1.000000,-1.000000,1522139414.257866,
1522139414.315053,-0.037590,0.016914,-0.640366,0.007768,-0.010227,0.005916,-0.037576,-0.016913,-0.999151,0.025720,0.001135,0.011846,2.553574,4.420322,1.745300,,,,,,,
1522139414.345021,-0.037307,0.017249,-0.640179,0.002716,0.053544,0.005847,-0.037293,-0.017248,-0.999156,0.041397,-0.038446,-0.060216,3.681061,4.939793,1.293823,,,,,,,
1522139414.374990,-0.037545,0.017280,-0.639985,0.009854,-0.024035,0.003803,-0.037531,-0.017279,-0.999146,-0.003699,0.000937,0.038132,3.153992,4.417698,1.820618,,,,,,,
1522139414.404958,-0.037348,0.017572,-0.639745,0.008853,-0.005960,0.004839,-0.037334,-0.017571,-0.999148,0.018596,-0.035820,0.032184,2.480957,4.346180,2.270569,,,,,,,
1522139414.434905,-0.037126,0.017691,-0.639486,0.003585,0.009962,0.006961,-0.037112,-0.017690,-0.999155,-0.025464,0.000859,-0.012213,4.130157,3.814503,3.023560,,,,,,,
1522139414.464874,-0.037190,0.017970,-0.639329,0.015132,-0.037832,0.001679,-0.037176,-0.017969,-0.999147,0.027441,-0.009725,0.086336,4.723999,3.286686,2.875916,,,,,,,
1522139414.494842,-0.037033,0.018090,-0.639074,-0.000703,0.007844,0.008023,-0.037018,-0.018089,-0.999151,-0.007568,0.006004,-0.015147,6.675262,3.502750,2.726074,,,,,,,
1522139414.524780,-0.037138,0.018269,-0.638849,0.012021,-0.016633,0.005939,-0.037124,-0.018268,-0.999144,-0.007798,-0.044568,0.001921,10.644684,3.708622,1.452209,,,,,,,
1522139414.554748,-0.037177,0.018558,-0.638635,0.004526,-0.018718,0.005921,-0.037163,-0.018557,-0.999137,-0.017906,0.006289,0.049750,11.382492,3.254032,0.179443,,,,,,,
1522139414.584716,-0.037034,0.019189,-0.638440,0.027136,0.021609,0.004834,-0.037018,-0.019188,-0.999130,-0.047988,-0.005012,0.069885,14.062119,2.789341,-2.442383,,,,,,,
1522139414.614684,-0.036519,0.019737,-0.638308,0.006837,0.023757,0.009078,-0.036504,-0.019736,-0.999139,-0.017192,-0.026590,0.004342,15.699890,2.779957,-4.466553,,,,,,,
1522139414.644653,-0.035888,0.019952,-0.638085,0.013268,0.025890,0.005883,-0.035873,-0.019950,-0.999157,-0.003479,0.014534,0.089657,17.033020,2.172153,-6.263428,,,,,,,
1522139414.674621,-0.034838,0.020362,-0.637889,0.003675,0.032261,0.009070,-0.034823,-0.020361,-0.999186,-0.041486,-0.040125,0.005442,17.777130,2.167835,-7.238098,,,,,,,
1522139414.704589,-0.033431,0.020124,-0.637676,-0.007900,0.063155,0.002634,-0.033418,-0.020123,-0.999239,-0.014235,0.018612,0.044481,20.388306,3.127186,-11.140564,,,,,,,
1522139414.734558,-0.031531,0.020200,-0.637529,0.003880,0.069507,0.001572,-0.031519,-0.020199,-0.999299,-0.042837,-0.062519,-0.061599,22.176651,3.491581,-13.691223,,,,,,,
1522139414.764526,-0.029723,0.020082,-0.637320,-0.004703,0.068410,0.009028,-0.029713,-0.020080,-0.999357,0.030170,-0.009888,-0.020266,24.848251,4.073856,-19.392151,,,,,,,
1522139414.794494,-0.027274,0.020337,-0.637149,0.007192,0.099209,0.006876,-0.027265,-0.020336,-0.999421,-0.051959,-0.025440,-0.010207,23.929840,3.850285,-22.091736,,,,,,,
1522139414.824462,-0.025273,0.020318,-0.636987,-0.004641,0.079062,0.005818,-0.025265,-0.020317,-0.999474,-0.001667,-0.080788,0.023095,23.908218,3.622166,-25.315857,,,,,,,
1522139414.854431,-0.023544,0.020262,-0.636642,-0.006860,0.068401,0.012217,-0.023537,-0.020261,-0.999518,-0.004890,-0.032580,-0.030573,20.492645,3.481007,-31.841980,,,,,,,
1522139414.884399,-0.022053,0.020001,-0.636239,-0.013287,0.063100,0.012221,-0.022046,-0.020000,-0.999557,-0.031588,-0.064427,-0.087098,17.396301,2.967243,-34.541504,,,,,,,
1522139414.914367,-0.021483,0.019609,-0.635743,-0.022120,0.006748,0.019731,-0.021477,-0.019608,-0.999577,0.008553,-0.008240,0.057194,5.445404,2.043247,-37.318787,,,,,,,
1522139414.944335,-0.021202,0.019146,-0.635233,-0.004082,-0.019841,0.017637,-0.021197,-0.019145,-0.999592,-0.028196,-0.026174,0.039387,-1.232620,1.473743,-36.869812,,,,,,,
1522139414.974304,-0.021356,0.019000,-0.634613,-0.027393,0.025856,0.023972,-0.021350,-0.018998,-0.999592,0.007282,-0.058043,-0.040554,-14.871735,-0.185299,-32.294983,,,,,,,
1522139415.004241,-0.021968,0.018185,-0.633962,-0.021371,-0.063383,0.019801,-0.021963,-0.018184,-0.999593,-0.001246,-0.000630,0.036581,-20.406311,-0.756878,-28.770447,,,,,,,
1522139415.034210,-0.022954,0.017866,-0.633357,-0.021101,-0.007075,0.018690,-0.022948,-0.017865,-0.999577,0.004073,-0.055301,0.120488,-28.303986,-0.787563,-19.999329,,,,,,,
1522139415.064178,-0.023649,0.017036,-0.632613,-0.032892,-0.010246,0.022935,-0.023643,-0.017035,-0.999575,-0.007546,-0.047479,-0.142606,-30.440613,-0.322323,-14.377258,,,,,,,
1522139415.094146,-0.025085,0.016800,-0.631919,0.007334,-0.093194,0.017722,-0.025078,-0.016800,-0.999544,0.019448,0.000931,0.109347,-29.465042,2.381367,-6.287537,,,,,,,
1522139415.124114,-0.025500,0.016726,-0.631359,-0.007292,-0.018802,0.020836,-0.025494,-0.016725,-0.999535,-0.011982,-0.008147,-0.014167,-26.817505,3.421482,-4.265381,,,,,,,
1522139415.154083,-0.025925,0.016574,-0.630781,-0.007166,0.011986,0.024005,-0.025919,-0.016574,-0.999527,-0.051245,-0.036512,-0.102936,-25.515991,4.543171,-1.719177,,,,,,,
1522139415.184051,-0.026243,0.016516,-0.630293,-0.004235,-0.051739,0.019803,-0.026236,-0.016515,-0.999519,0.047889,-0.001612,0.103142,-22.480927,6.706760,0.523682,,,,,,,
1522139415.214019,-0.025900,0.016247,-0.629880,-0.028279,0.060953,0.019675,-0.025894,-0.016246,-0.999533,-0.026550,-0.061009,-0.176172,-21.418076,7.677494,1.045288,,,,,,,
1522139415.243987,-0.025379,0.015335,-0.629387,-0.039164,0.017399,0.021841,-0.025373,-0.015335,-0.999560,-0.002825,-0.007065,-0.062848,-22.814072,8.736851,4.115356,,,,,,,
1522139415.273956,-0.024800,0.014671,-0.628962,-0.015527,0.040796,0.012238,-0.024795,-0.014671,-0.999585,-0.023789,0.017417,-0.053119,-23.024353,9.039738,6.064087,,,,,,,
1522139415.303924,-0.023746,0.014274,-0.628518,-0.019818,0.041844,0.016493,-0.023742,-0.014274,-0.999616,0.034163,-0.004388,-0.007021,-21.722061,9.562550,9.737610,,,,,,,
1522139415.333892,-0.022788,0.013797,-0.628071,-0.000581,0.044977,0.016509,-0.022784,-0.013796,-0.999645,-0.000532,-0.006712,-0.023472,-21.488953,9.113605,11.839539,,,,,,,
1522139415.363860,-0.021842,0.013758,-0.627621,0.002462,0.007798,0.014413,-0.021839,-0.013757,-0.999667,0.026264,-0.013235,0.058352,-19.981476,8.509083,14.092712,,,,,,,
1522139415.393829,-0.020580,0.013709,-0.627107,0.004806,0.054534,0.015437,-0.020577,-0.013708,-0.999694,0.027733,-0.045618,-0.072083,-18.255341,8.351765,14.544189,,,,,,,
1522139415.423815,-0.019997,0.013900,-0.626578,0.009965,0.007814,0.009093,-0.019993,-0.013900,-0.999703,-0.021083,-0.029741,-0.025092,-18.780106,7.156162,16.573730,,,,,,,
1522139415.453783,-0.019570,0.014644,-0.626144,0.019745,0.047084,0.011197,-0.019567,-0.014644,-0.999701,0.014837,-0.057500,0.019751,-19.226318,6.410038,18.451477,,,,,,,
1522139415.483721,-0.019708,0.015093,-0.625716,0.009754,-0.034742,0.014473,-0.019704,-0.015093,-0.999692,0.028859,0.043016,0.020658,-18.758575,5.886768,22.278870,,,,,,,
1522139415.513689,-0.019893,0.015599,-0.625328,0.017389,0.000317,0.013375,-0.019889,-0.015598,-0.999681,0.042274,-0.010982,0.020127,-17.624619,5.658543,24.155334,,,,,,,
1522139415.543658,-0.020688,0.016198,-0.624946,0.010758,-0.048539,0.013415,-0.020684,-0.016198,-0.999655,0.038094,0.023507,0.030401,-15.142181,5.498859,25.657227,,,,,,,
1522139415.573626,-0.021471,0.016402,-0.624626,0.008811,-0.011326,0.010183,-0.021467,-0.016401,-0.999635,0.026960,0.024961,-0.007064,-6.293884,5.009586,26.188477,,,,,,,
1522139415.603594,-0.022359,0.016573,-0.624356,0.001297,-0.015591,0.014446,-0.022354,-0.016572,-0.999613,-0.023194,-0.002440,-0.072119,-2.472488,4.916935,25.740845,,,,,,,
1522139415.633562,-0.023302,0.016742,-0.624072,0.008543,-0.069762,0.010237,-0.023297,-0.016741,-0.999588,0.072232,-0.037717,0.080918,6.816238,5.996464,22.066162,,,,,,,
1522139415.663531,-0.023920,0.016935,-0.623739,0.004491,-0.018777,0.013385,-0.023914,-0.016934,-0.999571,0.037876,-0.011386,-0.064928,11.230499,6.948215,18.689575,,,,,,,
1522139415.693499,-0.024269,0.017527,-0.623451,0.009855,-0.015589,0.011255,-0.024263,-0.017526,-0.999552,-0.003783,0.015207,-0.042837,15.490067,9.322514,12.157227,,,,,,,
1522139415.723467,-0.024180,0.017893,-0.623103,0.008997,0.033295,0.012264,-0.024174,-0.017892,-0.999548,0.071430,-0.022147,-0.011957,17.356232,10.061420,9.455200,,,,,,,
1522139415.753435,-0.023850,0.018169,-0.622691,0.009930,0.003522,0.013367,-0.023844,-0.018168,-0.999551,0.059626,0.036463,0.001290,18.385590,10.652363,5.028320,,,,,,,
1522139415.783404,-0.023369,0.018651,-0.622386,0.018486,0.009885,0.014422,-0.023363,-0.018650,-0.999553,0.031877,0.006748,0.033489,18.974274,10.647831,3.153625,,,,,,,
1522139415.813372,-0.022498,0.019046,-0.622123,0.001533,0.032261,0.010133,-0.022492,-0.019045,-0.999566,0.002167,0.009203,-0.055473,18.042496,10.122608,-1.269775,,,,,,,
1522139415.843340,-0.021680,0.019341,-0.621799,0.006885,0.035435,0.010133,-0.021674,-0.019339,-0.999578,0.066840,-0.000192,0.020650,17.134567,10.050495,-2.469910,,,,,,,
1522139415.873308,-0.020776,0.019590,-0.621555,0.013217,0.018413,0.010158,-0.020770,-0.019589,-0.999592,0.049884,-0.010822,0.034489,14.867844,9.908146,-5.020508,,,,,,,
1522139415.903277,-0.019711,0.019876,-0.621260,-0.003780,0.042870,0.014380,-0.019706,-0.019874,-0.999608,0.069617,0.009987,0.036733,9.233582,10.381168,-7.350220,,,,,,,
1522139415.933214,-0.018872,0.020093,-0.621059,0.017399,-0.004935,0.005916,-0.018867,-0.020092,-0.999620,0.012733,-0.013264,0.065080,6.237625,10.470173,-6.827026,,,,,,,
1522139415.963183,-0.017710,0.020308,-0.620858,-0.006854,0.062051,0.006904,-0.017705,-0.020306,-0.999637,0.015905,-0.004184,-0.117840,-1.254654,9.307117,-3.601135,,,,,,,
1522139415.993151,-0.016763,0.020255,-0.620573,0.009049,0.046038,0.013318,-0.016758,-0.020253,-0.999654,0.066334,-0.011348,0.033208,-3.953003,8.346134,-1.723633,,,,,,,
1522139416.023119,-0.015873,0.020341,-0.620408,-0.004956,0.012090,0.009086,-0.015869,-0.020340,-0.999667,0.038208,-0.033798,0.052752,-7.097397,6.564182,2.181885,,,,,,,
1522139416.053087,-0.015243,0.020192,-0.620118,-0.004883,0.026973,0.008006,-0.015239,-0.020190,-0.999680,0.020442,0.029102,-0.032180,-8.962677,6.050053,4.658081,,,,,,,
1522139416.083056,-0.014475,0.020349,-0.619831,0.000563,0.053528,0.009041,-0.014471,-0.020348,-0.999688,0.048101,-0.041786,-0.085669,-7.513229,5.748112,9.234985,,,,,,,
1522139416.113024,-0.014318,0.020439,-0.619588,-0.001888,-0.018707,0.006980,-0.014315,-0.020438,-0.999689,0.030855,-0.003656,0.041315,-6.161011,5.293156,10.362488,,,,,,,
1522139416.142992,-0.013983,0.020637,-0.619373,0.010022,0.011031,0.002707,-0.013980,-0.020635,-0.999689,-0.007947,-0.020335,-0.034948,-2.277817,4.599033,8.717224,,,,,,,
1522139416.172961,-0.013817,0.020864,-0.619203,-0.001754,0.002565,0.001643,-0.013814,-0.020863,-0.999687,0.028615,-0.033916,-0.015389,-1.017578,4.066792,7.144958,,,,,,,
1522139416.202929,-0.013890,0.020681,-0.619009,-0.006015,0.007880,0.003761,-0.013887,-0.020680,-0.999690,0.020661,0.012288,0.008006,-1.624146,3.319675,7.297668,,,,,,,
1522139416.232897,-0.014109,0.020573,-0.618815,-0.003021,-0.035707,0.005937,-0.014105,-0.020572,-0.999689,0.022254,-0.057110,-0.076071,-3.719666,2.955448,8.648071,,,,,,,
1522139416.262865,-0.014551,0.020124,-0.618568,-0.016768,-0.003810,0.008026,-0.014547,-0.020123,-0.999692,0.013861,-0.040333,0.039426,-3.869080,3.105976,8.497375,,,,,,,
1522139416.292834,-0.014922,0.019791,-0.618261,-0.001919,-0.019809,0.012311,-0.014918,-0.019790,-0.999693,0.006098,0.002776,0.013609,-3.020874,4.753284,9.616211,,,,,,,
1522139416.322802,-0.015379,0.019840,-0.618033,0.000189,-0.032532,0.006999,-0.015375,-0.019839,-0.999685,0.057779,0.044192,0.065206,-2.188141,5.574451,9.538391,,,,,,,
1522139416.352770,-0.015737,0.019877,-0.617783,-0.003775,0.038647,0.010124,-0.015733,-0.019876,-0.999679,0.034654,0.010461,-0.119035,-1.198822,7.144779,9.307556,,,,,,,
1522139416.382738,-0.016112,0.020055,-0.617550,0.007752,-0.009181,0.009108,-0.016108,-0.020053,-0.999669,-0.008306,0.017948,-0.052211,-1.566772,7.671726,9.605225,,,,,,,
1522139416.412676,-0.016530,0.020450,-0.617332,0.012909,-0.058055,0.003846,-0.016526,-0.020449,-0.999654,0.024644,-0.001768,0.095922,-0.568863,8.794178,11.551270,,,,,,,
1522139416.442617,-0.016814,0.020542,-0.617148,0.005758,0.019495,0.009091,-0.016810,-0.020541,-0.999648,0.019175,0.001651,-0.033159,1.396622,9.985935,12.147522,,,,,,,
1522139416.472586,-0.016339,0.020666,-0.617010,0.004677,0.014217,0.004756,-0.016335,-0.020664,-0.999653,-0.013435,-0.033855,-0.139950,5.755402,11.090946,11.770264,,,,,,,
1522139416.502554,-0.016548,0.020887,-0.616907,0.002351,-0.029353,0.004803,-0.016543,-0.020885,-0.999645,0.039126,0.004192,0.059902,8.373383,11.152882,10.496338,,,,,,,
1522139416.532522,-0.016023,0.020946,-0.616855,0.000509,0.030199,-0.000588,-0.016018,-0.020945,-0.999652,0.062604,0.024424,-0.028363,11.360336,11.511662,7.721313,,,,,,,
1522139416.562490,-0.015554,0.020939,-0.616831,-0.003854,0.014256,0.002616,-0.015550,-0.020937,-0.999660,0.015809,-0.065580,-0.069554,13.802338,10.821339,3.375366,,,,,,,
1522139416.592459,-0.015243,0.020412,-0.616704,-0.021057,-0.010158,0.004760,-0.015239,-0.020410,-0.999676,0.046001,0.020441,0.063595,14.086121,10.368107,1.427307,,,,,,,
1522139416.622427,-0.014616,0.019971,-0.616603,-0.010151,0.038696,0.003658,-0.014613,-0.019970,-0.999694,0.060313,0.014630,0.042693,13.673477,9.390324,-3.218994,,,,,,,
1522139416.652395,-0.014120,0.019581,-0.616402,-0.026386,-0.002733,0.009009,-0.014116,-0.019580,-0.999709,0.038805,0.026614,0.037901,11.331482,8.499516,-4.566650,,,,,,,
1522139416.682363,-0.014039,0.019043,-0.616199,-0.006037,0.008902,0.007953,-0.014036,-0.019042,-0.999720,0.066923,-0.012315,-0.080480,6.752029,8.144962,-4.717468,,,,,,,
1522139416.712332,-0.013536,0.018981,-0.616036,-0.019703,0.057812,0.008958,-0.013533,-0.018980,-0.999728,0.013060,0.047239,-0.092572,5.855515,8.224445,-4.268250,,,,,,,
1522139416.742300,-0.013522,0.018800,-0.615871,0.004614,-0.001719,0.003709,-0.013519,-0.018799,-0.999732,0.028778,-0.011200,-0.008096,3.914612,8.010059,-2.393372,,,,,,,
1522139416.772268,-0.013342,0.018986,-0.615819,-0.002806,0.011039,0.004759,-0.013339,-0.018985,-0.999731,0.060870,-0.015378,-0.018915,3.315887,7.413960,-1.191284,,,,,,,
1522139416.802236,-0.012992,0.018715,-0.615726,-0.003828,0.018493,0.002621,-0.012989,-0.018714,-0.999740,0.021901,0.002296,-0.036606,2.725082,6.669392,1.586426,,,,,,,
1522139416.832205,-0.013161,0.018740,-0.615760,0.001321,-0.032458,-0.005853,-0.013158,-0.018739,-0.999738,0.046941,-0.026153,0.062116,3.109085,6.669163,3.086609,,,,,,,
1522139416.862173,-0.012880,0.018393,-0.615817,-0.011105,0.053632,-0.004880,-0.012877,-0.018392,-0.999748,0.030318,0.011129,-0.090798,3.636642,6.068226,4.514282,,,,,,,
1522139416.892111,-0.012877,0.018573,-0.615913,0.013089,-0.030335,-0.009046,-0.012874,-0.018572,-0.999745,0.063442,-0.025465,-0.000133,7.020370,6.129337,5.865723,,,,,,,
1522139416.922079,-0.012921,0.018535,-0.616003,0.000278,-0.030321,-0.007983,-0.012918,-0.018534,-0.999745,0.005685,0.003946,0.064534,8.519669,6.422001,5.265320,,,,,,,
1522139416.952047,-0.012706,0.018323,-0.615969,-0.009149,0.019600,-0.000587,-0.012704,-0.018322,-0.999751,0.021401,-0.013386,-0.003117,10.221191,6.185810,1.742065,,,,,,,
1522139416.982016,-0.012557,0.017987,-0.615861,-0.013594,-0.013354,0.003701,-0.012555,-0.017986,-0.999759,0.040982,0.014873,-0.030895,9.984924,5.960377,0.242859,,,,,,,
1522139417.011984,-0.012657,0.017911,-0.615726,-0.003957,-0.005948,0.004767,-0.012655,-0.017910,-0.999759,-0.006739,0.048657,0.028004,5.619232,5.153751,-1.031067,,,,,,,
1522139417.041952,-0.012506,0.017916,-0.615602,0.001413,-0.001698,0.002637,-0.012503,-0.017915,-0.999761,0.029837,-0.023666,-0.049677,2.470123,5.018299,-0.657104,,,,,,,
1522139417.071920,-0.012367,0.018088,-0.615428,0.006683,-0.013424,0.005850,-0.012365,-0.018087,-0.999760,0.045400,0.008642,-0.021297,-2.089096,5.790165,0.687500,,,,,,,
1522139417.101889,-0.012411,0.018232,-0.615210,0.006892,0.040710,0.013260,-0.012409,-0.018231,-0.999757,0.049899,0.024060,-0.132583,-4.175522,6.924915,1.056946,,,,,,,
1522139417.131857,-0.012352,0.018644,-0.615058,0.014357,0.029064,0.004752,-0.012349,-0.018643,-0.999750,-0.003673,0.009899,-0.130377,-8.277863,8.294865,2.549377,,,,,,,
1522139417.161825,-0.012374,0.019167,-0.615019,0.013072,-0.019786,0.002660,-0.012372,-0.019166,-0.999740,0.010785,-0.015518,0.004623,-11.713638,8.687046,4.271179,,,,,,,
1522139417.191793,-0.012281,0.019313,-0.614977,0.004747,0.023803,0.000489,-0.012278,-0.019312,-0.999738,0.079676,0.013956,-0.035708,-13.872314,9.373341,5.842285,,,,,,,
1522139417.221762,-0.011982,0.019587,-0.615003,0.008947,0.009975,0.001568,-0.011979,-0.019586,-0.999736,0.014848,-0.013907,-0.130650,-17.197998,11.343250,10.782776,,,,,,,
1522139417.251730,-0.012476,0.019711,-0.615052,-0.000645,0.006844,-0.003760,-0.012473,-0.019710,-0.999728,0.214149,-0.016744,-0.165052,-18.520630,12.327122,13.703125,,,,,,,
1522139417.281698,-0.013525,0.019505,-0.615171,-0.023012,0.027033,0.003664,-0.013522,-0.019504,-0.999718,0.124164,-0.118588,-0.352699,-19.525421,14.061283,18.345764,,,,,,,
1522139417.311666,-0.016454,0.018741,-0.614926,-0.032094,-0.082449,0.012289,-0.016451,-0.018740,-0.999689,0.084978,0.076418,-0.127630,-18.678558,14.809864,20.743164,,,,,,,
1522139417.341635,-0.019574,0.018817,-0.614853,0.016929,-0.116481,-0.000430,-0.019569,-0.018816,-0.999631,0.052361,0.014773,-0.224093,-17.086044,14.805622,23.669006,,,,,,,
1522139417.371572,-0.023673,0.018673,-0.614752,-0.034341,-0.106864,0.011239,-0.023667,-0.018671,-0.999546,0.091126,-0.008153,-0.053570,-15.211853,14.272938,24.422058,,,,,,,
1522139417.401541,-0.028383,0.018328,-0.614591,0.016625,-0.181330,0.002838,-0.028374,-0.018327,-0.999429,0.088067,0.017838,-0.024039,-11.308228,13.282627,26.677917,,,,,,,
1522139417.431495,-0.033265,0.018305,-0.614450,-0.032333,-0.136618,0.010206,-0.033253,-0.018304,-0.999279,0.010258,0.015619,-0.208881,-10.486526,12.230137,27.882568,,,,,,,
1522139417.461463,-0.038666,0.017182,-0.614172,-0.017498,-0.165339,0.008121,-0.038651,-0.017181,-0.999105,-0.037658,0.014160,-0.069941,-5.927414,10.410007,28.267090,,,,,,,
1522139417.491431,-0.043452,0.017141,-0.614089,-0.008736,-0.123876,0.001694,-0.043432,-0.017140,-0.998909,0.198232,-0.081020,-0.293190,-2.561417,10.093891,27.295044,,,,,,,
1522139417.521400,-0.046103,0.016435,-0.614072,-0.015902,-0.047405,0.009072,-0.046080,-0.016434,-0.998803,-0.053300,-0.035202,-0.168785,-0.767471,9.485813,27.298340,,,,,,,
1522139417.551368,-0.046941,0.016844,-0.614101,0.005852,0.037572,0.005806,-0.046917,-0.016844,-0.998757,-0.274509,0.064542,-0.129341,3.110764,8.790897,24.828125,,,,,,,
1522139417.581336,-0.045307,0.017428,-0.614193,0.011652,0.130081,-0.003878,-0.045285,-0.017427,-0.998822,-0.061710,0.039034,-0.034030,4.829819,9.231434,23.102234,,,,,,,
1522139417.611305,-0.042210,0.017971,-0.614178,0.018849,0.080021,0.007910,-0.042191,-0.017970,-0.998948,0.006088,-0.005223,0.351746,5.945435,9.599247,20.926331,,,,,,,
1522139417.641273,-0.037238,0.017749,-0.614310,0.004116,0.112055,-0.007060,-0.037224,-0.017748,-0.999149,0.078911,0.053804,0.240955,6.542999,9.895649,20.025452,,,,,,,
1522139417.671241,-0.030956,0.017599,-0.614258,-0.010255,0.251211,0.003449,-0.030946,-0.017598,-0.999366,-0.023070,-0.029704,-0.093743,8.710800,10.932972,17.097351,,,,,,,
1522139417.701209,-0.024408,0.017009,-0.614249,-0.038096,0.235341,0.004505,-0.024402,-0.017008,-0.999558,-0.018262,0.029703,0.099777,8.786224,11.606571,16.044678,,,,,,,
1522139417.731178,-0.017618,0.016669,-0.614308,0.004709,0.249105,-0.002938,-0.017614,-0.016668,-0.999706,0.070746,0.007986,0.382702,9.833710,13.024082,13.264587,,,,,,,
1522139417.761146,-0.011296,0.016587,-0.614390,-0.005186,0.185354,-0.001808,-0.011294,-0.016586,-0.999799,0.088473,-0.027771,0.223584,12.154083,13.911381,11.012207,,,,,,,
1522139417.791114,-0.006407,0.016754,-0.614368,0.018064,0.130055,-0.003866,-0.006406,-0.016753,-0.999839,0.040907,0.059280,0.193946,11.994446,14.210011,8.910889,,,,,,,
1522139417.821082,-0.002662,0.017359,-0.614444,0.011673,0.135400,-0.003887,-0.002662,-0.017358,-0.999846,0.047248,-0.018806,0.048582,11.907120,14.283222,6.735535,,,,,,,
1522139417.851020,-0.000435,0.017663,-0.614520,0.001605,0.040789,0.003667,-0.000435,-0.017662,-0.999844,0.108529,0.013374,0.254956,10.534836,13.312305,4.638794,,,,,,,
1522139417.880988,0.000129,0.017644,-0.614474,0.002465,-0.008099,0.002660,0.000129,-0.017643,-0.999844,0.011605,0.036793,0.064160,9.178299,13.017811,4.039246,,,,,,,
1522139417.910957,-0.000146,0.017744,-0.614400,0.004533,-0.018731,0.004793,-0.000146,-0.017743,-0.999843,0.017114,0.012403,-0.021367,8.268753,12.421299,3.441162,,,,,,,
1522139417.940925,-0.001431,0.017899,-0.614372,0.006493,-0.060164,0.002706,-0.001431,-0.017898,-0.999839,0.062512,-0.003769,-0.015847,6.605942,11.453266,2.919189,,,,,,,
1522139417.970893,-0.003398,0.018206,-0.614275,0.012846,-0.072939,0.002729,-0.003397,-0.018205,-0.999829,0.028681,0.002977,-0.081699,4.650314,10.936985,2.845276,,,,,,,
1522139418.000861,-0.005178,0.018154,-0.614179,-0.005109,-0.028254,0.002664,-0.005178,-0.018153,-0.999822,0.002050,-0.022573,-0.256236,3.066254,10.118977,2.697815,,,,,,,
1522139418.030830,-0.007516,0.018307,-0.614072,-0.001090,-0.084587,0.002726,-0.007514,-0.018306,-0.999804,0.038810,-0.004216,-0.027204,2.684387,9.745167,2.174072,,,,,,,
1522139418.060798,-0.009553,0.018043,-0.614009,-0.008442,-0.055899,0.004827,-0.009552,-0.018042,-0.999792,-0.060120,-0.053155,-0.181544,0.280441,9.306049,2.249634,,,,,,,
1522139418.090766,-0.011713,0.017530,-0.613849,-0.023443,-0.062245,0.008009,-0.011711,-0.017529,-0.999778,-0.009514,0.000851,-0.059106,-0.919815,9.236530,2.324341,,,,,,,
1522139418.120734,-0.013458,0.017132,-0.613757,-0.000985,-0.059083,0.003761,-0.013455,-0.017131,-0.999763,0.054272,-0.020283,-0.000176,-3.843628,8.725742,3.374878,,,,,,,
1522139418.150703,-0.014932,0.016926,-0.613664,-0.010576,-0.058002,0.002695,-0.014929,-0.016925,-0.999745,0.014136,0.034214,-0.016856,-5.195770,7.832951,4.502808,,,,,,,
1522139418.180671,-0.015841,0.017153,-0.613686,0.017448,-0.004916,-0.001596,-0.015838,-0.017153,-0.999727,0.045074,-0.023955,-0.097151,-4.820450,7.232319,5.555359,,,,,,,
1522139418.210639,-0.016513,0.017362,-0.613645,-0.010302,0.008922,0.006884,-0.016510,-0.017361,-0.999713,0.001327,0.026456,-0.088773,-4.671951,6.632404,6.307861,,,,,,,
1522139418.240608,-0.017100,0.017559,-0.613673,0.016391,-0.002773,-0.002670,-0.017097,-0.017558,-0.999700,0.011954,0.034281,-0.054973,-3.769119,6.778568,6.532776,,,,,,,
1522139418.270576,-0.016867,0.017757,-0.613762,-0.002651,0.039772,-0.000601,-0.016864,-0.017756,-0.999700,0.071201,-0.049398,-0.089518,-0.628555,6.238758,5.861450,,,,,,,
1522139418.300544,-0.016501,0.017344,-0.613769,-0.006985,0.022792,-0.002716,-0.016498,-0.017343,-0.999713,-0.025204,0.019326,0.022037,-0.041641,6.009312,4.062683,,,,,,,
1522139418.330482,-0.015837,0.017463,-0.613842,0.000590,0.046140,-0.001666,-0.015834,-0.017462,-0.999722,-0.061009,-0.048120,-0.041675,-0.578812,6.009708,2.037415,,,,,,,
1522139418.360450,-0.014646,0.017278,-0.613918,-0.013227,0.059971,-0.000618,-0.014643,-0.017277,-0.999744,-0.005758,0.055791,-0.045789,-0.524506,5.107517,0.091064,,,,,,,
1522139418.390418,-0.013733,0.017424,-0.614023,0.017587,0.026987,-0.002705,-0.013730,-0.017423,-0.999754,0.012739,-0.021609,0.056929,-2.945389,4.141544,-1.781311,,,,,,,
1522139418.420399,-0.012686,0.017201,-0.614059,-0.017402,0.084430,0.000409,-0.012684,-0.017201,-0.999772,-0.030102,0.014713,-0.050674,-4.675583,3.848957,-2.156006,,,,,,,
1522139418.450367,-0.011728,0.017050,-0.614111,0.006942,0.040794,0.002598,-0.011726,-0.017049,-0.999786,-0.021568,-0.016978,-0.060166,-8.657593,3.416416,-2.606262,,,,,,,
1522139418.480335,-0.011143,0.016949,-0.614093,-0.015539,0.029141,0.004727,-0.011141,-0.016948,-0.999794,-0.004636,-0.006932,0.010414,-10.760483,2.901264,-2.230286,,,,,,,
1522139418.510303,-0.010724,0.016645,-0.614075,0.005768,0.011048,-0.000557,-0.010722,-0.016644,-0.999804,0.012217,-0.036151,0.007739,-15.266113,1.572819,-0.952148,,,,,,,
1522139418.540272,-0.010621,0.016657,-0.614033,-0.007084,0.005743,0.002636,-0.010619,-0.016656,-0.999805,0.024962,0.005227,0.094272,-15.866501,1.126194,-0.275696,,,,,,,
1522139418.570240,-0.010455,0.016724,-0.614018,0.012127,0.003599,0.000512,-0.010453,-0.016724,-0.999806,0.004533,-0.001038,0.046604,-18.412903,0.314594,1.676270,,,,,,,
1522139418.600208,-0.010636,0.017261,-0.614067,0.000442,0.013182,-0.000561,-0.010634,-0.017260,-0.999794,-0.051347,-0.032270,-0.048027,-20.152176,-1.701595,2.658447,,,,,,,
1522139418.630176,-0.010995,0.016996,-0.614027,0.002414,-0.021880,-0.000530,-0.010994,-0.016995,-0.999795,-0.004326,0.020794,-0.060813,-19.779129,-2.077969,2.960144,,,,,,,
1522139418.660145,-0.011280,0.017255,-0.614143,0.010961,-0.019769,-0.000530,-0.011278,-0.017254,-0.999788,-0.002378,-0.049320,0.033723,-22.408173,-3.564327,4.764771,,,,,,,
1522139418.690113,-0.011909,0.017252,-0.614145,-0.012547,-0.026104,-0.000530,-0.011907,-0.017252,-0.999780,0.033879,0.025400,-0.029684,-23.683990,-4.232616,5.741821,,,,,,,
1522139418.720081,-0.012170,0.016988,-0.614205,0.005842,0.021714,-0.005898,-0.012168,-0.016988,-0.999782,0.004065,-0.017558,-0.095784,-24.510284,-4.902996,6.644043,,,,,,,
1522139418.750049,-0.012817,0.017072,-0.614200,-0.002097,-0.078160,-0.003677,-0.012815,-0.017071,-0.999772,-0.030520,0.016415,0.077653,-25.642120,-5.947292,7.247742,,,,,,,
1522139418.780018,-0.013425,0.017148,-0.614230,0.017369,-0.018718,-0.000529,-0.013423,-0.017147,-0.999763,-0.016515,-0.029331,0.074455,-28.795990,-7.056896,8.450562,,,,,,,
1522139418.809955,-0.013534,0.017461,-0.614180,-0.009308,-0.013374,0.002651,-0.013531,-0.017460,-0.999756,-0.008472,0.026585,0.011719,-29.995178,-7.425747,9.201477,,,,,,,
1522139418.839924,-0.013760,0.017491,-0.614105,0.005690,0.000405,0.003707,-0.013758,-0.017491,-0.999752,0.020487,-0.008251,-0.008899,-33.657959,-8.455517,12.953735,,,,,,,
1522139418.869892,-0.013924,0.017548,-0.613886,-0.003950,-0.000691,0.010102,-0.013921,-0.017547,-0.999749,0.077093,0.037445,0.005822,-34.167755,-8.375820,15.353149,,,,,,,
1522139418.899860,-0.013914,0.017750,-0.613666,0.014225,0.004576,0.010111,-0.013911,-0.017749,-0.999746,-0.060430,0.010440,-0.011057,-33.852173,-8.075146,17.452148,,,,,,,
1522139418.929828,-0.013468,0.017903,-0.613288,-0.013456,0.035378,0.021781,-0.013466,-0.017902,-0.999749,-0.032570,-0.026303,-0.043372,-33.441330,-6.873028,21.422546,,,,,,,
1522139418.959797,-0.013168,0.018067,-0.612892,0.020546,-0.006105,0.016515,-0.013166,-0.018066,-0.999750,0.036878,0.022399,0.028711,-31.919510,-5.678219,23.068542,,,,,,,
1522139418.989765,-0.012765,0.019002,-0.612557,0.017468,0.015190,0.011166,-0.012762,-0.019001,-0.999738,-0.013300,-0.034816,-0.022738,-27.610519,-2.996426,24.259888,,,,,,,
1522139419.019733,-0.011825,0.018935,-0.612139,0.001499,0.030092,0.014330,-0.011823,-0.018934,-0.999751,0.011136,-0.015352,0.029521,-27.594193,-1.720898,24.854858,,,,,,,
1522139419.049702,-0.011315,0.019171,-0.611723,0.007775,0.001370,0.015435,-0.011313,-0.019170,-0.999752,0.002921,-0.054393,0.030773,-25.762527,1.046513,25.519653,,,,,,,
1522139419.079670,-0.010748,0.018984,-0.611408,-0.012394,0.015312,0.004749,-0.010746,-0.018983,-0.999762,0.026920,-0.027419,-0.005350,-23.721603,2.462635,25.815002,,,,,,,
1522139419.109638,-0.010114,0.018564,-0.611085,-0.027166,0.063116,0.012147,-0.010112,-0.018563,-0.999777,0.044124,-0.054511,-0.079020,-22.782974,4.935719,28.130554,,,,,,,
1522139419.139606,-0.009657,0.017910,-0.610744,-0.022081,0.003588,0.011156,-0.009655,-0.017909,-0.999793,0.007900,-0.023916,-0.051293,-21.637955,6.131916,29.476318,,,,,,,
1522139419.169575,-0.009711,0.017632,-0.610365,-0.020994,0.014192,0.015401,-0.009709,-0.017631,-0.999797,-0.059428,-0.036171,-0.002095,-15.816452,9.707508,31.264954,,,,,,,
1522139419.199543,-0.009801,0.017102,-0.609965,-0.006100,0.003537,0.015417,-0.009799,-0.017101,-0.999806,0.028751,-0.028508,0.034016,-13.325851,11.271290,31.259949,,,,,,,
1522139419.229511,-0.009835,0.017337,-0.609545,0.001265,-0.020924,0.015449,-0.009834,-0.017336,-0.999801,0.024772,-0.024946,0.006363,-9.638168,13.128727,30.279358,,,,,,,
1522139419.259479,-0.010254,0.017229,-0.609064,-0.010543,-0.027312,0.021838,-0.010252,-0.017228,-0.999799,0.006972,0.035416,0.035505,-4.001358,16.025501,27.420593,,,,,,,
1522139419.289448,-0.010624,0.017047,-0.608578,0.002366,-0.013487,0.015442,-0.010622,-0.017046,-0.999798,0.027224,-0.049589,0.013531,-3.026123,17.219151,25.466370,,,,,,,
1522139419.319385,-0.011092,0.016948,-0.608028,-0.026534,-0.027261,0.018637,-0.011090,-0.016947,-0.999795,-0.036502,-0.006109,-0.026038,-1.450989,19.308613,22.008789,,,,,,,
1522139419.349354,-0.011432,0.016694,-0.607485,0.000374,0.020504,0.017539,-0.011431,-0.016693,-0.999795,0.027788,0.013214,-0.131446,-2.350967,19.986530,20.880615,,,,,,,
1522139419.379322,-0.011915,0.016708,-0.606994,-0.008187,0.006758,0.010092,-0.011913,-0.016707,-0.999789,-0.054219,-0.019975,-0.115674,-5.651886,20.076084,20.578613,,,,,,,
1522139419.409290,-0.012747,0.016935,-0.606528,0.008656,-0.042200,0.014420,-0.012745,-0.016934,-0.999775,-0.070537,-0.074588,-0.022014,-7.149414,20.008350,21.103149,,,,,,,
1522139419.439256,-0.013166,0.016483,-0.605982,-0.010405,-0.002835,0.016486,-0.013164,-0.016483,-0.999777,0.012676,0.035342,-0.022394,-9.030594,18.892643,21.931641,,,,,,,
1522139419.469225,-0.013222,0.016605,-0.605497,0.002367,-0.014542,0.014377,-0.013219,-0.016604,-0.999775,-0.013789,-0.067975,-0.056225,-10.835297,17.926594,22.759583,,,,,,,
1522139419.499193,-0.013853,0.015927,-0.604869,-0.034037,-0.027279,0.023959,-0.013851,-0.015926,-0.999777,-0.020313,0.004238,0.027624,-12.420242,16.209919,23.965698,,,,,,,
1522139419.529161,-0.013992,0.015672,-0.604267,0.005804,0.037501,0.015399,-0.013990,-0.015671,-0.999779,-0.022738,-0.079498,-0.071678,-13.398743,14.865986,25.620605,,,,,,,
1522139419.559129,-0.013954,0.015524,-0.603596,-0.026339,0.025809,0.027108,-0.013952,-0.015523,-0.999782,-0.026911,-0.027705,-0.094944,-14.073059,14.120365,26.973145,,,,,,,
1522139419.589098,-0.014106,0.015428,-0.602947,0.024659,-0.040111,0.016548,-0.014103,-0.015428,-0.999781,-0.006908,0.032975,0.044536,-12.877274,12.841419,28.403870,,,,,,,
1522139419.619066,-0.013701,0.016325,-0.602394,0.005826,0.040710,0.013261,-0.013699,-0.016324,-0.999773,0.052609,-0.043674,0.078478,-13.924057,12.397404,29.680176,,,,,,,
1522139419.649034,-0.012876,0.016389,-0.601783,0.017482,0.027880,0.019678,-0.012874,-0.016388,-0.999783,0.013194,0.020447,-0.068989,-13.247391,11.346394,31.709656,,,,,,,
1522139419.679003,-0.012561,0.017039,-0.601280,0.019492,-0.007145,0.013321,-0.012559,-0.017038,-0.999776,-0.003020,-0.055471,0.058461,-11.595215,11.114704,32.461426,,,,,,,
1522139419.708971,-0.011717,0.017206,-0.600870,0.005915,0.055600,0.010055,-0.011715,-0.017205,-0.999783,-0.055576,-0.044151,-0.075687,-10.386368,10.511753,34.939453,,,,,,,
1522139419.738939,-0.011130,0.017648,-0.600436,0.002405,0.000298,0.019689,-0.011128,-0.017647,-0.999782,-0.007091,-0.038277,0.049236,-8.884918,10.430363,35.315552,,,,,,,
1522139419.768907,-0.010266,0.017402,-0.599970,-0.003817,0.030101,0.012208,-0.010264,-0.017402,-0.999796,0.000330,0.023200,-0.003347,-5.886978,9.817554,35.994507,,,,,,,
1522139419.798845,-0.009641,0.017783,-0.599564,-0.001748,0.020503,0.016481,-0.009640,-0.017782,-0.999795,0.018902,-0.039804,0.046304,-4.545700,8.537205,36.675293,,,,,,,
1522139419.828813,-0.009353,0.017323,-0.599033,-0.007218,-0.006044,0.017561,-0.009351,-0.017322,-0.999806,0.031934,0.077869,0.031194,-0.738815,6.944706,36.308533,,,,,,,
1522139419.858782,-0.009102,0.017973,-0.598720,0.031223,-0.013493,0.007995,-0.009100,-0.017972,-0.999797,0.027823,-0.059833,0.021953,2.098160,6.405659,35.037170,,,,,,,
1522139419.888750,-0.009185,0.018082,-0.598335,-0.015707,0.000397,0.012216,-0.009183,-0.018081,-0.999794,-0.021350,0.037291,-0.020912,2.900360,4.751011,33.994141,,,,,,,
1522139419.918718,-0.009297,0.018034,-0.598026,0.018540,0.009894,0.006917,-0.009295,-0.018033,-0.999794,-0.016507,-0.063738,-0.018074,4.212250,2.417637,31.529114,,,,,,,
1522139419.948686,-0.009343,0.018111,-0.597603,-0.019977,0.003534,0.017554,-0.009341,-0.018110,-0.999792,0.046451,-0.033434,0.009756,5.095398,1.587254,30.107910,,,,,,,
1522139419.978655,-0.009848,0.017815,-0.597249,0.015024,-0.059147,0.005909,-0.009847,-0.017814,-0.999793,-0.015590,0.017326,0.097419,6.046539,0.006626,28.764648,,,,,,,
1522139420.008623,-0.009925,0.018117,-0.597077,-0.016562,0.032330,0.001543,-0.009923,-0.018116,-0.999787,0.023794,-0.065701,0.002777,6.178848,-1.045162,27.568970,,,,,,,
1522139420.038591,-0.010141,0.017544,-0.596861,-0.007289,-0.031486,0.009062,-0.010139,-0.017543,-0.999795,0.000145,-0.021657,-0.091117,7.130569,-2.251324,25.699341,,,,,,,
1522139420.068559,-0.010643,0.017481,-0.596651,-0.002924,-0.016616,0.005866,-0.010641,-0.017480,-0.999791,-0.001444,0.002297,0.063923,7.120071,-3.076641,25.327637,,,,,,,
1522139420.098528,-0.010708,0.017458,-0.596637,0.001481,0.009981,0.001572,-0.010706,-0.017457,-0.999790,-0.051642,-0.019851,-0.035351,8.010010,-3.905941,25.031372,,,,,,,
1522139420.128496,-0.010664,0.016980,-0.596506,-0.034837,0.013212,0.007936,-0.010662,-0.016980,-0.999799,-0.023014,0.049755,-0.026767,9.952438,-4.440060,24.659485,,,,,,,
1522139420.158464,-0.010476,0.016393,-0.596316,0.013181,0.001427,0.003726,-0.010475,-0.016393,-0.999811,0.055000,-0.008342,0.038599,11.585739,-5.573299,23.764832,,,,,,,
1522139420.188432,-0.010270,0.016914,-0.596354,-0.014476,0.019594,-0.000577,-0.010268,-0.016913,-0.999804,0.023742,-0.000818,-0.022611,13.901810,-6.109325,23.168091,,,,,,,
1522139420.218401,-0.010255,0.016498,-0.596331,0.012084,-0.011284,-0.001590,-0.010253,-0.016497,-0.999811,0.023071,0.067034,0.044932,16.742828,-6.423077,22.195801,,,,,,,
1522139420.248369,-0.009627,0.017369,-0.596441,0.015584,0.057784,-0.000601,-0.009625,-0.017369,-0.999803,0.009167,-0.034740,-0.106063,19.560181,-8.387920,20.030090,,,,,,,
1522139420.278307,-0.009269,0.017531,-0.596483,0.005685,-0.011281,-0.001586,-0.009268,-0.017530,-0.999803,-0.013239,0.049177,0.040331,21.641190,-9.074306,18.008850,,,,,,,
1522139420.308275,-0.008638,0.018032,-0.596681,0.029389,0.028049,-0.010141,-0.008636,-0.018031,-0.999800,-0.010895,0.012843,0.036543,23.772171,-11.412334,14.569275,,,,,,,
1522139420.338243,-0.007827,0.018675,-0.596976,0.004775,0.017467,-0.008016,-0.007826,-0.018674,-0.999795,0.070188,0.024289,0.065225,23.969284,-12.990246,12.550720,,,,,,,
1522139420.368211,-0.006916,0.018508,-0.597126,0.001550,0.021676,-0.000565,-0.006915,-0.018507,-0.999805,-0.006544,-0.036669,-0.128400,24.741486,-16.297009,9.264343,,,,,,,
1522139420.398180,-0.006809,0.018474,-0.597290,0.006779,-0.014422,-0.009039,-0.006807,-0.018473,-0.999806,0.007662,0.074656,0.073323,24.194046,-17.870663,8.145325,,,,,,,
1522139420.428129,-0.006104,0.018979,-0.597422,0.005985,0.055685,-0.002728,-0.006103,-0.018977,-0.999801,0.016708,-0.027898,-0.042664,23.542847,-21.470272,5.609375,,,,,,,
1522139420.458097,-0.006099,0.018788,-0.597403,-0.006113,-0.018706,0.001605,-0.006098,-0.018787,-0.999805,0.008128,0.022876,-0.059659,23.818100,-22.823376,3.739929,,,,,,,
1522139420.488066,-0.006168,0.019012,-0.597375,0.019645,0.006769,-0.002668,-0.006167,-0.019011,-0.999800,0.006045,0.015867,-0.044618,22.889786,-24.171673,1.269836,,,,,,,
1522139420.518034,-0.006449,0.019218,-0.597295,-0.000689,0.006748,0.006909,-0.006448,-0.019217,-0.999795,0.029229,0.013083,0.012581,21.975418,-24.619198,-0.378845,,,,,,,
1522139420.548002,-0.007080,0.019178,-0.597145,0.009834,-0.031512,0.003761,-0.007078,-0.019176,-0.999791,0.018354,-0.009953,0.022222,20.835327,-25.589977,-1.275513,,,,,,,
1522139420.577971,-0.007648,0.019439,-0.597038,0.000343,-0.004938,0.004798,-0.007646,-0.019438,-0.999782,-0.015989,0.019026,-0.093617,18.630600,-27.531765,-2.993835,,,,,,,
1522139420.607939,-0.008474,0.019766,-0.596902,0.020511,-0.034719,0.001646,-0.008473,-0.019764,-0.999769,0.003056,0.001774,-0.013461,17.863861,-29.028606,-3.288269,,,,,,,
1522139420.637908,-0.009276,0.020080,-0.596879,0.004578,-0.016615,0.001616,-0.009274,-0.020079,-0.999755,-0.016834,-0.004946,-0.006363,16.566788,-31.647091,-2.603455,,,,,,,
1522139420.667876,-0.009831,0.020172,-0.596974,0.012000,-0.033576,-0.004764,-0.009829,-0.020171,-0.999748,0.003786,-0.033662,0.014442,15.580917,-32.917355,-2.298767,,,,,,,
1522139420.697843,-0.010041,0.020093,-0.597046,-0.013507,-0.005905,-0.002676,-0.010039,-0.020092,-0.999748,0.047042,-0.019901,-0.020287,18.035294,-34.579067,-2.965942,,,,,,,
1522139420.727813,-0.010205,0.019732,-0.597258,-0.003775,0.010058,-0.011201,-0.010203,-0.019731,-0.999753,0.012446,-0.002532,-0.073718,19.749863,-34.588497,-4.690063,,,,,,,
1522139420.757749,-0.010105,0.019633,-0.597505,-0.019775,0.015409,-0.010157,-0.010103,-0.019632,-0.999756,-0.029295,-0.017264,-0.032943,19.804993,-33.918179,-9.117676,,,,,,,
1522139420.787719,-0.009678,0.019206,-0.597799,-0.016524,0.028135,-0.008034,-0.009677,-0.019205,-0.999769,0.049166,-0.013159,0.010725,18.972198,-33.391613,-11.295288,,,,,,,
1522139420.817686,-0.009332,0.018733,-0.598044,-0.019769,0.022826,-0.005908,-0.009331,-0.018731,-0.999781,0.019203,0.012185,0.008509,16.786865,-32.035748,-15.276733,,,,,,,
1522139420.847654,-0.008937,0.018346,-0.598336,-0.010172,0.016416,-0.006948,-0.008936,-0.018345,-0.999792,-0.005209,0.027790,-0.049677,13.417236,-31.046352,-16.032410,,,,,,,
1522139420.877622,-0.008612,0.017939,-0.598651,-0.018769,0.003699,-0.008011,-0.008610,-0.017938,-0.999802,-0.010341,0.028253,-0.042724,8.471756,-30.049999,-16.938904,,,,,,,
1522139420.907591,-0.008073,0.017349,-0.598913,-0.011169,0.030253,-0.009097,-0.008072,-0.017348,-0.999817,0.067658,0.012450,0.035935,6.309860,-28.914974,-16.644470,,,,,,,
1522139420.937559,-0.007807,0.017012,-0.599199,-0.016693,-0.009071,-0.006927,-0.007805,-0.017012,-0.999825,0.021401,0.041746,0.013298,3.092651,-28.899227,-15.371155,,,,,,,
1522139420.967527,-0.007924,0.016563,-0.599420,0.000435,0.001499,-0.005855,-0.007923,-0.016563,-0.999831,-0.032544,-0.002374,-0.055802,-1.002335,-27.378323,-12.904236,,,,,,,
1522139420.997495,-0.007656,0.016735,-0.599576,-0.008014,0.028064,-0.001632,-0.007654,-0.016734,-0.999831,-0.010473,0.045161,-0.063676,-1.063080,-26.626934,-11.782288,,,,,,,
1522139421.027464,-0.007755,0.016584,-0.599684,0.013167,-0.010260,-0.000505,-0.007754,-0.016583,-0.999832,0.051471,0.048749,-0.017593,-1.934082,-25.569942,-8.711975,,,,,,,
1522139421.057432,-0.008218,0.016947,-0.599743,0.012133,-0.002819,-0.000514,-0.008217,-0.016946,-0.999823,0.015571,0.012079,-0.072031,-1.471664,-24.821194,-7.889771,,,,,,,
1522139421.087400,-0.008518,0.016918,-0.599766,0.002550,0.007801,0.003731,-0.008517,-0.016917,-0.999821,-0.040678,-0.008977,-0.082775,2.293610,-23.338070,-7.818787,,,,,,,
1522139421.117369,-0.008674,0.017069,-0.599738,0.014242,-0.002830,0.002673,-0.008673,-0.017068,-0.999817,0.015143,0.011072,-0.047424,3.498611,-22.743649,-7.970581,,,,,,,
1522139421.147337,-0.008955,0.017692,-0.599717,0.021686,-0.010294,0.002691,-0.008953,-0.017692,-0.999803,0.004970,0.046332,-0.041929,5.604935,-21.029934,-9.776367,,,,,,,
1522139421.177305,-0.009347,0.018383,-0.599714,0.023747,-0.029412,0.000582,-0.009345,-0.018382,-0.999787,0.035148,0.014873,0.005128,6.953476,-20.137737,-11.504272,,,,,,,
1522139421.207273,-0.009260,0.019092,-0.599612,0.027171,0.021567,0.002666,-0.009258,-0.019091,-0.999775,0.040142,0.012468,-0.027996,6.650894,-18.863918,-14.059509,,,,,,,
1522139421.237242,-0.009439,0.019908,-0.599551,0.026984,-0.018803,0.002700,-0.009437,-0.019907,-0.999757,0.004371,0.013193,-0.053694,6.126190,-18.337399,-14.886902,,,,,,,
1522139421.267179,-0.009482,0.020614,-0.599555,0.022805,-0.004979,-0.000498,-0.009480,-0.020613,-0.999743,0.016057,-0.014208,0.038652,6.349365,-18.114071,-15.562622,,,,,,,
1522139421.297148,-0.009292,0.021427,-0.599596,0.019677,0.008872,-0.003715,-0.009289,-0.021426,-0.999727,-0.060138,-0.015027,-0.100218,3.574326,-18.026730,-15.714417,,,,,,,
1522139421.327116,-0.008648,0.021867,-0.599675,0.013425,0.042907,-0.004826,-0.008646,-0.021865,-0.999724,0.038340,-0.004777,0.032759,3.197250,-18.324886,-15.563354,,,,,,,
1522139421.357085,-0.008225,0.022329,-0.599779,0.015281,-0.016636,-0.001561,-0.008223,-0.022327,-0.999717,-0.012849,0.022205,0.094443,2.298813,-18.395473,-15.188538,,,,,,,
1522139421.387052,-0.007630,0.022473,-0.599915,0.006957,0.032270,-0.001620,-0.007628,-0.022471,-0.999718,-0.017382,0.007823,-0.035850,1.769928,-18.693233,-15.337646,,,,,,,
1522139421.417022,-0.006707,0.022858,-0.600008,0.012216,0.014189,-0.001595,-0.006705,-0.022856,-0.999716,0.078147,-0.030137,0.023322,1.924576,-18.318783,-15.189026,,,,,,,
1522139421.446984,-0.005829,0.023168,-0.600028,0.001698,0.051388,0.000493,-0.005827,-0.023166,-0.999715,0.016676,0.005191,-0.042598,1.549149,-18.541790,-14.888367,,,,,,,
1522139421.476952,-0.005147,0.023208,-0.600070,0.002747,0.048188,0.001564,-0.005145,-0.023206,-0.999717,-0.073636,-0.035800,0.082252,1.027023,-18.838467,-13.912415,,,,,,,
1522139421.506920,-0.003437,0.023132,-0.600021,-0.019569,0.072676,0.002588,-0.003436,-0.023130,-0.999727,0.019122,0.004362,0.118486,0.952026,-19.287380,-13.160706,,,,,,,
1522139421.536889,-0.001110,0.022680,-0.600024,-0.014085,0.105627,0.001483,-0.001109,-0.022678,-0.999742,0.030162,0.010151,0.138597,1.927032,-19.965633,-12.032471,,,,,,,
1522139421.566857,0.001727,0.022011,-0.600042,-0.034377,0.100384,-0.001721,0.001727,-0.022009,-0.999756,-0.016253,-0.020059,0.099045,2.527740,-19.893353,-12.032471,,,,,,,
1522139421.596825,0.005101,0.021046,-0.600011,-0.026630,0.157739,-0.002829,0.005100,-0.021045,-0.999766,0.025204,-0.050290,0.153010,3.951187,-20.049740,-12.031128,,,,,,,
1522139421.626793,0.008737,0.020174,-0.599993,-0.026863,0.108845,-0.000650,0.008735,-0.020172,-0.999758,0.008889,-0.002426,0.062609,5.593185,-20.582577,-12.478210,,,,,,,
1522139421.656762,0.012780,0.019452,-0.599995,-0.018186,0.140683,0.001458,0.012777,-0.019451,-0.999729,-0.026525,0.035061,-0.002789,8.198288,-21.496105,-14.273254,,,,,,,
1522139421.686730,0.016733,0.019033,-0.600083,-0.018257,0.125812,0.001469,0.016730,-0.019032,-0.999679,-0.030462,-0.056713,0.003722,10.743057,-21.433529,-15.247192,,,,,,,
1522139421.716698,0.020744,0.018397,-0.600049,-0.020236,0.153510,-0.006027,0.020739,-0.018396,-0.999616,0.031964,0.023889,0.007428,11.334625,-21.287838,-16.897522,,,,,,,
1522139421.746667,0.023920,0.018442,-0.600266,0.008240,0.070550,-0.008040,0.023914,-0.018441,-0.999544,0.014355,-0.010078,0.102953,13.115143,-20.625210,-21.249207,,,,,,,
1522139421.776604,0.025867,0.017809,-0.600389,-0.028201,0.043007,-0.005915,0.025860,-0.017808,-0.999507,-0.001355,0.013063,-0.010121,14.469086,-19.282864,-22.828918,,,,,,,
1522139421.806573,0.026078,0.017217,-0.600591,-0.003802,0.006823,-0.006924,0.026071,-0.017216,-0.999512,0.061773,-0.043117,0.017334,13.043152,-17.254986,-26.362793,,,,,,,
1522139421.836541,0.025392,0.016508,-0.600683,-0.037139,-0.038831,-0.000510,0.025385,-0.016507,-0.999541,0.009206,-0.000064,-0.130280,12.294510,-16.352901,-27.641724,,,,,,,
1522139421.866509,0.023247,0.016081,-0.600813,0.006415,-0.101553,-0.012135,0.023242,-0.016080,-0.999601,0.005094,0.041074,-0.015277,10.041229,-14.920696,-30.573608,,,,,,,
1522139421.896477,0.020662,0.016176,-0.601074,-0.021274,-0.080289,-0.005775,0.020657,-0.016176,-0.999656,0.001346,-0.085707,-0.049249,6.590317,-14.830471,-30.875732,,,,,,,
1522139421.926446,0.017100,0.015148,-0.601007,-0.024767,-0.139802,-0.002526,0.017098,-0.015147,-0.999739,0.031731,0.063075,0.036452,4.486053,-15.121212,-31.100586,,,,,,,
1522139421.956414,0.013246,0.014909,-0.600968,-0.003445,-0.140941,0.001749,0.013244,-0.014909,-0.999801,-0.003845,-0.023894,-0.096344,-0.620468,-15.773235,-31.100525,,,,,,,
1522139421.986382,0.009192,0.014494,-0.600938,-0.011928,-0.136617,-0.005721,0.009191,-0.014493,-0.999853,-0.015706,0.036115,-0.111460,-3.326904,-16.735531,-30.572998,,,,,,,
1522139422.016350,0.005863,0.014619,-0.600999,0.010729,-0.078267,-0.000435,0.005862,-0.014618,-0.999876,-0.013369,-0.032440,-0.206942,-8.513916,-18.885616,-28.992065,,,,,,,
1522139422.046319,0.003374,0.014432,-0.600916,-0.014808,-0.051684,0.005913,0.003374,-0.014432,-0.999890,-0.008211,-0.016940,-0.180026,-10.315048,-19.401836,-28.315857,,,,,,,
1522139422.076287,0.001842,0.014486,-0.600701,0.004472,-0.035811,0.008045,0.001841,-0.014485,-0.999893,-0.052531,0.028416,-0.087845,-15.493484,-21.101269,-26.061646,,,,,,,
