timestamp(unix),attitude_roll(radians),attitude_pitch(radians),attitude_yaw(radians),rotation_rate_x(radians/s),rotation_rate_y(radians/s),rotation_rate_z(radians/s),gravity_x(G),gravity_y(G),gravity_z(G),user_acc_x(G),user_acc_y(G),user_acc_z(G),magnetic_field_x(microteslas),magnetic_field_y(microteslas),magnetic_field_z(microteslas),latitude(degree),longitude(degree),altitude(meter),speed(m/s),course(degree),timestamp(unix),User Mark
1523522652.764983,-0.523362,-0.031238,-1.001680,-0.053124,0.175774,0.129156,-0.499551,0.031233,-0.865721,-0.025305,-0.126966,-0.024080,-7.756851,27.315624,-15.729065,,,,,,,
,,,,,,,,,,,,,,,,25.316176,51.455622,14.687862,1.080000,89.296875,1523522651.999223,
1523522652.794952,-0.520235,-0.034941,-0.999587,-0.095264,0.046340,0.114341,-0.496781,0.034934,-0.867172,-0.051513,-0.043540,-0.026749,-7.683197,27.315060,-15.954041,,,,,,,
1523522652.824920,-0.520351,-0.035684,-0.997831,0.069430,0.010420,0.028180,-0.496868,0.035677,-0.867092,-0.008320,-0.041750,0.030422,-7.531418,27.314678,-15.653992,,,,,,,
1523522652.854888,-0.517933,-0.031794,-0.998294,0.074987,0.105026,-0.132790,-0.494834,0.031789,-0.868405,-0.037133,-0.030553,0.001004,-7.907898,27.166378,-15.653564,,,,,,,
1523522652.884856,-0.515809,-0.028555,-1.002569,-0.022153,0.046156,-0.188215,-0.493037,0.028551,-0.869539,-0.006139,-0.023836,0.027422,-8.209518,26.867962,-15.427490,,,,,,,
1523522652.914825,-0.515760,-0.025890,-1.012862,0.007578,0.025781,-0.173250,-0.493031,0.025887,-0.869626,-0.047619,0.047355,0.074948,-7.906845,27.316296,-15.729126,,,,,,,
1523522652.944793,-0.514601,-0.023632,-1.018569,-0.031081,0.046730,-0.114705,-0.492050,0.023629,-0.870246,-0.035752,0.028449,0.032218,-7.005539,27.537090,-15.879578,,,,,,,
1523522652.974761,-0.513456,-0.024340,-1.020241,-0.041310,0.054348,0.013153,-0.491044,0.024338,-0.870794,-0.000350,-0.028854,0.037603,-8.203522,27.243298,-15.054016,,,,,,,
1523522653.004729,-0.512268,-0.025741,-1.019277,-0.020139,0.056181,0.048323,-0.489993,0.025738,-0.871346,-0.043546,0.003009,0.035607,-8.358322,27.168331,-15.728760,,,,,,,
1523522653.034698,-0.510836,-0.028063,-1.020527,-0.125515,0.041050,-0.028464,-0.488714,0.028059,-0.871992,-0.029642,0.008196,-0.028566,-8.433304,26.719418,-14.976990,,,,,,,
,,,,,,,,,,,,,,,,25.316181,51.455619,14.667843,0.740000,90.703125,1523522652.999209,
1523522653.064666,-0.510470,-0.029291,-1.024214,-0.046094,0.022413,-0.125356,-0.488378,0.029287,-0.872140,-0.006266,0.012049,-0.005637,-8.352173,27.468822,-15.205017,,,,,,,
1523522653.094634,-0.511108,-0.025728,-1.028082,0.070504,-0.017734,-0.200875,-0.488982,0.025725,-0.871914,0.006270,0.036501,0.037701,-7.752335,27.316341,-14.979065,,,,,,,
1523522653.124602,-0.511330,-0.020241,-1.032849,0.083552,-0.007939,-0.238171,-0.489237,0.020240,-0.871915,0.011286,0.077477,0.037427,-8.436005,26.494350,-15.051147,,,,,,,
1523522653.154571,-0.510725,-0.016290,-1.039419,-0.054818,0.052120,-0.268168,-0.488745,0.016289,-0.872274,-0.052546,0.121925,0.015768,-8.805588,26.721539,-14.527222,,,,,,,
1523522653.184569,-0.509558,-0.016898,-1.047980,-0.180010,0.042566,-0.224568,-0.487722,0.016897,-0.872835,-0.039958,0.083475,-0.020277,-8.055328,27.017712,-14.978027,,,,,,,
1523522653.214538,-0.507614,-0.018202,-1.054965,-0.097920,0.080178,-0.164859,-0.486013,0.018201,-0.873762,-0.035350,0.049243,-0.015612,-9.031937,26.722332,-14.752319,,,,,,,
1523522653.244506,-0.507302,-0.018545,-1.059653,-0.032290,-0.003098,-0.130639,-0.485737,0.018544,-0.873908,-0.045361,0.084208,-0.008325,-9.109177,26.497677,-14.751465,,,,,,,
1523522653.274474,-0.508235,-0.017151,-1.062391,0.037942,-0.019417,-0.100739,-0.486564,0.017150,-0.873476,-0.037270,0.079011,0.038332,-8.432846,26.494869,-14.526184,,,,,,,
1523522653.304443,-0.507880,-0.014647,-1.063896,0.045554,0.034616,-0.080543,-0.486273,0.014647,-0.873683,-0.035043,0.042085,0.025371,-9.331009,26.499203,-14.226562,,,,,,,
1523522653.334411,-0.508106,-0.014518,-1.065157,-0.022403,-0.040062,-0.013395,-0.486472,0.014517,-0.873575,-0.010918,-0.006919,0.028909,-9.406769,26.649166,-14.602234,,,,,,,
1523522653.364379,-0.508990,-0.015346,-1.065804,-0.010299,0.016343,-0.031549,-0.487238,0.015346,-0.873134,-0.060827,-0.009273,0.045833,-8.653214,26.870998,-14.377747,,,,,,,
1523522653.394347,-0.509492,-0.016002,-1.067386,-0.084086,-0.030098,-0.049673,-0.487672,0.016002,-0.872880,-0.061340,-0.005381,0.000260,-9.778763,26.726223,-14.227722,,,,,,,
1523522653.424316,-0.511651,-0.019056,-1.071458,-0.187688,-0.077429,-0.082731,-0.489528,0.019054,-0.871779,-0.071370,0.000874,0.012404,-9.630844,26.425701,-14.076477,,,,,,,
1523522653.454284,-0.513480,-0.021330,-1.076735,-0.112509,-0.030558,-0.126407,-0.491100,0.021328,-0.870842,-0.061589,-0.006344,0.018791,-9.098663,26.873760,-13.627991,,,,,,,
1523522653.484252,-0.514907,-0.021727,-1.080496,-0.074234,-0.015043,-0.080570,-0.492337,0.021725,-0.870133,-0.064593,0.015796,0.047669,-9.851334,26.652065,-13.702454,,,,,,,
1523522653.514220,-0.515090,-0.023729,-1.083340,-0.130911,0.029367,-0.027391,-0.492474,0.023727,-0.870003,-0.086002,-0.003097,0.024422,-9.851791,26.652004,-13.777466,,,,,,,
1523522653.544189,-0.514673,-0.026470,-1.084909,-0.071550,-0.002000,0.029164,-0.492077,0.026467,-0.870148,-0.033237,-0.038445,-0.001373,-9.176056,26.499340,-13.401550,,,,,,,
1523522653.574142,-0.515613,-0.028091,-1.084817,-0.024442,-0.001960,0.005764,-0.492874,0.028087,-0.869647,-0.023041,-0.018459,0.015246,-10.151184,26.578564,-13.552307,,,,,,,
1523522653.604110,-0.515559,-0.027477,-1.086543,-0.024815,0.025415,-0.107224,-0.492835,0.027474,-0.869688,-0.017739,0.030464,-0.028139,-10.151474,26.503643,-13.476990,,,,,,,
1523522653.634078,-0.515570,-0.027430,-1.097600,-0.145276,-0.008897,-0.172276,-0.492845,0.027427,-0.869684,-0.023161,0.049005,-0.047827,-9.607483,26.496544,-13.240967,,,,,,,
1523522653.664047,-0.515246,-0.028951,-1.109995,-0.188278,0.048225,-0.271460,-0.492542,0.028947,-0.869806,-0.042034,0.054396,-0.048666,-10.433197,26.425255,-13.241089,,,,,,,
1523522653.694015,-0.516482,-0.028328,-1.126176,-0.068281,-0.076533,-0.253126,-0.493626,0.028325,-0.869212,0.004566,0.074062,0.075969,-10.878677,26.652641,-12.867188,,,,,,,
1523522653.723983,-0.516668,-0.024445,-1.135640,0.076337,0.056841,-0.230779,-0.493838,0.024443,-0.869209,-0.058087,0.106463,0.119820,-10.053558,26.574074,-12.716431,,,,,,,
1523522653.753951,-0.513397,-0.019045,-1.148333,0.068306,0.127244,-0.267080,-0.491050,0.019044,-0.870922,-0.032174,0.036421,0.064618,-10.881516,26.277794,-12.715698,,,,,,,
1523522653.783920,-0.512463,-0.015630,-1.157874,-0.039261,-0.008746,-0.231863,-0.490265,0.015630,-0.871432,-0.062789,-0.000737,0.104632,-11.108459,26.128746,-12.790222,,,,,,,
1523522653.813888,-0.513902,-0.015187,-1.172369,-0.118331,-0.031865,-0.240425,-0.491522,0.015187,-0.870732,-0.050180,-0.000477,0.146321,-11.185394,25.979012,-12.864685,,,,,,,
1523522653.843856,-0.513884,-0.013896,-1.182868,-0.038074,0.041026,-0.209527,-0.491515,0.013895,-0.870757,-0.017533,0.020117,0.157287,-10.884506,25.977821,-12.714478,,,,,,,
1523522653.873824,-0.511809,-0.012316,-1.194777,-0.073286,0.097155,-0.168067,-0.489718,0.012315,-0.871793,-0.047666,0.068556,0.110380,-10.582870,26.051613,-12.564697,,,,,,,
1523522653.903793,-0.508881,-0.013990,-1.204525,-0.220736,0.091035,-0.152187,-0.487153,0.013989,-0.873204,-0.067779,0.085147,0.006368,-11.183594,25.979317,-12.564697,,,,,,,
1523522653.933761,-0.507491,-0.019317,-1.218683,-0.286183,0.043224,-0.130872,-0.485895,0.019315,-0.873803,-0.086172,0.041308,-0.046729,-12.005707,25.908607,-11.964783,,,,,,,
1523522653.963729,-0.507294,-0.023425,-1.228581,-0.143328,-0.002820,-0.130723,-0.485680,0.023422,-0.873822,-0.063194,0.044845,-0.065677,-11.928894,25.908562,-11.664734,,,,,,,
1523522653.993698,-0.508697,-0.020812,-1.234909,0.156564,-0.052300,-0.150699,-0.486934,0.020810,-0.873190,-0.038701,0.069217,0.013373,-11.479828,25.906395,-11.814514,,,,,,,
1523522654.023666,-0.511213,-0.013456,-1.240652,0.217927,-0.082797,-0.067505,-0.489191,0.013456,-0.872072,-0.012213,0.077380,0.074694,-11.935196,25.458290,-11.962952,,,,,,,
,,,,,,,,,,,,,,,,25.316185,51.455625,14.692989,1.250000,96.679688,1523522653.999197,
1523522654.053634,-0.511280,-0.011114,-1.242870,-0.011427,0.054272,0.014236,-0.489263,0.011114,-0.872065,-0.019969,0.015482,-0.014623,-12.083099,25.758812,-12.114258,,,,,,,
1523522654.083602,-0.509555,-0.016436,-1.249901,-0.240218,0.061841,0.077982,-0.487722,0.016436,-0.872843,-0.028345,-0.020998,-0.102361,-12.455368,25.760933,-11.664429,,,,,,,
1523522654.113571,-0.509347,-0.025890,-1.255672,-0.359019,-0.031203,0.053482,-0.487444,0.025887,-0.872770,-0.087919,-0.021538,-0.168643,-12.457321,25.610863,-11.738831,,,,,,,
1523522654.143539,-0.511587,-0.036613,-1.261731,-0.382769,-0.106473,0.037553,-0.489233,0.036605,-0.871384,-0.067010,-0.039565,-0.197845,-11.924850,26.133842,-11.365662,,,,,,,
1523522654.173507,-0.515810,-0.045798,-1.265548,-0.275019,-0.130088,0.033394,-0.492722,0.045782,-0.868981,-0.083724,-0.036429,-0.157035,-13.499191,26.290779,-11.517090,,,,,,,
1523522654.203475,-0.518394,-0.050700,-1.267829,-0.089775,-0.055900,-0.004899,-0.494848,0.050678,-0.867500,-0.049478,-0.033878,-0.150536,-12.896973,26.288445,-11.141785,,,,,,,
1523522654.233444,-0.521209,-0.048624,-1.267804,0.134452,-0.106071,-0.051567,-0.497340,0.048605,-0.866192,0.016627,-0.039526,-0.053073,-12.825867,26.212593,-11.666382,,,,,,,
1523522654.263412,-0.521974,-0.044411,-1.268145,0.068893,-0.022698,-0.099640,-0.498101,0.044396,-0.865981,-0.001304,-0.020821,-0.023469,-13.051605,25.913994,-11.290344,,,,,,,
1523522654.293380,-0.524571,-0.042880,-1.274193,-0.101735,-0.095922,-0.203057,-0.500381,0.042867,-0.864743,-0.025376,-0.000753,0.018216,-13.428085,25.765694,-11.289917,,,,,,,
1523522654.323348,-0.528464,-0.044002,-1.285536,-0.198031,-0.141373,-0.203084,-0.503719,0.043988,-0.862746,0.030559,-0.040249,0.052794,-13.727158,25.542549,-10.764221,,,,,,,
1523522654.353317,-0.530311,-0.045175,-1.294422,-0.114185,0.009148,-0.180793,-0.505286,0.045160,-0.861769,0.024313,-0.029657,0.118086,-13.502029,25.691322,-10.989685,,,,,,,
1523522654.383315,-0.529210,-0.045156,-1.300275,-0.119363,0.070647,-0.159552,-0.504336,0.045141,-0.862326,0.004275,0.026529,0.082235,-13.801270,25.767662,-10.990112,,,,,,,
1523522654.413284,-0.528447,-0.046559,-1.306386,-0.149724,-0.005976,-0.133915,-0.503646,0.046542,-0.862655,0.085495,-0.029803,0.035979,-13.056488,26.348469,-10.512024,,,,,,,
1523522654.443252,-0.529482,-0.047860,-1.310996,-0.095470,-0.011644,-0.101907,-0.504508,0.047841,-0.862080,0.061118,0.018855,0.066471,-14.332489,26.428913,-10.812988,,,,,,,
1523522654.473220,-0.528471,-0.048883,-1.315956,-0.121602,0.054668,-0.153144,-0.503611,0.048864,-0.862547,0.036692,0.011409,0.014021,-14.336533,25.979008,-10.736206,,,,,,,
1523522654.503188,-0.527630,-0.048757,-1.323421,-0.133889,0.042711,-0.262885,-0.502888,0.048738,-0.862975,-0.016246,0.005186,0.075088,-13.808701,25.902241,-10.135620,,,,,,,
1523522654.533157,-0.526885,-0.049114,-1.334215,-0.238198,0.039188,-0.329026,-0.502236,0.049094,-0.863335,-0.030051,-0.003943,0.080773,-14.862091,25.606907,-10.209961,,,,,,,
1523522654.563113,-0.526165,-0.050364,-1.348061,-0.273059,0.028142,-0.408951,-0.501584,0.050343,-0.863642,-0.042698,0.001980,0.094279,-14.485764,25.605442,-9.984802,,,,,,,
1523522654.593081,-0.526154,-0.050574,-1.367860,-0.247023,0.075114,-0.448409,-0.501568,0.050552,-0.863639,-0.028720,0.007095,0.153037,-13.958817,25.528507,-9.534180,,,,,,,
1523522654.623050,-0.523314,-0.050849,-1.384483,-0.262507,0.102955,-0.321651,-0.499107,0.050827,-0.865048,0.003089,0.061951,0.068890,-14.257156,25.605000,-9.384644,,,,,,,
1523522654.653018,-0.521754,-0.058969,-1.401240,-0.546697,0.096699,-0.086375,-0.497535,0.058935,-0.865439,0.013130,0.123576,-0.074793,-14.633499,25.606480,-9.609863,,,,,,,
1523522654.682986,-0.519728,-0.073430,-1.413077,-0.512883,0.126746,0.009528,-0.495305,0.073364,-0.865615,-0.070216,0.112061,-0.167970,-14.102982,25.979389,-9.311035,,,,,,,
1523522654.712954,-0.516133,-0.085539,-1.421159,-0.385081,0.103870,0.046924,-0.491716,0.085434,-0.866553,-0.069258,0.097229,-0.273995,-14.778687,25.682804,-8.935181,,,,,,,
1523522654.742923,-0.517993,-0.087642,-1.427664,0.221570,-0.200870,-0.050340,-0.493237,0.087530,-0.865479,-0.007251,0.046717,-0.211257,-14.632141,25.382069,-9.008911,,,,,,,
1523522654.772891,-0.526649,-0.070631,-1.425946,0.732293,-0.313581,-0.220334,-0.501385,0.070572,-0.862340,0.020627,0.034057,0.024557,-14.180359,25.604954,-9.084595,,,,,,,
1523522654.802859,-0.532994,-0.046861,-1.426731,0.721819,-0.125994,-0.299369,-0.507556,0.046844,-0.860343,0.045169,0.008531,0.188484,-15.311157,25.159824,-9.308350,,,,,,,
1523522654.832827,-0.531037,-0.029030,-1.427317,0.285466,0.163196,-0.318105,-0.506214,0.029026,-0.861919,-0.016537,0.005337,0.084056,-15.238846,24.934422,-9.382446,,,,,,,
1523522654.862796,-0.529687,-0.025729,-1.435059,-0.214600,-0.063533,-0.235144,-0.505096,0.025726,-0.862679,-0.010117,-0.060058,-0.002021,-14.863419,25.157429,-9.683167,,,,,,,
1523522654.892764,-0.533299,-0.029990,-1.442748,-0.230293,-0.064486,-0.093440,-0.508148,0.029985,-0.860747,-0.040253,-0.061952,0.045043,-15.462784,24.860737,-9.082275,,,,,,,
1523522654.922732,-0.530300,-0.033398,-1.447853,-0.154470,0.177556,-0.089353,-0.505510,0.033392,-0.862173,-0.059370,0.025751,-0.059122,-15.986572,24.938160,-9.007812,,,,,,,
1523522654.952700,-0.528980,-0.033811,-1.451889,-0.026167,-0.061577,-0.127381,-0.504364,0.033805,-0.862828,0.013153,0.059991,-0.101024,-15.160400,25.009525,-8.932678,,,,,,,
1523522654.982669,-0.533423,-0.029091,-1.454429,0.157213,-0.146856,-0.152738,-0.508268,0.029087,-0.860707,0.065031,0.094662,-0.074932,-16.289993,24.639454,-9.081787,,,,,,,
1523522655.012637,-0.536294,-0.020939,-1.455459,0.262459,-0.059710,-0.193229,-0.510842,0.020937,-0.859419,0.076882,0.102217,-0.006746,-16.588348,24.715946,-8.932251,,,,,,,
1523522655.042605,-0.536829,-0.009763,-1.456703,0.299327,-0.008349,-0.257184,-0.511389,0.009763,-0.859293,0.029990,0.063693,0.028604,-15.613846,24.711491,-9.006714,,,,,,,
,,,,,,,,,,,,,,,,25.316185,51.455629,14.739620,1.220000,108.281250,1523522654.999185,
1523522655.072573,-0.536966,-0.002039,-1.462252,0.013396,-0.050661,-0.334076,-0.511530,0.002039,-0.859262,-0.049749,0.031271,0.018244,-16.627304,24.426426,-8.421875,,,,,,,
1523522655.102542,-0.540019,0.000404,-1.472196,-0.108886,-0.157767,-0.320216,-0.514152,-0.000404,-0.857698,-0.079521,-0.014764,0.017381,-16.630005,24.201359,-8.495972,,,,,,,
1523522655.132510,-0.544233,0.001489,-1.479894,-0.050709,-0.116408,-0.178493,-0.517761,-0.001489,-0.855523,-0.125931,-0.067710,0.050683,-16.180176,24.274189,-8.645996,,,,,,,
1523522655.162478,-0.546089,0.001699,-1.481354,-0.001221,-0.007625,0.049462,-0.519347,-0.001699,-0.854561,-0.158982,-0.068873,0.066063,-17.153778,24.278797,-8.421570,,,,,,,
1523522655.192447,-0.547778,-0.001816,-1.481839,-0.036965,-0.065612,0.300954,-0.520790,0.001816,-0.853682,-0.108620,-0.073731,0.079893,-17.075485,24.653370,-8.498047,,,,,,,
1523522655.222415,-0.550047,-0.008495,-1.475869,-0.053301,-0.023769,0.400000,-0.522708,0.008495,-0.852469,-0.087552,-0.084972,0.073263,-16.325058,24.874683,-8.798523,,,,,,,
1523522655.252383,-0.550647,-0.016187,-1.467734,-0.136192,0.008661,0.351950,-0.523170,0.016187,-0.852074,-0.014565,-0.125852,0.064736,-17.298096,24.804523,-8.348694,,,,,,,
1523522655.282351,-0.551103,-0.026570,-1.463892,-0.356633,0.025794,0.259072,-0.523442,0.026567,-0.851646,0.000462,-0.172761,0.076164,-17.374741,24.729710,-8.498474,,,,,,,
1523522655.312320,-0.550349,-0.042754,-1.467131,-0.637776,0.087689,0.171417,-0.522507,0.042741,-0.851562,0.025925,-0.187914,0.115799,-16.993454,25.402912,-8.575928,,,,,,,
1523522655.342288,-0.545798,-0.063415,-1.475552,-0.844953,0.244816,0.112505,-0.518056,0.063372,-0.852995,-0.029353,-0.133303,0.003691,-16.918304,25.327732,-8.425659,,,,,,,
1523522655.372256,-0.538697,-0.090356,-1.488073,-1.098129,0.238896,0.135772,-0.510925,0.090233,-0.854876,-0.058259,-0.106758,-0.169431,-16.161896,25.699772,-7.976746,,,,,,,
1523522655.402224,-0.536144,-0.115441,-1.499822,-0.738662,0.059091,0.042442,-0.507425,0.115185,-0.853962,-0.092307,-0.081982,-0.155926,-16.307526,25.776035,-7.377136,,,,,,,
1523522655.432193,-0.537149,-0.125428,-1.508692,-0.253180,-0.010836,-0.160632,-0.507668,0.125099,-0.852421,-0.111686,-0.015571,-0.066478,-16.457077,25.776783,-7.302185,,,,,,,
1523522655.462161,-0.537377,-0.125499,-1.520753,-0.105845,0.075758,-0.288468,-0.507858,0.125170,-0.852298,-0.148667,0.066511,-0.043714,-17.208405,26.004551,-7.903442,,,,,,,
1523522655.492129,-0.536169,-0.120169,-1.536465,0.007240,0.095106,-0.663467,-0.507162,0.119880,-0.853472,-0.197794,0.043450,-0.048689,-16.233444,25.775547,-7.527039,,,,,,,
1523522655.522097,-0.538442,-0.097312,-1.550536,0.709493,-0.135110,-0.811897,-0.510373,0.097159,-0.854446,-0.020679,0.022638,-0.016403,-17.283524,25.405872,-6.926147,,,,,,,
1523522655.552081,-0.542588,-0.062628,-1.551989,1.055976,-0.071543,-0.453684,-0.515341,0.062587,-0.854696,0.093619,0.160832,0.091665,-17.141632,24.730015,-7.148315,,,,,,,
1523522655.582049,-0.539738,-0.033906,-1.544024,0.872205,0.163231,-0.227105,-0.513616,0.033900,-0.857349,-0.051295,0.165395,0.007069,-17.668243,24.432606,-6.922424,,,,,,,
1523522655.612048,-0.540852,-0.015714,-1.536809,0.432448,-0.263349,-0.004302,-0.514803,0.015713,-0.857164,-0.018705,0.163395,-0.052260,-17.745651,24.282810,-7.071838,,,,,,,
1523522655.642016,-0.544799,-0.013667,-1.533114,0.075467,-0.026014,0.068716,-0.518197,0.013667,-0.855151,-0.030158,0.101720,0.019061,-16.544662,24.651951,-7.522705,,,,,,,
1523522655.671984,-0.545733,-0.008824,-1.528476,0.365078,-0.013692,0.027363,-0.519024,0.008823,-0.854713,-0.024357,0.034954,0.062965,-17.371109,24.281040,-7.146667,,,,,,,
1523522655.701952,-0.544452,-0.002132,-1.520101,0.281276,0.053409,0.185999,-0.517948,0.002132,-0.855408,0.038578,-0.001552,0.042863,-17.370514,24.430897,-7.297241,,,,,,,
1523522655.731921,-0.543843,-0.006780,-1.511638,-0.162109,-0.006473,0.396705,-0.517416,0.006780,-0.855706,0.010428,-0.031926,0.043359,-16.320557,24.650791,-7.672607,,,,,,,
1523522655.761889,-0.545443,-0.027195,-1.506996,-0.748195,-0.071816,0.529515,-0.518604,0.027192,-0.854581,-0.042233,-0.062486,0.004133,-16.919342,24.728565,-7.598206,,,,,,,
1523522655.791857,-0.545348,-0.058145,-1.507783,-0.951060,0.099096,0.473785,-0.517838,0.058112,-0.853502,-0.055297,-0.141761,0.081819,-17.214218,24.880497,-6.999023,,,,,,,
1523522655.821826,-0.537523,-0.090398,-1.513914,-1.096392,0.368295,0.322104,-0.509919,0.090275,-0.855472,-0.021194,-0.192982,0.110995,-16.609909,25.402622,-7.150757,,,,,,,
1523522655.851794,-0.524609,-0.121876,-1.523838,-1.059680,0.539169,0.186638,-0.497159,0.121574,-0.859099,-0.058902,-0.208793,0.171508,-16.977554,26.004490,-6.928345,,,,,,,
1523522655.881762,-0.509102,-0.148685,-1.538237,-1.022621,0.649235,-0.067035,-0.482015,0.148138,-0.863548,-0.145762,-0.122091,0.110069,-16.603317,25.927814,-6.927856,,,,,,,
1523522655.911730,-0.497826,-0.168608,-1.558137,-0.781417,0.267265,-0.382947,-0.470745,0.167811,-0.866163,-0.033924,-0.067255,-0.007891,-15.847366,26.524403,-6.929871,,,,,,,
1523522655.941699,-0.499009,-0.172543,-1.578027,-0.142926,0.041770,-0.579357,-0.471449,0.171688,-0.865019,0.010283,0.082248,-0.050402,-16.597778,26.303089,-6.629395,,,,,,,
1523522655.971667,-0.500600,-0.160245,-1.589671,0.383349,-0.058227,-0.445682,-0.473803,0.159560,-0.866054,0.068560,0.202150,-0.028843,-16.901352,25.854603,-6.477722,,,,,,,
1523522656.001635,-0.505147,-0.140289,-1.589566,0.655513,-0.116451,-0.271732,-0.479182,0.139830,-0.866505,0.016459,0.235552,0.122243,-16.077744,25.850666,-6.702271,,,,,,,
1523522656.031603,-0.498602,-0.118978,-1.586958,0.681079,0.366856,-0.254092,-0.474817,0.118698,-0.872043,-0.040289,0.205399,0.025806,-16.687134,25.177967,-7.149902,,,,,,,
1523522656.061572,-0.485079,-0.094413,-1.583122,0.871649,0.393492,-0.331761,-0.464202,0.094273,-0.880698,-0.006578,0.071330,-0.221765,-17.211365,25.030704,-6.774536,,,,,,,
,,,,,,,,,,,,,,,,25.316182,51.455643,14.812099,1.690000,111.445312,1523522655.999173,
1523522656.091540,-0.479891,-0.073232,-1.578113,0.572492,0.172446,-0.071766,-0.460445,0.073167,-0.884667,0.177364,0.056502,-0.191184,-17.440994,24.656590,-6.923218,,,,,,,
1523522656.121508,-0.471658,-0.062229,-1.576385,0.186948,0.216943,-0.218082,-0.453484,0.062189,-0.889092,-0.156059,0.131980,-0.139107,-17.290573,24.655979,-6.848145,,,,,,,
1523522656.151476,-0.476083,-0.052582,-1.582512,0.320784,-0.383577,-0.397444,-0.457667,0.052558,-0.887568,-0.017293,0.071343,-0.022115,-17.522003,24.281574,-7.296753,,,,,,,
1523522656.181445,-0.486669,-0.032616,-1.588233,0.536761,-0.171057,-0.475272,-0.467436,0.032610,-0.883425,-0.004107,0.074796,0.043886,-17.225006,23.980244,-7.295410,,,,,,,
1523522656.211413,-0.485822,-0.019583,-1.592135,0.205175,0.023334,-0.194429,-0.466845,0.019582,-0.884122,0.020343,0.084712,0.064099,-17.522446,24.056873,-6.995850,,,,,,,
1523522656.241381,-0.488529,-0.013338,-1.591674,0.168433,-0.115905,-0.024894,-0.469285,0.013337,-0.882946,-0.030379,0.066375,0.168361,-17.751785,23.757679,-7.219727,,,,,,,
1523522656.271349,-0.495238,-0.016133,-1.589221,-0.264323,-0.372704,0.229704,-0.475179,0.016133,-0.879741,-0.057307,0.063732,0.100002,-17.075897,23.979420,-7.445251,,,,,,,
1523522656.301318,-0.512015,-0.038874,-1.593936,-0.861513,-0.617481,0.495886,-0.489565,0.038865,-0.871100,-0.079207,-0.015366,0.082220,-18.270035,24.435017,-7.222717,,,,,,,
1523522656.331286,-0.519102,-0.078870,-1.590703,-1.278825,0.182598,0.955084,-0.494558,0.078789,-0.865566,-0.109141,-0.203133,0.102519,-17.966599,24.733723,-7.148743,,,,,,,
1523522656.361254,-0.495562,-0.137130,-1.578698,-1.548973,1.019070,1.477213,-0.471062,0.136700,-0.871443,-0.121452,-0.280820,-0.178057,-16.528641,26.301792,-7.604309,,,,,,,
1523522656.391222,-0.473936,-0.194890,-1.560908,-1.222817,0.451005,1.299026,-0.447752,0.193658,-0.872934,-0.153169,-0.346277,-0.352850,-16.900925,26.303928,-7.154480,,,,,,,
1523522656.421191,-0.462146,-0.227506,-1.549354,-0.493701,0.179798,0.469790,-0.434381,0.225548,-0.872033,-0.107688,-0.398263,-0.268379,-16.446320,26.901646,-7.381714,,,,,,,
1523522656.451159,-0.464547,-0.232896,-1.548514,0.068931,-0.241632,-0.093034,-0.435922,0.230796,-0.869888,-0.002326,-0.285743,-0.058793,-15.541992,27.197803,-7.157410,,,,,,,
1523522656.481127,-0.470372,-0.222374,-1.549202,0.405479,-0.066463,-0.189920,-0.442058,0.220546,-0.869450,0.152950,-0.197215,0.002568,-16.593460,27.052540,-7.157349,,,,,,,
1523522656.511096,-0.471848,-0.210782,-1.551067,0.228618,-0.070802,-0.265702,-0.444473,0.209225,-0.871015,0.238495,-0.153164,-0.058855,-16.970230,26.604679,-6.705750,,,,,,,
1523522656.541064,-0.474104,-0.206026,-1.557182,-0.087300,0.017792,-0.210617,-0.446886,0.204572,-0.870886,0.117144,-0.150647,-0.161508,-16.294510,26.901264,-7.081604,,,,,,,
1523522656.571009,-0.477008,-0.209801,-1.564121,-0.288063,-0.131054,-0.127508,-0.449055,0.208265,-0.868892,-0.068263,-0.120008,-0.131504,-16.890137,26.754917,-6.106323,,,,,,,
1523522656.600977,-0.482213,-0.217216,-1.571872,-0.354259,-0.050627,-0.057311,-0.452843,0.215512,-0.865151,-0.272575,-0.132626,0.009560,-16.969177,26.529972,-6.405457,,,,,,,
1523522656.630946,-0.481195,-0.227418,-1.573921,-0.294805,0.183271,0.207810,-0.450922,0.225463,-0.863618,-0.301581,-0.129043,0.091965,-15.985367,27.051151,-5.807068,,,,,,,
1523522656.660914,-0.470074,-0.237330,-1.569356,-0.180221,0.399970,0.329146,-0.440256,0.235108,-0.866544,-0.209601,-0.068452,0.019635,-16.359299,27.202763,-5.882874,,,,,,,
1523522656.690882,-0.450288,-0.245440,-1.564533,-0.198080,0.910566,0.103807,-0.422181,0.242983,-0.873339,-0.233138,0.133268,0.057421,-16.281891,27.127934,-5.357483,,,,,,,
1523522656.720850,-0.423368,-0.238328,-1.564737,0.569078,0.632712,-0.245905,-0.399221,0.236078,-0.885940,0.001211,0.086050,-0.173676,-15.460693,26.973866,-5.731445,,,,,,,
1523522656.750819,-0.411941,-0.210314,-1.560674,1.075463,0.040363,-0.204450,-0.391566,0.208767,-0.896154,0.217372,0.184589,-0.058131,-15.761719,26.825291,-5.656006,,,,,,,
1523522656.780787,-0.421062,-0.175916,-1.548280,1.278305,-0.489386,-0.043934,-0.402422,0.175010,-0.898570,0.179537,0.208672,0.179164,-16.066498,26.301746,-5.579041,,,,,,,
1523522656.810755,-0.425306,-0.140886,-1.536777,1.128235,-0.097894,-0.206403,-0.408511,0.140420,-0.901887,0.105731,0.091865,0.024629,-15.544678,26.298862,-6.103821,,,,,,,
1523522656.840723,-0.428754,-0.114697,-1.533414,0.637015,-0.131654,-0.218455,-0.413006,0.114446,-0.903508,0.174557,0.099299,-0.055079,-15.924561,25.625889,-5.801331,,,,,,,
1523522656.870692,-0.433133,-0.100505,-1.538078,0.216518,-0.139542,-0.460629,-0.417598,0.100336,-0.903075,0.099330,0.183447,-0.069078,-15.999725,25.476444,-5.575745,,,,,,,
1523522656.900690,-0.443117,-0.088539,-1.551526,0.204289,-0.448555,-0.636146,-0.427078,0.088423,-0.899881,-0.003205,0.214388,-0.026191,-16.597153,25.554432,-5.276367,,,,,,,
1523522656.930659,-0.464742,-0.072025,-1.565076,0.414707,-0.912318,-0.644048,-0.447030,0.071962,-0.891619,0.006569,0.177870,0.101489,-16.377701,25.178150,-5.574707,,,,,,,
1523522656.960627,-0.494374,-0.048737,-1.571423,0.750048,-0.916551,-0.461593,-0.473917,0.048718,-0.879220,0.040812,0.068500,0.284845,-16.375900,25.178440,-5.274719,,,,,,,
1523522656.990595,-0.505866,-0.019674,-1.567455,0.969001,0.016753,-0.284424,-0.484471,0.019673,-0.874586,0.004185,0.082988,0.316099,-16.679764,24.879658,-5.423706,,,,,,,
1523522657.020564,-0.502215,0.003586,-1.562981,0.569623,0.014078,-0.066274,-0.481365,-0.003586,-0.876512,-0.007877,0.036561,0.154451,-16.758377,24.654789,-5.647827,,,,,,,
1523522657.050532,-0.510118,0.004519,-1.561151,-0.237861,-0.411073,0.238278,-0.488275,-0.004519,-0.872678,0.030465,-0.040509,0.213117,-16.979309,24.881077,-5.348877,,,,,,,
,,,,,,,,,,,,,,,,25.316174,51.455650,15.032040,2.040000,113.203125,1523522656.999160,
1523522657.080500,-0.522549,-0.019330,-1.568147,-1.068320,-0.409188,0.412423,-0.498997,0.019329,-0.866387,-0.016185,-0.016567,0.191461,-17.048615,25.406467,-5.276001,,,,,,,
1523522657.110468,-0.537628,-0.067133,-1.577883,-1.841467,-0.444755,0.610051,-0.510946,0.067082,-0.856991,-0.063364,-0.016774,0.155803,-17.118835,25.931705,-5.353149,,,,,,,
1523522657.140437,-0.531473,-0.134707,-1.592601,-2.305505,0.833203,0.822609,-0.502212,0.134300,-0.854252,-0.013474,-0.038810,-0.104901,-15.984451,26.602055,-4.905212,,,,,,,
1523522657.170405,-0.507830,-0.203324,-1.601487,-1.918788,0.741385,0.901820,-0.476265,0.201926,-0.855802,-0.054344,0.016244,-0.340732,-16.503738,27.129459,-4.832581,,,,,,,
1523522657.200373,-0.484056,-0.243500,-1.597013,-0.633755,0.579527,0.645089,-0.451644,0.241101,-0.859003,-0.182572,-0.056195,-0.457373,-16.125153,27.352970,-4.608337,,,,,,,
1523522657.230341,-0.474193,-0.256656,-1.587547,-0.035795,-0.011620,0.328608,-0.441663,0.253847,-0.860520,-0.144015,-0.119890,-0.396301,-15.001114,27.572392,-5.133667,,,,,,,
1523522657.260310,-0.481312,-0.256264,-1.582546,0.118846,-0.413583,0.013728,-0.447824,0.253469,-0.857441,-0.086355,-0.194265,-0.169811,-15.225342,27.423786,-4.758179,,,,,,,
1523522657.290278,-0.494187,-0.254447,-1.584124,-0.035185,-0.358262,-0.090874,-0.459044,0.251710,-0.852009,0.010649,-0.164048,-0.032589,-16.200150,27.353321,-4.608337,,,,,,,
1523522657.320246,-0.499070,-0.252041,-1.584234,0.212496,-0.026903,-0.003643,-0.463488,0.249381,-0.850286,0.025789,-0.092780,-0.070032,-15.750168,27.351292,-4.608154,,,,,,,
1523522657.350214,-0.495610,-0.242292,-1.577963,0.444401,0.067867,0.036928,-0.461677,0.239928,-0.853983,0.024589,-0.057906,-0.158666,-15.973511,27.427448,-4.458496,,,,,,,
1523522657.380183,-0.497305,-0.233188,-1.571634,0.285015,-0.251496,0.024347,-0.464146,0.231080,-0.855084,0.078450,-0.057176,-0.127048,-15.825012,27.501408,-4.833740,,,,,,,
1523522657.410151,-0.505078,-0.227850,-1.572132,0.147402,-0.244642,0.006117,-0.471369,0.225884,-0.852518,0.069697,-0.112374,-0.013724,-15.297638,27.649174,-4.684082,,,,,,,
1523522657.440119,-0.509042,-0.228704,-1.573188,-0.123668,-0.112873,0.099560,-0.474651,0.226715,-0.850474,0.058483,-0.139694,-0.023535,-15.598526,27.425755,-4.458313,,,,,,,
1523522657.470087,-0.507901,-0.235762,-1.577049,-0.250123,0.105843,0.171693,-0.472890,0.233584,-0.849595,-0.013163,-0.123324,-0.025756,-15.669479,27.651371,-4.159302,,,,,,,
1523522657.500056,-0.503575,-0.243237,-1.578967,-0.212590,0.072159,0.112089,-0.468355,0.240846,-0.850080,-0.072234,-0.109941,0.028608,-15.144058,27.873707,-4.459900,,,,,,,
1523522657.530024,-0.502329,-0.247413,-1.582268,-0.193092,0.031286,0.023708,-0.466807,0.244896,-0.849774,-0.096334,-0.058037,0.092450,-15.741028,27.951771,-4.085510,,,,,,,
1523522657.560006,-0.501674,-0.252780,-1.593446,-0.415873,0.207332,-0.302684,-0.465611,0.250097,-0.848915,-0.145671,-0.043478,0.122780,-15.515732,28.025684,-4.160706,,,,,,,
1523522657.589974,-0.498908,-0.251045,-1.607280,0.100112,0.092393,-0.459886,-0.463468,0.248416,-0.850579,-0.012209,-0.041614,0.047464,-14.615768,28.021641,-4.160217,,,,,,,
1523522657.619943,-0.496951,-0.232193,-1.610213,0.716465,0.126814,-0.283649,-0.463954,0.230113,-0.855450,-0.027608,0.096761,0.044354,-15.521118,27.350941,-3.933044,,,,,,,
1523522657.649911,-0.498720,-0.207654,-1.603794,0.880939,-0.181628,-0.150023,-0.468026,0.206165,-0.859329,0.011926,0.046078,0.106659,-15.519470,27.426075,-3.783325,,,,,,,
1523522657.679879,-0.497742,-0.179979,-1.592286,1.075150,0.123370,-0.071338,-0.469730,0.179009,-0.864470,0.059345,0.143394,0.246504,-14.624008,27.421299,-4.532837,,,,,,,
1523522657.709848,-0.485204,-0.150561,-1.576456,1.165142,0.545368,0.028460,-0.461112,0.149993,-0.874572,0.124748,0.168092,0.339538,-15.754517,27.051090,-4.831909,,,,,,,
1523522657.739816,-0.459001,-0.121281,-1.558314,0.989562,0.770520,0.109077,-0.439798,0.120984,-0.889910,0.074045,0.165882,0.046190,-15.157684,26.823246,-4.980713,,,,,,,
1523522657.769784,-0.451321,-0.109793,-1.547416,0.132095,-0.089830,0.209468,-0.433528,0.109573,-0.894453,0.178874,0.062744,0.004149,-14.110580,26.668324,-5.204529,,,,,,,
1523522657.799752,-0.463511,-0.119069,-1.546415,-0.499957,-0.662505,0.121132,-0.443925,0.118788,-0.888155,0.047151,0.053011,0.028246,-14.705307,26.971363,-4.831055,,,,,,,
1523522657.829721,-0.486332,-0.139062,-1.554217,-0.792182,-0.649761,0.072961,-0.462875,0.138614,-0.875518,-0.010850,-0.043475,0.112304,-15.005447,26.822941,-4.605652,,,,,,,
1523522657.859689,-0.495907,-0.167475,-1.563647,-1.187727,-0.051944,0.275575,-0.469172,0.166693,-0.867231,-0.084844,-0.094000,-0.086123,-13.946030,27.493626,-4.157776,,,,,,,
1523522657.889657,-0.489870,-0.204574,-1.571023,-1.169103,0.229572,0.429815,-0.460700,0.203150,-0.863994,-0.101526,-0.092021,-0.281728,-14.393616,27.645786,-4.008667,,,,,,,
1523522657.919625,-0.481624,-0.237708,-1.574770,-0.915202,0.314615,0.336145,-0.450194,0.235475,-0.861322,-0.097627,-0.056978,-0.470373,-14.469666,27.496204,-3.933105,,,,,,,
1523522657.949594,-0.479181,-0.257769,-1.580400,-0.495480,-0.037960,0.006494,-0.445820,0.254924,-0.858055,0.010242,0.059163,-0.415093,-13.492325,27.866581,-4.159058,,,,,,,
1523522657.979562,-0.485659,-0.257695,-1.588716,0.139395,-0.149201,-0.420184,-0.451377,0.254852,-0.855165,0.000129,0.166763,-0.170073,-14.613083,28.246693,-4.086121,,,,,,,
1523522658.009530,-0.495357,-0.240907,-1.600203,0.368247,-0.342566,-0.657430,-0.461619,0.238584,-0.854392,0.128473,0.162021,-0.075067,-15.065018,28.098652,-4.160767,,,,,,,
1523522658.039498,-0.510596,-0.224784,-1.613160,0.178492,-0.393805,-0.555238,-0.476402,0.222896,-0.850504,0.217797,0.038655,0.096415,-14.094543,27.868916,-4.534363,,,,,,,
,,,,,,,,,,,,,,,,25.316164,51.455664,14.867855,2.530000,110.742188,1523522657.999147,
1523522658.069467,-0.519705,-0.220802,-1.622374,-0.219149,-0.055461,-0.173349,-0.484567,0.219012,-0.846893,0.097284,0.023023,0.050277,-14.620422,27.646503,-4.308777,,,,,,,
1523522658.099435,-0.523519,-0.231329,-1.631490,-0.567354,-0.156532,-0.030734,-0.486614,0.229271,-0.842995,-0.024479,-0.019020,-0.048820,-15.066650,27.798893,-3.934570,,,,,,,
1523522658.129403,-0.533023,-0.244412,-1.639793,-0.395076,-0.302592,-0.024059,-0.493037,0.241986,-0.835677,-0.077764,-0.041790,-0.030213,-15.441040,27.950428,-4.085327,,,,,,,
1523522658.159402,-0.543451,-0.249014,-1.642991,-0.080394,-0.309024,0.024129,-0.501144,0.246449,-0.829528,-0.039521,-0.115543,-0.111634,-15.064560,28.098728,-4.085754,,,,,,,
1523522658.189370,-0.551939,-0.249250,-1.641041,0.109386,-0.318320,0.069039,-0.508136,0.246677,-0.825196,-0.044767,-0.069355,-0.051407,-14.761429,28.322514,-3.936523,,,,,,,
1523522658.219338,-0.558801,-0.246013,-1.637897,0.164192,-0.181719,0.117952,-0.514207,0.243539,-0.822362,0.044678,-0.057305,0.046880,-14.463089,28.246021,-4.086060,,,,,,,
1523522658.249307,-0.557568,-0.247539,-1.633114,-0.037617,0.032122,0.305116,-0.512996,0.245019,-0.822679,0.112346,-0.047509,-0.053999,-15.288498,28.025043,-3.785583,,,,,,,
1523522658.279275,-0.555755,-0.250933,-1.627927,0.173816,0.024206,0.295707,-0.511061,0.248308,-0.822897,0.028395,-0.070573,-0.041193,-15.138657,28.099216,-3.935852,,,,,,,
1523522658.309243,-0.547678,-0.244840,-1.617817,0.467401,0.110455,0.167964,-0.505177,0.242401,-0.828274,0.001575,-0.113266,-0.016254,-14.391098,28.170322,-4.460693,,,,,,,
1523522658.339212,-0.544632,-0.231935,-1.610224,0.579513,-0.020781,0.053102,-0.504230,0.229861,-0.832416,-0.007245,-0.141376,0.112628,-15.289703,28.174595,-4.236206,,,,,,,
1523522658.369180,-0.544384,-0.217077,-1.601955,0.536845,-0.151570,-0.069342,-0.505737,0.215376,-0.835370,-0.037583,-0.170011,0.179929,-14.914871,28.247746,-4.386292,,,,,,,
1523522658.399148,-0.550633,-0.203008,-1.595318,0.494557,-0.254796,-0.033038,-0.512482,0.201617,-0.834693,-0.020248,-0.205935,0.219031,-15.442993,28.024982,-4.535645,,,,,,,
1523522658.429116,-0.551184,-0.192615,-1.586764,0.376561,0.053534,0.134921,-0.514012,0.191427,-0.836150,-0.016780,-0.179601,0.205001,-14.842133,28.247059,-4.761292,,,,,,,
1523522658.459085,-0.541980,-0.192609,-1.576919,-0.023844,0.334423,0.379398,-0.506294,0.191420,-0.840847,-0.029548,-0.070586,0.032788,-14.240967,28.544041,-5.062134,,,,,,,
1523522658.489053,-0.528379,-0.209553,-1.570281,-0.584638,0.419945,0.504630,-0.493106,0.208023,-0.844732,-0.030072,-0.012131,-0.190103,-13.939026,28.468143,-4.611694,,,,,,,
1523522658.519021,-0.516528,-0.231632,-1.569689,-0.508707,0.296310,0.376960,-0.480675,0.229566,-0.846316,-0.016380,-0.005170,-0.218686,-14.012833,28.768162,-4.912903,,,,,,,
1523522658.548989,-0.511573,-0.241513,-1.567288,-0.002960,0.073879,0.247563,-0.475341,0.239172,-0.846668,0.003662,-0.024481,-0.263180,-13.786041,28.767445,-4.612793,,,,,,,
1523522658.578967,-0.507041,-0.244063,-1.562318,-0.062549,0.113386,0.242147,-0.471202,0.241647,-0.848278,0.014140,0.017691,-0.390263,-13.786484,28.767368,-4.687805,,,,,,,
1523522658.608934,-0.505110,-0.257958,-1.565654,-0.614014,-0.048661,0.208878,-0.467893,0.255107,-0.846166,0.066663,0.065770,-0.347468,-13.261658,28.615238,-4.461914,,,,,,,
1523522658.638902,-0.511388,-0.277157,-1.576300,-0.678272,-0.115982,-0.016999,-0.470712,0.273622,-0.838786,0.084207,-0.013978,0.058177,-13.331253,28.841084,-3.937866,,,,,,,
1523522658.668870,-0.515232,-0.291188,-1.589191,-0.505300,0.027613,-0.099059,-0.471994,0.287091,-0.833547,0.096277,-0.077954,0.099279,-13.250870,29.290867,-3.789612,,,,,,,
1523522658.698839,-0.513037,-0.302574,-1.603253,-0.531048,0.238055,-0.097154,-0.468529,0.297978,-0.831679,0.053078,-0.088139,0.033873,-12.726334,29.288425,-3.864380,,,,,,,
1523522658.728807,-0.513526,-0.317338,-1.615471,-0.635939,-0.007423,-0.056502,-0.466723,0.312039,-0.827527,0.022600,-0.060925,-0.012560,-12.269012,29.886585,-3.641541,,,,,,,
1523522658.758775,-0.517481,-0.332840,-1.625526,-0.578684,-0.026071,0.005366,-0.467543,0.326728,-0.821372,-0.037263,0.043237,-0.072167,-13.091110,29.815891,-3.041626,,,,,,,
1523522658.788743,-0.522743,-0.342761,-1.632063,-0.222422,-0.152028,-0.038998,-0.470217,0.336089,-0.816051,-0.103422,-0.005401,-0.026875,-12.864624,29.964878,-3.042114,,,,,,,
1523522658.818712,-0.532515,-0.334789,-1.630759,0.599383,-0.539310,-0.109383,-0.479514,0.328570,-0.813700,0.016944,-0.102801,0.075816,-12.265549,29.962025,-3.191833,,,,,,,
1523522658.848680,-0.546251,-0.308885,-1.616529,1.175296,-0.597595,-0.035362,-0.494902,0.303997,-0.814038,0.065764,-0.050365,0.243878,-13.613754,29.866291,-3.614746,,,,,,,
1523522658.878649,-0.556006,-0.273119,-1.595031,1.510715,-0.555922,-0.034098,-0.508235,0.269736,-0.817888,0.119120,0.000101,0.213090,-13.320221,29.489521,-4.063110,,,,,,,
1523522658.908617,-0.562607,-0.231415,-1.567488,1.679528,-0.199865,0.045583,-0.519174,0.229355,-0.823319,0.134866,0.018829,0.190033,-12.797943,29.486713,-4.512817,,,,,,,
1523522658.938586,-0.555027,-0.205337,-1.545853,0.486590,0.157869,0.216955,-0.515896,0.203897,-0.832032,0.070690,0.036337,-0.205413,-13.550308,29.115330,-4.286743,,,,,,,
1523522658.968554,-0.555414,-0.213973,-1.546690,-0.567315,-0.136447,-0.017956,-0.515270,0.212344,-0.830305,0.057201,0.067838,-0.021883,-13.098984,29.338154,-4.437378,,,,,,,
1523522658.998522,-0.562982,-0.224018,-1.562478,-0.507008,-0.214734,-0.390773,-0.520375,0.222149,-0.824536,-0.059520,0.043659,0.073041,-13.025345,29.337589,-4.662354,,,,,,,
1523522659.028491,-0.570764,-0.224821,-1.577715,-0.070877,-0.066195,-0.361827,-0.526678,0.222932,-0.820312,-0.125406,-0.053056,0.099777,-14.449966,28.969685,-3.986572,,,,,,,
1523522659.058459,-0.568506,-0.222493,-1.583173,-0.159561,0.285648,-0.044718,-0.525103,0.220661,-0.821934,-0.159696,0.022091,-0.069347,-13.772751,29.191639,-3.987122,,,,,,,
,,,,,,,,,,,,,,,,25.316152,51.455678,14.948086,2.380000,113.906250,1523522658.999136,
1523522659.088427,-0.560415,-0.235764,-1.587920,-0.567803,0.218165,0.176677,-0.516833,0.233586,-0.823602,-0.104718,0.033290,-0.048346,-13.098389,29.263371,-4.212097,,,,,,,
1523522659.118395,-0.556112,-0.249983,-1.589341,-0.281136,0.188236,0.252567,-0.511479,0.247387,-0.822914,-0.051158,0.023838,-0.060066,-13.545654,29.490467,-4.138184,,,,,,,
1523522659.148364,-0.549562,-0.255919,-1.583492,0.035722,0.171268,0.285858,-0.505302,0.253134,-0.824980,-0.028923,0.045160,-0.167055,-13.320511,29.414600,-3.987793,,,,,,,
1523522659.178332,-0.543980,-0.259019,-1.577346,0.094952,0.046805,0.284959,-0.500281,0.256132,-0.827112,-0.026345,0.050127,-0.233907,-12.275970,29.409000,-4.887207,,,,,,,
1523522659.208300,-0.545012,-0.257144,-1.567574,0.284054,-0.242198,0.215061,-0.501383,0.254319,-0.827005,-0.015753,0.028899,-0.167395,-13.100037,29.188236,-4.361816,,,,,,,
1523522659.238267,-0.552414,-0.250520,-1.555450,0.497795,-0.424515,0.225001,-0.508363,0.247908,-0.824687,0.035997,-0.059676,-0.098210,-12.952896,29.261967,-4.961975,,,,,,,
1523522659.268236,-0.561253,-0.238698,-1.539462,0.678554,-0.341045,0.231429,-0.517156,0.236437,-0.822585,0.039236,-0.064349,0.037094,-12.276123,29.483845,-5.037537,,,,,,,
1523522659.298204,-0.561282,-0.224127,-1.522682,0.696042,-0.084597,0.172588,-0.518959,0.222256,-0.825399,0.055396,-0.072094,0.030447,-12.800064,29.860752,-5.489319,,,,,,,
1523522659.328172,-0.560246,-0.209217,-1.507515,0.639845,-0.055438,0.124574,-0.519807,0.207694,-0.828652,0.111116,-0.101691,0.077690,-12.953659,29.636219,-5.713501,,,,,,,
1523522659.358140,-0.559269,-0.201527,-1.498782,0.077415,-0.017802,0.110259,-0.519829,0.200166,-0.830489,0.055321,-0.122636,0.002196,-12.356079,29.483387,-5.862610,,,,,,,
1523522659.388109,-0.561065,-0.215687,-1.504723,-0.843270,-0.027604,0.168185,-0.519760,0.214018,-0.827071,0.068710,-0.114791,-0.063051,-12.656525,29.260029,-5.561890,,,,,,,
1523522659.418077,-0.564471,-0.248401,-1.520515,-1.347540,-0.024687,0.233872,-0.518549,0.245854,-0.818940,-0.028845,-0.130040,-0.106109,-13.178177,29.412678,-5.262695,,,,,,,
1523522659.448076,-0.563752,-0.285438,-1.540230,-1.261395,0.358802,0.219696,-0.512740,0.281578,-0.811056,-0.094453,-0.071602,-0.132700,-12.348434,29.933872,-5.339355,,,,,,,
1523522659.478045,-0.558431,-0.311322,-1.554737,-0.694197,0.202456,0.037015,-0.504386,0.306317,-0.807319,-0.054833,0.025195,-0.100228,-12.870102,29.861897,-4.664368,,,,,,,
1523522659.508013,-0.553876,-0.318121,-1.567219,-0.138621,0.225200,-0.221516,-0.499596,0.312783,-0.807818,-0.018760,0.033164,-0.109159,-12.870239,29.712116,-4.438782,,,,,,,
1523522659.537982,-0.555932,-0.311528,-1.576273,0.117807,-0.120942,-0.350969,-0.502333,0.306513,-0.808524,0.051634,0.016348,0.059302,-12.196030,29.858707,-4.814026,,,,,,,
1523522659.567934,-0.562670,-0.305827,-1.585225,-0.032415,-0.158536,-0.240229,-0.508694,0.301082,-0.806586,0.076153,-0.000026,0.192374,-12.719818,29.936146,-4.739624,,,,,,,
1523522659.597902,-0.568293,-0.306215,-1.590582,-0.090607,-0.087306,-0.074115,-0.513158,0.301452,-0.803614,0.036366,0.000138,0.224986,-12.795242,29.711781,-4.438721,,,,,,,
1523522659.627870,-0.569302,-0.301663,-1.588949,0.264079,-0.157967,0.027443,-0.514703,0.297109,-0.804243,0.109110,-0.058400,0.230894,-12.646317,29.785816,-4.738953,,,,,,,
1523522659.657839,-0.563414,-0.294714,-1.578791,0.456120,0.262149,0.209356,-0.511049,0.290466,-0.808986,0.034593,-0.032776,0.106578,-12.497665,29.560291,-4.587952,,,,,,,
1523522659.687807,-0.555237,-0.283586,-1.561484,0.697807,0.003602,0.321683,-0.506090,0.279800,-0.815834,-0.010420,-0.018646,-0.010628,-12.574753,29.485416,-4.812744,,,,,,,
1523522659.717775,-0.548025,-0.272459,-1.538629,0.640415,0.054437,0.518706,-0.501784,0.269100,-0.822069,-0.071718,-0.025463,-0.208860,-11.751892,29.406483,-5.036987,,,,,,,
1523522659.747743,-0.543374,-0.271163,-1.513774,0.306050,-0.195001,0.748868,-0.498135,0.267852,-0.824692,-0.080936,-0.039779,-0.406860,-12.502625,29.334873,-5.037048,,,,,,,
1523522659.777712,-0.546286,-0.278088,-1.489757,0.208797,-0.396964,0.794806,-0.499558,0.274518,-0.821633,-0.038513,-0.092069,-0.303916,-11.828842,29.481388,-5.487305,,,,,,,
1523522659.807680,-0.546163,-0.278511,-1.466974,0.576973,0.004367,0.560260,-0.499397,0.274925,-0.821595,0.098976,-0.126869,-0.102065,-11.530365,29.554661,-5.862488,,,,,,,
1523522659.837648,-0.534694,-0.262786,-1.455445,0.716841,0.467785,-0.265878,-0.492084,0.259772,-0.830886,0.211719,-0.105414,-0.009125,-12.051437,29.632542,-5.338013,,,,,,,
1523522659.867616,-0.517744,-0.238888,-1.463425,0.378909,0.546128,-0.709476,-0.480866,0.236622,-0.844262,-0.129760,-0.062352,0.052102,-11.829742,29.481236,-5.637268,,,,,,,
1523522659.897585,-0.515471,-0.229228,-1.477719,-0.177793,0.022938,-0.458951,-0.480050,0.227226,-0.847302,-0.176154,-0.026573,0.215725,-12.355621,29.483463,-5.787598,,,,,,,
1523522659.927553,-0.516551,-0.231226,-1.498706,-0.458247,0.217789,-0.564857,-0.480740,0.229171,-0.846386,-0.083057,-0.147796,0.157162,-11.756714,29.330830,-5.711670,,,,,,,
1523522659.957521,-0.510076,-0.235753,-1.511745,-0.232939,0.341136,-0.052286,-0.474738,0.233575,-0.848567,-0.147409,-0.208581,0.026409,-11.528854,29.480030,-5.487183,,,,,,,
1523522659.987489,-0.501100,-0.245311,-1.506921,-0.209661,0.188616,0.473201,-0.466008,0.242858,-0.850797,-0.132670,0.000855,-0.042055,-11.225418,29.554127,-5.037292,,,,,,,
1523522660.017458,-0.494830,-0.250153,-1.493484,0.361443,0.098381,0.411904,-0.460102,0.247552,-0.852657,-0.068554,0.063178,-0.040516,-11.673157,29.781132,-5.038452,,,,,,,
1523522660.047426,-0.486744,-0.232490,-1.472832,1.098005,0.119950,0.254746,-0.455166,0.230401,-0.860081,-0.008564,0.043814,0.001087,-11.753845,29.481052,-5.487305,,,,,,,
,,,,,,,,,,,,,,,,25.316142,51.455695,15.049374,2.280000,103.007812,1523522659.999123,
1523522660.077394,-0.477558,-0.201013,-1.449783,1.410827,0.187179,0.105722,-0.450357,0.199662,-0.870238,0.102197,0.059814,-0.005846,-10.483109,29.324879,-5.936035,,,,,,,
1523522660.107363,-0.473616,-0.159536,-1.429959,1.528819,-0.236319,-0.158005,-0.450315,0.158860,-0.878624,0.120435,0.111205,-0.024773,-11.313156,28.728764,-5.784058,,,,,,,
1523522660.137331,-0.485765,-0.121374,-1.420562,1.031385,-0.525394,-0.428734,-0.463450,0.121077,-0.877812,0.181773,0.131487,0.000584,-11.166916,28.577732,-6.158386,,,,,,,
1523522660.167299,-0.501336,-0.094918,-1.425570,0.491607,-0.441721,-0.651921,-0.478434,0.094776,-0.872994,0.164103,0.162762,0.035851,-11.700287,28.054615,-6.681580,,,,,,,
1523522660.197267,-0.507387,-0.076620,-1.439871,0.206828,-0.022700,-0.753775,-0.484469,0.076545,-0.871453,-0.030530,0.165826,0.111855,-11.549393,28.278706,-6.907349,,,,,,,
1523522660.227236,-0.510032,-0.063493,-1.458010,0.005573,-0.048248,-0.675056,-0.487222,0.063451,-0.870970,-0.017966,0.052501,0.126204,-11.252853,27.977299,-6.981018,,,,,,,
1523522660.257204,-0.512259,-0.059844,-1.472515,-0.235597,-0.085182,-0.322512,-0.489270,0.059808,-0.870079,-0.122439,0.052955,0.150276,-11.776184,28.054798,-6.831604,,,,,,,
1523522660.287172,-0.515741,-0.070567,-1.480004,-0.595826,-0.078227,0.175888,-0.491952,0.070508,-0.867762,-0.106009,0.024066,0.113093,-11.845184,28.430485,-6.458130,,,,,,,
1523522660.317140,-0.517918,-0.097541,-1.480057,-0.861582,-0.024317,0.613569,-0.492719,0.097387,-0.864722,-0.036975,-0.026754,0.111807,-11.250305,28.277210,-7.057251,,,,,,,
1523522660.347109,-0.511594,-0.131526,-1.472624,-0.861068,0.370320,0.857183,-0.485339,0.131147,-0.864434,0.035037,-0.077269,0.043343,-11.312576,29.103245,-6.310547,,,,,,,
1523522660.377077,-0.492576,-0.166242,-1.461223,-0.846267,0.618678,0.894234,-0.466377,0.165477,-0.868970,0.057747,-0.065761,-0.143466,-10.709900,29.325596,-6.236145,,,,,,,
1523522660.407045,-0.476583,-0.201354,-1.452870,-0.908130,0.385486,0.681319,-0.449478,0.199996,-0.870615,0.017745,-0.056015,-0.159582,-10.934128,29.401615,-6.236572,,,,,,,
1523522660.437013,-0.462197,-0.227560,-1.449999,-0.522378,0.502968,0.309609,-0.434420,0.225602,-0.872000,-0.026670,-0.044815,-0.292658,-9.806488,29.396992,-5.785950,,,,,,,
1523522660.466982,-0.460190,-0.240946,-1.452255,-0.459701,-0.096874,0.058803,-0.431289,0.238622,-0.870086,-0.002457,-0.129384,-0.150712,-10.330261,29.699039,-6.087402,,,,,,,
1523522660.496950,-0.458276,-0.252864,-1.460498,-0.418307,0.272071,0.013704,-0.428335,0.250177,-0.868298,-0.064372,-0.146021,-0.082218,-9.352463,30.069492,-6.238464,,,,,,,
1523522660.526918,-0.453941,-0.267627,-1.467371,-0.598058,0.084682,0.129903,-0.422900,0.264444,-0.866732,-0.104749,-0.191293,-0.090070,-9.797668,30.371799,-5.939880,,,,,,,
1523522660.556892,-0.451891,-0.286056,-1.470831,-0.520771,0.078316,0.251445,-0.418923,0.282171,-0.863066,-0.143577,-0.181097,-0.075182,-9.272217,30.144886,-5.488708,,,,,,,
1523522660.586861,-0.453349,-0.298750,-1.470125,-0.243613,-0.123625,0.160216,-0.418579,0.294326,-0.859165,-0.065003,-0.113662,0.075122,-8.669571,30.591862,-5.790161,,,,,,,
1523522660.616829,-0.450779,-0.302379,-1.469525,-0.057250,0.321046,0.022455,-0.415901,0.297792,-0.859271,-0.025292,-0.039689,0.086856,-9.115784,30.519627,-5.040100,,,,,,,
1523522660.646797,-0.440578,-0.295726,-1.471698,0.275047,0.306137,-0.242598,-0.407950,0.291435,-0.865241,-0.024057,0.006264,0.074165,-8.893631,30.368397,-5.264404,,,,,,,
1523522660.676765,-0.436827,-0.278955,-1.476616,0.493902,0.108079,-0.411661,-0.406712,0.275351,-0.871072,0.092213,-0.051566,0.118005,-8.220322,30.514851,-5.789673,,,,,,,
1523522660.706764,-0.436444,-0.260193,-1.481886,0.465661,0.198698,-0.444801,-0.408491,0.257267,-0.875756,-0.003848,0.099194,0.245416,-8.928543,29.792419,-5.713257,,,,,,,
1523522660.736733,-0.424355,-0.241640,-1.491013,0.448878,0.594934,-0.572021,-0.399771,0.239295,-0.884828,-0.019769,0.118371,0.056627,-8.928406,29.942200,-5.938782,,,,,,,
1523522660.766701,-0.409181,-0.221011,-1.501750,0.408217,0.388568,-0.527085,-0.388181,0.219216,-0.895131,0.070005,0.049369,-0.117396,-8.107178,29.788116,-6.312805,,,,,,,
1523522660.796669,-0.397068,-0.216050,-1.510407,-0.250442,0.514580,-0.231483,-0.377725,0.214373,-0.900760,0.026255,0.162565,-0.295407,-9.009842,29.567108,-6.387329,,,,,,,
1523522660.826637,-0.393025,-0.222417,-1.519078,-0.210527,0.001658,-0.139302,-0.373551,0.220588,-0.901000,-0.059738,0.237252,-0.266038,-8.782608,29.566467,-6.012268,,,,,,,
1523522660.856606,-0.398441,-0.218491,-1.519810,0.354149,-0.344971,-0.005341,-0.378758,0.216757,-0.899755,-0.034587,0.240183,-0.092570,-7.733414,29.711365,-6.387268,,,,,,,
1523522660.886574,-0.410788,-0.204208,-1.509688,0.677301,-0.430072,0.195311,-0.391035,0.202792,-0.897757,0.059797,0.134305,0.165747,-9.383926,29.568939,-6.237549,,,,,,,
1523522660.916542,-0.414299,-0.188240,-1.492798,0.690842,-0.089000,0.347337,-0.395437,0.187131,-0.899228,0.123281,0.000354,0.218595,-8.712555,29.565323,-6.837219,,,,,,,
1523522660.946510,-0.406720,-0.178103,-1.476172,0.407259,0.241095,0.348931,-0.389341,0.177163,-0.903895,0.069578,-0.057916,0.130946,-7.886108,29.936234,-7.213257,,,,,,,
1523522660.976479,-0.402365,-0.175277,-1.465807,0.067238,-0.029109,0.210426,-0.385596,0.174381,-0.906039,0.007910,-0.115131,-0.040326,-8.340729,29.563126,-7.362000,,,,,,,
1523522661.006447,-0.408650,-0.183173,-1.465000,-0.442729,-0.336128,0.077167,-0.390723,0.182150,-0.902306,0.003135,-0.172766,-0.164161,-8.036102,29.712280,-6.837463,,,,,,,
1523522661.036415,-0.422559,-0.199441,-1.472226,-0.637613,-0.384622,-0.060382,-0.401967,0.198121,-0.893963,-0.183177,-0.082841,-0.010425,-7.884003,30.011444,-6.988525,,,,,,,
1523522661.066383,-0.425639,-0.214015,-1.486429,-0.600235,0.249481,-0.335909,-0.403483,0.212385,-0.889997,-0.217504,-0.088590,-0.012973,-8.707916,29.940445,-6.688660,,,,,,,
,,,,,,,,,,,,,,,,25.316135,51.455712,14.924160,2.170000,106.875000,1523522660.999110,
1523522661.096352,-0.419062,-0.220989,-1.499031,-0.205990,0.274859,-0.157682,-0.397008,0.219194,-0.891257,-0.039775,-0.108934,0.077170,-8.706573,30.165298,-6.839600,,,,,,,
1523522661.126320,-0.408806,-0.221974,-1.496961,0.139318,0.346737,0.228226,-0.387761,0.220156,-0.895083,0.048848,-0.021990,0.115954,-7.956909,30.311615,-7.139832,,,,,,,
1523522661.156288,-0.399741,-0.218048,-1.484193,0.335038,0.096718,0.355413,-0.379965,0.216325,-0.899350,0.057195,0.007995,0.043805,-8.031921,30.087341,-6.763977,,,,,,,
1523522661.186256,-0.395839,-0.213042,-1.472536,0.295954,-0.012473,0.180749,-0.376865,0.211434,-0.901814,0.048618,0.055213,-0.155025,-8.110794,29.787537,-6.912842,,,,,,,
1523522661.216225,-0.399161,-0.199595,-1.470248,0.552960,-0.199743,-0.330318,-0.380929,0.198272,-0.903095,-0.023093,0.083375,-0.206616,-8.040298,29.337219,-6.910950,,,,,,,
1523522661.246193,-0.410395,-0.173533,-1.477705,0.828103,-0.429672,-0.672983,-0.392979,0.172664,-0.903191,-0.002727,-0.004268,-0.152137,-8.563614,29.639359,-7.137451,,,,,,,
1523522661.276161,-0.426056,-0.141262,-1.485183,0.836391,-0.427893,-0.625039,-0.409166,0.140793,-0.901533,-0.073760,-0.015747,0.024534,-9.018539,29.415955,-7.586792,,,,,,,
1523522661.306129,-0.436267,-0.114717,-1.489565,0.709417,-0.337001,-0.357780,-0.419782,0.114465,-0.900378,-0.155658,-0.006784,0.074542,-8.269775,29.337509,-7.661072,,,,,,,
1523522661.336098,-0.445712,-0.093138,-1.482354,0.798152,-0.277611,0.081228,-0.429232,0.093003,-0.898393,-0.082502,0.042999,0.207460,-9.249985,28.816925,-7.659485,,,,,,,
1523522661.366066,-0.451621,-0.073052,-1.466176,0.818446,-0.339287,0.231547,-0.435260,0.072987,-0.897341,-0.029675,0.018383,0.146548,-9.778717,28.668930,-8.034180,,,,,,,
1523522661.396034,-0.462384,-0.059016,-1.451482,0.452468,-0.308494,0.213129,-0.445306,0.058981,-0.893434,0.058801,-0.018942,0.113206,-9.409271,28.291962,-8.332458,,,,,,,
1523522661.426003,-0.463806,-0.059886,-1.447533,-0.305090,0.082420,0.045944,-0.446553,0.059850,-0.892753,0.057195,0.051509,0.046424,-9.635468,28.442535,-8.783203,,,,,,,
1523522661.455971,-0.462672,-0.079536,-1.459247,-1.040040,0.033360,-0.123962,-0.444930,0.079452,-0.892034,-0.010087,0.096894,0.098714,-8.955399,28.590073,-8.183411,,,,,,,
1523522661.485939,-0.462316,-0.109984,-1.479106,-1.238492,0.109050,-0.086902,-0.443327,0.109762,-0.889614,-0.013277,0.069376,0.093151,-9.471695,29.192841,-7.736084,,,,,,,
1523522661.515907,-0.454324,-0.144998,-1.493769,-1.325459,0.578971,0.209853,-0.434249,0.144491,-0.889129,-0.073716,0.073267,0.040572,-9.022156,29.190750,-7.810852,,,,,,,
1523522661.545876,-0.430029,-0.186856,-1.501489,-1.372543,0.877874,0.486547,-0.409640,0.185770,-0.893132,-0.005781,0.024313,-0.192134,-7.811996,29.711121,-6.987305,,,,,,,
1523522661.575823,-0.403669,-0.225349,-1.499312,-0.920820,0.802573,0.608432,-0.382864,0.223446,-0.896374,-0.014246,-0.002484,-0.353504,-7.587326,30.084442,-7.663757,,,,,,,
1523522661.605791,-0.391940,-0.247354,-1.491823,-0.432325,-0.002735,0.415670,-0.370356,0.244840,-0.896041,-0.043966,-0.021695,-0.414460,-8.110641,29.712692,-6.762512,,,,,,,
1523522661.635759,-0.399605,-0.257447,-1.489497,-0.113955,-0.413095,0.025283,-0.376233,0.254613,-0.890854,-0.082080,-0.033132,-0.197662,-7.884735,29.711823,-6.612366,,,,,,,
1523522661.665728,-0.413434,-0.250233,-1.491619,0.405345,-0.398667,-0.246057,-0.389243,0.247629,-0.887226,-0.105660,-0.068262,-0.025265,-7.811691,29.561417,-6.686707,,,,,,,
1523522661.695696,-0.424378,-0.229611,-1.490873,0.784497,-0.362464,-0.239419,-0.400947,0.227599,-0.887378,-0.042427,-0.123503,0.045169,-8.712860,29.715027,-7.137817,,,,,,,
1523522661.725664,-0.431598,-0.203861,-1.485666,0.830806,-0.196220,-0.172424,-0.409661,0.202451,-0.889489,-0.048362,-0.073499,0.113305,-8.037460,29.936691,-7.438354,,,,,,,
1523522661.755632,-0.436875,-0.185662,-1.481516,0.439419,-0.252067,-0.101265,-0.415838,0.184598,-0.890507,0.021521,-0.018887,0.149052,-8.415741,29.563461,-7.362000,,,,,,,
1523522661.785601,-0.444848,-0.174045,-1.479984,0.385595,-0.209874,-0.187666,-0.423819,0.173167,-0.889039,-0.069589,0.023061,0.251038,-8.490860,29.414032,-7.136475,,,,,,,
1523522661.815569,-0.447174,-0.151041,-1.483283,0.927611,-0.070124,-0.610413,-0.427496,0.150468,-0.891407,-0.028269,-0.038346,0.127689,-8.045258,29.336426,-7.735901,,,,,,,
1523522661.845537,-0.458850,-0.109279,-1.487444,1.277072,-0.439565,-0.785583,-0.440275,0.109062,-0.891214,0.058287,-0.002144,0.232614,-8.802277,28.814529,-8.034241,,,,,,,
1523522661.875505,-0.465868,-0.065433,-1.491331,1.136267,-0.322853,-0.710156,-0.448237,0.065387,-0.891520,-0.029210,0.133435,0.053248,-9.183685,28.216171,-8.106995,,,,,,,
1523522661.905474,-0.483476,-0.038909,-1.500436,0.262404,-0.541427,-0.597641,-0.464508,0.038900,-0.884714,-0.170044,0.223704,0.036402,-9.859100,28.219147,-8.182373,,,,,,,
1523522661.935442,-0.492612,-0.038316,-1.513869,-0.441459,-0.155603,-0.211758,-0.472582,0.038306,-0.880454,-0.187132,0.156091,-0.051416,-9.937988,27.694717,-7.955322,,,,,,,
1523522661.965441,-0.495158,-0.053134,-1.518393,-0.440455,-0.021215,0.324060,-0.474500,0.053109,-0.878652,-0.123156,0.138725,0.061315,-10.312531,27.921112,-8.256409,,,,,,,
1523522661.995409,-0.494992,-0.066144,-1.509392,-0.091252,0.000907,0.532068,-0.473986,0.066096,-0.878048,-0.102826,0.104680,0.160152,-9.260788,28.365921,-8.707703,,,,,,,
1523522662.025377,-0.490736,-0.076149,-1.494971,-0.067017,0.209921,0.569169,-0.469909,0.076075,-0.879430,0.004425,-0.033900,0.097158,-10.085144,28.294861,-8.482788,,,,,,,
1523522662.055346,-0.480555,-0.092158,-1.486953,-0.616554,0.509229,0.358552,-0.460309,0.092028,-0.882976,-0.079516,-0.081972,0.042766,-9.400879,28.817444,-7.809570,,,,,,,
1523522662.085314,-0.465110,-0.127228,-1.499980,-1.538764,0.586535,-0.034327,-0.444896,0.126885,-0.886548,-0.116673,-0.157769,-0.107257,-8.727112,28.739349,-7.883911,,,,,,,
,,,,,,,,,,,,,,,,25.316130,51.455730,15.024288,2.450000,101.953125,1523522661.999098,
1523522662.115282,-0.461224,-0.164709,-1.528667,-1.540720,0.200210,-0.402613,-0.439021,0.163965,-0.883389,-0.284383,-0.238261,0.093212,-9.615067,29.494080,-7.137390,,,,,,,
1523522662.145250,-0.458169,-0.195233,-1.556833,-1.089348,0.266340,-0.295787,-0.433904,0.193995,-0.879826,-0.415446,-0.228602,0.075672,-9.910873,29.645874,-6.688110,,,,,,,
1523522662.175219,-0.456051,-0.207932,-1.566864,-0.075434,0.043952,-0.006050,-0.430919,0.206437,-0.878460,-0.213886,-0.086351,0.125591,-9.085144,29.717148,-6.687988,,,,,,,
1523522662.205187,-0.453525,-0.195760,-1.556862,0.848020,0.008417,0.186476,-0.429768,0.194512,-0.881739,-0.091334,0.135932,0.087580,-9.691727,29.194656,-6.911255,,,,,,,
1523522662.235155,-0.450849,-0.171115,-1.538513,0.983666,-0.023527,0.148247,-0.429366,0.170281,-0.886932,-0.032212,0.216437,-0.089829,-9.392334,29.268082,-7.136353,,,,,,,
1523522662.265123,-0.448271,-0.150943,-1.526475,0.636609,0.014589,-0.011880,-0.428480,0.150371,-0.890951,-0.065004,0.106801,-0.136424,-9.024857,28.965683,-7.884949,,,,,,,
1523522662.295092,-0.445755,-0.135458,-1.525067,0.419314,0.018307,-0.312530,-0.427190,0.135044,-0.894020,-0.186793,0.009960,-0.216667,-9.253876,28.516785,-7.808289,,,,,,,
1523522662.325060,-0.462017,-0.115376,-1.529020,0.714169,-0.791307,-0.430831,-0.442791,0.115120,-0.889204,-0.189075,-0.087151,0.017362,-9.626923,28.893173,-8.109924,,,,,,,
1523522662.355028,-0.488916,-0.083679,-1.524687,1.172653,-0.985842,-0.277931,-0.468026,0.083581,-0.879753,-0.144905,-0.012765,0.228615,-9.407333,28.666656,-8.633972,,,,,,,
1523522662.384996,-0.514551,-0.051701,-1.511544,1.067053,-0.683415,-0.032162,-0.491486,0.051678,-0.869351,-0.118590,0.044330,0.294323,-10.241135,27.920181,-8.856384,,,,,,,
1523522662.414965,-0.524301,-0.031407,-1.499156,0.563408,-0.062069,0.036088,-0.500362,0.031402,-0.865247,-0.096898,0.026932,0.192929,-10.839462,27.998032,-8.707031,,,,,,,
1523522662.444933,-0.519914,-0.029612,-1.497767,-0.356277,0.035094,-0.006255,-0.496588,0.029608,-0.867481,-0.076791,-0.008871,0.062626,-10.167328,27.844772,-8.931030,,,,,,,
1523522662.474901,-0.516593,-0.051533,-1.512844,-1.127969,0.274253,-0.047551,-0.493265,0.051510,-0.868353,-0.114615,-0.090374,0.112768,-10.463272,28.071411,-8.632080,,,,,,,
1523522662.504869,-0.506783,-0.084834,-1.531241,-1.299820,0.426818,0.076839,-0.483621,0.084732,-0.871166,-0.194616,0.032165,0.095348,-10.608612,28.222580,-8.107727,,,,,,,
1523522662.534838,-0.491911,-0.122272,-1.546002,-1.319697,0.727407,0.255520,-0.468785,0.121967,-0.874851,-0.171214,0.061428,-0.029888,-9.852371,28.894104,-8.185059,,,,,,,
1523522662.564806,-0.468297,-0.147882,-1.548347,-0.288059,0.678392,0.365012,-0.446441,0.147344,-0.882599,-0.053651,0.066829,-0.212845,-10.070602,29.345459,-7.812012,,,,,,,
1523522662.594774,-0.455364,-0.148884,-1.536261,0.397754,0.443369,0.298638,-0.434924,0.148334,-0.888166,-0.056455,0.107098,-0.123462,-10.228104,28.820801,-8.184998,,,,,,,
1523522662.624743,-0.444271,-0.133671,-1.524427,0.760516,0.039709,-0.001159,-0.425966,0.133273,-0.894869,-0.007933,0.049023,-0.141691,-9.404037,28.816940,-8.334595,,,,,,,
1523522662.654711,-0.454643,-0.110048,-1.518570,0.757286,-0.506731,-0.264868,-0.436486,0.109826,-0.892983,0.019844,0.039969,0.132027,-10.529755,28.971634,-8.710754,,,,,,,
1523522662.684679,-0.468204,-0.090733,-1.518977,0.382976,-0.404859,-0.263123,-0.449428,0.090608,-0.888709,0.049358,-0.025545,0.199622,-10.309265,28.520645,-8.708862,,,,,,,
1523522662.714647,-0.475563,-0.088710,-1.520978,-0.188268,-0.050754,0.052568,-0.456039,0.088594,-0.885539,-0.025437,-0.011827,0.234187,-11.131210,28.599716,-8.334534,,,,,,,
1523522662.744616,-0.472015,-0.102302,-1.520816,-0.535633,0.176701,0.319526,-0.452304,0.102123,-0.885997,-0.076840,0.026737,0.039241,-10.979416,28.823944,-8.410400,,,,,,,
1523522662.774584,-0.466653,-0.124923,-1.517542,-0.635102,0.123539,0.511298,-0.446394,0.124598,-0.886120,-0.039507,-0.024470,-0.141713,-9.625122,29.342712,-8.561768,,,,,,,
1523522662.804552,-0.461209,-0.147952,-1.510145,-0.548739,0.176000,0.577365,-0.440169,0.147413,-0.885732,-0.062593,-0.042752,-0.346858,-9.926041,29.119293,-8.336060,,,,,,,
1523522662.834520,-0.460100,-0.167155,-1.502247,-0.304129,-0.226206,0.414933,-0.437849,0.166378,-0.883520,-0.024645,-0.080211,-0.399638,-10.145004,29.271027,-7.586731,,,,,,,
1523522662.864489,-0.475379,-0.168384,-1.496301,0.214785,-0.614021,0.074737,-0.451202,0.167589,-0.876545,-0.072037,-0.127855,-0.093640,-10.519989,29.272705,-7.586975,,,,,,,
