timestamp(unix),attitude_roll(radians),attitude_pitch(radians),attitude_yaw(radians),rotation_rate_x(radians/s),rotation_rate_y(radians/s),rotation_rate_z(radians/s),gravity_x(G),gravity_y(G),gravity_z(G),user_acc_x(G),user_acc_y(G),user_acc_z(G),magnetic_field_x(microteslas),magnetic_field_y(microteslas),magnetic_field_z(microteslas),latitude(degree),longitude(degree),altitude(meter),speed(m/s),course(degree),timestamp(unix),User Mark
1523524684.655786,-0.653253,-0.054514,0.891834,0.166510,-0.075651,-0.016353,-0.606869,0.054487,-0.792930,0.100949,-0.004652,0.049598,2.876770,-17.335918,4.373291,,,,,,,
1523524684.685754,-0.646366,-0.052590,0.893324,-0.043441,0.286943,0.021494,-0.601456,0.052566,-0.797173,0.046387,-0.024383,-0.128318,3.918030,-17.716427,3.550293,,,,,,,
,,,,,,,,,,,,,,,,25.314253,51.436308,9.438232,10.010000,338.554688,1523524683.996456,
1523524684.715722,-0.637331,-0.055977,0.889249,-0.206765,0.203939,-0.055259,-0.594120,0.055947,-0.802427,0.098423,-0.070092,-0.223284,4.195694,-18.694775,1.454407,,,,,,,
1523524684.745691,-0.639910,-0.057859,0.884674,-0.043603,-0.143521,-0.114460,-0.596123,0.057827,-0.800807,0.112038,-0.030895,-0.046484,4.560928,-18.997540,0.330811,,,,,,,
1523524684.775659,-0.642854,-0.054507,0.884027,0.067578,-0.082360,-0.087796,-0.598591,0.054480,-0.799199,0.083363,0.039468,-0.034038,4.848450,-19.300411,-1.242859,,,,,,,
1523524684.805627,-0.641188,-0.052468,0.883748,0.009384,-0.097703,0.000608,-0.597324,0.052444,-0.800282,0.097766,0.000733,-0.090252,3.863724,-19.372478,-2.743103,,,,,,,
1523524684.835595,-0.641581,-0.052550,0.884084,0.019987,-0.059804,0.047461,-0.597636,0.052526,-0.800044,0.093302,-0.015569,-0.097585,3.637497,-18.772655,-3.945618,,,,,,,
1523524684.865564,-0.641550,-0.053537,0.885270,-0.011787,0.018760,0.067610,-0.597580,0.053512,-0.800020,0.053299,-0.018371,-0.129606,3.564423,-17.948391,-4.998901,,,,,,,
1523524684.895532,-0.641704,-0.054209,0.885433,-0.006439,-0.071013,-0.012213,-0.597681,0.054182,-0.799899,0.104655,-0.080168,-0.092206,2.064606,-17.342617,-5.977051,,,,,,,
1523524684.925500,-0.646869,-0.052977,0.886773,0.074697,-0.282830,0.010435,-0.601844,0.052952,-0.796855,0.144447,-0.021245,0.058604,1.914017,-16.817913,-6.954285,,,,,,,
1523524684.955469,-0.650444,-0.051554,0.889744,0.093450,-0.069805,0.081636,-0.604735,0.051531,-0.794757,0.087218,0.000883,0.062136,1.544250,-15.841991,-7.708313,,,,,,,
1523524684.985437,-0.644669,-0.051162,0.891721,-0.025371,0.262494,0.016206,-0.600147,0.051140,-0.798252,0.031986,-0.068718,-0.098599,-0.176956,-15.459255,-7.710693,,,,,,,
1523524685.015405,-0.638472,-0.053178,0.890088,-0.138182,0.068551,-0.016717,-0.595126,0.053153,-0.801872,0.027316,-0.046272,-0.135033,-0.402267,-15.083920,-8.387329,,,,,,,
1523524685.045404,-0.638756,-0.055680,0.887036,-0.086402,-0.033671,-0.003795,-0.595272,0.055651,-0.801593,0.031674,-0.003558,-0.077588,-1.520187,-14.328976,-8.465881,,,,,,,
,,,,,,,,,,,,,,,,25.314333,51.436267,9.076378,10.080000,339.257812,1523524684.996446,
1523524685.075372,-0.638455,-0.056778,0.886978,-0.027285,0.101917,0.036599,-0.594994,0.056747,-0.801723,-0.010429,-0.001785,-0.109044,-2.873550,-14.622952,-8.540344,,,,,,,
1523524685.105340,-0.630370,-0.058533,0.887431,-0.093490,0.345331,0.046972,-0.588434,0.058500,-0.806425,-0.004401,-0.049955,-0.265154,-3.470093,-14.320202,-8.466919,,,,,,,
1523524685.135309,-0.620209,-0.065333,0.884214,-0.384187,0.272815,0.037228,-0.579965,0.065287,-0.812020,-0.015021,-0.035014,-0.395912,-5.714142,-14.309124,-7.493042,,,,,,,
1523524685.165277,-0.613222,-0.077607,0.874826,-0.557620,0.277201,-0.072651,-0.573772,0.077529,-0.815336,-0.042683,0.012849,-0.474764,-6.983841,-14.003033,-7.119934,,,,,,,
1523524685.195245,-0.609214,-0.085634,0.863235,-0.310584,-0.014776,-0.195767,-0.570125,0.085529,-0.817092,0.123302,0.017056,-0.451172,-8.328354,-14.445339,-5.468872,,,,,,,
1523524685.225213,-0.614574,-0.085186,0.855250,-0.031331,-0.132295,-0.205028,-0.574519,0.085083,-0.814056,0.118754,0.014557,-0.279099,-8.169662,-14.294857,-4.269409,,,,,,,
1523524685.255182,-0.618956,-0.081902,0.852929,0.055666,-0.118454,-0.087772,-0.578240,0.081811,-0.811754,0.075112,-0.002953,-0.212020,-8.617203,-15.265804,-2.240723,,,,,,,
1523524685.285150,-0.622778,-0.080872,0.852579,-0.013632,-0.216730,0.011364,-0.581387,0.080784,-0.809606,0.085934,-0.051411,-0.137828,-8.465240,-15.565670,-1.414429,,,,,,,
1523524685.315118,-0.632426,-0.082901,0.853175,-0.023288,-0.379819,0.086116,-0.589073,0.082806,-0.803825,0.095482,-0.042050,-0.022789,-8.085739,-15.791241,-0.288330,,,,,,,
1523524685.345097,-0.644463,-0.082147,0.857808,0.243486,-0.394389,0.100176,-0.598742,0.082055,-0.796726,0.122455,-0.033074,0.085941,-8.158920,-16.015240,0.387512,,,,,,,
1523524685.375066,-0.657132,-0.073492,0.868365,0.562060,-0.527042,0.113338,-0.609199,0.073426,-0.789610,0.157081,-0.031571,0.210630,-7.183640,-16.393963,1.064514,,,,,,,
1523524685.405034,-0.673035,-0.061917,0.883716,0.615719,-0.586307,0.212525,-0.622166,0.061877,-0.780434,0.130162,0.028791,0.295861,-6.960892,-16.619961,1.065491,,,,,,,
1523524685.435002,-0.684643,-0.055227,0.896707,0.314807,-0.132531,0.161764,-0.631432,0.055198,-0.773463,0.035362,0.010384,0.306696,-7.709213,-16.766064,1.590759,,,,,,,
1523524685.464970,-0.680053,-0.057617,0.899435,-0.290645,0.399106,0.024399,-0.627790,0.057585,-0.776249,-0.142276,-0.005507,0.244373,-7.409988,-16.393169,0.839417,,,,,,,
1523524685.494939,-0.661070,-0.071604,0.887873,-0.781319,0.650593,-0.052947,-0.612388,0.071543,-0.787312,-0.118859,-0.038614,0.075535,-6.347153,-15.422421,1.361023,,,,,,,
1523524685.524907,-0.644595,-0.085159,0.871717,-0.477204,0.464773,-0.180397,-0.598696,0.085056,-0.796446,0.044879,-0.021183,0.046309,-6.939514,-14.070736,0.380310,,,,,,,
1523524685.554875,-0.639837,-0.085650,0.864121,0.043297,0.106439,-0.181768,-0.594876,0.085546,-0.799251,0.126873,0.063289,0.184002,-6.563934,-14.147198,0.605835,,,,,,,
1523524685.584844,-0.632546,-0.077997,0.865288,0.293898,0.392030,-0.082779,-0.589402,0.077918,-0.804072,0.215272,0.054025,0.147746,-6.171997,-13.397396,2.178040,,,,,,,
1523524685.614812,-0.612628,-0.072176,0.866257,0.034440,0.840172,-0.102603,-0.573522,0.072113,-0.816009,0.182272,-0.018997,-0.005265,-5.936203,-13.172024,3.602234,,,,,,,
1523524685.644780,-0.588446,-0.075013,0.860444,-0.322549,0.714849,-0.136839,-0.553508,0.074943,-0.829464,0.095836,-0.069129,-0.155384,-4.866455,-12.050426,5.023254,,,,,,,
1523524685.674748,-0.579424,-0.080827,0.851055,-0.265975,-0.012027,-0.148854,-0.545754,0.080739,-0.834045,0.171563,-0.039296,0.029388,-2.911880,-12.133312,5.924622,,,,,,,
1523524685.704717,-0.586885,-0.080605,0.848275,0.115178,-0.327424,-0.009731,-0.551971,0.080517,-0.829966,0.176697,-0.009106,0.215036,-2.458878,-12.284603,6.675415,,,,,,,
1523524685.734685,-0.590285,-0.076611,0.853456,0.210308,0.097444,0.132695,-0.554965,0.076536,-0.828345,0.143893,-0.022383,0.119986,-1.785248,-12.961727,7.578491,,,,,,,
1523524685.764652,-0.578035,-0.078875,0.857364,-0.193124,0.616934,0.142524,-0.544680,0.078793,-0.834933,0.025637,-0.062558,-0.188764,-0.209671,-13.492840,8.556396,,,,,,,
1523524685.794621,-0.560518,-0.092867,0.851196,-0.683068,0.482072,0.001639,-0.529334,0.092733,-0.843330,-0.026849,-0.067449,-0.390496,0.619034,-13.121578,8.555298,,,,,,,
1523524685.824589,-0.559805,-0.108136,0.837999,-0.538110,-0.255550,-0.177579,-0.527919,0.107925,-0.842409,0.017833,-0.001892,-0.216277,1.065094,-13.199108,8.030823,,,,,,,
1523524685.854558,-0.576303,-0.108574,0.831153,0.159402,-0.631498,-0.153236,-0.541719,0.108361,-0.833545,0.040941,0.019065,0.033816,1.138290,-13.199734,7.730896,,,,,,,
1523524685.884526,-0.588311,-0.097216,0.836235,0.527545,-0.264723,-0.004167,-0.552336,0.097063,-0.827950,0.046233,0.008665,0.080254,1.137985,-13.274654,7.806213,,,,,,,
1523524685.914494,-0.591271,-0.084177,0.847170,0.563079,-0.064797,0.111805,-0.555442,0.084078,-0.827293,0.049019,-0.032762,0.089378,1.220490,-12.974285,8.555054,,,,,,,
1523524685.944463,-0.595573,-0.075107,0.859575,0.423019,-0.249918,0.193932,-0.559401,0.075036,-0.825493,0.024763,-0.024758,0.193199,0.399567,-12.969921,9.229614,,,,,,,
1523524685.974431,-0.607851,-0.067128,0.873499,0.538884,-0.566002,0.223104,-0.569818,0.067077,-0.819028,0.023477,0.024750,0.364606,0.323380,-13.044643,9.154846,,,,,,,
1523524686.004399,-0.621065,-0.054541,0.889800,0.720241,-0.414176,0.177266,-0.581035,0.054514,-0.812049,0.013363,0.031225,0.427863,0.621750,-13.570385,9.757141,,,,,,,
,,,,,,,,,,,,,,,,25.314412,51.436236,9.004045,9.580000,341.367188,1523524685.996436,
1523524686.034367,-0.627574,-0.040618,0.904344,0.556998,-0.048482,0.061696,-0.586698,0.040607,-0.808786,0.027951,0.039136,0.471689,-0.283600,-14.241085,9.984314,,,,,,,
1523524686.064336,-0.617184,-0.032294,0.911022,0.160831,0.585141,0.006422,-0.578439,0.032289,-0.815085,-0.078925,-0.047654,0.300284,0.689270,-14.545315,10.136047,,,,,,,
1523524686.094304,-0.596643,-0.037774,0.909560,-0.410107,0.523142,0.108360,-0.561467,0.037765,-0.826636,0.000432,-0.051360,0.063666,2.562363,-14.104794,9.085266,,,,,,,
1523524686.124303,-0.589661,-0.052120,0.902537,-0.529502,0.244472,0.037162,-0.555323,0.052096,-0.830000,-0.047200,-0.004794,0.024946,2.857269,-14.705959,9.237732,,,,,,,
1523524686.154271,-0.578174,-0.063775,0.895303,-0.435982,0.551775,-0.024885,-0.545384,0.063731,-0.835759,-0.160274,0.030202,-0.194972,3.752411,-14.336422,7.811768,,,,,,,
1523524686.184239,-0.548109,-0.075947,0.884998,-0.648564,1.341541,-0.137712,-0.519572,0.075874,-0.851051,-0.225652,-0.020760,-0.668420,5.180496,-13.893063,7.585693,,,,,,,
1523524686.214208,-0.510378,-0.089886,0.864735,-0.689611,1.041412,-0.510374,-0.486534,0.089765,-0.869037,-0.016990,-0.096647,-0.755444,5.174789,-13.968868,6.760986,,,,,,,
1523524686.244176,-0.508841,-0.091482,0.844527,-0.103949,-0.488051,-0.511606,-0.485128,0.091355,-0.869657,0.274328,-0.011032,-0.241289,5.402435,-13.070950,5.707520,,,,,,,
1523524686.274144,-0.529445,-0.081461,0.838828,0.347608,-0.568182,-0.156361,-0.503379,0.081371,-0.860225,0.335425,0.042454,0.041698,4.889740,-12.018337,6.003052,,,,,,,
1523524686.304111,-0.534975,-0.076998,0.845460,0.071846,0.078862,0.256209,-0.508309,0.076922,-0.857732,0.201027,-0.006182,-0.108119,3.096436,-12.158932,7.352661,,,,,,,
1523524686.334081,-0.526389,-0.089761,0.848392,-0.589027,0.304812,0.242701,-0.500391,0.089641,-0.861146,-0.029729,-0.073482,-0.441162,2.575058,-11.931362,7.576538,,,,,,,
1523524686.364037,-0.531750,-0.105933,0.839473,-0.462964,-0.612935,-0.154786,-0.504200,0.105735,-0.857089,-0.056225,-0.094581,-0.444257,3.030853,-11.258556,7.424072,,,,,,,
1523524686.394005,-0.564999,-0.102832,0.830484,0.212002,-1.274158,-0.353937,-0.532586,0.102650,-0.840127,-0.006431,0.003505,-0.049506,1.753372,-11.328106,7.123718,,,,,,,
1523524686.423973,-0.598569,-0.085252,0.832125,0.722014,-0.899473,-0.171735,-0.561414,0.085149,-0.823142,-0.009860,0.038692,0.159751,-0.046082,-11.993816,8.325500,,,,,,,
1523524686.453942,-0.614720,-0.066282,0.845575,0.698253,-0.370267,0.134594,-0.575463,0.066233,-0.815140,-0.138160,0.073415,0.073029,-0.117310,-12.067745,9.075745,,,,,,,
1523524686.483910,-0.616773,-0.061698,0.858484,0.110500,0.161439,0.285990,-0.577304,0.061659,-0.814197,-0.393994,0.044694,-0.104749,-1.603577,-11.909023,11.099365,,,,,,,
1523524686.513878,-0.607405,-0.065868,0.863971,0.045891,0.123195,0.154927,-0.569500,0.065821,-0.819351,-0.339847,-0.012827,-0.274781,-1.445496,-11.683758,12.073547,,,,,,,
1523524686.543846,-0.614723,-0.060367,0.868112,0.319905,-0.418098,-0.033983,-0.575681,0.060330,-0.815445,-0.158541,0.009250,-0.055390,-1.057327,-11.084316,13.271301,,,,,,,
1523524686.573815,-0.634246,-0.050597,0.874208,0.561101,-0.667350,-0.030375,-0.591812,0.050576,-0.804487,-0.037522,0.104225,0.297972,0.232956,-10.862942,15.446106,,,,,,,
1523524686.603783,-0.645071,-0.033906,0.885872,0.651167,-0.117124,-0.035113,-0.600909,0.033900,-0.798597,0.023135,0.110143,0.266447,1.284256,-11.092083,16.047546,,,,,,,
1523524686.633751,-0.637619,-0.020692,0.894031,0.374224,0.466075,-0.064671,-0.595156,0.020690,-0.803343,0.006457,0.020783,0.082518,4.660645,-11.406521,16.800476,,,,,,,
1523524686.663719,-0.621053,-0.015093,0.895421,0.116870,0.453982,-0.066983,-0.581825,0.015092,-0.813173,0.001137,-0.081590,-0.073179,6.083786,-11.637844,16.877136,,,,,,,
