timestamp(unix),attitude_roll(radians),attitude_pitch(radians),attitude_yaw(radians),rotation_rate_x(radians/s),rotation_rate_y(radians/s),rotation_rate_z(radians/s),gravity_x(G),gravity_y(G),gravity_z(G),user_acc_x(G),user_acc_y(G),user_acc_z(G),magnetic_field_x(microteslas),magnetic_field_y(microteslas),magnetic_field_z(microteslas),latitude(degree),longitude(degree),altitude(meter),speed(m/s),course(degree),timestamp(unix),User Mark
1523695084.993353,-0.620605,-0.070871,-1.509769,0.086508,0.273187,0.078476,-0.580065,0.070811,-0.811481,0.045519,-0.040706,-0.121503,4.984253,23.520283,13.639221,,,,,,,
,,,,,,,,,,,,,,,,25.300766,51.443631,11.684115,10.270000,60.117188,1523695083.994657,
1523695085.023321,-0.614377,-0.072216,-1.507633,-0.038214,0.085401,0.081762,-0.574944,0.072154,-0.814999,0.044076,-0.009333,-0.157337,4.156754,23.224079,13.714966,,,,,,,
1523695085.053288,-0.615559,-0.072752,-1.506107,0.050937,-0.089798,0.031922,-0.575885,0.072688,-0.814287,0.067768,-0.019099,-0.099440,4.531281,23.222324,13.640198,,,,,,,
1523695085.083255,-0.618065,-0.070111,-1.504930,0.096073,-0.106408,-0.039421,-0.578033,0.070054,-0.812995,0.078201,0.013336,-0.060937,4.982147,23.445057,13.414490,,,,,,,
1523695085.113223,-0.620692,-0.067445,-1.504373,0.075848,-0.079889,-0.026670,-0.580273,0.067394,-0.811623,0.067196,0.005803,0.002083,4.305237,23.298038,13.339722,,,,,,,
,,,,,,,,,,,,,,,,25.300757,51.443568,11.606921,4.830000,57.304688,1523695084.994642,
1523695085.143191,-0.619485,-0.065041,-1.503212,0.098867,0.072953,-0.009760,-0.579385,0.064995,-0.812452,0.036264,-0.000939,-0.016268,4.158997,23.224445,14.089966,,,,,,,
1523695085.173160,-0.617339,-0.062515,-1.502164,0.070010,0.036035,-0.037454,-0.577734,0.062475,-0.813825,-0.005671,-0.005636,-0.036105,4.006302,23.224674,13.639954,,,,,,,
1523695085.203128,-0.616262,-0.060838,-1.503594,-0.015159,0.010168,-0.106751,-0.576917,0.060800,-0.814531,-0.065173,0.004889,-0.021712,3.857651,23.450199,13.488953,,,,,,,
1523695085.233096,-0.617274,-0.059470,-1.508433,-0.085483,-0.058122,-0.193043,-0.577788,0.059435,-0.814014,-0.091782,0.011579,-0.005917,3.707214,23.226170,13.789734,,,,,,,
1523695085.263064,-0.619962,-0.058912,-1.516253,-0.163303,-0.077845,-0.232502,-0.579993,0.058878,-0.812485,-0.093819,0.005209,-0.007263,4.838303,23.970860,13.562378,,,,,,,
1523695085.293033,-0.622405,-0.059973,-1.524593,-0.188025,-0.044218,-0.170750,-0.581940,0.059937,-0.811014,-0.060440,-0.009644,0.009027,3.709763,23.526081,13.713562,,,,,,,
1523695085.323001,-0.622588,-0.061298,-1.529331,-0.064417,0.044942,-0.048216,-0.582041,0.061260,-0.810842,-0.040563,-0.018993,0.038687,3.336578,23.528065,14.013367,,,,,,,
1523695085.352969,-0.623382,-0.060730,-1.529227,0.055408,-0.070509,0.008458,-0.582705,0.060693,-0.810408,-0.029248,-0.028268,0.041853,3.713791,23.975986,13.636780,,,,,,,
1523695085.382937,-0.625641,-0.060866,-1.528158,-0.036575,-0.077913,0.035042,-0.584530,0.060828,-0.809083,-0.043904,-0.032111,0.015168,3.257217,23.452824,13.413635,,,,,,,
1523695085.412906,-0.627811,-0.064371,-1.530392,-0.192118,-0.059139,-0.011970,-0.586155,0.064326,-0.807635,-0.062740,-0.038814,-0.021619,2.881485,23.379520,13.413696,,,,,,,
1523695085.442874,-0.630460,-0.067722,-1.534791,-0.144978,-0.086493,-0.067318,-0.588162,0.067670,-0.805901,-0.056690,-0.025464,0.034966,3.479523,23.226749,13.339600,,,,,,,
1523695085.472842,-0.633653,-0.067089,-1.537296,0.023695,-0.094291,-0.073591,-0.590757,0.067038,-0.804053,-0.044939,-0.013480,0.056479,3.255280,23.302753,13.339172,,,,,,,
1523695085.502810,-0.636230,-0.064802,-1.537920,0.024762,-0.055242,-0.037392,-0.592917,0.064757,-0.802649,-0.041329,-0.022826,0.059927,4.225143,23.147785,12.740356,,,,,,,
1523695085.532779,-0.636528,-0.065173,-1.538814,-0.050780,0.051983,0.003996,-0.593142,0.065127,-0.802453,-0.034055,-0.032275,0.082284,3.702866,23.150593,13.190063,,,,,,,
1523695085.562747,-0.634404,-0.065770,-1.538949,-0.000431,0.099604,0.013578,-0.591413,0.065723,-0.803680,-0.027422,-0.063403,0.060180,3.925903,22.999516,13.115784,,,,,,,
1523695085.592716,-0.632738,-0.065568,-1.538482,0.010901,0.002906,0.009423,-0.590081,0.065521,-0.804675,-0.025321,-0.072296,0.023959,4.375732,23.072346,12.965698,,,,,,,
1523695085.622684,-0.634416,-0.066238,-1.538733,-0.071434,-0.026638,0.008329,-0.591405,0.066190,-0.803647,-0.043574,-0.059293,0.019300,4.227539,22.848682,13.641541,,,,,,,
1523695085.652653,-0.633659,-0.068282,-1.541130,-0.116575,0.095993,-0.035524,-0.590715,0.068229,-0.803985,-0.069381,-0.006354,-0.007630,3.324280,22.702442,13.341614,,,,,,,
1523695085.682621,-0.628495,-0.069372,-1.543132,-0.050154,0.189051,0.003865,-0.586511,0.069316,-0.806964,-0.061621,0.003041,-0.084119,3.326828,22.777729,13.641357,,,,,,,
1523695085.712588,-0.626522,-0.070827,-1.541388,-0.014352,-0.000076,0.140468,-0.584858,0.070768,-0.808037,-0.040905,0.002413,-0.113777,3.481186,23.077259,13.865234,,,,,,,
1523695085.742558,-0.627044,-0.077461,-1.537738,-0.198772,-0.013315,0.276724,-0.584992,0.077383,-0.807333,-0.060119,0.038873,-0.140161,3.479370,22.852345,13.941162,,,,,,,
1523695085.772555,-0.625536,-0.091295,-1.535915,-0.423912,0.099381,0.347835,-0.583091,0.091168,-0.807269,-0.059366,0.036151,-0.179089,4.237900,23.299610,14.614746,,,,,,,
1523695085.802524,-0.621540,-0.109591,-1.535335,-0.479510,0.113148,0.374417,-0.578792,0.109372,-0.808101,-0.039342,-0.026273,-0.192067,3.636429,22.927692,14.990906,,,,,,,
1523695085.832492,-0.618914,-0.123107,-1.534120,-0.198081,0.065751,0.213784,-0.575758,0.122797,-0.808340,-0.044344,-0.068308,-0.116113,4.234909,22.774998,14.991821,,,,,,,
1523695085.862460,-0.618624,-0.122384,-1.530178,0.292337,-0.090234,0.009720,-0.575575,0.122079,-0.808579,-0.013415,-0.120293,-0.038238,4.460190,22.848911,14.916626,,,,,,,
1523695085.892428,-0.623609,-0.108464,-1.524645,0.600609,-0.193468,-0.228623,-0.580534,0.108251,-0.807002,0.018644,-0.062124,0.098094,3.555267,22.852161,14.091125,,,,,,,
1523695085.922397,-0.626795,-0.083698,-1.521578,0.805552,-0.064438,-0.517361,-0.584496,0.083600,-0.807072,0.004448,-0.002210,0.186650,2.499176,22.556385,13.566833,,,,,,,
1523695085.952365,-0.624595,-0.050594,-1.525512,0.760313,0.241839,-0.992918,-0.584018,0.050573,-0.810158,-0.187711,0.066600,0.246193,2.122223,22.857258,12.740417,,,,,,,
1523695085.982333,-0.610082,-0.013637,-1.541797,0.685114,0.525225,-1.069981,-0.572879,0.013636,-0.819521,0.110949,0.068090,-0.010878,1.221054,22.786228,12.665283,,,,,,,
1523695086.012301,-0.606991,0.013708,-1.554551,0.354403,-0.201067,-0.725331,-0.570342,-0.013707,-0.821287,0.017577,0.385061,0.079130,1.367889,22.785053,12.140381,,,,,,,
1523695086.042243,-0.620918,0.026915,-1.566830,-0.076882,-0.554824,-0.431224,-0.581569,-0.026912,-0.813046,0.053797,0.117763,0.291333,0.991852,22.861439,11.839844,,,,,,,
,,,,,,,,,,,,,,,,25.300789,51.443599,11.606921,4.570000,56.601562,1523695085.994628,
1523695086.072211,-0.633409,0.023854,-1.577249,-0.373091,-0.304405,-0.124819,-0.591725,-0.023851,-0.805781,0.116993,-0.003996,0.288203,0.686035,22.412601,11.616516,,,,,,,
1523695086.102179,-0.639179,0.018871,-1.584794,-0.210848,-0.071071,-0.119606,-0.596427,-0.018870,-0.802439,0.070777,-0.029653,0.299433,0.612381,22.413151,11.841431,,,,,,,
1523695086.132147,-0.636713,0.017451,-1.591392,-0.138252,0.130833,-0.147453,-0.594462,-0.017450,-0.803928,0.028971,0.010339,0.233936,1.291092,23.009724,11.464417,,,,,,,
1523695086.162116,-0.626932,0.017188,-1.596279,-0.083772,0.418434,-0.112553,-0.586574,-0.017188,-0.809707,-0.058568,0.036841,0.098968,0.839478,22.487354,12.066284,,,,,,,
1523695086.192084,-0.618304,0.019196,-1.598233,0.114738,0.199860,-0.079143,-0.579545,-0.019195,-0.814708,-0.072829,-0.103120,0.016018,1.292297,22.635548,12.290894,,,,,,,
1523695086.222052,-0.613987,0.024538,-1.596604,0.176990,0.075139,-0.044875,-0.575955,-0.024535,-0.817107,-0.081256,-0.220887,-0.046204,1.514587,22.858723,11.465088,,,,,,,
1523695086.252020,-0.612813,0.026707,-1.594106,0.057845,0.089382,0.088211,-0.574963,-0.026704,-0.817738,-0.076190,-0.214416,-0.029751,1.515045,22.858784,11.540100,,,,,,,
1523695086.281989,-0.606891,0.022761,-1.589740,-0.075898,0.256209,0.287199,-0.570166,-0.022759,-0.821209,-0.111444,-0.251365,-0.051091,1.513840,22.783726,11.465393,,,,,,,
1523695086.311957,-0.596033,0.013916,-1.583173,-0.126984,0.389635,0.371204,-0.561307,-0.013915,-0.827485,-0.057132,-0.266282,-0.154067,2.343903,23.155201,11.689392,,,,,,,
1523695086.341925,-0.588141,0.004923,-1.575937,-0.084194,0.117831,0.324624,-0.554806,-0.004923,-0.831960,-0.047229,-0.196538,-0.197657,1.894531,22.857838,12.290283,,,,,,,
1523695086.371894,-0.588338,0.003256,-1.570960,0.156710,-0.038199,0.061781,-0.554974,-0.003256,-0.831856,-0.065265,-0.099604,-0.198753,1.820877,23.083012,12.139404,,,,,,,
1523695086.401862,-0.588562,0.009532,-1.568234,0.217597,0.031775,-0.088485,-0.555138,-0.009532,-0.831699,-0.087700,-0.011007,-0.204358,2.725479,23.454090,12.288330,,,,,,,
1523695086.431830,-0.585645,0.010713,-1.568478,-0.150112,0.084915,0.040119,-0.552703,-0.010713,-0.833304,-0.101212,0.084504,-0.200937,1.076004,23.461582,12.362488,,,,,,,
1523695086.461798,-0.586493,-0.001650,-1.571433,-0.544798,-0.116105,0.207312,-0.553440,0.001650,-0.832882,-0.108608,0.170560,-0.148960,1.750534,23.233860,12.663757,,,,,,,
1523695086.491767,-0.592204,-0.021379,-1.576530,-0.684201,-0.266565,0.194578,-0.558061,0.021378,-0.829519,-0.138747,0.212021,-0.102579,1.154327,23.386906,13.037842,,,,,,,
1523695086.521735,-0.602016,-0.039784,-1.586340,-0.691736,-0.273598,-0.008954,-0.565855,0.039773,-0.823540,-0.151156,0.264350,0.010002,1.527374,23.010532,13.339478,,,,,,,
1523695086.551703,-0.605725,-0.054760,-1.598641,-0.581382,-0.004723,-0.053890,-0.568502,0.054733,-0.820853,-0.130091,0.266022,0.005530,3.028046,22.854160,13.715881,,,,,,,
1523695086.581671,-0.601441,-0.066532,-1.605747,-0.334343,0.277199,0.113303,-0.564577,0.066483,-0.822693,-0.132185,0.146164,0.035477,2.726562,22.480885,14.092224,,,,,,,
1523695086.611640,-0.592981,-0.072244,-1.603752,-0.004035,0.219515,0.191388,-0.557376,0.072182,-0.827112,-0.041822,0.009346,0.043390,2.126450,22.333820,14.317566,,,,,,,
1523695086.641608,-0.586408,-0.073385,-1.597629,0.117831,0.215169,0.160590,-0.551881,0.073319,-0.830688,0.016069,-0.036820,0.121216,2.799622,22.330479,14.017883,,,,,,,
1523695086.671576,-0.580310,-0.070720,-1.592644,0.220824,0.177556,0.032841,-0.546910,0.070661,-0.834199,0.044332,-0.061475,0.167893,3.550644,22.252399,14.318604,,,,,,,
1523695086.701544,-0.575142,-0.059892,-1.588115,0.495981,0.131434,-0.154445,-0.542977,0.059857,-0.837607,0.081398,-0.073101,0.131186,2.273010,22.257710,13.867920,,,,,,,
1523695086.731513,-0.576003,-0.042314,-1.585011,0.572019,-0.179340,-0.262758,-0.544186,0.042302,-0.837892,0.156079,-0.002843,0.213503,2.871002,22.329563,13.417908,,,,,,,
1523695086.761481,-0.586545,-0.024586,-1.583364,0.448994,-0.467015,-0.260430,-0.553317,0.024584,-0.832603,0.196017,0.068205,0.287162,2.715164,22.104664,12.818787,,,,,,,
1523695086.791449,-0.599460,-0.016036,-1.583434,0.054652,-0.332407,-0.072258,-0.564122,0.016035,-0.825531,0.181477,0.094042,0.240570,2.265198,22.106693,12.818542,,,,,,,
1523695086.821417,-0.606991,-0.022392,-1.584421,-0.345591,-0.218575,0.203296,-0.570253,0.022391,-0.821158,0.118089,0.038385,0.209373,2.791214,22.029621,13.119080,,,,,,,
1523695086.851416,-0.611838,-0.037082,-1.583348,-0.358829,-0.118777,0.371541,-0.573976,0.037074,-0.818027,0.051866,-0.007899,0.230579,3.088226,21.503666,13.496338,,,,,,,
1523695086.881385,-0.609993,-0.050233,-1.578407,-0.192058,0.157141,0.363927,-0.572137,0.050212,-0.818614,-0.017890,0.013707,0.091655,2.567001,21.656391,13.870483,,,,,,,
1523695086.911353,-0.604728,-0.057619,-1.572892,-0.032535,0.138316,0.263908,-0.567593,0.057587,-0.821288,-0.096973,0.029052,-0.164689,2.643051,21.581348,14.170776,,,,,,,
1523695086.941321,-0.599201,-0.059838,-1.564211,0.231042,0.159673,0.307764,-0.562971,0.059802,-0.824305,-0.125124,-0.034717,-0.329275,3.249298,22.253529,14.093384,,,,,,,
1523695086.971289,-0.599255,-0.055395,-1.548825,0.498483,-0.143114,0.356219,-0.563160,0.055366,-0.824486,-0.090313,-0.134071,-0.189384,2.863525,21.579594,13.420898,,,,,,,
1523695087.001258,-0.600237,-0.051508,-1.531208,0.327050,0.069171,0.450710,-0.564087,0.051485,-0.824104,-0.073181,-0.228121,-0.106042,2.789124,21.729786,13.270325,,,,,,,
1523695087.031226,-0.590858,-0.056491,-1.517616,-0.012319,0.348385,0.456563,-0.556183,0.056461,-0.829135,-0.044663,-0.275302,-0.149228,3.536102,21.651051,12.895996,,,,,,,
1523695087.061204,-0.583438,-0.065913,-1.507204,-0.078238,0.151000,0.440741,-0.549698,0.065865,-0.832758,-0.023651,-0.268853,-0.129660,3.158264,21.502522,12.671387,,,,,,,
,,,,,,,,,,,,,,,,25.300828,51.443655,11.637873,3.690000,58.710938,1523695086.994613,
1523695087.091172,-0.583192,-0.071847,-1.500212,0.037020,-0.157772,0.184348,-0.549268,0.071785,-0.832552,0.101270,-0.166359,-0.156996,4.430954,21.496418,12.296997,,,,,,,
1523695087.121141,-0.589820,-0.068747,-1.496525,0.199048,-0.216229,-0.022189,-0.554895,0.068693,-0.829075,0.070734,-0.062956,-0.109311,3.979935,21.348530,12.372375,,,,,,,
1523695087.151109,-0.591670,-0.064198,-1.494533,0.128471,0.026047,0.003085,-0.556597,0.064154,-0.828297,0.012865,0.019068,-0.056911,3.454193,21.500523,11.996521,,,,,,,
1523695087.181077,-0.587698,-0.063683,-1.489802,0.081074,0.185098,0.220256,-0.553321,0.063640,-0.830529,0.036521,0.053014,-0.084648,4.879578,21.718800,11.696411,,,,,,,
1523695087.211046,-0.582379,-0.068917,-1.480966,-0.052765,0.079976,0.407798,-0.548704,0.068862,-0.833171,0.047957,0.067032,-0.134008,5.178818,21.193211,12.448608,,,,,,,
1523695087.241014,-0.584572,-0.079189,-1.472058,-0.158751,-0.198275,0.425041,-0.550111,0.079106,-0.831331,0.083604,0.070797,-0.095640,5.330627,21.417454,12.372803,,,,,,,
1523695087.270983,-0.588648,-0.090549,-1.465970,-0.209056,-0.093401,0.336465,-0.552960,0.090425,-0.828281,0.102170,0.113798,-0.049679,6.678467,21.111530,12.524719,,,,,,,
1523695087.300951,-0.586768,-0.099360,-1.461032,-0.091531,0.099022,0.282015,-0.550940,0.099197,-0.828624,0.098883,0.165269,-0.093480,6.154709,20.964344,12.974976,,,,,,,
1523695087.330918,-0.581364,-0.103846,-1.453936,0.092470,0.188863,0.287377,-0.546204,0.103659,-0.831209,0.117005,0.106820,-0.083647,6.305756,20.664341,13.651306,,,,,,,
1523695087.360888,-0.572148,-0.106715,-1.444140,0.029914,0.340597,0.338338,-0.538357,0.106513,-0.835954,0.168850,0.082162,-0.181334,7.055862,20.586124,13.802002,,,,,,,
1523695087.390855,-0.555981,-0.117659,-1.438240,-0.320178,0.616602,0.350581,-0.524126,0.117388,-0.843507,0.123186,0.162779,-0.438460,5.779739,20.292164,14.102478,,,,,,,
1523695087.420823,-0.541310,-0.123756,-1.434752,0.128889,0.183991,0.058330,-0.511316,0.123441,-0.850477,0.080622,0.205081,-0.644961,6.159088,20.366047,14.702454,,,,,,,
