timestamp(unix),attitude_roll(radians),attitude_pitch(radians),attitude_yaw(radians),rotation_rate_x(radians/s),rotation_rate_y(radians/s),rotation_rate_z(radians/s),gravity_x(G),gravity_y(G),gravity_z(G),user_acc_x(G),user_acc_y(G),user_acc_z(G),magnetic_field_x(microteslas),magnetic_field_y(microteslas),magnetic_field_z(microteslas),latitude(degree),longitude(degree),altitude(meter),speed(m/s),course(degree),timestamp(unix),User Mark
,,,,,,,,,,,,,,,,25.313209,51.448671,14.585796,4.800000,335.742188,1522314537.998745,1
1522314538.655030,-0.325905,0.059204,1.557929,0.051918,0.004219,-0.046648,-0.319606,-0.059169,-0.945701,-0.033086,0.047100,0.014091,32.248917,9.806999,-0.740051,,,,,,,1
1522314538.684998,-0.325060,0.061893,1.557323,0.088343,0.035988,-0.043459,-0.318754,-0.061853,-0.945817,-0.055788,0.062677,-0.044555,34.557663,8.895424,-1.935303,,,,,,,1
1522314538.714967,-0.325331,0.062341,1.556410,-0.050915,-0.032936,-0.014724,-0.319001,-0.062300,-0.945704,-0.045699,0.029372,-0.036885,34.919449,8.292595,-3.132629,,,,,,,1
1522314538.744935,-0.324491,0.058868,1.556244,-0.112799,0.041218,0.040559,-0.318274,-0.058834,-0.946171,-0.009408,0.072765,0.018330,36.316025,7.158470,-5.977478,,,,,,,1
1522314538.774903,-0.324631,0.056344,1.556561,-0.056253,0.011452,0.022516,-0.318453,-0.056314,-0.946264,0.032076,0.063547,-0.000315,36.607910,6.931190,-6.951355,,,,,,,1
1522314538.804858,-0.323829,0.053999,1.555782,-0.049617,0.007479,-0.022213,-0.317735,-0.053972,-0.946642,0.000535,0.058367,-0.005064,37.033585,6.026711,-9.497559,,,,,,,1
1522314538.834827,-0.323542,0.054902,1.554643,0.047958,0.056422,-0.062696,-0.317448,-0.054875,-0.946687,-0.037396,0.051808,-0.054442,36.121490,5.354927,-10.395325,,,,,,,1
1522314538.864795,-0.321834,0.055108,1.552930,-0.024857,0.022517,-0.050994,-0.315826,-0.055081,-0.947217,-0.038483,0.031521,0.007184,36.105881,4.828270,-12.118225,,,,,,,1
1522314538.894763,-0.321061,0.053840,1.552043,-0.020911,0.013626,0.003359,-0.315116,-0.053814,-0.947526,-0.031060,0.036358,-0.006224,36.250748,4.901634,-13.093445,,,,,,,1
1522314538.924731,-0.321201,0.054438,1.552907,0.047283,0.015372,0.032183,-0.315239,-0.054411,-0.947451,0.017876,0.035124,-0.005933,36.239182,5.049522,-15.269043,,,,,,,1
1522314538.954700,-0.320523,0.053127,1.553620,-0.054114,0.010372,0.022527,-0.314619,-0.053102,-0.947732,0.032667,0.059755,0.006768,35.704453,4.975426,-16.769043,,,,,,,1
1522314538.984668,-0.321751,0.052511,1.553318,0.001524,-0.005453,-0.013642,-0.315792,-0.052487,-0.947375,0.037869,0.068325,-0.062711,36.299606,5.346321,-18.195190,,,,,,,1
1522314539.014636,-0.321205,0.051491,1.552188,-0.061298,0.006564,-0.037148,-0.315292,-0.051468,-0.947598,-0.016038,0.080063,-0.050861,36.370499,6.693077,-21.125549,,,,,,,1
1522314539.044605,-0.321312,0.048878,1.549962,-0.085857,-0.008188,-0.047798,-0.315435,-0.048859,-0.947689,-0.015773,0.058579,-0.002812,35.771515,7.968819,-23.080933,,,,,,,1
,,,,,,,,,,,,,,,,25.313275,51.448631,14.830444,6.460000,333.632812,1522314538.998734,1
1522314539.074573,-0.321450,0.048143,1.548911,0.033445,-0.036300,-0.019983,-0.315577,-0.048124,-0.947679,-0.011816,0.042234,-0.004210,35.773651,10.215416,-26.464966,,,,,,,1
1522314539.104541,-0.322321,0.049208,1.549040,0.046337,-0.008764,-0.011477,-0.316386,-0.049188,-0.947354,-0.025686,0.029367,-0.015017,34.118317,10.895836,-28.493530,,,,,,,1
1522314539.134509,-0.323059,0.050266,1.549285,0.051540,-0.027973,-0.001863,-0.317068,-0.050245,-0.947071,-0.014627,0.009321,-0.031124,32.093460,12.851723,-31.727356,,,,,,,1
1522314539.164478,-0.323286,0.049805,1.549567,-0.069133,-0.013977,0.015081,-0.317290,-0.049785,-0.947021,-0.032624,0.018230,-0.003358,31.647476,14.426765,-33.683838,,,,,,,1
1522314539.194446,-0.324371,0.044734,1.548615,-0.181445,-0.058333,0.016106,-0.318393,-0.044719,-0.946903,-0.024014,0.008555,0.013706,27.817017,15.865700,-36.991516,,,,,,,1
1522314539.224414,-0.325518,0.042200,1.548362,-0.027465,-0.010868,0.011910,-0.319515,-0.042188,-0.946642,-0.011571,0.026639,-0.004530,25.195526,17.076057,-38.422668,,,,,,,1
1522314539.254382,-0.325600,0.040426,1.547744,-0.094569,0.007470,-0.003076,-0.319616,-0.040415,-0.946685,-0.014658,0.037775,0.031447,20.323074,18.820503,-40.907104,,,,,,,1
1522314539.284351,-0.326042,0.036863,1.546752,-0.096966,-0.017165,0.025715,-0.320079,-0.036855,-0.946674,-0.014531,0.064794,0.039157,18.079742,19.805077,-41.437134,,,,,,,1
1522314539.314319,-0.326990,0.035910,1.547871,0.048140,-0.003888,0.053500,-0.320987,-0.035902,-0.946403,-0.000440,0.085844,-0.027337,15.159805,20.043663,-40.989624,,,,,,,1
1522314539.344287,-0.326456,0.037174,1.549362,0.046361,0.031424,0.017244,-0.320466,-0.037165,-0.946531,0.002351,0.060679,-0.060855,10.222916,20.592140,-39.719238,,,,,,,1
1522314539.374255,-0.325053,0.035854,1.549267,-0.095340,0.072317,-0.005281,-0.319154,-0.035846,-0.947025,0.027497,0.062442,-0.039349,7.531601,20.605675,-38.295654,,,,,,,1
1522314539.404224,-0.322938,0.030097,1.547054,-0.230980,0.055672,-0.009620,-0.317210,-0.030093,-0.947878,0.022303,0.049258,0.072283,5.520233,19.269234,-33.791321,,,,,,,1
1522314539.434192,-0.322321,0.025988,1.545934,0.029141,-0.016277,0.004504,-0.316662,-0.025985,-0.948183,0.062252,0.037109,0.046266,6.278046,18.743004,-31.613831,,,,,,,1
1522314539.464160,-0.320581,0.031465,1.547630,0.229410,0.102338,-0.010381,-0.314962,-0.031460,-0.948583,0.080374,0.007351,-0.041347,7.630035,16.640755,-27.779724,,,,,,,1
1522314539.494128,-0.317414,0.033909,1.547972,-0.010770,0.088228,-0.032930,-0.311931,-0.033902,-0.949500,0.088192,0.005063,-0.013391,10.098236,15.505394,-27.023987,,,,,,,1
1522314539.524097,-0.315585,0.031804,1.546191,-0.094316,0.023645,-0.037187,-0.310215,-0.031799,-0.950134,0.098637,0.026275,-0.015198,14.055878,12.864098,-25.511414,,,,,,,1
1522314539.554065,-0.315153,0.029471,1.544206,-0.098694,-0.000773,-0.038235,-0.309827,-0.029466,-0.950336,0.105985,0.043428,-0.018597,16.293213,11.728813,-25.730713,,,,,,,1
1522314539.584033,-0.314037,0.026902,1.541563,-0.088962,0.010993,-0.052094,-0.308789,-0.026899,-0.950750,0.133359,0.058134,0.008093,20.316666,10.059074,-27.372070,,,,,,,1
1522314539.614002,-0.312884,0.028205,1.540599,0.132051,0.015715,-0.047665,-0.307681,-0.028201,-0.951072,0.126849,0.051806,-0.094308,21.727829,9.077049,-28.042419,,,,,,,1
1522314539.643970,-0.310918,0.032960,1.541094,0.152472,0.062326,-0.033848,-0.305766,-0.032954,-0.951536,0.096721,0.060435,-0.108538,22.542023,8.173088,-28.338379,,,,,,,1
1522314539.673938,-0.308739,0.034692,1.540644,-0.006708,0.029851,-0.043524,-0.303674,-0.034685,-0.952144,0.086603,0.056734,-0.104283,24.162552,6.663399,-30.731567,,,,,,,1
1522314539.703906,-0.308137,0.030735,1.538452,-0.217378,-0.018672,-0.020188,-0.303141,-0.030730,-0.952450,0.091334,0.034423,-0.005253,24.905762,6.434303,-31.480286,,,,,,,1
1522314539.733875,-0.308936,0.025715,1.537322,-0.061996,-0.066181,0.033246,-0.303945,-0.025713,-0.952343,0.114247,0.006700,0.045650,24.726364,5.157356,-34.250244,,,,,,,1
1522314539.763843,-0.308206,0.029643,1.539728,0.285653,0.061632,0.018460,-0.303217,-0.029639,-0.952461,0.106439,-0.003961,-0.025780,24.188065,4.408791,-35.222534,,,,,,,1
1522314539.793811,-0.305957,0.036391,1.542073,0.169190,0.016370,-0.002885,-0.301007,-0.036383,-0.952928,0.114758,-0.017633,-0.060103,23.869339,3.658363,-37.094727,,,,,,,1
1522314539.823792,-0.305319,0.036835,1.541990,-0.091522,-0.039217,-0.013683,-0.300393,-0.036827,-0.953104,0.092157,0.021705,-0.067617,22.591949,3.963203,-37.996521,,,,,,,1
1522314539.853760,-0.306463,0.032451,1.540445,-0.162209,-0.065770,0.007612,-0.301529,-0.032445,-0.952905,0.078232,0.046300,-0.016975,20.108383,3.598564,-38.821289,,,,,,,1
1522314539.883729,-0.307478,0.030805,1.539979,-0.004055,-0.028995,0.011949,-0.302512,-0.030800,-0.952648,0.075904,0.055122,-0.017262,17.480637,3.460152,-39.047119,,,,,,,1
1522314539.913696,-0.308158,0.032222,1.541032,0.132431,-0.045422,0.032316,-0.303147,-0.032217,-0.952399,0.083771,0.032430,-0.099237,13.579926,2.579063,-37.695496,,,,,,,1
1522314539.943664,-0.307869,0.036569,1.543414,0.140261,0.027919,0.026919,-0.302826,-0.036561,-0.952344,0.079239,0.030747,-0.162982,11.784821,2.438179,-36.645874,,,,,,,1
1522314539.973633,-0.307134,0.034656,1.543246,-0.208971,-0.023089,0.001130,-0.302147,-0.034649,-0.952632,0.071006,0.020641,-0.092901,9.996979,1.175362,-32.516663,,,,,,,1
1522314540.003601,-0.307842,0.026290,1.540342,-0.289012,-0.019683,-0.002127,-0.302898,-0.026287,-0.952660,0.109996,0.015316,0.002725,9.708405,1.103691,-30.491516,,,,,,,1
1522314540.033569,-0.307598,0.020974,1.538677,-0.102021,0.029715,0.010741,-0.302703,-0.020972,-0.952854,0.111923,0.001472,0.027759,10.164703,0.428810,-28.313599,,,,,,,1
,,,,,,,,,,,,,,,,25.313329,51.448577,14.944100,7.040000,327.656250,1522314539.998723,1
1522314540.063537,-0.307248,0.021563,1.539022,0.099765,0.030253,0.013027,-0.302366,-0.021561,-0.952948,0.103010,-0.027526,-0.028421,13.552246,-0.707451,-24.332397,,,,,,,1
1522314540.093506,-0.305365,0.024699,1.540262,0.115841,0.041905,0.011964,-0.300550,-0.024697,-0.953446,0.085035,-0.059257,-0.047622,16.248108,-1.843376,-23.126465,,,,,,,1
1522314540.123474,-0.302990,0.024301,1.540738,-0.110688,-0.002153,0.009714,-0.298287,-0.024298,-0.954167,0.059121,-0.023721,-0.036663,21.654953,-2.016273,-21.698120,,,,,,,1
1522314540.153442,-0.303645,0.018844,1.539792,-0.215603,-0.046619,0.024593,-0.298948,-0.018843,-0.954083,0.098035,0.025648,0.030210,24.200638,-1.953560,-22.522095,,,,,,,1
1522314540.183410,-0.304338,0.014955,1.539616,-0.072693,-0.059847,0.042822,-0.299628,-0.014955,-0.953939,0.110709,0.055894,0.026510,28.766113,-1.376656,-25.072083,,,,,,,1
1522314540.213379,-0.304433,0.016115,1.541287,0.096287,0.005625,0.042875,-0.299713,-0.016115,-0.953893,0.113571,0.044237,0.008108,31.915039,-0.267845,-27.099915,,,,,,,1
1522314540.243347,-0.303146,0.019493,1.543632,0.164835,0.034251,0.026918,-0.298468,-0.019492,-0.954221,0.117773,0.052481,-0.051349,34.900574,0.989204,-31.603455,,,,,,,1
1522314540.273315,-0.301262,0.022519,1.544567,0.067894,0.034754,-0.012568,-0.296650,-0.022517,-0.954721,0.104191,0.033854,-0.079642,35.946579,2.256721,-34.383057,,,,,,,1
1522314540.303284,-0.299509,0.021770,1.543793,-0.065605,0.025538,-0.013729,-0.294981,-0.021768,-0.955255,0.113569,0.039789,-0.068533,37.132736,4.794853,-40.917603,,,,,,,1
1522314540.333252,-0.298285,0.017785,1.542732,-0.136160,0.030863,0.008594,-0.293835,-0.017784,-0.955691,0.100476,0.031639,-0.041181,36.150970,6.370506,-44.674377,,,,,,,1
1522314540.363220,-0.297184,0.014468,1.542167,-0.051938,0.010416,0.015072,-0.292798,-0.014468,-0.956065,0.117948,0.005923,0.003947,35.398087,8.245293,-48.282227,,,,,,,1
1522314540.393188,-0.295481,0.014776,1.542532,0.055936,0.004929,0.002368,-0.291169,-0.014776,-0.956558,0.130265,-0.013346,-0.019532,31.270981,12.007240,-54.899292,,,,,,,1
1522314540.423157,-0.294462,0.017232,1.543325,0.097726,0.030399,-0.006159,-0.290182,-0.017231,-0.956816,0.138891,-0.005062,-0.037233,26.687866,13.224495,-58.281494,,,,,,,1
1522314540.453125,-0.292679,0.019491,1.543773,0.044350,0.037932,-0.000878,-0.288463,-0.019490,-0.957293,0.123714,-0.000408,-0.044203,17.850861,16.785484,-62.050171,,,,,,,1
1522314540.483094,-0.291014,0.018686,1.543614,-0.057294,-0.000131,0.007610,-0.286873,-0.018685,-0.957786,0.109749,0.023675,-0.050484,13.588745,18.528908,-62.809265,,,,,,,1
1522314540.513061,-0.290362,0.017560,1.543295,-0.027356,-0.008623,-0.006201,-0.286255,-0.017560,-0.957993,0.107910,0.037137,-0.017227,3.194717,21.276268,-62.225464,,,,,,,1
1522314540.543031,-0.289100,0.016407,1.543002,-0.032843,-0.026763,0.006600,-0.285051,-0.016407,-0.958372,0.130571,0.040043,0.011182,-0.989227,22.570610,-61.707703,,,,,,,1
1522314540.572998,-0.288824,0.017135,1.544090,0.077100,0.003583,0.036476,-0.284784,-0.017134,-0.958439,0.141336,0.048552,-0.002392,-7.322296,24.477928,-57.893555,,,,,,,1
1522314540.602966,-0.287909,0.021024,1.546777,0.205212,0.016991,0.049342,-0.283885,-0.021023,-0.958628,0.148723,0.028393,-0.074926,-10.978973,24.871773,-55.496948,,,,,,,1
1522314540.632934,-0.285676,0.024229,1.548284,0.036875,0.025257,-0.010454,-0.281723,-0.024227,-0.959190,0.132095,0.009884,-0.078194,-16.272202,25.350090,-51.001465,,,,,,,1
1522314540.662903,-0.284504,0.020944,1.547001,-0.164008,-0.014587,-0.014829,-0.280620,-0.020943,-0.959590,0.153972,0.013710,-0.018315,-17.146652,26.331642,-48.380859,,,,,,,1
1522314540.692871,-0.283605,0.017387,1.545744,-0.048791,-0.016078,0.003382,-0.279776,-0.017386,-0.959908,0.140127,-0.001824,-0.034187,-19.153717,26.418526,-45.532227,,,,,,,1
1522314540.722839,-0.281988,0.018042,1.546480,0.044306,0.057927,0.025746,-0.278220,-0.018041,-0.960348,0.130729,-0.012431,-0.046656,-22.498062,26.064278,-39.832520,,,,,,,1
1522314540.752807,-0.279803,0.018599,1.547489,0.010058,0.044183,0.028926,-0.276119,-0.018598,-0.960944,0.135173,-0.026293,-0.054758,-22.707855,25.917992,-37.057007,,,,,,,1
1522314540.782776,-0.277541,0.017638,1.547993,-0.063545,0.044426,0.018226,-0.273949,-0.017637,-0.961583,0.126015,-0.008653,-0.028484,-24.471405,25.557610,-30.381470,,,,,,,1
1522314540.812729,-0.276580,0.015705,1.548022,-0.032906,-0.015218,0.027895,-0.273034,-0.015705,-0.961876,0.141106,-0.006314,-0.045875,-24.004730,25.109032,-26.854370,,,,,,,1
1522314540.842697,-0.275233,0.015118,1.548369,-0.033805,0.011419,0.018276,-0.271740,-0.015117,-0.962252,0.139644,-0.003087,-0.048124,-22.996979,24.061699,-19.649719,,,,,,,1
1522314540.872665,-0.274309,0.013749,1.548811,-0.022062,0.014554,0.021479,-0.270857,-0.013749,-0.962521,0.135404,0.013993,-0.038409,-21.108353,23.531364,-16.496643,,,,,,,1
1522314540.902634,-0.273742,0.014473,1.549167,0.019554,-0.002474,0.010870,-0.270308,-0.014473,-0.962665,0.151869,-0.004158,-0.070736,-16.747955,21.417000,-11.236023,,,,,,,1
1522314540.932602,-0.272248,0.012610,1.549083,-0.074432,-0.013896,0.006547,-0.268876,-0.012609,-0.963092,0.133591,-0.004816,-0.034649,-14.268646,20.582939,-9.131470,,,,,,,1
1522314540.962570,-0.271403,0.011158,1.549167,-0.041143,0.041205,0.017170,-0.268067,-0.011158,-0.963336,0.161332,0.002689,-0.003431,-12.325531,17.727806,-5.519043,,,,,,,1
1522314540.992539,-0.270342,0.010540,1.549790,0.052358,-0.039923,0.035442,-0.267046,-0.010539,-0.963626,0.177325,-0.018269,-0.041669,-10.902802,16.597908,-4.013794,,,,,,,1
1522314541.022507,-0.268691,0.013435,1.551111,0.086089,0.068590,0.006582,-0.265446,-0.013435,-0.964032,0.158161,-0.006340,-0.077991,-9.324844,16.216942,-2.886475,,,,,,,1
1522314541.052475,-0.266562,0.013149,1.550994,-0.072135,0.008480,-0.004123,-0.263393,-0.013149,-0.964599,0.173290,0.008892,-0.046891,-8.499496,14.041908,0.797607,,,,,,,1
,,,,,,,,,,,,,,,,25.313400,51.448525,14.756199,7.780000,326.953125,1522314540.998712,1
1522314541.082443,-0.265182,0.009985,1.549778,-0.091356,0.003247,-0.008396,-0.262072,-0.009984,-0.964997,0.168062,0.016698,-0.017746,-7.744843,13.290550,2.826050,,,,,,,1
1522314541.112412,-0.264289,0.010636,1.550180,0.093252,0.006879,0.014115,-0.261209,-0.010636,-0.965224,0.168069,0.022309,-0.047823,-5.554398,11.860649,7.782837,,,,,,,1
1522314541.142380,-0.262324,0.011857,1.550955,-0.005987,0.010382,0.005507,-0.259308,-0.011856,-0.965722,0.160004,0.019120,-0.032813,-4.349594,10.807777,10.337646,,,,,,,1
1522314541.172348,-0.261488,0.011610,1.551179,0.025932,-0.003566,0.014065,-0.258501,-0.011610,-0.965941,0.176439,0.017729,-0.031160,1.285599,9.211784,14.696838,,,,,,,1
1522314541.202316,-0.259884,0.013060,1.552158,0.068651,-0.004728,0.011973,-0.256947,-0.013060,-0.966337,0.149403,0.017866,-0.100023,4.214294,8.225853,16.952271,,,,,,,1
1522314541.232285,-0.258545,0.013804,1.551864,-0.059891,0.057720,-0.058512,-0.255650,-0.013804,-0.966671,0.134022,0.000788,-0.060703,10.658264,5.949638,19.739624,,,,,,,1
1522314541.262253,-0.256998,0.010688,1.549985,-0.082677,0.018186,-0.021187,-0.254164,-0.010688,-0.967102,0.188033,0.014258,-0.005707,15.300568,5.178764,19.744995,,,,,,,1
1522314541.292221,-0.255948,0.010518,1.549800,0.022836,0.012408,0.008727,-0.253149,-0.010518,-0.967370,0.163259,0.007467,-0.045600,22.171371,2.522408,19.309082,,,,,,,1
1522314541.322189,-0.254738,0.010327,1.550053,0.017358,-0.018393,0.008753,-0.251978,-0.010327,-0.967678,0.167658,-0.013355,-0.016453,24.778870,1.759026,17.663391,,,,,,,1
1522314541.352158,-0.253178,0.013123,1.550935,0.138332,0.046167,0.002387,-0.250461,-0.013123,-0.968038,0.160922,-0.004883,-0.062907,29.766174,0.008217,14.297913,,,,,,,1
1522314541.382126,-0.251338,0.013259,1.551329,-0.103288,-0.003305,0.021434,-0.248678,-0.013258,-0.968495,0.159140,-0.004259,-0.071742,30.197861,-0.745522,12.501160,,,,,,,1
1522314541.412094,-0.250467,0.009631,1.550894,-0.084066,-0.007574,0.017191,-0.247845,-0.009631,-0.968752,0.164974,0.015216,-0.032011,31.004227,-1.575874,10.779907,,,,,,,1
1522314541.442062,-0.249252,0.009488,1.551309,0.047360,0.009139,0.011943,-0.246668,-0.009488,-0.969054,0.159373,0.012921,-0.039919,31.568375,-3.231636,7.561768,,,,,,,1
1522314541.472031,-0.247746,0.009252,1.551504,-0.042288,0.006226,0.003361,-0.245209,-0.009252,-0.969426,0.164429,0.002508,-0.002345,30.135040,-3.750710,7.038147,,,,,,,1
1522314541.501999,-0.246893,0.009367,1.552160,0.082456,-0.005928,0.025840,-0.244382,-0.009367,-0.969634,0.160565,-0.001940,-0.057786,28.748825,-6.296257,5.247559,,,,,,,1
1522314541.531967,-0.245521,0.012747,1.553865,0.093329,0.034435,0.023680,-0.243042,-0.012746,-0.969932,0.148499,-0.006999,-0.094338,28.440613,-6.895241,4.874817,,,,,,,1
1522314541.561936,-0.244070,0.011321,1.553460,-0.125578,-0.027368,-0.024376,-0.241638,-0.011321,-0.970300,0.142777,-0.026887,-0.044241,25.498856,-9.205940,5.932678,,,,,,,1
1522314541.591904,-0.243077,0.006676,1.551477,-0.164882,0.001504,-0.037217,-0.240685,-0.006676,-0.970580,0.133263,-0.001380,0.028182,25.116104,-10.253777,6.386597,,,,,,,1
1522314541.621872,-0.242815,0.005629,1.551133,0.054641,-0.020687,0.021560,-0.240432,-0.005629,-0.970650,0.145507,0.005583,0.024757,25.098343,-13.027031,8.047729,,,,,,,1
1522314541.651840,-0.241314,0.009815,1.552893,0.180690,-0.004063,0.026983,-0.238967,-0.009815,-0.970978,0.120238,-0.015317,-0.051452,24.640457,-14.673546,9.479065,,,,,,,1
1522314541.681809,-0.239569,0.013975,1.554745,0.094437,0.041876,0.022609,-0.237261,-0.013975,-0.971345,0.128252,-0.008593,-0.074217,25.375519,-17.299965,11.364929,,,,,,,1
1522314541.711777,-0.238373,0.013613,1.555051,-0.106359,0.007441,0.005438,-0.236100,-0.013612,-0.971633,0.111756,0.019243,-0.084839,26.791016,-18.655647,12.046021,,,,,,,1
1522314541.741745,-0.238182,0.006375,1.553109,-0.275274,-0.063209,-0.012729,-0.235931,-0.006374,-0.971749,0.097504,0.017727,0.009118,27.305389,-20.306984,13.027954,,,,,,,1
1522314541.771713,-0.238490,0.003203,1.552242,0.005733,0.009256,0.009782,-0.236235,-0.003203,-0.971691,0.122084,0.020872,0.021770,29.070908,-23.764915,13.042664,,,,,,,1
1522314541.801682,-0.237128,0.006473,1.553451,0.164787,0.006713,0.013099,-0.234907,-0.006473,-0.971996,0.085843,-0.024487,-0.053547,31.009613,-24.898628,13.048157,,,,,,,1
1522314541.831632,-0.235711,0.010698,1.554489,0.110603,0.051555,0.001296,-0.233521,-0.010697,-0.972293,0.105500,-0.029571,-0.037747,31.887283,-27.452049,13.583801,,,,,,,1
1522314541.861600,-0.234267,0.011824,1.555030,0.008832,-0.017293,0.006613,-0.232114,-0.011824,-0.972617,0.090024,-0.001650,-0.084512,33.006256,-28.057076,13.586792,,,,,,,1
1522314541.891568,-0.234170,0.009463,1.554332,-0.170431,-0.004037,-0.002056,-0.232026,-0.009463,-0.972664,0.085328,0.020891,-0.044197,34.561569,-29.489967,12.693298,,,,,,,1
1522314541.921537,-0.234506,0.004649,1.552722,-0.135236,-0.013697,-0.002014,-0.232360,-0.004649,-0.972619,0.091003,0.026439,0.023354,34.631775,-29.790581,12.394531,,,,,,,1
1522314541.951505,-0.234178,0.003772,1.552255,0.050629,0.009206,0.000230,-0.232041,-0.003772,-0.972699,0.070878,0.007205,0.010525,36.204453,-29.798027,12.020386,,,,,,,1
1522314541.981473,-0.232912,0.006876,1.553643,0.153085,0.031063,0.027994,-0.230806,-0.006876,-0.972975,0.090914,-0.002645,-0.001146,38.164993,-28.831718,12.167480,,,,,,,1
1522314542.011441,-0.231468,0.011582,1.555750,0.178596,0.006564,0.028034,-0.229391,-0.011582,-0.973265,0.089850,0.002213,-0.077867,40.276001,-28.090614,12.765564,,,,,,,1
1522314542.041410,-0.230228,0.013787,1.556781,-0.040088,0.023192,0.006548,-0.228178,-0.013787,-0.973522,0.085478,0.020150,-0.094593,42.673309,-27.502831,11.339355,,,,,,,1
,,,,,,,,,,,,,,,,25.313431,51.448546,14.447966,6.480000,333.632812,1522314541.998701,1
1522314542.071378,-0.229989,0.007822,1.554902,-0.285716,-0.020614,-0.021307,-0.227960,-0.007822,-0.973639,0.085748,0.027216,0.007620,44.774109,-26.838249,10.362793,,,,,,,1
1522314542.101346,-0.230256,0.001706,1.552833,-0.124599,-0.026438,-0.006260,-0.228227,-0.001706,-0.973607,0.086793,0.010404,0.044163,47.689911,-25.729759,6.984802,,,,,,,1
1522314542.131314,-0.229596,0.003876,1.553804,0.212830,0.019244,0.025916,-0.227582,-0.003876,-0.973751,0.083600,-0.023635,-0.007847,49.254639,-25.588753,5.035034,,,,,,,1
1522314542.161283,-0.226786,0.010257,1.555944,0.155585,0.102329,0.018327,-0.224836,-0.010256,-0.974343,0.080671,-0.032422,-0.035881,52.248596,-24.030830,1.430298,,,,,,,1
1522314542.191251,-0.226031,0.012312,1.556437,0.047316,-0.002548,0.010893,-0.224095,-0.012312,-0.974490,0.088200,-0.005037,-0.047941,53.965210,-23.291176,-1.196777,,,,,,,1
1522314542.221219,-0.225434,0.012350,1.555903,-0.038089,-0.036136,-0.018966,-0.223513,-0.012350,-0.974623,0.062593,0.003012,-0.092363,56.497299,-21.433662,-7.277954,,,,,,,1
1522314542.251188,-0.225138,0.010377,1.554924,-0.117924,0.014016,-0.021204,-0.223229,-0.010377,-0.974711,0.047173,0.018556,-0.015905,56.857101,-21.063423,-10.429321,,,,,,,1
1522314542.281156,-0.225915,0.007759,1.554939,-0.049093,-0.021766,0.056666,-0.223992,-0.007759,-0.974560,0.088814,0.039162,-0.034397,56.154587,-19.941719,-16.884094,,,,,,,1
1522314542.311124,-0.225928,0.006880,1.556559,0.003136,-0.028313,0.065222,-0.224005,-0.006880,-0.974564,0.086188,0.015409,-0.049225,54.721039,-18.813560,-20.189392,,,,,,,1
1522314542.341092,-0.225267,0.005569,1.557708,-0.034824,0.026294,0.020383,-0.223363,-0.005569,-0.974719,0.083974,-0.001160,-0.004056,51.930008,-17.081566,-25.747681,,,,,,,1
1522314542.371061,-0.224946,0.006660,1.558034,0.081696,0.025128,-0.007228,-0.223048,-0.006660,-0.974785,0.105296,-0.010155,-0.042061,49.294876,-16.472420,-28.451477,,,,,,,1
1522314542.401029,-0.223437,0.006969,1.557655,-0.057121,0.014856,-0.010507,-0.221578,-0.006969,-0.975118,0.064107,-0.009816,-0.032786,45.459625,-15.109138,-32.433838,,,,,,,1
1522314542.430997,-0.222762,0.003869,1.556261,-0.119079,0.001250,-0.016938,-0.220922,-0.003869,-0.975284,0.053442,-0.030860,0.027454,42.455078,-14.796898,-33.711609,,,,,,,1
1522314542.460965,-0.223010,0.003319,1.556693,0.082212,-0.042156,0.040791,-0.221165,-0.003319,-0.975231,0.067844,-0.058998,-0.011296,40.124176,-14.937157,-34.462219,,,,,,,1
1522314542.490934,-0.222131,0.006759,1.558875,0.082573,0.035413,0.039654,-0.220304,-0.006759,-0.975408,0.061353,-0.051103,-0.044322,36.885040,-15.673714,-35.585876,,,,,,,1
1522314542.520902,-0.221977,0.007498,1.559506,-0.022036,-0.003387,0.002325,-0.220152,-0.007498,-0.975437,0.083525,-0.020334,-0.047253,35.232132,-15.966270,-35.585510,,,,,,,1
1522314542.550870,-0.222010,0.005270,1.558785,-0.133238,-0.035002,0.005465,-0.220188,-0.005270,-0.975443,0.060474,0.035269,-0.012838,31.246063,-16.848701,-35.958984,,,,,,,1
1522314542.580838,-0.222993,0.002929,1.558765,0.003211,-0.062040,0.023711,-0.221148,-0.002929,-0.975236,0.067904,0.048279,-0.030563,29.513504,-17.516060,-36.107178,,,,,,,1
1522314542.610807,-0.222830,0.005963,1.560102,0.137039,0.008905,0.013078,-0.220986,-0.005963,-0.975259,0.068536,0.039868,-0.066398,26.580704,-18.252922,-36.180664,,,,,,,1
1522314542.640775,-0.222647,0.008234,1.561329,0.063251,-0.005868,0.023697,-0.220805,-0.008234,-0.975283,0.104884,0.040934,-0.038862,25.449463,-18.698143,-36.479431,,,,,,,1
1522314542.670743,-0.221875,0.010396,1.562489,0.089063,0.032378,0.018336,-0.220047,-0.010396,-0.975434,0.106247,0.043477,-0.081298,22.745819,-19.060982,-36.479370,,,,,,,1
1522314542.700711,-0.221408,0.011640,1.562946,0.003594,-0.013983,-0.009375,-0.219589,-0.011639,-0.975523,0.116134,0.013364,-0.074541,20.047745,-19.048531,-36.180786,,,,,,,1
1522314542.730680,-0.221161,0.010092,1.561680,-0.065516,0.000283,-0.050987,-0.219351,-0.010092,-0.975594,0.127509,-0.029612,-0.018532,16.606155,-19.106544,-34.682251,,,,,,,1
1522314542.760648,-0.220535,0.008829,1.560371,-0.042126,0.003266,-0.029664,-0.218743,-0.008829,-0.975743,0.134560,-0.034552,-0.051693,15.789413,-18.502495,-34.310059,,,,,,,1
1522314542.790616,-0.219591,0.007566,1.559383,-0.063446,0.017097,-0.024368,-0.217825,-0.007566,-0.975959,0.120565,-0.050921,-0.035028,14.599701,-18.420586,-32.735962,,,,,,,1
1522314542.820586,-0.218328,0.005191,1.558405,-0.110644,0.010588,0.011830,-0.216595,-0.005191,-0.976248,0.130520,-0.067121,0.024054,12.370071,-18.407173,-29.362183,,,,,,,1
1522314542.850554,-0.217579,0.004073,1.559095,0.044901,-0.034612,0.037566,-0.215865,-0.004073,-0.976415,0.128432,-0.042665,-0.032817,12.386276,-17.506050,-28.165710,,,,,,,1
1522314542.880522,-0.216697,0.006005,1.560780,-0.000615,0.053721,0.036367,-0.215002,-0.006005,-0.976595,0.114782,-0.005882,-0.075498,13.003815,-17.505898,-25.240417,,,,,,,1
1522314542.910490,-0.216510,0.003756,1.560559,-0.134385,-0.042481,0.012923,-0.214820,-0.003756,-0.976646,0.133934,0.001253,-0.020149,13.238388,-16.906349,-24.642761,,,,,,,1
1522314542.940459,-0.215604,0.000322,1.560180,-0.088488,-0.037354,0.021485,-0.213938,-0.000322,-0.976847,0.128473,0.023470,-0.005010,16.249054,-16.468849,-23.593018,,,,,,,1
1522314542.970427,-0.215934,-0.000096,1.561599,0.050247,-0.008178,0.056711,-0.214260,0.000096,-0.976777,0.130520,0.029339,-0.037612,16.699188,-16.545738,-23.442444,,,,,,,1
1522314543.000395,-0.214717,0.002117,1.563275,0.102760,-0.012297,0.017340,-0.213070,-0.002117,-0.977035,0.136608,0.020748,-0.048997,18.281021,-15.952705,-23.294006,,,,,,,1
1522314543.030363,-0.212956,0.003335,1.562623,-0.026969,0.022518,-0.053113,-0.211349,-0.003335,-0.977405,0.149444,0.006906,-0.023617,19.850388,-16.110420,-23.967651,,,,,,,1
,,,,,,,,,,,,,,,,25.313455,51.448548,14.244821,5.690000,330.468750,1522314542.998690,1
1522314543.060332,-0.210644,0.001759,1.560793,-0.064338,0.033200,-0.045704,-0.209089,-0.001759,-0.977895,0.140593,0.006016,-0.002436,20.750183,-15.590385,-24.869202,,,,,,,1
1522314543.090300,-0.209871,0.002952,1.560898,0.123251,0.033377,0.015165,-0.208333,-0.002952,-0.978053,0.136373,0.005042,-0.053868,21.495514,-15.519630,-25.769165,,,,,,,1
1522314543.120268,-0.207922,0.007240,1.562026,0.132902,0.018582,-0.002911,-0.206422,-0.007240,-0.978436,0.122209,-0.043725,-0.087177,23.294632,-14.479607,-27.647400,,,,,,,1
1522314543.150236,-0.206465,0.008432,1.561651,-0.028161,0.008625,-0.041379,-0.204994,-0.008432,-0.978727,0.126411,-0.059623,-0.074480,22.017258,-14.174767,-28.549255,,,,,,,1
1522314543.180205,-0.204845,0.004495,1.560200,-0.198107,0.006700,-0.008479,-0.203414,-0.004495,-0.979083,0.132689,-0.019614,-0.041456,22.539520,-13.728325,-29.750793,,,,,,,1
1522314543.210173,-0.204325,-0.000699,1.559292,-0.163059,-0.002081,0.019259,-0.202906,0.000699,-0.979198,0.130183,-0.004300,-0.023854,22.833755,-12.682350,-32.454834,,,,,,,1
1522314543.240141,-0.203390,-0.002712,1.559541,0.003662,0.041021,0.025736,-0.201990,0.002712,-0.979384,0.136622,-0.006924,0.025358,21.786484,-12.003304,-33.133057,,,,,,,1
1522314543.270109,-0.201575,-0.000634,1.560863,0.110384,0.037532,0.031145,-0.200212,0.000634,-0.979752,0.151201,-0.017556,0.016908,20.815536,-10.875130,-34.338074,,,,,,,1
1522314543.300078,-0.199729,0.002071,1.562712,0.097418,0.006739,0.033294,-0.198404,-0.002071,-0.980118,0.147241,-0.001057,-0.059158,21.115646,-10.277473,-35.315308,,,,,,,1
1522314543.330046,-0.197632,0.003752,1.563633,0.005818,0.026261,0.008702,-0.196347,-0.003752,-0.980527,0.146756,-0.001588,-0.064562,19.476608,-8.995399,-35.621277,,,,,,,1
1522314543.360014,-0.196300,0.003503,1.563302,-0.019764,0.005247,-0.016864,-0.195041,-0.003503,-0.980789,0.132907,0.016503,-0.021485,18.953583,-8.618355,-35.923035,,,,,,,1
1522314543.389982,-0.195335,0.002438,1.561801,-0.029392,-0.015891,-0.030697,-0.194094,-0.002438,-0.980980,0.181338,0.007076,-0.056755,17.831619,-8.088676,-36.300720,,,,,,,1
1522314543.419951,-0.194556,0.003473,1.561123,0.047683,0.029613,-0.030688,-0.193330,-0.003473,-0.981128,0.162644,0.022104,-0.080792,16.256378,-7.931892,-36.602112,,,,,,,1
1522314543.449919,-0.193485,0.004071,1.560863,-0.018726,0.005210,-0.011538,-0.192279,-0.004071,-0.981332,0.167941,0.028820,-0.071814,14.237000,-7.322884,-36.680603,,,,,,,1
1522314543.479887,-0.192440,0.002329,1.560124,-0.073270,-0.015895,-0.012626,-0.191254,-0.002329,-0.981538,0.172105,0.003931,-0.047423,13.186005,-7.468086,-36.605530,,,,,,,1
1522314543.509856,-0.191341,0.001642,1.560065,0.001608,0.045374,0.012938,-0.190175,-0.001642,-0.981749,0.163686,0.016138,-0.015917,10.640030,-7.605721,-35.706238,,,,,,,1
1522314543.539824,-0.190516,0.003531,1.560957,0.136995,0.014099,0.028001,-0.189364,-0.003531,-0.981901,0.174167,-0.001413,-0.045489,7.418320,-8.264565,-34.055237,,,,,,,1
1522314543.569792,-0.188710,0.008520,1.562193,0.160732,0.037599,0.001360,-0.187585,-0.008520,-0.982211,0.151864,-0.035975,-0.093609,6.376633,-8.333382,-32.555481,,,,,,,1
1522314543.599760,-0.187627,0.009585,1.562165,-0.049631,0.009591,-0.019025,-0.186520,-0.009585,-0.982404,0.151394,-0.046690,-0.074663,3.459015,-9.442177,-29.477478,,,,,,,1
1522314543.629729,-0.187575,0.006157,1.561285,-0.150101,-0.006168,-0.010552,-0.186473,-0.006157,-0.982441,0.156017,-0.024193,-0.041500,3.168350,-9.364449,-28.052979,,,,,,,1
1522314543.659697,-0.187329,0.001467,1.560332,-0.153583,-0.038215,0.015048,-0.186235,-0.001467,-0.982504,0.157548,-0.021864,-0.003381,1.233185,-10.176903,-24.225647,,,,,,,1
1522314543.689665,-0.186724,-0.000292,1.560568,0.009778,-0.024871,0.024744,-0.185641,0.000292,-0.982618,0.147174,-0.027987,-0.014956,1.618088,-10.176994,-22.575439,,,,,,,1
1522314543.719633,-0.186459,0.003075,1.562455,0.151906,0.024576,0.043984,-0.185380,-0.003075,-0.982662,0.148225,-0.019585,-0.068287,2.459457,-10.702187,-18.972961,,,,,,,1
1522314543.749602,-0.185346,0.005326,1.563666,0.007678,-0.013198,0.027926,-0.184284,-0.005326,-0.982859,0.172428,-0.013229,-0.057089,3.297195,-10.778694,-16.722229,,,,,,,1
1522314543.779570,-0.184506,0.002060,1.563343,-0.172790,-0.062455,-0.007314,-0.183461,-0.002060,-0.983025,0.132298,-0.016479,-0.051506,4.440475,-10.705925,-13.796936,,,,,,,1
1522314543.809552,-0.185222,-0.002137,1.562874,-0.111813,-0.018095,0.008674,-0.184164,0.002137,-0.982893,0.148764,0.005844,-0.018923,4.596176,-10.630791,-12.972168,,,,,,,1
1522314543.839520,-0.184802,-0.001074,1.563218,0.112569,0.015398,0.003471,-0.183752,0.001074,-0.982972,0.133886,0.015665,-0.050429,6.254669,-10.412209,-11.922180,,,,,,,1
1522314543.869489,-0.183643,0.002286,1.563241,0.082734,0.008150,-0.013589,-0.182612,-0.002286,-0.983182,0.134990,-0.000430,-0.073535,7.464081,-10.640694,-9.970642,,,,,,,1
1522314543.899457,-0.182997,0.004103,1.563403,0.064507,0.014443,0.005565,-0.181976,-0.004103,-0.983294,0.106979,0.013625,-0.079511,8.366592,-10.794075,-9.294617,,,,,,,1
1522314543.929425,-0.182761,0.004971,1.564017,0.007719,-0.008918,0.023659,-0.181743,-0.004971,-0.983334,0.097972,0.008374,-0.105534,9.802200,-10.499260,-8.020081,,,,,,,1
1522314543.959393,-0.182684,0.003305,1.563744,-0.077675,-0.040367,-0.007273,-0.181668,-0.003305,-0.983354,0.094587,-0.022757,-0.061735,10.771927,-10.803993,-8.393372,,,,,,,1
1522314543.989362,-0.183221,0.001996,1.563359,-0.036914,0.004131,-0.004085,-0.182197,-0.001996,-0.983260,0.098320,-0.026415,-0.057038,12.204666,-10.434776,-7.719116,,,,,,,1
1522314544.019330,-0.182655,-0.000185,1.562766,-0.109564,-0.003167,0.000138,-0.181641,0.000185,-0.983365,0.077026,-0.038530,-0.015628,11.305893,-10.580284,-7.268982,,,,,,,1
1522314544.049298,-0.182826,-0.002265,1.562825,-0.004121,-0.024871,0.028998,-0.181809,0.002265,-0.983331,0.078995,-0.057853,0.002862,11.989700,-10.057762,-6.670776,,,,,,,1
,,,,,,,,,,,,,,,,25.313439,51.448448,14.170417,5.140000,327.304688,1522314543.998679,1
1522314544.079267,-0.182299,0.000022,1.564757,0.095220,0.018242,0.057802,-0.181290,-0.000022,-0.983430,0.061051,-0.053872,-0.034133,12.594788,-9.685265,-6.446899,,,,,,,1
1522314544.109235,-0.181190,0.001678,1.566621,0.025849,0.001543,0.038591,-0.180200,-0.001678,-0.983629,0.054147,-0.038682,0.006166,11.997650,-9.756966,-5.846924,,,,,,,1
1522314544.139203,-0.180762,0.002119,1.567474,0.008792,-0.016321,0.017279,-0.179779,-0.002119,-0.983705,0.075378,-0.011751,0.001115,11.930008,-9.381065,-5.248474,,,,,,,1
1522314544.169171,-0.181629,0.004457,1.568589,0.107949,-0.036819,0.025899,-0.180630,-0.004457,-0.983541,0.061947,0.007784,-0.044001,12.685547,-9.458412,-4.197754,,,,,,,1
1522314544.199140,-0.181789,0.006840,1.569599,0.054682,-0.020670,0.016247,-0.180786,-0.006840,-0.983499,0.065170,0.014729,-0.044150,11.943970,-9.154182,-3.299377,,,,,,,1
1522314544.229108,-0.181430,0.006376,1.570001,-0.070154,-0.007578,0.011878,-0.180433,-0.006376,-0.983567,0.062651,0.051908,-0.018097,11.646683,-9.152397,-2.849548,,,,,,,1
1522314544.259076,-0.181893,0.003970,1.570372,-0.055434,-0.035390,0.032166,-0.180890,-0.003970,-0.983495,0.078717,0.060961,0.011785,13.379272,-8.934288,-1.949524,,,,,,,1
1522314544.289044,-0.181379,0.003379,1.571398,0.032262,-0.002683,0.033270,-0.180385,-0.003379,-0.983590,0.082271,0.061256,0.015191,13.160583,-8.932259,-0.899658,,,,,,,1
1522314544.319013,-0.180397,0.006545,1.572503,0.152312,0.064230,-0.001886,-0.179416,-0.006545,-0.983751,0.082599,0.046096,0.014986,14.222229,-8.485847,0.299133,,,,,,,1
1522314544.348981,-0.178556,0.009950,1.572271,0.103272,0.034829,-0.038103,-0.177600,-0.009950,-0.984052,0.066852,-0.002273,0.004759,16.025024,-8.568352,0.900330,,,,,,,1
1522314544.378949,-0.177485,0.011647,1.571371,0.074307,0.001992,-0.041295,-0.176543,-0.011646,-0.984224,0.042235,-0.031078,-0.023543,16.712448,-8.045235,2.098572,,,,,,,1
1522314544.408917,-0.176872,0.014059,1.571100,0.091280,-0.001396,-0.021022,-0.175934,-0.014058,-0.984302,0.037506,-0.035777,-0.066647,18.065857,-7.975883,2.549011,,,,,,,1
1522314544.438886,-0.175942,0.015008,1.570674,-0.031546,-0.006418,-0.017917,-0.175016,-0.015008,-0.984451,0.034071,-0.038291,-0.062302,20.918884,-7.988197,3.075439,,,,,,,1
1522314544.468854,-0.175953,0.012110,1.569643,-0.152345,-0.024264,-0.005208,-0.175034,-0.012110,-0.984488,0.050553,-0.028036,-0.052332,21.445816,-7.840492,3.150146,,,,,,,1
1522314544.498822,-0.176235,0.007480,1.569127,-0.163062,0.000016,0.022458,-0.175320,-0.007480,-0.984483,0.025555,-0.011654,-0.020918,23.392258,-7.700081,2.325562,,,,,,,1
1522314544.528790,-0.176215,0.004524,1.569341,-0.042421,0.003937,0.026805,-0.175303,-0.004524,-0.984504,0.038737,-0.025765,-0.028893,25.344864,-7.259163,2.024780,,,,,,,1
1522314544.558759,-0.175257,0.005048,1.570296,0.044215,0.028205,0.019392,-0.174359,-0.005048,-0.984669,0.029354,-0.045505,-0.022716,25.195160,-7.183556,1.949341,,,,,,,1
1522314544.588727,-0.174062,0.005722,1.571034,-0.009099,0.033710,0.010824,-0.173182,-0.005722,-0.984873,0.025461,-0.045289,-0.017919,27.294174,-6.743919,1.048706,,,,,,,1
1522314544.618695,-0.173316,0.004445,1.570952,-0.067926,0.000978,0.002286,-0.172448,-0.004445,-0.985009,0.006630,-0.045405,-0.007499,28.267746,-6.299263,0.072388,,,,,,,1
1522314544.648663,-0.172686,0.002405,1.570832,-0.088241,-0.000108,0.009747,-0.171829,-0.002405,-0.985124,0.006302,-0.029455,0.005967,28.488983,-6.001381,-1.053711,,,,,,,1
1522314544.678632,-0.172826,-0.000705,1.570974,-0.122639,-0.027757,0.027848,-0.171966,0.000705,-0.985103,-0.010727,-0.020786,0.011668,29.163483,-5.555244,-1.880188,,,,,,,1
1522314544.708600,-0.173639,-0.002287,1.571493,-0.013688,-0.017405,0.027921,-0.172768,0.002287,-0.984960,-0.012001,-0.019941,-0.004664,29.762665,-4.734444,-3.383179,,,,,,,1
1522314544.738568,-0.173533,-0.001203,1.572035,0.044135,0.000621,0.011968,-0.172663,0.001203,-0.984980,-0.007681,-0.033460,-0.006872,29.610413,-4.509514,-4.134155,,,,,,,1
1522314544.768537,-0.173557,-0.001152,1.572524,-0.033864,0.001816,0.022554,-0.172687,0.001152,-0.984976,0.008106,0.002907,0.019751,29.161606,-3.758553,-5.187378,,,,,,,1
1522314544.798505,-0.174314,-0.001771,1.573365,0.005489,-0.019627,0.034334,-0.173432,0.001771,-0.984844,0.002702,0.024108,-0.021595,30.509140,-3.690132,-5.711914,,,,,,,1
1522314544.828478,-0.173712,-0.001612,1.574153,-0.024091,0.030526,0.016140,-0.172840,0.001612,-0.984949,-0.015317,0.042806,0.003900,29.165176,-2.859474,-6.090942,,,,,,,1
1522314544.858446,-0.173095,-0.002722,1.573651,-0.035700,0.013822,-0.023270,-0.172232,0.002722,-0.985053,-0.025110,0.035501,0.023047,29.167999,-2.484627,-6.242432,,,,,,,1
1522314544.888415,-0.172787,-0.003039,1.572688,0.024087,0.015800,-0.022169,-0.171928,0.003039,-0.985105,-0.051995,0.026044,0.046720,29.769623,-2.187569,-6.468323,,,,,,,1
1522314544.918383,-0.172828,0.000104,1.572636,0.173528,0.016416,-0.013524,-0.171969,-0.000104,-0.985102,-0.064954,0.015851,0.019923,28.572357,-1.957100,-6.394897,,,,,,,1
1522314544.948351,-0.172078,0.005950,1.568197,0.206683,0.039657,-0.005002,-0.171227,-0.005950,-0.985214,-0.069282,-0.007432,-0.014054,27.976273,-1.654274,-6.246338,,,,,,,1
1522314544.978319,-0.171675,0.009297,1.548242,0.043140,0.006006,0.002370,-0.170825,-0.009297,-0.985257,-0.050381,-0.008357,-0.017657,28.501556,-1.581703,-6.321411,,,,,,,1
1522314545.008288,-0.172699,0.007395,1.538042,-0.115068,-0.036100,0.002292,-0.171837,-0.007395,-0.985098,-0.040061,-0.001623,0.002676,28.952148,-1.658516,-6.095825,,,,,,,1
1522314545.038256,-0.174189,0.004250,1.517595,-0.063871,-0.048974,0.001279,-0.173308,-0.004250,-0.984858,-0.036332,-0.007988,0.012248,29.921692,-1.663780,-6.995361,,,,,,,1
1522314545.068224,-0.174890,0.004939,1.507720,0.063481,0.000761,-0.013597,-0.173997,-0.004939,-0.984734,-0.042677,-0.011724,-0.035576,29.925446,-1.513420,-6.620972,,,,,,,1
,,,,,,,,,,,,,,,,25.313474,51.448440,13.958465,5.550000,331.171875,1522314544.998667,1
1522314545.098192,-0.174631,0.006921,1.487925,0.030582,0.029605,-0.025364,-0.173740,-0.006921,-0.984767,-0.047039,-0.028602,-0.041539,29.615707,-2.037773,-7.369019,,,,,,,1
1522314545.128161,-0.174039,0.005418,1.477739,-0.077539,-0.006402,-0.003039,-0.173160,-0.005418,-0.984879,-0.070081,-0.033233,0.002198,30.142181,-1.665520,-7.745239,,,,,,,1
1522314545.158129,-0.173884,0.004611,1.459558,-0.002705,0.056899,0.034252,-0.173007,-0.004611,-0.984910,-0.049023,-0.007855,0.019044,30.280777,-2.267036,-8.642761,,,,,,,1
1522314545.188097,-0.172983,0.005253,1.451653,0.049413,0.021666,0.040714,-0.172119,-0.005253,-0.985062,-0.034195,-0.030056,0.015595,30.503952,-2.043724,-9.318542,,,,,,,1
1522314545.218065,-0.172930,0.008079,1.443999,0.109338,0.037549,0.027954,-0.172064,-0.008079,-0.985053,-0.042490,-0.023080,-0.028985,30.722198,-2.270454,-10.067505,,,,,,,1
1522314545.248034,-0.172666,0.010043,1.426679,0.026030,-0.011954,-0.007210,-0.171801,-0.010043,-0.985081,-0.055906,-0.044279,-0.054791,31.163467,-2.423637,-11.266724,,,,,,,1
1522314545.278002,-0.172353,0.007938,1.416922,-0.158407,0.030064,-0.023376,-0.171496,-0.007938,-0.985153,-0.068907,-0.013150,-0.009995,30.558685,-2.271965,-12.317627,,,,,,,1
1522314545.307970,-0.173431,0.002839,1.398256,-0.164281,-0.054061,0.005468,-0.172562,-0.002838,-0.984995,-0.039383,-0.006164,0.024912,31.072525,-1.901756,-14.793823,,,,,,,1
1522314545.337938,-0.173554,-0.000518,1.389679,-0.080800,0.020985,0.032095,-0.172684,0.000518,-0.984977,-0.048035,-0.000182,0.056007,29.791138,-2.271446,-15.242981,,,,,,,1
1522314545.367907,-0.174052,0.000059,1.386654,0.101709,0.006730,0.031175,-0.173175,-0.000059,-0.984891,-0.016400,-0.038653,0.026883,28.729752,-2.193687,-17.268860,,,,,,,1
1522314545.397875,-0.172930,0.003531,1.388042,0.100918,0.045100,0.013032,-0.172068,-0.003531,-0.985079,-0.026800,-0.025140,-0.011900,27.827820,-1.890465,-18.095459,,,,,,,1
1522314545.427843,-0.173165,0.003983,1.387907,-0.056035,0.000088,-0.026473,-0.172299,-0.003983,-0.985037,-0.051150,-0.017272,-0.032862,25.195862,-1.730034,-19.522461,,,,,,,1
1522314545.457812,-0.173695,0.000593,1.386250,-0.141587,-0.035818,-0.029689,-0.172823,-0.000593,-0.984953,-0.054731,-0.024752,0.011945,23.394577,-1.497536,-20.124268,,,,,,,1
1522314545.487780,-0.174150,-0.001621,1.385654,-0.030595,-0.011865,0.000206,-0.173271,0.001621,-0.984873,-0.073937,-0.005222,0.019358,20.915329,-1.112740,-21.477051,,,,,,,1
1522314545.517748,-0.174969,-0.001192,1.386471,0.015255,0.015416,0.034305,-0.174077,0.001192,-0.984731,-0.042277,-0.000887,-0.010325,18.293579,-0.875786,-21.329346,,,,,,,1
1522314545.547716,-0.174730,-0.001339,1.387270,-0.008251,-0.000402,0.024717,-0.173842,0.001339,-0.984773,-0.042238,-0.007412,0.006288,16.945724,-0.569878,-21.481201,,,,,,,1
1522314545.577685,-0.174656,-0.002569,1.387710,-0.049738,0.021028,0.014009,-0.173769,0.002569,-0.984783,-0.036970,-0.000952,0.018154,13.280457,0.271843,-21.261414,,,,,,,1
1522314545.607653,-0.175482,-0.002462,1.388002,0.047404,-0.001404,-0.002948,-0.174583,0.002462,-0.984639,-0.030526,0.011286,-0.004939,11.037888,0.657524,-20.664124,,,,,,,1
1522314545.637621,-0.175411,-0.000823,1.387737,0.045393,0.000871,-0.024259,-0.174513,0.000823,-0.984654,-0.037035,0.004838,-0.038630,8.127136,1.271980,-19.317993,,,,,,,1
1522314545.667589,-0.175355,-0.000703,1.386881,-0.037865,0.005345,-0.025397,-0.174457,0.000703,-0.984664,-0.058483,0.004210,-0.018052,6.713272,2.028938,-18.721741,,,,,,,1
1522314545.697558,-0.175695,-0.002487,1.386697,-0.062642,0.013567,0.023588,-0.174791,0.002487,-0.984602,-0.057173,0.020050,-0.002641,3.285156,2.871605,-16.476807,,,,,,,1
1522314545.727526,-0.176022,-0.004010,1.387208,-0.016895,-0.018445,0.026849,-0.175113,0.004010,-0.984540,-0.032330,-0.000180,0.008634,2.247055,3.477257,-15.504700,,,,,,,1
1522314545.757494,-0.175774,-0.004185,1.387559,-0.009064,0.034807,0.005497,-0.174868,0.004185,-0.984583,-0.032682,-0.014042,0.016199,0.021591,4.539589,-13.185120,,,,,,,1
1522314545.787462,-0.175511,-0.004156,1.387482,0.010215,0.030609,-0.009399,-0.174610,0.004156,-0.984629,-0.038357,-0.007986,-0.003515,-1.839066,5.074455,-11.688232,,,,,,,1
1522314545.817413,-0.175108,-0.004203,1.386986,0.001528,-0.008638,-0.015761,-0.174213,0.004203,-0.984699,-0.050686,-0.007774,-0.031231,-3.764999,5.686119,-8.691589,,,,,,,1
1522314545.847381,-0.175443,-0.003104,1.386935,0.035768,0.028353,0.001272,-0.174544,0.003104,-0.984645,-0.033586,0.014489,-0.037801,-4.130661,5.988808,-7.642944,,,,,,,1
1522314545.877349,-0.175166,-0.003330,1.386546,-0.034761,-0.017011,-0.023228,-0.174270,0.003330,-0.984692,-0.044052,0.017895,-0.017002,-5.604202,6.748589,-4.496765,,,,,,,1
1522314545.907317,-0.175401,-0.004392,1.385589,-0.038846,0.021281,-0.026470,-0.174501,0.004392,-0.984647,-0.031492,0.037234,0.001722,-6.033493,7.652473,-2.550598,,,,,,,1
1522314545.937286,-0.175566,-0.004580,1.384804,0.008006,-0.005410,-0.025342,-0.174663,0.004580,-0.984618,-0.038853,0.042997,-0.012850,-5.501282,7.651268,-1.350281,,,,,,,1
1522314545.967254,-0.175329,-0.004835,1.383952,-0.024962,0.019132,-0.028585,-0.174430,0.004835,-0.984658,-0.041726,0.043963,0.012780,-5.774994,8.255882,2.022156,,,,,,,1
1522314545.997222,-0.175400,-0.005657,1.383104,-0.005849,0.002060,-0.024298,-0.174499,0.005657,-0.984641,-0.038911,0.048557,0.013984,-6.067474,8.108696,3.522583,,,,,,,1
1522314546.027191,-0.175555,-0.005599,1.382204,0.000592,-0.002129,-0.034946,-0.174652,0.005599,-0.984614,-0.032929,0.045655,0.011149,-5.364578,9.008675,6.669312,,,,,,,1
1522314546.057159,-0.175954,-0.006052,1.380708,-0.021712,-0.006162,-0.059458,-0.175044,0.006052,-0.984542,-0.035421,0.045645,0.010055,-4.230484,9.379478,7.568420,,,,,,,1
,,,,,,,,,,,,,,,,25.313529,51.448431,13.975571,5.760000,330.117188,1522314545.998657,1
1522314546.087127,-0.176393,-0.006492,1.378494,-0.022624,0.009891,-0.075458,-0.175476,0.006492,-0.984462,-0.038528,0.040505,0.023281,-2.184265,9.748192,10.492981,,,,,,,1
1522314546.117095,-0.176832,-0.007334,1.376344,-0.019606,-0.013582,-0.061587,-0.175907,0.007334,-0.984379,-0.038647,0.045843,0.031834,-1.048660,10.268974,11.391479,,,,,,,1
1522314546.147064,-0.177336,-0.007551,1.374460,-0.002468,-0.004078,-0.061571,-0.176403,0.007551,-0.984289,-0.044117,0.044619,0.010931,0.239349,10.265358,13.567139,,,,,,,1
1522314546.177032,-0.177322,-0.007744,1.372449,-0.017208,0.024771,-0.077601,-0.176389,0.007744,-0.984290,-0.073382,0.059440,0.006766,1.299667,10.711555,14.540833,,,,,,,1
1522314546.207000,-0.177109,-0.008533,1.369177,-0.047971,0.018779,-0.121305,-0.176178,0.008533,-0.984321,-0.101959,0.048993,0.020897,2.962784,11.529900,15.363403,,,,,,,1
1522314546.236968,-0.177128,-0.008408,1.365119,0.042849,0.008085,-0.143604,-0.176197,0.008408,-0.984319,-0.140942,0.043701,0.049917,4.697769,11.898140,16.412781,,,,,,,1
1522314546.266937,-0.177471,-0.004846,1.361493,0.141053,0.013093,-0.135011,-0.176539,0.004846,-0.984282,-0.178183,0.049887,0.024351,5.602661,12.344139,16.486450,,,,,,,1
1522314546.296905,-0.177926,0.000115,1.359254,0.164230,-0.000033,-0.088106,-0.176988,-0.000115,-0.984213,-0.210814,0.041558,0.003225,7.266373,13.312325,17.158447,,,,,,,1
1522314546.326873,-0.179261,0.003315,1.358182,0.071085,-0.006513,-0.042340,-0.178302,-0.003315,-0.983970,-0.220304,0.066594,-0.005593,7.195740,13.612862,17.382202,,,,,,,1
1522314546.356841,-0.181464,0.004607,1.357529,0.036668,-0.047946,-0.030607,-0.180468,-0.004607,-0.983570,-0.170774,0.095427,0.005466,9.678101,14.576317,17.004578,,,,,,,1
1522314546.386810,-0.183010,0.005021,1.356423,-0.009047,-0.027513,-0.049837,-0.181987,-0.005021,-0.983288,-0.162754,0.094087,0.032192,9.231415,14.953255,16.927856,,,,,,,1
1522314546.416778,-0.184993,0.004667,1.354627,-0.002643,-0.052869,-0.072188,-0.183938,-0.004667,-0.982927,-0.132621,0.091703,0.032609,9.688141,15.401573,17.301270,,,,,,,1
1522314546.446746,-0.185845,0.005830,1.352199,0.061871,0.008845,-0.106302,-0.184774,-0.005830,-0.982764,-0.126673,0.075486,0.008734,9.917007,15.925316,17.074341,,,,,,,1
1522314546.476714,-0.185845,0.008129,1.348933,0.042917,0.032461,-0.135101,-0.184771,-0.008129,-0.982748,-0.114149,0.079555,-0.016153,9.849792,16.301292,17.747803,,,,,,,1
1522314546.506683,-0.185717,0.007642,1.344130,-0.080858,0.011739,-0.167136,-0.184646,-0.007642,-0.982775,-0.143281,0.079389,-0.020536,9.700562,16.376961,17.747437,,,,,,,1
1522314546.536651,-0.185393,0.003973,1.338428,-0.161885,0.045906,-0.160843,-0.184331,-0.003973,-0.982856,-0.143718,0.085455,0.032691,10.306534,16.524986,18.497131,,,,,,,1
1522314546.566619,-0.184852,0.001025,1.333503,-0.068160,0.020009,-0.138368,-0.183801,-0.001025,-0.982963,-0.145194,0.090091,0.025001,9.487869,16.529716,19.546692,,,,,,,1
1522314546.596587,-0.183881,0.000450,1.329309,-0.026280,0.071962,-0.138381,-0.182846,-0.000450,-0.983141,-0.123108,0.084129,0.022479,9.189697,16.531364,19.846497,,,,,,,1
1522314546.626556,-0.182849,0.000758,1.324911,0.029185,0.027416,-0.168139,-0.181831,-0.000758,-0.983329,-0.102653,0.087641,0.018623,9.647049,16.455650,21.197021,,,,,,,1
1522314546.656524,-0.182336,0.002480,1.319693,0.028392,0.055234,-0.195867,-0.181326,-0.002480,-0.983420,-0.090341,0.102119,-0.002023,8.979156,16.310081,22.622253,,,,,,,1
1522314546.686492,-0.182127,0.003239,1.313243,-0.008964,0.014157,-0.234214,-0.181121,-0.003239,-0.983455,-0.093369,0.101688,0.001919,9.729904,15.707832,23.750061,,,,,,,1
1522314546.716461,-0.181884,0.001878,1.306111,-0.111439,0.023963,-0.231111,-0.180882,-0.001878,-0.983503,-0.080333,0.135042,0.010847,10.105194,15.556450,24.050842,,,,,,,1
1522314546.746429,-0.182484,-0.002341,1.298804,-0.188567,-0.000493,-0.202370,-0.181472,0.002341,-0.983393,-0.053971,0.153603,0.051997,9.731583,14.659859,25.779236,,,,,,,1
1522314546.776397,-0.183067,-0.007622,1.292059,-0.157745,-0.019759,-0.192741,-0.182041,0.007622,-0.983261,-0.050915,0.148979,0.043259,10.101196,13.758797,26.383057,,,,,,,1
1522314546.806365,-0.184171,-0.010280,1.286468,-0.048878,-0.005304,-0.172424,-0.183122,0.010280,-0.983037,-0.044540,0.149662,0.019429,11.749191,13.152061,27.061279,,,,,,,1
1522314546.836320,-0.184844,-0.010613,1.280863,0.011094,0.003258,-0.201164,-0.183783,0.010613,-0.982910,-0.016733,0.158393,-0.019593,11.225433,12.780235,27.887512,,,,,,,1
1522314546.866288,-0.184647,-0.010859,1.273615,-0.044967,0.029428,-0.277942,-0.183589,0.010858,-0.982943,-0.025533,0.164419,-0.031141,11.973938,11.952995,29.016174,,,,,,,1
1522314546.896256,-0.184103,-0.013598,1.264051,-0.144117,0.020373,-0.314240,-0.183048,0.013597,-0.983010,-0.027310,0.168822,0.017678,13.245743,11.497505,29.243652,,,,,,,1
1522314546.926224,-0.183947,-0.016464,1.254073,-0.090861,-0.004206,-0.312051,-0.182886,0.016463,-0.982996,-0.067938,0.172547,0.043513,13.091141,10.673805,29.846863,,,,,,,1
1522314546.956193,-0.184325,-0.016018,1.245274,0.056296,-0.015414,-0.284212,-0.183259,0.016017,-0.982934,-0.097030,0.166325,-0.003333,13.540222,9.997765,30.824768,,,,,,,1
1522314546.986161,-0.184937,-0.012115,1.238097,0.128807,-0.004088,-0.257534,-0.183871,0.012115,-0.982876,-0.108045,0.166825,-0.044239,15.042572,9.916527,31.350891,,,,,,,1
1522314547.016129,-0.184353,-0.008073,1.231161,0.075602,0.035360,-0.257612,-0.183305,0.008073,-0.983023,-0.100188,0.162551,-0.050577,14.670624,9.319710,32.853088,,,,,,,1
1522314547.046097,-0.184248,-0.007619,1.223175,-0.085712,0.000779,-0.269420,-0.183202,0.007619,-0.983046,-0.076853,0.159816,0.004179,15.193817,8.867790,33.305115,,,,,,,1
,,,,,,,,,,,,,,,,25.313574,51.448415,14.120209,5.110000,334.687500,1522314546.998646,1
1522314547.076066,-0.185840,-0.010661,1.214367,-0.141569,-0.072390,-0.269396,-0.184762,0.010660,-0.982726,-0.057914,0.145849,-0.000353,16.839737,7.736595,34.510498,,,,,,,1
1522314547.106034,-0.188735,-0.012740,1.206010,-0.079619,-0.056694,-0.258700,-0.187601,0.012740,-0.982163,-0.064107,0.132341,-0.044037,16.307129,6.839226,34.738831,,,,,,,1
1522314547.136002,-0.189741,-0.014012,1.197656,-0.098524,-0.013960,-0.283272,-0.188586,0.014012,-0.981957,-0.066846,0.136791,-0.067497,17.129440,5.936577,35.792847,,,,,,,1
1522314547.165970,-0.190258,-0.017652,1.187704,-0.224227,-0.002735,-0.325988,-0.189083,0.017651,-0.981802,-0.070332,0.161381,-0.005517,18.177582,5.706932,35.869324,,,,,,,1
1522314547.195939,-0.190726,-0.023272,1.176429,-0.222057,-0.013269,-0.340889,-0.189521,0.023269,-0.981601,-0.048623,0.158570,0.027728,18.550354,4.581764,37.373962,,,,,,,1
1522314547.225907,-0.190933,-0.026588,1.165700,-0.136573,0.017292,-0.331284,-0.189708,0.026584,-0.981481,-0.071965,0.158657,0.030583,19.301682,4.578606,37.599365,,,,,,,1
1522314547.255875,-0.190229,-0.029303,1.155424,-0.126836,0.049107,-0.327040,-0.189003,0.029299,-0.981539,-0.062081,0.159437,0.045077,20.422607,3.899010,38.052673,,,,,,,1
1522314547.285844,-0.189644,-0.030500,1.145367,-0.034100,0.021239,-0.323756,-0.188422,0.030496,-0.981615,-0.049218,0.159415,0.023424,21.394150,3.369942,38.355225,,,,,,,1
1522314547.315812,-0.188896,-0.029646,1.135653,0.021774,0.081751,-0.337617,-0.187693,0.029641,-0.981780,-0.056067,0.162924,-0.014008,22.369415,3.440483,38.280457,,,,,,,1
1522314547.345780,-0.187305,-0.028065,1.125154,0.012229,0.053349,-0.374891,-0.186139,0.028061,-0.982123,-0.060764,0.168213,-0.024439,23.419510,3.360909,38.431274,,,,,,,1
1522314547.375748,-0.186788,-0.028048,1.113180,-0.085945,0.034643,-0.400516,-0.185631,0.028045,-0.982219,-0.045952,0.184236,-0.016682,24.843994,3.354424,38.356995,,,,,,,1
1522314547.405717,-0.187858,-0.030674,1.100926,-0.179317,-0.051336,-0.381315,-0.186667,0.030669,-0.981944,-0.052911,0.201066,-0.031605,26.125244,3.798958,38.655884,,,,,,,1
1522314547.435685,-0.188907,-0.034763,1.088757,-0.194094,-0.000346,-0.371799,-0.187672,0.034756,-0.981617,-0.042217,0.208775,-0.016781,26.795990,3.870110,37.830933,,,,,,,1
1522314547.465653,-0.189104,-0.038385,1.077217,-0.142900,0.007879,-0.352579,-0.187840,0.038376,-0.981450,-0.021327,0.195389,0.024403,26.946884,4.094215,37.605103,,,,,,,1
1522314547.495621,-0.190003,-0.039135,1.066859,-0.016004,0.005260,-0.325851,-0.188717,0.039125,-0.981252,-0.027027,0.179839,-0.003505,27.023361,4.468498,37.228638,,,,,,,1
1522314547.525590,-0.189914,-0.036781,1.057122,0.071840,0.026532,-0.362024,-0.188647,0.036773,-0.981356,-0.034131,0.179871,-0.017835,27.328140,4.992043,37.151672,,,,,,,1
1522314547.555558,-0.189482,-0.033073,1.045940,0.073129,0.016308,-0.416372,-0.188247,0.033067,-0.981565,-0.020249,0.169921,-0.016757,27.485306,5.666405,37.224121,,,,,,,1
1522314547.585526,-0.189464,-0.030229,1.033396,0.001825,0.033656,-0.443067,-0.188246,0.030225,-0.981657,-0.020952,0.173190,-0.001452,27.492645,6.491219,37.070801,,,,,,,1
1522314547.615494,-0.189118,-0.030848,1.020154,-0.127384,0.036054,-0.436770,-0.187903,0.030843,-0.981703,-0.043527,0.210017,0.022948,25.923996,6.948570,37.368225,,,,,,,1
1522314547.645463,-0.189816,-0.033520,1.006665,-0.141681,-0.025713,-0.411152,-0.188573,0.033513,-0.981487,-0.027736,0.212443,0.021313,26.146759,6.722572,37.369202,,,,,,,1
1522314547.675431,-0.191034,-0.035032,0.993922,-0.071145,-0.019480,-0.417490,-0.189758,0.035025,-0.981206,-0.052216,0.188486,-0.026683,26.303177,7.097328,37.817749,,,,,,,1
1522314547.705399,-0.191544,-0.034293,0.981610,-0.015428,0.044034,-0.401535,-0.190263,0.034286,-0.981134,-0.016555,0.186341,-0.024450,25.410583,7.252312,38.791748,,,,,,,1
1522314547.735367,-0.190431,-0.034312,0.969342,-0.079462,0.030502,-0.418620,-0.189171,0.034306,-0.981345,-0.040657,0.206264,-0.001886,25.718231,7.252205,40.066833,,,,,,,1
1522314547.765336,-0.190098,-0.036675,0.956329,-0.164900,0.025403,-0.418679,-0.188828,0.036666,-0.981325,-0.024887,0.214478,0.019503,25.498184,7.703270,40.139954,,,,,,,1
1522314547.795304,-0.192024,-0.039628,0.943308,-0.135508,-0.042939,-0.381295,-0.190696,0.039618,-0.980849,-0.003686,0.180826,0.016158,26.709839,7.699760,42.090576,,,,,,,1
1522314547.825284,-0.192975,-0.040805,0.930942,-0.036923,-0.003619,-0.416425,-0.191620,0.040793,-0.980621,-0.029129,0.162561,-0.046768,27.015076,7.774132,42.840454,,,,,,,1
1522314547.855252,-0.193045,-0.039926,0.918820,-0.043215,0.034548,-0.403672,-0.191696,0.039916,-0.980642,-0.028885,0.182115,-0.031488,29.061600,8.891655,44.561951,,,,,,,1
1522314547.885221,-0.193908,-0.039930,0.906166,-0.078793,-0.054567,-0.413191,-0.192541,0.039920,-0.980477,-0.004144,0.183225,-0.059700,29.743317,9.114326,45.311401,,,,,,,1
1522314547.915189,-0.195044,-0.041281,0.893179,-0.142733,-0.022524,-0.411155,-0.193645,0.041269,-0.980203,0.003123,0.164252,-0.054281,32.461044,10.078453,46.658936,,,,,,,1
1522314547.945157,-0.197023,-0.044553,0.880411,-0.199288,-0.007564,-0.403749,-0.195556,0.044538,-0.979681,-0.019944,0.192919,-0.037592,34.043625,10.521858,47.182922,,,,,,,1
1522314547.975126,-0.198801,-0.047486,0.867509,-0.161004,-0.031109,-0.394103,-0.197272,0.047469,-0.979199,0.017706,0.193910,-0.057010,34.732529,11.419579,48.004700,,,,,,,1
1522314548.005094,-0.199466,-0.049095,0.854430,-0.130844,-0.007588,-0.425007,-0.197907,0.049075,-0.978992,-0.010467,0.184125,-0.040250,37.528854,13.057808,48.824585,,,,,,,1
1522314548.035062,-0.200394,-0.050994,0.840744,-0.165955,0.001114,-0.441026,-0.198797,0.050972,-0.978714,0.018621,0.177117,-0.034988,40.161972,13.870964,48.822632,,,,,,,1
1522314548.065030,-0.201909,-0.053656,0.826803,-0.174704,-0.044554,-0.440988,-0.200251,0.053630,-0.978276,-0.002843,0.176503,-0.029903,42.352432,15.286324,49.043030,,,,,,,1
,,,,,,,,,,,,,,,,25.313677,51.448379,14.128347,5.090000,338.203125,1522314547.998634,1
1522314548.094999,-0.202663,-0.055506,0.812871,-0.128498,0.010674,-0.451673,-0.200969,0.055478,-0.978025,-0.003164,0.193118,-0.025240,44.242767,16.777885,49.113037,,,,,,,1
1522314548.124967,-0.203485,-0.055881,0.799353,-0.081668,-0.006561,-0.436695,-0.201769,0.055852,-0.977839,-0.001570,0.200038,-0.028966,47.404297,18.337975,48.433350,,,,,,,1
1522314548.154935,-0.204022,-0.056503,0.785939,-0.132847,0.024282,-0.422910,-0.202286,0.056472,-0.977697,0.020051,0.185486,-0.005427,48.160690,19.159279,48.130493,,,,,,,1
1522314548.184903,-0.204186,-0.059534,0.772296,-0.183100,0.001076,-0.429319,-0.202411,0.059499,-0.977491,0.001850,0.224361,0.034926,50.120331,20.350075,47.751709,,,,,,,1
1522314548.214872,-0.206151,-0.063013,0.758200,-0.170367,-0.038118,-0.449524,-0.204288,0.062971,-0.976883,-0.006497,0.202394,0.041947,51.844620,21.090965,46.399536,,,,,,,1
1522314548.244840,-0.208002,-0.066448,0.744146,-0.163994,-0.040320,-0.443112,-0.206049,0.066400,-0.976286,-0.011556,0.197150,0.061018,53.051132,22.060005,45.871338,,,,,,,1
1522314548.274808,-0.209743,-0.068877,0.730949,-0.062649,-0.026953,-0.415346,-0.207715,0.068822,-0.975765,0.023358,0.205271,0.018093,54.475479,22.577629,44.894897,,,,,,,1
1522314548.304776,-0.210641,-0.067586,0.719699,0.077233,0.014971,-0.382252,-0.208609,0.067535,-0.975664,-0.000299,0.225876,-0.044492,55.979874,23.245476,44.518005,,,,,,,1
1522314548.334745,-0.210503,-0.064382,0.708458,0.024195,0.078947,-0.394081,-0.208519,0.064337,-0.975900,0.020927,0.244607,-0.039374,56.653473,23.691475,43.541565,,,,,,,1
1522314548.364713,-0.209346,-0.064945,0.695948,-0.128617,0.016827,-0.421835,-0.207382,0.064899,-0.976105,0.039215,0.214123,-0.011185,57.547287,23.386925,43.018250,,,,,,,1
1522314548.394681,-0.210759,-0.068027,0.682429,-0.189518,-0.009476,-0.436775,-0.208718,0.067975,-0.975611,0.017343,0.228809,-0.026022,58.966507,23.753960,41.442505,,,,,,,1
1522314548.424649,-0.211719,-0.072089,0.668168,-0.213886,0.022507,-0.444279,-0.209595,0.072027,-0.975132,0.020691,0.237345,0.003574,58.960648,23.528389,40.843384,,,,,,,1
1522314548.454618,-0.212463,-0.075126,0.653574,-0.143463,-0.003058,-0.459124,-0.210273,0.075055,-0.974757,0.014961,0.233829,-0.010716,59.168671,23.449745,38.143799,,,,,,,1
1522314548.484586,-0.213231,-0.074530,0.639535,0.001978,0.033854,-0.471835,-0.211032,0.074461,-0.974639,0.023608,0.233827,-0.047563,59.540939,23.672249,37.318115,,,,,,,1
1522314548.514554,-0.212706,-0.072700,0.625713,-0.043875,0.056223,-0.463366,-0.210548,0.072636,-0.974881,0.007941,0.234295,-0.062350,58.486450,23.900871,36.191650,,,,,,,1
1522314548.544522,-0.212716,-0.072844,0.611115,-0.143258,0.014115,-0.483648,-0.210555,0.072780,-0.974869,0.009765,0.217381,-0.061355,58.181519,23.901421,35.366516,,,,,,,1
1522314548.574491,-0.213592,-0.073952,0.595600,-0.149552,0.015335,-0.503899,-0.211392,0.073884,-0.974605,0.016232,0.221007,-0.071248,56.978546,24.280708,34.239380,,,,,,,1
1522314548.604459,-0.214126,-0.075433,0.579929,-0.165596,0.027970,-0.484728,-0.211889,0.075361,-0.974384,0.037878,0.224123,-0.014477,56.445023,23.832436,33.565918,,,,,,,1
1522314548.634427,-0.214108,-0.076502,0.565143,-0.120834,0.033058,-0.466596,-0.211854,0.076428,-0.974308,0.034272,0.219273,0.002507,55.921371,24.284264,33.038818,,,,,,,1
1522314548.664396,-0.214318,-0.075821,0.550950,-0.041743,0.050937,-0.467623,-0.212070,0.075749,-0.974314,0.034046,0.221432,0.032557,54.719467,24.364220,32.587891,,,,,,,1
1522314548.694364,-0.213576,-0.074120,0.537328,0.000836,0.043279,-0.450540,-0.211374,0.074052,-0.974596,0.045145,0.230529,0.006319,53.068039,24.221642,32.587646,,,,,,,1
1522314548.724332,-0.213983,-0.069201,0.524032,0.152494,0.017610,-0.481298,-0.211845,0.069146,-0.974854,0.054253,0.215003,-0.091552,53.069382,24.671120,32.060913,,,,,,,1
1522314548.754300,-0.212682,-0.063388,0.510222,0.059038,0.096642,-0.507010,-0.210659,0.063346,-0.975505,0.048107,0.226144,-0.066411,51.949982,25.051445,32.358765,,,,,,,1
1522314548.784269,-0.211639,-0.063760,0.495549,-0.178416,0.040709,-0.475178,-0.209635,0.063717,-0.975701,0.031108,0.251652,-0.014319,49.629135,25.062569,33.032593,,,,,,,1
1522314548.814227,-0.213189,-0.068550,0.479749,-0.280239,-0.052524,-0.479417,-0.211081,0.068497,-0.975066,0.055670,0.223541,0.010344,48.954163,25.065605,33.032227,,,,,,,1
