timestamp(unix),attitude_roll(radians),attitude_pitch(radians),attitude_yaw(radians),rotation_rate_x(radians/s),rotation_rate_y(radians/s),rotation_rate_z(radians/s),gravity_x(G),gravity_y(G),gravity_z(G),user_acc_x(G),user_acc_y(G),user_acc_z(G),magnetic_field_x(microteslas),magnetic_field_y(microteslas),magnetic_field_z(microteslas),latitude(degree),longitude(degree),altitude(meter),speed(m/s),course(degree),timestamp(unix),User Mark
,,,,,,,,,,,,,,,,25.315296,51.435403,12.115932,-1.000000,-1.000000,1522136593.111284,
1522136679.804245,-0.059102,-0.028978,1.957664,-0.090087,0.010850,-0.011404,-0.059043,0.028974,-0.997835,-0.028650,0.000720,0.013567,-19.662750,-52.907913,1.291138,,,,,,,
1522136679.834213,-0.059357,-0.029499,1.956964,0.018794,-0.001046,-0.018777,-0.059296,0.029495,-0.997805,-0.025756,0.007401,-0.010878,-19.363815,-53.059174,1.366882,,,,,,,
1522136679.864181,-0.058256,-0.030033,1.956697,-0.051395,0.076586,-0.003985,-0.058197,0.030029,-0.997853,-0.024124,-0.018631,-0.011500,-19.442871,-53.059494,0.691833,,,,,,,
1522136679.894149,-0.057490,-0.030822,1.956697,0.019717,-0.018156,-0.004902,-0.057431,0.030818,-0.997874,-0.030688,-0.021998,0.002070,-19.068787,-53.061340,0.541992,,,,,,,
1522136679.924118,-0.059090,-0.028523,1.956139,0.093227,-0.082962,-0.031427,-0.059031,0.028519,-0.997849,-0.045812,-0.010697,-0.011993,-20.184753,-52.605560,1.289612,,,,,,,
1522136679.954086,-0.060542,-0.026869,1.955314,0.009269,0.004358,-0.029440,-0.060483,0.026865,-0.997808,-0.036853,0.008138,-0.010508,-19.740448,-53.132645,1.216980,,,,,,,
1522136679.984054,-0.060395,-0.027498,1.954898,-0.028246,0.008493,0.001423,-0.060335,0.027494,-0.997799,-0.024214,-0.000288,-0.022937,-20.114838,-53.205734,1.442078,,,,,,,
1522136680.014023,-0.059886,-0.028361,1.955380,-0.031563,0.022070,0.035508,-0.059826,0.028357,-0.997806,-0.023624,0.000177,-0.006222,-20.112900,-52.831039,1.140625,,,,,,,
1522136680.043991,-0.060054,-0.028823,1.956091,0.008920,-0.022513,0.014273,-0.059993,0.028819,-0.997783,-0.023610,-0.009929,0.013942,-19.437927,-52.834076,1.140991,,,,,,,
1522136680.073959,-0.061996,-0.027407,1.956001,0.063272,-0.085078,-0.021858,-0.061933,0.027403,-0.997704,-0.026782,-0.007094,-0.013465,-20.114395,-52.981033,1.141235,,,,,,,
1522136680.103904,-0.064639,-0.026058,1.955295,0.026996,-0.086016,-0.027210,-0.064572,0.026055,-0.997573,-0.024784,0.003577,-0.022126,-20.040878,-53.131363,1.141846,,,,,,,
,,,,,,,,,,,,,,,,25.314958,51.435196,11.265265,0.000000,-1.000000,1522136680.098985,
1522136680.133873,-0.066282,-0.025407,1.954485,0.010108,-0.026544,-0.014505,-0.066212,0.025404,-0.997482,-0.027660,0.008196,-0.007782,-19.060989,-52.685699,1.215515,,,,,,,
1522136680.163841,-0.065626,-0.025951,1.954579,-0.034445,0.059484,0.005629,-0.065556,0.025948,-0.997511,-0.028804,0.009086,-0.004182,-20.034286,-52.606171,1.364746,,,,,,,
1522136680.193809,-0.065396,-0.026556,1.954799,0.007834,-0.032030,0.008950,-0.065326,0.026553,-0.997511,-0.032513,-0.014484,0.008390,-19.811111,-52.832092,1.440735,,,,,,,
1522136680.223777,-0.066040,-0.026085,1.954886,0.006923,-0.001175,0.004652,-0.065970,0.026082,-0.997481,-0.026972,-0.021611,-0.027971,-20.034714,-53.055481,2.041504,,,,,,,
1522136680.253746,-0.066515,-0.026230,1.954768,-0.011224,-0.020155,-0.011319,-0.066443,0.026227,-0.997445,-0.025414,0.005359,-0.006354,-20.263779,-53.055130,1.366394,,,,,,,
1522136680.283714,-0.067071,-0.026780,1.954795,-0.025161,-0.002260,0.016363,-0.066996,0.026777,-0.997394,-0.020345,0.011324,-0.004758,-20.116028,-53.280792,1.367371,,,,,,,
1522136680.313682,-0.066799,-0.027300,1.955251,-0.014465,0.005158,0.017419,-0.066725,0.027297,-0.997398,-0.026415,-0.006560,-0.000374,-19.363235,-52.684708,0.840332,,,,,,,
1522136680.343650,-0.067069,-0.026968,1.955704,0.028346,0.012556,0.005734,-0.066995,0.026964,-0.997389,-0.032981,-0.005068,0.001677,-19.961395,-52.681717,1.140076,,,,,,,
1522136680.373588,-0.067248,-0.026221,1.955900,0.026112,-0.015008,-0.000642,-0.067175,0.026218,-0.997397,-0.031321,0.009914,-0.029398,-20.039383,-52.981369,1.141235,,,,,,,
1522136680.403556,-0.066472,-0.025942,1.955793,-0.006828,0.030712,0.007808,-0.066401,0.025940,-0.997456,-0.034429,-0.004577,-0.016216,-19.735062,-52.682510,1.365173,,,,,,,
1522136680.433525,-0.066545,-0.026254,1.955727,-0.014238,0.014952,-0.016681,-0.066473,0.026251,-0.997443,-0.036295,0.014596,0.012259,-20.338165,-53.129578,1.591675,,,,,,,
1522136680.463493,-0.065992,-0.026277,1.955180,0.013551,0.019165,-0.019868,-0.065921,0.026274,-0.997479,-0.042660,0.009310,-0.001422,-20.409271,-52.604477,1.364563,,,,,,,
1522136680.493461,-0.065029,-0.025727,1.954418,0.010618,0.063891,-0.032701,-0.064962,0.025724,-0.997556,-0.064708,-0.009870,-0.000125,-20.111542,-53.055450,1.741516,,,,,,,
1522136680.523429,-0.062607,-0.025677,1.953289,0.003245,0.072491,-0.044435,-0.062546,0.025674,-0.997712,-0.062973,0.000556,-0.021652,-20.488174,-53.128891,1.591553,,,,,,,
1522136680.553398,-0.058703,-0.026696,1.951439,-0.088690,0.249323,-0.074516,-0.058648,0.026693,-0.997922,-0.067679,-0.005041,0.003629,-20.037140,-52.756378,1.140381,,,,,,,
1522136680.583366,-0.049510,-0.030433,1.949379,-0.134375,0.328956,-0.049059,-0.049467,0.030428,-0.998312,-0.067233,-0.001376,-0.026499,-19.213379,-52.610535,0.690186,,,,,,,
1522136680.613334,-0.042880,-0.032412,1.947985,-0.011420,0.140525,-0.041326,-0.042844,0.032407,-0.998556,-0.085391,0.010745,-0.017725,-19.889114,-52.682480,0.690125,,,,,,,
1522136680.643302,-0.041922,-0.031384,1.946384,0.054164,-0.018892,-0.061360,-0.041889,0.031379,-0.998629,-0.115780,0.010491,-0.014981,-19.738220,-52.683014,0.840149,,,,,,,
1522136680.673271,-0.043579,-0.029159,1.944564,0.081861,-0.030667,-0.059194,-0.043547,0.029155,-0.998626,-0.117433,0.028569,-0.013337,-18.988251,-52.686386,0.840576,,,,,,,
1522136680.703239,-0.043773,-0.027102,1.943326,0.039242,0.026584,-0.026250,-0.043743,0.027099,-0.998675,-0.111195,0.012909,-0.011258,-19.666794,-53.133194,0.992004,,,,,,,
1522136680.733207,-0.043180,-0.026781,1.943912,0.020644,0.011248,0.046207,-0.043151,0.026778,-0.998710,-0.108094,0.020768,0.010093,-19.367264,-53.134613,0.917175,,,,,,,
1522136680.763176,-0.042060,-0.025378,1.945908,0.071007,0.087396,0.078140,-0.042034,0.025375,-0.998794,-0.124104,-0.000824,0.010757,-19.510681,-52.608749,1.140015,,,,,,,
1522136680.793144,-0.040330,-0.023230,1.947833,0.068796,0.031357,0.041954,-0.040308,0.023228,-0.998917,-0.127218,-0.014119,-0.017852,-20.039383,-52.981369,1.141235,,,,,,,
1522136680.823112,-0.040504,-0.022206,1.948425,0.008004,-0.005382,-0.001737,-0.040483,0.022204,-0.998933,-0.126525,0.000654,-0.014159,-20.937561,-52.752411,1.064880,,,,,,,
1522136680.853080,-0.040863,-0.022989,1.947724,-0.039861,0.005529,-0.026287,-0.040840,0.022987,-0.998901,-0.131141,0.011528,-0.004700,-18.910980,-52.686371,1.215576,,,,,,,
1522136680.883049,-0.041317,-0.024077,1.947323,-0.034662,0.002185,-0.003913,-0.041293,0.024075,-0.998857,-0.127408,-0.004482,0.001176,-19.816803,-53.132507,0.991943,,,,,,,
1522136680.913017,-0.041069,-0.024843,1.947218,-0.018601,0.018026,0.002485,-0.041045,0.024840,-0.998848,-0.134737,-0.004012,-0.006965,-19.892990,-53.207245,0.917175,,,,,,,
1522136680.942985,-0.040910,-0.025333,1.946716,-0.030181,0.018251,-0.027350,-0.040886,0.025330,-0.998843,-0.138970,-0.006501,-0.008405,-19.514725,-52.834015,0.840881,,,,,,,
1522136680.972953,-0.041183,-0.026894,1.945768,-0.063258,0.018401,-0.033783,-0.041156,0.026891,-0.998791,-0.128857,-0.002080,0.011074,-20.116486,-53.056244,0.916504,,,,,,,
1522136681.002922,-0.040041,-0.029103,1.944854,-0.082308,0.074658,-0.017873,-0.040014,0.029099,-0.998775,-0.119227,-0.003144,-0.003636,-20.040146,-52.831741,0.765625,,,,,,,
1522136681.032890,-0.038839,-0.030508,1.944479,-0.011011,0.031900,-0.008181,-0.038811,0.030503,-0.998781,-0.122612,-0.004258,-0.000624,-19.894806,-53.207535,0.617188,,,,,,,
1522136681.062858,-0.038855,-0.029942,1.944344,0.029414,0.004139,-0.003859,-0.038828,0.029937,-0.998797,-0.112723,-0.006225,0.000308,-19.519516,-53.134308,0.542114,,,,,,,
1522136681.092822,-0.040113,-0.029529,1.943817,0.001559,-0.045564,-0.028336,-0.040085,0.029524,-0.998760,-0.119034,-0.000395,-0.010166,-18.914139,-52.686874,0.690613,,,,,,,
1522136681.122791,-0.041464,-0.029297,1.942708,0.003824,-0.024273,-0.034749,-0.041434,0.029292,-0.998712,-0.114953,0.002034,-0.015952,-19.744965,-53.133362,0.466980,,,,,,,
,,,,,,,,,,,,,,,,25.314958,51.435196,11.264181,0.000000,-1.000000,1522136681.098477,
1522136681.152759,-0.042485,-0.029165,1.941783,0.002817,-0.005185,-0.029439,-0.042454,0.029161,-0.998673,-0.120616,0.005125,-0.003662,-19.594055,-53.133896,0.617065,,,,,,,
1522136681.182727,-0.042800,-0.029323,1.941218,-0.001532,0.000025,-0.011342,-0.042768,0.029319,-0.998655,-0.112352,0.005853,-0.004840,-18.990204,-52.836456,0.766174,,,,,,,
1522136681.212694,-0.043799,-0.028611,1.940933,0.037815,-0.034089,-0.010210,-0.043767,0.028607,-0.998632,-0.113719,-0.005277,-0.013483,-19.290009,-52.909973,0.916321,,,,,,,
1522136681.242664,-0.045154,-0.027890,1.940575,0.005827,-0.037140,-0.019813,-0.045121,0.027886,-0.998592,-0.108596,0.004584,-0.029118,-19.141083,-53.060562,0.992004,,,,,,,
1522136681.272631,-0.045874,-0.028317,1.939895,-0.021781,0.003293,-0.015622,-0.045839,0.028313,-0.998547,-0.115080,0.017707,-0.010242,-18.994843,-53.211594,0.617676,,,,,,,
1522136681.302599,-0.046690,-0.028406,1.939568,0.013283,-0.036108,-0.016619,-0.046654,0.028402,-0.998507,-0.112739,0.018213,-0.003034,-19.143188,-53.135773,0.767334,,,,,,,
1522136681.332537,-0.048064,-0.027544,1.939030,0.036787,-0.031928,-0.015537,-0.048027,0.027540,-0.998466,-0.117501,0.014391,-0.014244,-19.287766,-52.909607,1.291321,,,,,,,
1522136681.362505,-0.049200,-0.026481,1.938427,0.029428,-0.018049,-0.024072,-0.049163,0.026478,-0.998440,-0.131822,0.028057,-0.011326,-18.916672,-53.211411,1.142761,,,,,,,
1522136681.392474,-0.049986,-0.025883,1.937760,0.018800,-0.007363,-0.026235,-0.049949,0.025880,-0.998416,-0.134774,0.017852,-0.012982,-19.291046,-53.284500,1.367798,,,,,,,
1522136681.422442,-0.050798,-0.025383,1.936898,0.020872,-0.031752,-0.034730,-0.050760,0.025380,-0.998388,-0.141394,0.012614,-0.014551,-19.740906,-53.132706,1.142029,,,,,,,
1522136681.452410,-0.052660,-0.024822,1.935683,0.008070,-0.044382,-0.047513,-0.052620,0.024819,-0.998306,-0.155373,-0.006585,-0.002411,-18.614746,-53.062698,1.217224,,,,,,,
1522136681.482378,-0.053094,-0.024981,1.933847,-0.016187,0.013126,-0.056118,-0.053052,0.024979,-0.998279,-0.151538,-0.002823,-0.004376,-19.667236,-53.357895,1.292908,,,,,,,
1522136681.512347,-0.053675,-0.025508,1.932123,-0.025866,-0.012310,-0.063552,-0.053632,0.025506,-0.998235,-0.160754,0.012016,0.001149,-19.588943,-53.207947,1.592346,,,,,,,
1522136681.542315,-0.054385,-0.026123,1.929862,-0.015164,-0.022866,-0.077385,-0.054339,0.026120,-0.998181,-0.169416,0.000156,0.006955,-18.691544,-53.062653,0.917236,,,,,,,
1522136681.572284,-0.056212,-0.025664,1.927566,0.030556,-0.055970,-0.069861,-0.056164,0.025661,-0.998092,-0.176380,-0.004955,0.008407,-19.141678,-53.210403,1.142639,,,,,,,
1522136681.602252,-0.057032,-0.024986,1.926078,0.005126,0.021471,-0.041194,-0.056983,0.024983,-0.998062,-0.184441,-0.002675,-0.011490,-19.141968,-53.285339,1.217896,,,,,,,
1522136681.632221,-0.056661,-0.025700,1.925425,-0.034497,0.028776,-0.010320,-0.056612,0.025697,-0.998066,-0.179884,0.007781,-0.003094,-18.690491,-53.137360,1.217529,,,,,,,
1522136681.662189,-0.056029,-0.026982,1.925138,-0.053656,0.056376,0.001354,-0.055979,0.026979,-0.998067,-0.186224,0.001967,0.002645,-18.916962,-53.286346,1.217957,,,,,,,
1522136681.692157,-0.055049,-0.028700,1.925539,-0.055948,0.037171,0.014154,-0.054999,0.028696,-0.998074,-0.167337,-0.008188,0.004773,-19.445251,-53.434265,0.918335,,,,,,,
1522136681.722125,-0.054607,-0.030246,1.925798,-0.043176,0.028641,0.014170,-0.054555,0.030241,-0.998053,-0.169933,0.007662,0.008871,-18.465363,-52.988602,0.992065,,,,,,,
1522136681.752094,-0.053951,-0.030474,1.926037,0.021957,0.025306,0.011030,-0.053900,0.030469,-0.998081,-0.159616,0.005649,0.014500,-19.441666,-53.209061,1.142456,,,,,,,
1522136681.782062,-0.053794,-0.029395,1.926678,0.022962,0.029422,0.028084,-0.053745,0.029391,-0.998122,-0.153301,0.007306,0.017043,-19.668137,-53.358032,1.142944,,,,,,,
1522136681.812030,-0.053830,-0.028997,1.927460,0.022853,0.002907,0.023835,-0.053781,0.028993,-0.998132,-0.143897,-0.001085,-0.005195,-19.444962,-53.583969,1.218933,,,,,,,
1522136681.841998,-0.054686,-0.027927,1.927837,0.049566,-0.019327,0.001507,-0.054638,0.027924,-0.998116,-0.153782,0.006607,-0.022026,-19.144073,-53.585159,1.369080,,,,,,,
1522136681.871967,-0.055943,-0.027215,1.927425,-0.013285,-0.020038,-0.026243,-0.055893,0.027211,-0.998066,-0.154526,0.011653,-0.010540,-18.691849,-53.137573,0.992554,,,,,,,
1522136681.901935,-0.056060,-0.028576,1.926202,-0.051468,0.017375,-0.043362,-0.056007,0.028572,-0.998021,-0.141380,0.023125,-0.013667,-18.842270,-53.136978,0.917419,,,,,,,
1522136681.931902,-0.056710,-0.029411,1.924855,-0.024932,-0.017744,-0.044377,-0.056655,0.029407,-0.997961,-0.128434,0.010830,-0.008234,-19.069077,-53.360886,0.993225,,,,,,,
1522136681.961870,-0.056628,-0.030562,1.923811,-0.037659,0.023581,-0.024178,-0.056571,0.030557,-0.997931,-0.136010,0.010138,-0.014749,-19.294495,-53.359940,0.918091,,,,,,,
1522136681.991839,-0.057554,-0.030668,1.923218,0.022836,-0.048869,-0.017669,-0.057495,0.030663,-0.997875,-0.135483,0.012336,-0.016362,-18.693649,-53.137863,0.692566,,,,,,,
1522136682.021807,-0.059123,-0.029945,1.922771,0.011144,-0.032936,-0.013428,-0.059062,0.029941,-0.997805,-0.136357,0.014294,-0.027173,-18.995575,-53.511215,0.993896,,,,,,,
1522136682.051775,-0.059358,-0.030590,1.922112,-0.036524,0.031061,-0.030578,-0.059296,0.030585,-0.997772,-0.134354,0.013696,-0.019761,-18.920425,-53.586395,1.144226,,,,,,,
1522136682.081744,-0.058625,-0.031683,1.921038,-0.035476,0.021522,-0.034827,-0.058562,0.031677,-0.997781,-0.121461,0.013229,-0.027060,-18.695450,-53.587402,1.144348,,,,,,,
1522136682.111708,-0.057530,-0.032445,1.920381,-0.014052,0.069092,-0.007156,-0.057468,0.032439,-0.997820,-0.123730,-0.000732,-0.003782,-19.369354,-53.434448,1.068359,,,,,,,
,,,,,,,,,,,,,,,,25.314958,51.435196,11.263062,0.000000,-1.000000,1522136682.097280,
1522136682.141676,-0.056929,-0.032277,1.920581,0.019711,-0.004395,0.005725,-0.056868,0.032271,-0.997860,-0.117540,0.007432,-0.007511,-18.323303,-53.514694,0.544189,,,,,,,
1522136682.171644,-0.057384,-0.032074,1.920399,-0.008983,0.003252,-0.013485,-0.057323,0.032068,-0.997841,-0.114872,0.005880,-0.006310,-18.694534,-53.362640,0.918396,,,,,,,
1522136682.201613,-0.057460,-0.032963,1.919671,-0.038779,0.006625,-0.029493,-0.057397,0.032957,-0.997807,-0.118079,0.015718,0.004109,-18.700241,-53.887680,0.845520,,,,,,,
1522136682.231581,-0.058132,-0.033408,1.918553,-0.006829,-0.021041,-0.036893,-0.058067,0.033402,-0.997754,-0.125359,0.001388,0.009412,-17.724396,-53.667313,0.620117,,,,,,,
1522136682.261519,-0.059244,-0.033399,1.917516,-0.004747,-0.028501,-0.033692,-0.059177,0.033393,-0.997689,-0.128232,0.015221,0.007790,-18.695740,-53.437698,0.843689,,,,,,,
1522136682.291487,-0.060083,-0.033438,1.916668,0.011238,-0.012717,-0.015589,-0.060013,0.033432,-0.997638,-0.123413,0.006027,-0.001142,-18.246658,-53.439865,0.693970,,,,,,,
1522136682.321455,-0.061184,-0.032952,1.916532,0.003702,-0.019135,-0.008124,-0.061113,0.032946,-0.997587,-0.110625,-0.002032,-0.012011,-18.470291,-53.438644,0.918823,,,,,,,
1522136682.351423,-0.061883,-0.033841,1.915548,-0.047339,-0.011355,-0.040129,-0.061808,0.033835,-0.997514,-0.122671,-0.012137,0.012773,-19.147675,-53.810379,1.145020,,,,,,,
1522136682.381392,-0.062872,-0.034336,1.914689,0.018678,-0.026531,-0.019824,-0.062794,0.034329,-0.997436,-0.118954,0.000720,0.007293,-18.023773,-53.740723,0.845276,,,,,,,
1522136682.411360,-0.064356,-0.033170,1.914294,0.028240,-0.032966,-0.015545,-0.064276,0.033164,-0.997381,-0.121286,0.008385,0.005468,-17.569595,-53.143082,0.543091,,,,,,,
1522136682.441328,-0.065329,-0.033391,1.913933,-0.019756,-0.010596,-0.006015,-0.065246,0.033385,-0.997311,-0.120041,-0.000334,0.003673,-18.315674,-52.839569,0.691528,,,,,,,
1522136682.471296,-0.066616,-0.032868,1.913711,0.049480,-0.051115,-0.010187,-0.066531,0.032862,-0.997243,-0.115308,-0.005808,-0.013102,-18.470154,-53.288879,0.693237,,,,,,,
1522136682.501265,-0.068869,-0.030908,1.913337,0.069807,-0.061689,-0.026138,-0.068782,0.030903,-0.997153,-0.116673,0.012234,-0.012658,-17.639343,-52.842392,0.916870,,,,,,,
1522136682.531233,-0.071520,-0.029038,1.912231,0.050595,-0.075335,-0.041067,-0.071429,0.029033,-0.997023,-0.120222,0.018055,-0.014314,-18.018661,-53.365540,1.068787,,,,,,,
1522136682.561201,-0.073536,-0.028043,1.911503,0.017550,-0.044560,-0.024071,-0.073440,0.028039,-0.996905,-0.128281,0.026679,-0.019208,-17.871521,-53.516418,0.844421,,,,,,,
1522136682.591169,-0.073772,-0.028037,1.910854,-0.002461,0.024504,-0.016695,-0.073676,0.028033,-0.996888,-0.131601,0.025906,-0.018600,-17.643082,-53.217377,0.918335,,,,,,,
1522136682.621138,-0.073669,-0.027857,1.910753,0.008056,0.007379,-0.001757,-0.073574,0.027854,-0.996901,-0.121159,0.023874,0.009504,-18.167297,-53.364639,1.293701,,,,,,,
1522136682.651106,-0.073662,-0.027680,1.910779,0.011260,0.015799,0.006770,-0.073567,0.027676,-0.996906,-0.122295,0.015353,0.007099,-18.394852,-53.438904,0.993896,,,,,,,
1522136682.681074,-0.073777,-0.026359,1.910965,0.068783,-0.018302,0.001514,-0.073685,0.026356,-0.996933,-0.122406,0.006450,-0.000274,-17.644135,-53.367294,0.993958,,,,,,,
1522136682.711043,-0.075011,-0.024551,1.910833,0.037898,-0.019206,-0.012350,-0.074918,0.024549,-0.996887,-0.127566,0.003787,0.003983,-18.319702,-53.514099,1.144226,,,,,,,
1522136682.741011,-0.075081,-0.024027,1.910308,0.017746,0.000044,-0.021978,-0.074988,0.024025,-0.996895,-0.112969,0.007805,-0.028999,-18.615051,-52.913010,0.916626,,,,,,,
1522136682.770979,-0.075877,-0.023944,1.909861,-0.026016,0.013918,-0.013507,-0.075783,0.023942,-0.996837,-0.123619,-0.000398,-0.013448,-17.712845,-52.692062,0.916199,,,,,,,
1522136682.800947,-0.074687,-0.026042,1.909095,-0.068623,0.031054,-0.017817,-0.074593,0.026039,-0.996874,-0.128761,0.005729,-0.003553,-17.718231,-53.366806,1.143982,,,,,,,
1522136682.830916,-0.075025,-0.025877,1.908578,0.035865,0.008415,-0.009189,-0.074929,0.025874,-0.996853,-0.117683,0.002935,0.000744,-17.639343,-52.842392,0.916870,,,,,,,
1522136682.860884,-0.074294,-0.025759,1.908408,-0.014158,0.041500,-0.011394,-0.074201,0.025756,-0.996911,-0.121188,0.015809,0.008843,-17.564194,-52.917587,1.067200,,,,,,,
1522136682.890852,-0.074005,-0.025225,1.908595,0.051720,0.015582,0.025967,-0.073914,0.025222,-0.996946,-0.102814,-0.007079,-0.031054,-18.015991,-52.915848,0.767029,,,,,,,
1522136682.920820,-0.074408,-0.024049,1.909110,0.002703,0.001026,-0.003882,-0.074318,0.024047,-0.996945,-0.118462,-0.004577,-0.034260,-18.017639,-52.990982,0.617249,,,,,,,
1522136682.950789,-0.074014,-0.025724,1.908316,-0.065390,0.026864,-0.027401,-0.073922,0.025721,-0.996932,-0.104240,-0.003641,-0.013657,-17.564514,-52.767883,0.766663,,,,,,,
1522136682.980757,-0.074023,-0.026713,1.907450,-0.031300,0.010830,-0.026292,-0.073929,0.026710,-0.996906,-0.108520,0.014900,-0.010602,-18.315231,-52.839493,0.766541,,,,,,,
1522136683.010725,-0.073229,-0.028030,1.906863,-0.044035,0.048988,-0.008226,-0.073135,0.028027,-0.996928,-0.106461,0.013782,0.011989,-17.868546,-52.991806,0.467346,,,,,,,
1522136683.040693,-0.072450,-0.028390,1.906829,0.013386,0.012632,0.004636,-0.072357,0.028386,-0.996975,-0.100174,0.008143,0.009090,-17.342667,-52.769409,0.241699,,,,,,,
1522136683.070662,-0.072768,-0.027800,1.906674,0.010211,-0.008466,-0.017714,-0.072676,0.027796,-0.996968,-0.110903,-0.003367,-0.002360,-18.314636,-52.689651,0.615906,,,,,,,
1522136683.100624,-0.073443,-0.027524,1.906123,0.022994,-0.011695,-0.015574,-0.073349,0.027521,-0.996927,-0.106964,-0.004922,-0.002112,-18.390823,-52.764389,0.541199,,,,,,,
1522136683.130592,-0.074847,-0.026451,1.905392,0.026165,-0.036039,-0.030464,-0.074751,0.026448,-0.996851,-0.111147,-0.006306,0.000208,-18.087845,-52.465759,0.540100,,,,,,,
,,,,,,,,,,,,,,,,25.314958,51.435196,11.262177,0.000000,-1.000000,1522136683.101214,
1522136683.160560,-0.075903,-0.026466,1.904522,-0.021760,-0.006193,-0.027331,-0.075804,0.026463,-0.996772,-0.112688,0.002040,0.003730,-18.087830,-52.690369,0.916016,,,,,,,
1522136683.190498,-0.076437,-0.027161,1.903734,-0.011129,-0.007349,-0.018792,-0.076334,0.027158,-0.996712,-0.112448,0.019275,0.010964,-17.418106,-52.769135,0.166687,,,,,,,
1522136683.220466,-0.076791,-0.026916,1.903459,0.010257,0.019090,-0.004968,-0.076688,0.026913,-0.996692,-0.112216,0.023289,0.016284,-17.341019,-52.918884,0.767334,,,,,,,
1522136683.250435,-0.077110,-0.026729,1.903514,0.007936,-0.009701,0.007858,-0.077006,0.026726,-0.996672,-0.109868,0.013877,0.023497,-18.695755,-52.988464,0.091919,,,,,,,
1522136683.280403,-0.078082,-0.025943,1.904028,0.035566,-0.025783,0.018549,-0.077977,0.025940,-0.996618,-0.103450,0.011368,0.018071,-18.014801,-52.616150,0.465759,,,,,,,
1522136683.310371,-0.078923,-0.025135,1.904490,0.036739,-0.005569,0.015330,-0.078817,0.025132,-0.996572,-0.106745,0.018356,-0.027109,-18.690216,-52.613190,0.390442,,,,,,,
1522136683.340339,-0.079278,-0.024836,1.904424,-0.018498,0.016066,-0.019895,-0.079170,0.024834,-0.996552,-0.111824,0.012169,-0.021087,-17.714355,-52.617432,0.540894,,,,,,,
1522136683.370308,-0.078780,-0.026054,1.903210,-0.047109,0.032274,-0.047638,-0.078672,0.026051,-0.996560,-0.115679,-0.001743,-0.014091,-18.611771,-52.538086,0.840149,,,,,,,
1522136683.400276,-0.078376,-0.027189,1.902251,-0.027008,0.030923,-0.013526,-0.078267,0.027185,-0.996562,-0.108913,-0.002405,-0.001790,-18.390076,-52.689392,0.540894,,,,,,,
1522136683.430244,-0.078272,-0.026785,1.901989,0.041127,0.005131,0.002539,-0.078164,0.026782,-0.996581,-0.102973,-0.001651,-0.016466,-18.319870,-52.990005,0.242126,,,,,,,
1522136683.460213,-0.078173,-0.025827,1.902465,0.019797,0.022142,0.011019,-0.078067,0.025824,-0.996614,-0.104764,0.004572,-0.027556,-17.566772,-52.543625,0.015747,,,,,,,
1522136683.490181,-0.078190,-0.025576,1.902617,0.001540,-0.011794,0.004662,-0.078084,0.025573,-0.996619,-0.102946,0.001313,-0.033502,-17.941299,-52.766479,0.466370,,,,,,,
1522136683.520149,-0.078882,-0.025981,1.902324,-0.019717,-0.021100,-0.023055,-0.078774,0.025978,-0.996554,-0.094245,0.009254,-0.038450,-18.465973,-52.689194,0.390869,,,,,,,
1522136683.550117,-0.079439,-0.026881,1.901479,-0.046279,0.009766,-0.020974,-0.079326,0.026878,-0.996486,-0.102070,0.020150,-0.033924,-17.637100,-52.617401,0.915955,,,,,,,
1522136683.580086,-0.079300,-0.028136,1.900482,-0.031212,0.019382,-0.034819,-0.079186,0.028133,-0.996463,-0.112770,0.022481,-0.007749,-18.466873,-52.689346,0.240845,,,,,,,
1522136683.610054,-0.079297,-0.028503,1.899702,-0.012186,-0.006276,-0.019860,-0.079182,0.028499,-0.996453,-0.112346,0.008473,-0.007545,-18.619263,-52.838806,0.091370,,,,,,,
1522136683.640022,-0.079604,-0.028787,1.898936,-0.001483,0.003256,-0.017737,-0.079487,0.028783,-0.996420,-0.116085,0.006206,-0.013696,-18.096252,-52.766617,-0.358643,,,,,,,
1522136683.669990,-0.080893,-0.027619,1.898531,0.060172,-0.052171,-0.014443,-0.080774,0.027616,-0.996350,-0.119223,-0.001432,-0.013080,-18.923569,-53.362289,0.243286,,,,,,,
1522136683.699959,-0.082766,-0.025724,1.898306,0.054815,-0.061695,-0.018696,-0.082644,0.025722,-0.996247,-0.120694,0.014699,-0.005569,-18.919983,-53.137070,0.467407,,,,,,,
1522136683.729927,-0.084160,-0.024901,1.897517,0.006002,-0.008374,-0.029438,-0.084035,0.024898,-0.996152,-0.126109,0.022786,0.019849,-17.721252,-52.992920,0.017456,,,,,,,
1522136683.759895,-0.084518,-0.024498,1.897267,0.028198,-0.018227,0.004683,-0.084392,0.024496,-0.996132,-0.111546,0.027231,0.021644,-18.618362,-52.838654,0.241394,,,,,,,
1522136683.789863,-0.085826,-0.023574,1.897852,0.034481,-0.026839,0.019607,-0.085696,0.023572,-0.996042,-0.112607,0.042697,0.020945,-19.146484,-53.286057,0.467896,,,,,,,
1522136683.819832,-0.087025,-0.023215,1.898036,-0.009138,-0.022319,-0.004930,-0.086892,0.023213,-0.995947,-0.126441,0.035595,0.025855,-18.694107,-53.137939,0.617554,,,,,,,
1522136683.849800,-0.087379,-0.023221,1.897389,0.026288,-0.002053,-0.026245,-0.087245,0.023218,-0.995916,-0.124685,0.025488,0.022146,-18.844986,-53.137405,0.467407,,,,,,,
1522136683.879768,-0.087327,-0.023080,1.896571,-0.017264,0.039524,-0.031639,-0.087193,0.023078,-0.995924,-0.120403,0.009133,0.009291,-19.145432,-53.136139,0.392334,,,,,,,
1522136683.909736,-0.087243,-0.023869,1.895787,-0.023866,0.006544,-0.023090,-0.087108,0.023867,-0.995913,-0.127553,-0.006929,0.017046,-18.099365,-53.440994,0.244019,,,,,,,
1522136683.939705,-0.087484,-0.024339,1.895009,0.002857,0.004402,-0.030524,-0.087347,0.024336,-0.995881,-0.130747,-0.017424,0.010834,-18.620895,-53.363190,0.693481,,,,,,,
1522136683.969673,-0.087793,-0.023317,1.894024,0.038077,-0.007324,-0.037944,-0.087657,0.023315,-0.995878,-0.118627,-0.031295,-0.026842,-19.371765,-53.584595,0.918945,,,,,,,
1522136683.999641,-0.088750,-0.023048,1.892669,-0.032273,-0.000667,-0.053982,-0.088610,0.023046,-0.995800,-0.118162,-0.018957,-0.034199,-18.024078,-53.591034,0.544678,,,,,,,
1522136684.029610,-0.088297,-0.025468,1.890736,-0.115384,0.038860,-0.053025,-0.088154,0.025465,-0.995781,-0.124767,-0.012892,-0.026512,-18.701447,-53.962753,0.770874,,,,,,,
1522136684.059578,-0.087600,-0.028543,1.889250,-0.095243,0.037560,-0.026371,-0.087453,0.028539,-0.995760,-0.122142,-0.004873,-0.013167,-18.923126,-53.586823,0.694214,,,,,,,
1522136684.089516,-0.086288,-0.030347,1.889321,-0.026121,0.046508,0.035479,-0.086141,0.030342,-0.995821,-0.091471,-0.012672,-0.030928,-18.177200,-53.815491,0.395508,,,,,,,
1522136684.119492,-0.085208,-0.030495,1.891240,0.001341,0.029151,0.077070,-0.085066,0.030490,-0.995909,-0.065462,-0.027102,-0.032549,-19.455307,-54.034897,0.245728,,,,,,,
,,,,,,,,,,,,,,,,25.314958,51.435196,11.255524,0.000000,-1.000000,1522136684.102972,
1522136684.149460,-0.084749,-0.031351,1.893173,-0.039122,0.026246,0.052529,-0.084606,0.031346,-0.995921,-0.039692,-0.021702,-0.012502,-18.704590,-53.963272,0.245850,,,,,,,
1522136684.179428,-0.084084,-0.033131,1.894707,-0.058430,0.009264,0.055732,-0.083938,0.033125,-0.995920,-0.007721,-0.003599,-0.015417,-18.630646,-54.113525,0.321472,,,,,,,
1522136684.209397,-0.083618,-0.035047,1.895789,-0.067848,0.038077,0.042903,-0.083470,0.035040,-0.995894,-0.002468,-0.003302,0.008162,-18.555176,-54.113785,0.396545,,,,,,,
1522136684.239365,-0.082229,-0.037145,1.896606,-0.054943,0.032856,0.022685,-0.082079,0.037136,-0.995934,-0.010877,0.005207,0.003990,-18.858322,-54.112946,-0.128662,,,,,,,
1522136684.269333,-0.084125,-0.035991,1.896921,0.102527,-0.123506,-0.009014,-0.083971,0.035983,-0.995818,-0.042356,0.025602,-0.049546,-18.182312,-53.966064,-0.203918,,,,,,,
1522136684.299301,-0.087084,-0.032843,1.896341,0.081655,-0.056304,-0.041050,-0.086928,0.032837,-0.995673,-0.090441,0.034683,-0.023599,-18.781387,-54.187836,0.321716,,,,,,,
1522136684.329270,-0.087669,-0.030797,1.895292,0.060514,0.004269,-0.031550,-0.087516,0.030793,-0.995687,-0.096628,0.045028,0.022787,-18.927322,-53.737259,0.244812,,,,,,,
1522136684.359238,-0.087168,-0.028370,1.895902,0.114602,0.011040,0.044138,-0.087023,0.028367,-0.995802,-0.031553,0.025558,-0.011674,-18.326920,-53.739883,0.320129,,,,,,,
1522136684.389206,-0.087730,-0.025951,1.898078,0.050256,-0.023002,0.070771,-0.087588,0.025948,-0.995819,-0.005186,0.000526,-0.031525,-19.000519,-53.961258,0.920654,,,,,,,
1522136684.419174,-0.089329,-0.026911,1.899285,-0.061820,-0.076547,0.018528,-0.089178,0.026908,-0.995652,-0.032969,0.014855,-0.038772,-19.299301,-53.884842,0.995239,,,,,,,
1522136684.449143,-0.091433,-0.028530,1.898628,-0.046439,-0.049603,-0.041156,-0.091269,0.028526,-0.995418,-0.064142,0.023567,-0.008199,-19.225494,-53.960251,0.920532,,,,,,,
1522136684.479111,-0.092212,-0.030914,1.896524,-0.107929,0.000783,-0.081747,-0.092037,0.030909,-0.995276,-0.108128,0.047277,0.101370,-19.302460,-53.885345,0.470215,,,,,,,
1522136684.509079,-0.090642,-0.032199,1.893911,0.031038,0.060839,-0.060381,-0.090471,0.032193,-0.995379,-0.081511,0.025027,0.071200,-18.781082,-54.112930,0.246399,,,,,,,
1522136684.539047,-0.092549,-0.025202,1.894542,0.372301,-0.145755,0.038090,-0.092388,0.025199,-0.995404,-0.035313,-0.010017,-0.048144,-18.476883,-54.188461,1.071838,,,,,,,
1522136684.569016,-0.098150,-0.015349,1.896782,0.230425,-0.138966,0.024151,-0.097981,0.015348,-0.995070,-0.070384,-0.022031,-0.084489,-19.296722,-54.258804,2.046692,,,,,,,
1522136684.598984,-0.099798,-0.016334,1.895891,-0.185919,0.014644,-0.060509,-0.099619,0.016333,-0.994892,-0.099493,0.006952,-0.022870,-19.525635,-54.333298,1.521912,,,,,,,
1522136684.628952,-0.098717,-0.021566,1.893067,-0.116398,0.033638,-0.066867,-0.098534,0.021564,-0.994900,-0.092445,0.034252,0.013500,-19.599869,-54.257965,1.521606,,,,,,,
1522136684.658920,-0.097827,-0.022306,1.891887,0.007223,0.041484,-0.016706,-0.097647,0.022304,-0.994971,-0.095072,0.038686,0.018744,-18.926392,-54.410995,1.522522,,,,,,,
1522136684.688889,-0.095960,-0.021342,1.892261,0.052049,0.077245,0.018460,-0.095791,0.021340,-0.995173,-0.083622,0.016822,0.030131,-19.009781,-55.160767,1.375488,,,,,,,
1522136684.718857,-0.094983,-0.019568,1.893404,0.067713,0.026048,0.040897,-0.094822,0.019567,-0.995302,-0.066204,-0.020925,-0.015684,-19.453033,-54.708405,1.748413,,,,,,,
1522136684.748825,-0.094770,-0.018183,1.894528,0.046390,0.010295,0.021718,-0.094613,0.018182,-0.995348,-0.061729,-0.018288,-0.041166,-19.228317,-54.784332,1.823853,,,,,,,
1522136684.778794,-0.094388,-0.018363,1.894509,-0.046201,0.034174,-0.015674,-0.094232,0.018362,-0.995381,-0.068335,-0.019629,-0.023982,-18.860962,-55.461121,1.676697,,,,,,,
1522136684.808762,-0.092431,-0.021031,1.893289,-0.117383,0.092902,-0.031766,-0.092279,0.021029,-0.995511,-0.061820,-0.022448,-0.009128,-19.455856,-55.083237,1.899963,,,,,,,
1522136684.838730,-0.089668,-0.024526,1.891891,-0.114067,0.108898,-0.040307,-0.089521,0.024524,-0.995683,-0.061632,-0.000888,0.015702,-19.085678,-55.385208,1.601318,,,,,,,
1522136684.868698,-0.087594,-0.025669,1.891499,0.029381,0.024167,0.019560,-0.087454,0.025666,-0.995838,-0.030359,0.007140,-0.017956,-18.712784,-55.462097,1.376831,,,,,,,
1522136684.898667,-0.088482,-0.022906,1.892800,0.087821,-0.028121,0.029251,-0.088344,0.022904,-0.995827,-0.039876,-0.001313,-0.023247,-19.012314,-55.685303,1.827576,,,,,,,
1522136684.928635,-0.087969,-0.023736,1.892865,-0.086664,0.058686,-0.013589,-0.087831,0.023734,-0.995853,-0.069808,0.024499,0.038928,-19.160660,-55.609482,1.977173,,,,,,,
1522136684.958603,-0.087523,-0.023523,1.892542,0.111447,-0.031150,-0.000569,-0.087387,0.023521,-0.995897,-0.037842,0.029275,0.006273,-18.037811,-55.689758,1.753052,,,,,,,
1522136684.988541,-0.090710,-0.017896,1.893747,0.195281,-0.102809,0.035794,-0.090571,0.017895,-0.995729,-0.025045,0.029163,-0.058592,-18.633575,-55.761246,2.578064,,,,,,,
1522136685.018509,-0.092101,-0.016136,1.894980,-0.031722,-0.025639,0.022757,-0.091959,0.016135,-0.995632,-0.025885,0.033364,-0.048329,-18.937286,-55.910263,2.203491,,,,,,,
1522136685.048477,-0.092908,-0.018116,1.894461,-0.068722,-0.010299,-0.032682,-0.092759,0.018115,-0.995524,-0.036971,0.042799,-0.013952,-17.291428,-56.142960,1.905273,,,,,,,
1522136685.078446,-0.092699,-0.019977,1.892977,-0.048220,0.019518,-0.048682,-0.092548,0.019976,-0.995508,-0.049313,0.052137,-0.001990,-17.888107,-56.214600,2.580261,,,,,,,
1522136685.108397,-0.092213,-0.019896,1.891808,0.033823,0.010657,-0.025176,-0.092064,0.019895,-0.995554,-0.038048,0.020938,-0.002309,-17.813095,-55.990326,2.204407,,,,,,,
1522136685.138365,-0.092564,-0.018551,1.891311,0.029455,-0.010566,-0.026231,-0.092416,0.018550,-0.995548,-0.030936,-0.013713,-0.014813,-17.137085,-55.843445,2.129150,,,,,,,
,,,,,,,,,,,,,,,,25.314958,51.435196,11.248876,0.000000,-1.000000,1522136685.101752,
1522136685.168333,-0.092017,-0.020295,1.890237,-0.121811,0.050434,-0.037046,-0.091868,0.020294,-0.995564,-0.064199,-0.043930,0.007161,-17.588425,-56.066254,2.279846,,,,,,,
1522136685.198302,-0.090914,-0.024034,1.888073,-0.087639,0.012350,-0.072150,-0.090762,0.024032,-0.995583,-0.077359,-0.044479,-0.000374,-16.689194,-56.145309,2.280579,,,,,,,
1522136685.228270,-0.092221,-0.024129,1.886223,0.009137,-0.050723,-0.052833,-0.092063,0.024127,-0.995461,-0.066583,-0.048175,-0.027549,-16.091644,-56.073517,1.755554,,,,,,,
1522136685.258238,-0.093172,-0.024313,1.884990,-0.036619,-0.000782,-0.037993,-0.093010,0.024310,-0.995368,-0.072930,-0.033511,-0.000603,-16.767807,-56.145554,1.680481,,,,,,,
1522136685.288206,-0.092424,-0.026325,1.884012,-0.087778,0.051238,-0.011453,-0.092261,0.026322,-0.995387,-0.070489,-0.023454,0.004542,-16.394470,-56.222366,1.531067,,,,,,,
1522136685.318175,-0.091935,-0.027734,1.884037,-0.012399,-0.008667,0.018499,-0.091770,0.027730,-0.995394,-0.042385,-0.011312,-0.014189,-15.942993,-55.849777,1.154785,,,,,,,
1522136685.348143,-0.093108,-0.027254,1.884789,0.012086,-0.027830,0.015339,-0.092939,0.027250,-0.995299,-0.041124,-0.004271,-0.033281,-16.690094,-55.696198,1.378784,,,,,,,
1522136685.378111,-0.093936,-0.027565,1.884632,-0.023998,-0.020051,-0.019862,-0.093762,0.027562,-0.995213,-0.066379,0.002376,-0.017925,-16.095245,-56.074097,1.155579,,,,,,,
1522136685.408080,-0.094581,-0.027991,1.883575,-0.010007,-0.013614,-0.034769,-0.094403,0.027987,-0.995141,-0.082187,0.031156,0.000329,-14.662216,-55.180695,1.002686,,,,,,,
1522136685.438048,-0.094957,-0.027266,1.883253,0.034655,0.001878,0.013197,-0.094779,0.027262,-0.995125,-0.066720,0.026891,-0.025673,-15.635513,-55.325790,1.527832,,,,,,,
1522136685.468016,-0.094440,-0.027012,1.884255,-0.005934,0.023085,0.034454,-0.094265,0.027008,-0.995181,-0.046833,0.017196,-0.040510,-16.385040,-55.097733,1.226501,,,,,,,
1522136685.497984,-0.093878,-0.027798,1.884896,-0.042078,0.025493,0.006722,-0.093704,0.027795,-0.995212,-0.051331,-0.012979,0.000339,-16.233398,-55.023254,1.376282,,,,,,,
1522136685.527953,-0.093409,-0.029588,1.883969,-0.051505,0.017303,-0.034829,-0.093232,0.029584,-0.995205,-0.054671,-0.020596,0.009777,-15.859024,-54.950165,1.151245,,,,,,,
1522136685.557921,-0.092978,-0.029823,1.882919,0.021007,0.013840,-0.020922,-0.092803,0.029818,-0.995238,-0.061860,-0.016512,0.006743,-15.554398,-54.351776,0.923950,,,,,,,
1522136685.587889,-0.093506,-0.028760,1.882958,0.019674,-0.005506,0.012121,-0.093331,0.028756,-0.995220,-0.042915,-0.027780,-0.016896,-15.107269,-54.503998,0.699768,,,,,,,
1522136685.617857,-0.092697,-0.029808,1.884109,-0.066781,0.051758,0.057825,-0.092523,0.029804,-0.995264,-0.015586,-0.023715,0.000025,-15.782242,-54.500961,0.699463,,,,,,,
1522136685.647826,-0.091985,-0.032019,1.885537,-0.061583,0.009305,0.048283,-0.091808,0.032013,-0.995262,-0.026569,-0.001175,0.019768,-16.077881,-54.199402,0.923096,,,,,,,
1522136685.677794,-0.092364,-0.032926,1.886169,-0.010265,-0.027689,0.002538,-0.092183,0.032920,-0.995198,-0.017924,0.027902,0.005436,-16.003357,-53.975189,0.472168,,,,,,,
1522136685.707762,-0.093585,-0.033138,1.885551,-0.030356,-0.025267,-0.032642,-0.093397,0.033132,-0.995078,-0.030291,0.024851,0.008582,-16.155731,-54.349289,0.698669,,,,,,,
1522136685.737730,-0.093741,-0.035328,1.884608,-0.078351,0.005532,-0.014588,-0.093545,0.035320,-0.994988,-0.039191,0.063419,0.014825,-16.378342,-53.973511,0.471985,,,,,,,
1522136685.767699,-0.094116,-0.034522,1.884779,0.106050,-0.017492,0.022858,-0.093921,0.034515,-0.994981,-0.020062,0.037980,0.003908,-15.927612,-53.900528,0.471924,,,,,,,
1522136685.797667,-0.093983,-0.031500,1.885929,0.077450,0.034627,0.024919,-0.093798,0.031495,-0.995093,-0.012251,0.001983,-0.031839,-16.230591,-54.199158,0.472961,,,,,,,
1522136685.827635,-0.093187,-0.030967,1.886334,-0.008901,0.020227,-0.012424,-0.093008,0.030962,-0.995184,-0.012034,-0.026659,-0.016611,-15.777023,-53.751358,0.321472,,,,,,,
1522136685.857603,-0.092674,-0.032570,1.884841,-0.075869,0.036632,-0.055112,-0.092493,0.032564,-0.995181,-0.042502,-0.013933,0.011706,-15.928360,-53.975525,0.472229,,,,,,,
1522136685.887572,-0.092253,-0.033022,1.882921,0.042438,-0.007250,-0.052845,-0.092072,0.033016,-0.995205,-0.042557,0.000889,0.016018,-16.225952,-53.824036,0.621521,,,,,,,
1522136685.917509,-0.093054,-0.029807,1.883020,0.113489,-0.025999,0.021804,-0.092879,0.029802,-0.995231,-0.009721,-0.026369,-0.047982,-15.325394,-53.678253,0.471375,,,,,,,
1522136685.947478,-0.092784,-0.029234,1.884342,-0.050728,0.035914,0.037612,-0.092612,0.029230,-0.995273,-0.013300,-0.011881,-0.019940,-15.851105,-53.975510,0.847290,,,,,,,
1522136685.977446,-0.092558,-0.031420,1.884343,-0.058143,-0.005163,-0.010307,-0.092380,0.031415,-0.995228,-0.024563,0.007846,-0.008785,-16.000656,-53.750137,0.546326,,,,,,,
1522136686.007414,-0.093217,-0.031465,1.883573,0.035863,-0.015904,-0.028336,-0.093036,0.031460,-0.995166,-0.028866,0.018849,-0.042554,-15.022552,-53.304764,0.320068,,,,,,,
1522136686.037382,-0.093838,-0.029612,1.882975,0.044351,-0.012792,-0.017691,-0.093660,0.029607,-0.995164,-0.024398,0.027140,-0.030440,-16.153793,-53.974594,0.397156,,,,,,,
1522136686.067351,-0.093225,-0.030108,1.882727,-0.047363,0.041426,0.009897,-0.093048,0.030104,-0.995206,-0.016983,0.001024,-0.006670,-16.298233,-53.598633,0.695557,,,,,,,
1522136686.097305,-0.092752,-0.030947,1.883453,0.003593,-0.000288,0.030224,-0.092575,0.030942,-0.995225,-0.016465,-0.006620,0.015885,-15.399185,-53.378220,0.170105,,,,,,,
1522136686.127273,-0.093236,-0.029831,1.884526,0.054715,-0.025951,0.033491,-0.093060,0.029827,-0.995214,-0.008488,-0.022594,-0.030299,-16.372482,-53.523315,0.695251,,,,,,,
1522136686.157242,-0.093914,-0.029458,1.885038,-0.016531,-0.008484,-0.007072,-0.093736,0.029453,-0.995161,-0.005843,-0.027943,-0.043169,-16.445984,-53.372986,0.694580,,,,,,,
,,,,,,,,,,,,,,,,25.314958,51.435196,11.243653,0.000000,-1.000000,1522136686.103394,
1522136686.187210,-0.094785,-0.029676,1.883908,-0.002570,-0.043263,-0.052845,-0.094602,0.029672,-0.995073,-0.021655,-0.030160,-0.036970,-15.318787,-53.153046,0.694275,,,,,,,
1522136686.217178,-0.096348,-0.030072,1.881645,-0.058964,-0.040764,-0.086982,-0.096155,0.030068,-0.994912,-0.037939,-0.002831,-0.006034,-15.771469,-53.376099,0.619934,,,,,,,
1522136686.247146,-0.096081,-0.032737,1.879613,-0.098393,0.043936,-0.028495,-0.095882,0.032731,-0.994854,-0.035679,0.009780,0.033017,-15.622375,-53.376907,0.469971,,,,,,,
1522136686.277115,-0.095301,-0.033139,1.880576,0.059948,-0.002857,0.072892,-0.095105,0.033133,-0.994916,-0.021503,0.020105,0.022931,-15.547073,-53.302338,0.394775,,,,,,,
1522136686.307083,-0.096875,-0.029378,1.883135,0.155804,-0.075221,0.054919,-0.096682,0.029374,-0.994882,-0.015242,-0.007279,-0.044333,-16.368744,-53.148331,0.693726,,,,,,,
1522136686.337051,-0.099075,-0.027221,1.883577,-0.004858,-0.044526,-0.024073,-0.098877,0.027217,-0.994727,-0.031464,-0.003460,-0.014413,-16.445236,-53.297989,0.694275,,,,,,,
1522136686.367019,-0.099529,-0.029373,1.881919,-0.077115,0.001570,-0.052957,-0.099322,0.029369,-0.994622,-0.037305,0.023625,0.012093,-15.173737,-53.379166,0.245239,,,,,,,
1522136686.396988,-0.099391,-0.029783,1.881100,0.010236,0.013740,-0.002816,-0.099184,0.029778,-0.994623,-0.014799,0.009849,-0.014211,-16.144348,-53.299194,0.844421,,,,,,,
1522136686.426956,-0.098170,-0.030154,1.881391,-0.035616,0.045625,0.013098,-0.097968,0.030150,-0.994733,-0.026055,-0.016982,0.006360,-16.668106,-53.221756,0.918884,,,,,,,
1522136686.456924,-0.097695,-0.031188,1.881137,-0.016411,0.007509,-0.015608,-0.097493,0.031183,-0.994748,-0.031276,-0.030130,0.012753,-15.622375,-53.376907,0.469971,,,,,,,
1522136686.486892,-0.097976,-0.030493,1.880679,0.046544,-0.004312,-0.018748,-0.097774,0.030488,-0.994742,-0.046040,-0.030061,-0.005289,-16.221893,-53.598755,0.920593,,,,,,,
1522136686.516861,-0.098394,-0.028694,1.880433,0.047532,-0.005471,-0.004896,-0.098195,0.028690,-0.994754,-0.045162,-0.001148,0.001239,-16.368881,-53.298111,0.919312,,,,,,,
1522136686.546829,-0.097899,-0.028292,1.881029,-0.011276,0.027304,0.039779,-0.097704,0.028289,-0.994813,-0.020903,0.015764,-0.012084,-15.916809,-53.224915,1.144287,,,,,,,
1522136686.576797,-0.097320,-0.028359,1.882609,0.009935,0.014388,0.055790,-0.097127,0.028355,-0.994868,-0.008815,0.020168,-0.029119,-16.743118,-53.221420,0.918823,,,,,,,
1522136686.606765,-0.096979,-0.028185,1.883588,0.007048,0.029596,0.008893,-0.096789,0.028181,-0.994906,-0.025190,0.024050,-0.004301,-16.446442,-53.148438,0.243713,,,,,,,
1522136686.636734,-0.096113,-0.028303,1.883129,-0.009829,0.036257,-0.025227,-0.095926,0.028299,-0.994986,-0.019140,0.026358,0.004126,-15.846466,-53.151138,0.244019,,,,,,,
1522136686.666702,-0.095465,-0.028003,1.882683,0.028299,-0.000145,0.001471,-0.095282,0.027999,-0.995056,0.002341,0.021531,-0.022598,-16.671860,-53.372116,0.544434,,,,,,,
1522136686.696670,-0.095644,-0.026724,1.883832,0.049431,0.004785,0.048366,-0.095465,0.026720,-0.995074,0.002630,-0.014376,-0.022733,-16.744186,-53.146713,0.618530,,,,,,,
1522136686.726639,-0.095321,-0.026774,1.884470,-0.035674,0.006461,-0.009236,-0.095143,0.026771,-0.995104,-0.016185,-0.019126,-0.014647,-16.672455,-53.521957,0.695068,,,,,,,
1522136686.756607,-0.095116,-0.028178,1.882888,-0.047130,0.010010,-0.059315,-0.094935,0.028174,-0.995085,-0.010259,-0.012870,-0.032503,-16.595535,-53.372238,0.769531,,,,,,,
1522136686.786575,-0.094719,-0.028481,1.881391,0.005034,0.001231,-0.037958,-0.094539,0.028477,-0.995114,-0.007466,-0.002919,-0.023441,-16.518738,-53.147659,0.693665,,,,,,,
1522136686.816543,-0.094783,-0.028876,1.880805,-0.038902,0.006410,-0.002835,-0.094602,0.028872,-0.995096,-0.017505,-0.031588,0.001826,-16.594482,-53.222305,0.693909,,,,,,,
1522136686.846481,-0.094792,-0.030354,1.881232,-0.043398,-0.007591,0.027002,-0.094607,0.030349,-0.995052,-0.015623,-0.019943,0.003505,-17.117661,-53.219666,0.993652,,,,,,,
1522136686.876449,-0.095705,-0.030369,1.881770,0.020613,-0.039485,0.007896,-0.095515,0.030364,-0.994965,-0.016210,0.014527,-0.031494,-15.918320,-52.925659,0.393066,,,,,,,
1522136686.906418,-0.096052,-0.030441,1.881512,-0.029261,-0.008338,-0.023066,-0.095859,0.030436,-0.994929,-0.020107,0.005864,-0.020009,-16.144211,-53.149414,0.618835,,,,,,,
1522136686.936386,-0.097222,-0.031008,1.880580,-0.008057,-0.045561,-0.026208,-0.097022,0.031003,-0.994799,-0.035791,0.002276,0.007342,-16.519623,-53.372437,0.919556,,,,,,,
1522136686.966354,-0.098641,-0.030585,1.880408,0.026007,-0.034155,0.002572,-0.098435,0.030580,-0.994673,-0.015182,0.000121,-0.004304,-16.215759,-52.849014,0.692627,,,,,,,
1522136686.996322,-0.099338,-0.030910,1.880660,-0.039080,-0.022333,0.005713,-0.099127,0.030905,-0.994595,-0.016443,-0.000723,-0.034031,-16.817978,-53.071304,0.693237,,,,,,,
1522136687.026291,-0.100738,-0.031596,1.880307,-0.005984,-0.053040,-0.020873,-0.100518,0.031591,-0.994434,-0.019813,-0.011220,-0.020108,-16.370850,-53.223541,0.468994,,,,,,,
1522136687.056259,-0.102190,-0.030720,1.879397,0.047610,-0.032849,-0.042154,-0.101964,0.030715,-0.994314,-0.042399,0.002869,-0.001856,-16.444946,-53.223068,0.619019,,,,,,,
1522136687.086227,-0.102827,-0.029064,1.878568,0.035814,-0.009617,-0.014496,-0.102602,0.029060,-0.994298,-0.029264,0.009636,-0.025615,-16.518875,-53.297440,0.919250,,,,,,,
1522136687.116216,-0.102349,-0.029225,1.878821,-0.026098,0.042304,0.028029,-0.102126,0.029221,-0.994342,-0.024018,0.025466,-0.014615,-16.519623,-53.372437,0.919556,,,,,,,
1522136687.146185,-0.101657,-0.029571,1.880111,0.022764,0.004860,0.045159,-0.101437,0.029566,-0.994402,-0.021778,0.021932,-0.004102,-16.225189,-53.524429,0.245300,,,,,,,
,,,,,,,,,,,,,,,,25.314958,51.435196,11.240127,0.000000,-1.000000,1522136687.107924,
1522136687.176153,-0.102179,-0.027568,1.881094,0.084813,-0.009903,0.007922,-0.101963,0.027564,-0.994406,-0.028561,0.013055,-0.013284,-16.669312,-53.296829,0.844177,,,,,,,
1522136687.206121,-0.101365,-0.026219,1.881053,0.027454,0.029714,-0.014537,-0.101157,0.026216,-0.994525,-0.014062,0.010939,-0.005368,-16.668701,-53.371613,1.069458,,,,,,,
1522136687.236089,-0.100916,-0.025485,1.880793,0.034813,0.022157,0.000391,-0.100712,0.025483,-0.994589,-0.002804,0.004562,-0.028009,-16.592377,-53.147095,0.918579,,,,,,,
1522136687.266058,-0.101004,-0.024149,1.881314,0.041048,0.005012,0.018527,-0.100803,0.024147,-0.994613,-0.018262,0.008248,-0.022843,-17.420486,-53.593140,1.145020,,,,,,,
1522136687.296026,-0.100205,-0.024465,1.881964,-0.042064,0.044521,0.020556,-0.100007,0.024462,-0.994686,-0.015456,0.001325,-0.021580,-16.518875,-53.297440,0.919250,,,,,,,
1522136687.325994,-0.099096,-0.025643,1.882366,-0.016537,0.018976,0.017405,-0.098902,0.025640,-0.994767,-0.002554,-0.019841,-0.008483,-16.294937,-53.223740,0.619080,,,,,,,
1522136687.355962,-0.099066,-0.025175,1.882740,0.035777,0.000899,0.001475,-0.098873,0.025173,-0.994782,0.004421,-0.002819,-0.025543,-16.968719,-53.145630,0.693420,,,,,,,
1522136687.385931,-0.099571,-0.024568,1.882871,-0.005989,-0.020332,0.010005,-0.099376,0.024566,-0.994747,0.009929,0.000718,-0.029530,-17.191010,-53.144180,1.143311,,,,,,,
1522136687.415899,-0.099485,-0.026198,1.882944,-0.080515,0.019251,0.001372,-0.099286,0.026195,-0.994714,-0.006869,0.022282,-0.014579,-16.443741,-53.147995,0.693726,,,,,,,
1522136687.445867,-0.098605,-0.027707,1.882453,-0.018442,0.026679,-0.019897,-0.098407,0.027703,-0.994761,-0.009671,0.014899,0.030283,-16.970810,-53.445465,0.844604,,,,,,,
1522136687.475836,-0.098864,-0.026870,1.881947,0.051843,-0.011771,-0.017671,-0.098667,0.026867,-0.994758,-0.001033,0.001377,0.006019,-17.119598,-53.369736,0.919250,,,,,,,
1522136687.505804,-0.099681,-0.025450,1.881996,0.046235,-0.045920,0.004738,-0.099483,0.025447,-0.994714,0.005642,0.007604,-0.017035,-16.220703,-53.299072,0.619385,,,,,,,
1522136687.535772,-0.101005,-0.023942,1.882286,0.043158,-0.022502,0.000448,-0.100804,0.023940,-0.994618,0.000279,-0.013945,-0.011378,-17.042648,-53.220001,0.993652,,,,,,,
1522136687.565740,-0.101311,-0.024486,1.881815,-0.045243,-0.014607,-0.033721,-0.101108,0.024483,-0.994574,-0.019910,0.015632,0.019919,-17.343842,-53.293716,0.918823,,,,,,,
1522136687.595709,-0.101626,-0.024570,1.880697,0.020912,-0.020109,-0.030469,-0.101420,0.024568,-0.994540,0.001216,-0.009767,0.005191,-16.667358,-53.371384,1.294434,,,,,,,
1522136687.625677,-0.102551,-0.023613,1.879864,0.028332,-0.028621,-0.029400,-0.102343,0.023611,-0.994469,-0.004362,-0.005010,-0.032097,-16.964661,-53.144974,1.368408,,,,,,,
1522136687.655645,-0.103441,-0.022852,1.879517,0.012193,-0.030900,-0.004887,-0.103229,0.022850,-0.994395,-0.003155,-0.006370,-0.052602,-16.665268,-53.071548,1.143311,,,,,,,
1522136687.685613,-0.103676,-0.023741,1.879193,-0.066544,0.020386,-0.014599,-0.103461,0.023739,-0.994350,-0.013757,-0.006847,-0.040974,-16.666916,-53.146683,0.993591,,,,,,,
1522136687.715582,-0.102186,-0.026459,1.878136,-0.089698,0.072630,-0.032777,-0.101972,0.026456,-0.994435,-0.017855,-0.001050,-0.012813,-17.267349,-53.144058,0.918274,,,,,,,
1522136687.745550,-0.100163,-0.027698,1.877209,-0.017330,0.043630,-0.013518,-0.099958,0.027694,-0.994606,-0.005710,-0.014999,0.018852,-16.365295,-53.072891,1.143433,,,,,,,
1522136687.775488,-0.099405,-0.027020,1.877446,0.060291,0.013436,0.021734,-0.099205,0.027016,-0.994700,0.007973,-0.037514,-0.013280,-16.292374,-53.148453,0.918762,,,,,,,
1522136687.805456,-0.099672,-0.025484,1.878595,0.018478,-0.009924,0.034511,-0.099475,0.025481,-0.994714,0.017780,-0.041594,-0.032508,-17.342041,-53.293427,1.218811,,,,,,,
1522136687.835424,-0.099380,-0.026567,1.879126,-0.047453,0.021235,0.009918,-0.099181,0.026564,-0.994715,0.021499,-0.020933,-0.033133,-17.042633,-53.444611,1.369568,,,,,,,
1522136687.865392,-0.099575,-0.027100,1.878804,-0.017596,-0.022202,-0.019848,-0.099374,0.027096,-0.994681,0.006082,0.025699,0.012549,-16.518723,-53.372284,1.069580,,,,,,,
1522136687.895361,-0.099605,-0.028114,1.878200,-0.045308,0.005389,-0.004978,-0.099401,0.028111,-0.994650,0.014486,0.032406,0.014944,-16.447784,-53.822525,1.146423,,,,,,,
1522136687.925329,-0.100059,-0.027847,1.879219,0.057785,-0.024033,0.061199,-0.099853,0.027844,-0.994613,0.038742,0.029865,-0.013993,-16.294632,-53.598053,1.295532,,,,,,,
1522136687.955297,-0.099842,-0.026509,1.881731,0.030069,0.009905,0.081384,-0.099641,0.026506,-0.994670,0.037538,0.023360,-0.018956,-16.750610,-54.195999,1.297729,,,,,,,
1522136687.985265,-0.099898,-0.026679,1.883355,0.009880,-0.026888,0.031328,-0.099696,0.026676,-0.994660,0.047160,0.024136,0.000932,-17.122299,-54.044037,1.596924,,,,,,,
1522136688.015234,-0.101306,-0.025826,1.883271,0.021861,-0.053018,-0.035761,-0.101099,0.025824,-0.994541,0.026239,0.013102,-0.009777,-17.574524,-54.266998,1.597595,,,,,,,
1522136688.045202,-0.101411,-0.026447,1.881332,-0.039530,0.021809,-0.075316,-0.101202,0.026444,-0.994514,0.016959,0.010436,-0.012520,-16.754044,-54.720688,1.599792,,,,,,,
1522136688.075170,-0.100697,-0.027155,1.879287,-0.014005,0.017375,-0.059305,-0.100490,0.027152,-0.994568,0.013362,-0.015205,-0.013169,-16.750595,-54.420639,1.673645,,,,,,,
1522136688.105108,-0.099914,-0.027962,1.877393,-0.057648,0.045118,-0.060430,-0.099709,0.027959,-0.994624,0.007118,-0.042928,-0.003377,-16.679031,-54.721024,1.599854,,,,,,,
1522136688.135076,-0.098373,-0.030545,1.875742,-0.093072,0.037560,-0.030615,-0.098169,0.030541,-0.994701,0.015054,-0.050423,0.010967,-16.831879,-55.095200,1.751282,,,,,,,
,,,,,,,,,,,,,,,,25.314958,51.435196,11.237803,0.000000,-1.000000,1522136688.108997,
1522136688.165044,-0.098088,-0.030988,1.875480,0.039925,-0.018313,0.010032,-0.097884,0.030983,-0.994715,0.016753,-0.044258,-0.016652,-16.605682,-55.021133,1.826111,,,,,,,
1522136688.195012,-0.098462,-0.029376,1.876661,0.038710,-0.011107,0.044119,-0.098260,0.029372,-0.994727,0.015680,-0.012359,-0.022057,-16.531143,-55.021545,1.751160,,,,,,,
1522136688.224981,-0.099058,-0.028453,1.877980,0.016285,-0.019525,0.038789,-0.098856,0.028449,-0.994695,0.017420,0.033074,0.004049,-16.760773,-55.395660,1.602478,,,,,,,
1522136688.254949,-0.099330,-0.027445,1.878896,0.061204,-0.019514,0.022832,-0.099130,0.027442,-0.994696,0.018090,0.049539,0.010321,-16.611359,-55.770798,2.129089,,,,,,,
1522136688.284917,-0.100325,-0.024499,1.880017,0.121947,-0.036740,0.031428,-0.100127,0.024497,-0.994673,0.020217,0.042962,-0.024889,-16.162140,-55.623199,1.753723,,,,,,,
1522136688.314885,-0.101200,-0.021374,1.880908,0.076251,-0.020469,0.002597,-0.101005,0.021373,-0.994656,0.019004,0.018407,-0.047534,-16.379623,-55.321472,2.502441,,,,,,,
1522136688.344854,-0.100028,-0.022847,1.880228,-0.123809,0.083366,-0.034951,-0.099835,0.022845,-0.994742,0.013593,0.006040,0.022055,-15.935944,-55.549149,1.828552,,,,,,,
1522136688.374822,-0.097753,-0.025821,1.878935,-0.036490,0.046876,-0.018845,-0.097565,0.025818,-0.994894,0.013138,-0.002960,0.038946,-15.108444,-55.028320,1.376892,,,,,,,
1522136688.404790,-0.097685,-0.024676,1.879147,0.055933,-0.016232,0.012166,-0.097500,0.024673,-0.994930,0.022091,-0.033386,-0.013570,-15.255890,-54.952347,1.676514,,,,,,,
1522136688.434758,-0.097613,-0.024962,1.879518,-0.052886,0.002085,0.013140,-0.097428,0.024959,-0.994930,0.031281,-0.060818,-0.022649,-15.778641,-54.500381,1.299438,,,,,,,
1522136688.464727,-0.097647,-0.025894,1.879582,0.007978,-0.021297,-0.008101,-0.097459,0.025891,-0.994903,0.039918,-0.069455,-0.051499,-14.352524,-53.982468,0.623047,,,,,,,
1522136688.494695,-0.099526,-0.024954,1.878608,0.005906,-0.057127,-0.050684,-0.099331,0.024951,-0.994742,0.025189,-0.018741,-0.044016,-14.199966,-53.907867,0.922852,,,,,,,
1522136688.524663,-0.100291,-0.025036,1.876633,-0.008840,-0.029355,-0.065642,-0.100092,0.025034,-0.994663,0.029398,0.021368,-0.052227,-13.970200,-53.159348,0.469971,,,,,,,
1522136688.554631,-0.101581,-0.024722,1.875084,0.014458,-0.049756,-0.045351,-0.101375,0.024720,-0.994541,0.017864,0.070037,-0.021526,-13.366959,-52.562515,0.017883,,,,,,,
1522136688.584600,-0.102895,-0.023816,1.874657,0.027981,-0.055539,0.017528,-0.102685,0.023814,-0.994429,0.013116,0.073079,-0.026842,-13.961685,-52.034836,0.015503,,,,,,,
1522136688.614568,-0.103812,-0.022605,1.875981,0.076101,-0.002741,0.048408,-0.103599,0.022603,-0.994362,0.016151,0.010616,0.008339,-14.107941,-51.659195,0.013916,,,,,,,
1522136688.644536,-0.104559,-0.020532,1.877675,0.054704,-0.025966,0.035622,-0.104347,0.020530,-0.994329,0.011375,0.006157,0.044042,-13.202591,-50.988480,-0.213318,,,,,,,
1522136688.674504,-0.104932,-0.020028,1.877649,0.013309,-0.029762,-0.014485,-0.104718,0.020027,-0.994300,0.020200,-0.003761,0.040672,-14.625443,-50.682236,-0.365234,,,,,,,
1522136688.704442,-0.105736,-0.019753,1.876960,0.025097,-0.027640,-0.019798,-0.105518,0.019752,-0.994221,0.019123,0.014366,-0.011425,-14.399414,-50.308701,-0.816650,,,,,,,
1522136688.734411,-0.108172,-0.017539,1.876337,0.078193,-0.106300,-0.033537,-0.107945,0.017538,-0.994002,0.011524,-0.004630,-0.032045,-13.722641,-50.086823,-0.892212,,,,,,,
1522136688.764379,-0.109950,-0.017528,1.874977,-0.075002,-0.009088,-0.053987,-0.109712,0.017527,-0.993809,-0.008574,-0.016917,-0.019131,-14.693268,-49.782242,-0.668945,,,,,,,
1522136688.794347,-0.107722,-0.020709,1.872902,-0.106566,0.093026,-0.056251,-0.107491,0.020708,-0.993990,-0.030357,-0.017626,0.005999,-14.692215,-49.632309,-0.744446,,,,,,,
1522136688.824315,-0.106169,-0.021349,1.871261,0.036141,0.025636,-0.044351,-0.105946,0.021348,-0.994143,-0.016613,-0.000367,-0.017545,-14.315308,-49.034683,-1.421753,,,,,,,
1522136688.854284,-0.105277,-0.019493,1.871170,0.037063,0.058176,0.012091,-0.105062,0.019491,-0.994275,-0.008387,-0.011755,-0.017063,-15.591446,-49.328644,-1.121155,,,,,,,
1522136688.884252,-0.102719,-0.020641,1.871577,-0.118606,0.121163,0.025763,-0.102517,0.020639,-0.994517,0.000237,0.005392,0.005976,-15.810440,-48.727661,-1.123657,,,,,,,
1522136688.914220,-0.105471,-0.016713,1.874865,0.310363,-0.249579,0.160715,-0.105261,0.016713,-0.994304,0.032843,-0.035694,-0.008305,-16.635391,-48.948563,-0.748169,,,,,,,
1522136688.944188,-0.102711,-0.010820,1.879829,0.037746,0.090409,0.113283,-0.102524,0.010820,-0.994672,0.093445,0.008361,-0.259463,-17.461121,-49.019867,-0.748291,,,,,,,
1522136688.974157,-0.100615,-0.027310,1.877431,-0.982582,0.185710,-0.081508,-0.100408,0.027307,-0.994572,-0.040949,-0.027246,-0.021862,-16.338272,-48.650894,-1.724243,,,,,,,
