timestamp(unix),attitude_roll(radians),attitude_pitch(radians),attitude_yaw(radians),rotation_rate_x(radians/s),rotation_rate_y(radians/s),rotation_rate_z(radians/s),gravity_x(G),gravity_y(G),gravity_z(G),user_acc_x(G),user_acc_y(G),user_acc_z(G),magnetic_field_x(microteslas),magnetic_field_y(microteslas),magnetic_field_z(microteslas),latitude(degree),longitude(degree),altitude(meter),speed(m/s),course(degree),timestamp(unix),User Mark
1523521082.145917,0.013834,0.494480,-1.247191,-0.476389,-0.044820,0.120545,0.012176,-0.474574,-0.880131,-0.015793,-0.034612,-0.014125,9.295624,3.085587,15.500366,,,,,,,
1523521082.175854,0.009760,0.482639,-1.247443,-0.273142,-0.170519,-0.060308,0.008645,-0.464118,-0.885731,-0.000558,-0.011132,-0.013714,9.280899,3.232956,12.799744,,,,,,,
,,,,,,,,,,,,,,,,25.315201,51.436129,5.731167,5.220000,261.914062,1523520896.068019,
1523521082.205818,0.010339,0.483584,-1.247454,0.224236,0.181178,0.069705,0.009153,-0.464955,-0.885287,0.021288,0.001515,-0.045209,8.742722,2.858795,11.226013,,,,,,,
1523521082.235786,0.012726,0.496773,-1.243495,0.532018,0.057921,0.111612,0.011187,-0.476591,-0.879054,0.022824,0.012221,-0.041997,8.507095,2.333954,10.328003,,,,,,,
,,,,,,,,,,,,,,,,25.315201,51.436129,5.731167,5.220000,261.914062,1523520904.068019,
1523521082.265754,0.009678,0.510807,-1.242382,0.358719,-0.166044,-0.015080,0.008442,-0.488882,-0.872309,-0.008259,-0.020014,-0.015539,9.229614,1.203018,7.632874,,,,,,,
1523521082.295722,0.004173,0.515877,-1.245303,0.064322,-0.213499,-0.112224,0.003630,-0.493298,-0.869853,0.009752,-0.024646,0.011027,9.218811,0.527390,6.960571,,,,,,,
1523521082.325691,0.002738,0.517826,-1.247868,0.120153,-0.029437,-0.013274,0.002379,-0.494992,-0.868894,0.028978,-0.016162,-0.029818,8.214951,-1.195038,5.016968,,,,,,,
1523521082.355659,0.001385,0.526072,-1.246904,0.412384,-0.066477,0.013615,0.001198,-0.502141,-0.864785,0.032173,0.041432,-0.034461,8.199051,-2.245865,4.121155,,,,,,,
1523521082.385597,-0.006563,0.540574,-1.247653,0.414925,-0.459589,0.005487,-0.005627,-0.514629,-0.857395,0.023587,-0.037602,-0.023617,8.250244,-4.271683,3.529297,,,,,,,
,,,,,,,,,,,,,,,,25.314800,51.433023,5.731167,-1.000000,-1.000000,1523521082.358807,
1523521082.415565,-0.023454,0.545694,-1.245178,0.065294,-0.478430,0.087300,-0.020046,-0.519012,-0.854532,-0.031879,-0.030000,0.028024,8.161774,-5.396652,3.158752,,,,,,,
,,,,,,,,,,,,,,,,25.314800,51.433023,5.731167,-1.000000,-1.000000,1523521082.364662,
1523521082.445533,-0.033211,0.549850,-1.242575,0.237863,-0.117386,0.062546,-0.028311,-0.522559,-0.852133,-0.047525,-0.006234,0.034475,8.743027,-7.274261,3.166504,,,,,,,
1523521082.475502,-0.032152,0.559630,-1.240154,0.360776,0.137403,0.052791,-0.027242,-0.530872,-0.847014,-0.000437,0.007404,-0.028932,8.362686,-7.947327,3.394043,,,,,,,
1523521082.505470,-0.034269,0.568135,-1.238320,0.200138,-0.225510,0.038123,-0.028880,-0.538061,-0.842411,-0.013250,-0.020182,-0.058941,8.357010,-8.921616,4.072937,,,,,,,
1523521082.535438,-0.046532,0.571333,-1.236972,0.066996,-0.407850,0.024355,-0.039128,-0.540754,-0.840270,-0.040202,-0.008181,0.000274,9.249771,-9.376083,3.625183,,,,,,,
1523521082.565376,-0.054234,0.573366,-1.237137,0.079214,-0.136488,-0.036644,-0.045538,-0.542462,-0.838845,-0.038904,-0.025149,0.008690,8.951920,-9.748764,4.601501,,,,,,,
1523521082.595344,-0.052957,0.577128,-1.238874,0.157118,0.076991,-0.049586,-0.044359,-0.545619,-0.836858,-0.009016,-0.011174,-0.021418,8.354034,-9.670853,4.825928,,,,,,,
1523521082.625312,-0.053162,0.583854,-1.238782,0.269154,-0.088541,0.027390,-0.044335,-0.551244,-0.833166,0.019280,-0.010478,-0.022578,9.559372,-9.226135,4.974731,,,,,,,
1523521082.655281,-0.058251,0.593156,-1.235257,0.357256,-0.110549,0.105254,-0.048274,-0.558981,-0.827774,-0.012060,-0.027308,0.015885,8.963577,-8.623749,4.672058,,,,,,,
1523521082.685249,-0.061189,0.603682,-1.229596,0.345367,0.136794,0.143361,-0.050343,-0.567678,-0.821710,-0.013317,0.000112,0.070993,8.888580,-8.623413,4.671997,,,,,,,
1523521082.715217,-0.055630,0.614385,-1.224895,0.387140,0.337907,0.087787,-0.045433,-0.576456,-0.815864,-0.034172,-0.036779,0.064842,9.566544,-8.101837,4.295227,,,,,,,
1523521082.745185,-0.048035,0.624276,-1.221906,0.239468,0.220611,0.048362,-0.038960,-0.584510,-0.810451,0.026723,-0.004098,0.020595,9.187668,-8.175659,3.770386,,,,,,,
1523521082.775123,-0.050204,0.626732,-1.219950,0.011209,-0.204935,0.048626,-0.040646,-0.586501,-0.808928,0.044491,-0.008058,0.011717,9.257095,-8.102020,2.720093,,,,,,,
1523521082.805091,-0.060182,0.624665,-1.217460,-0.099316,-0.265611,0.102948,-0.048788,-0.584825,-0.809691,-0.002543,-0.035689,0.064619,10.003159,-8.180908,2.195801,,,,,,,
1523521082.835060,-0.062345,0.623090,-1.212272,0.005253,0.255511,0.154708,-0.050596,-0.583547,-0.810501,-0.032259,-0.023631,0.092911,9.392532,-8.479431,0.921692,,,,,,,
1523521082.865028,-0.051310,0.623543,-1.207731,0.013118,0.520455,0.102230,-0.041636,-0.583915,-0.810746,-0.005667,-0.022241,0.015077,9.763306,-8.631546,0.472473,,,,,,,
1523521082.894996,-0.043426,0.621207,-1.205135,-0.190468,0.049578,0.041826,-0.035302,-0.582017,-0.812409,0.068673,0.003984,-0.102202,9.301788,-9.380142,-0.199768,,,,,,,
1523521082.924964,-0.052503,0.613169,-1.204398,-0.284319,-0.391233,0.050725,-0.042919,-0.575462,-0.816701,-0.005802,-0.006127,-0.013926,9.071381,-9.604630,-0.723938,,,,,,,
1523521082.954902,-0.059565,0.608028,-1.202432,-0.035904,0.016102,0.062226,-0.048860,-0.571250,-0.819320,-0.040159,-0.003075,0.035247,9.432587,-10.357315,-1.770813,,,,,,,
1523521082.984870,-0.051953,0.613107,-1.199226,0.274296,0.413608,0.090826,-0.042472,-0.575411,-0.816760,-0.002481,0.050982,-0.012234,10.022964,-10.960556,-2.368103,,,,,,,
1523521083.014839,-0.045972,0.619889,-1.197550,0.139618,0.032061,-0.003717,-0.037405,-0.580945,-0.813082,-0.021326,0.027066,-0.024671,9.341400,-11.258087,-2.967224,,,,,,,
1523521083.044807,-0.049625,0.615883,-1.200064,-0.385899,-0.171807,-0.140301,-0.040490,-0.577680,-0.815258,-0.049842,-0.010760,0.015103,9.621780,-12.909866,-3.485474,,,,,,,
1523521083.074775,-0.041022,0.595903,-1.208137,-0.758166,0.337279,-0.175179,-0.033942,-0.561256,-0.826946,-0.021798,-0.078637,-0.120274,10.135040,-13.587997,-4.307556,,,,,,,
1523521083.104743,-0.028139,0.577935,-1.210696,-0.432899,0.280698,0.051007,-0.023566,-0.546295,-0.837261,0.042396,-0.062561,-0.299626,10.048386,-14.488068,-4.753967,,,,,,,
1523521083.134681,-0.030802,0.574496,-1.206889,0.070781,-0.192710,0.101938,-0.025853,-0.543412,-0.839068,0.029591,-0.010223,-0.242414,9.738052,-15.162262,-5.351440,,,,,,,
1523521083.164649,-0.039069,0.577420,-1.206509,0.101134,-0.244981,-0.031178,-0.032727,-0.545864,-0.837234,0.022091,-0.014698,-0.104493,10.248093,-16.889175,-4.969238,,,,,,,
1523521083.194610,-0.041901,0.582640,-1.204445,0.251299,0.070288,0.111408,-0.034978,-0.550230,-0.834280,-0.010249,-0.022020,-0.055109,9.717865,-17.411789,-4.967407,,,,,,,
1523521083.224578,-0.036713,0.595223,-1.200561,0.557081,0.347209,0.063405,-0.030392,-0.560694,-0.827465,-0.033664,0.004541,-0.035938,10.757233,-19.065475,-3.985291,,,,,,,
1523521083.254546,-0.029247,0.611813,-1.198317,0.466835,0.161840,0.011315,-0.023938,-0.574353,-0.818258,0.005918,0.022763,-0.040232,9.775543,-19.960693,-3.607239,,,,,,,
1523521083.284515,-0.031506,0.620003,-1.199121,0.141940,-0.200434,-0.035446,-0.025638,-0.581038,-0.813472,-0.023572,-0.019380,0.052395,10.221481,-20.637238,-3.154297,,,,,,,
1523521083.314483,-0.035130,0.621203,-1.198428,0.017474,0.007488,0.058021,-0.028561,-0.582014,-0.812677,-0.029285,0.005186,0.066415,10.806366,-22.514267,-2.546448,,,,,,,
1523521083.344421,-0.033371,0.623813,-1.195757,0.179205,0.141922,0.075050,-0.027081,-0.584134,-0.811205,-0.001484,0.048245,0.020189,11.108017,-22.665100,-2.020752,,,,,,,
1523521083.374389,-0.034784,0.631505,-1.191295,0.257948,-0.083965,0.135005,-0.028070,-0.590360,-0.806651,0.024484,0.031278,0.001826,9.976654,-23.933945,-0.966248,,,,,,,
1523521083.404357,-0.044894,0.636034,-1.186333,0.071447,-0.274591,0.109485,-0.036103,-0.594010,-0.803647,-0.023086,0.031113,0.072903,10.272324,-24.684753,-0.438049,,,,,,,
1523521083.434325,-0.051030,0.637140,-1.182554,0.082434,0.006047,0.088971,-0.041000,-0.594899,-0.802754,-0.053620,0.028356,0.073353,9.965317,-25.882538,0.391602,,,,,,,
1523521083.469329,-0.044668,0.645682,-1.181748,0.348114,0.286870,-0.046442,-0.035664,-0.601743,-0.797893,-0.043789,0.041715,0.033320,10.344681,-26.257889,1.743286,,,,,,,
1523521083.499297,-0.036851,0.653790,-1.184307,0.166091,0.102836,-0.104992,-0.029245,-0.608199,-0.793245,0.009439,0.036513,0.008165,11.101227,-25.960709,2.342468,,,,,,,
1523521083.529266,-0.036829,0.653891,-1.188515,-0.074216,-0.164283,-0.114486,-0.029225,-0.608280,-0.793184,-0.026622,-0.001523,0.038378,10.575546,-26.707214,3.470215,,,,,,,
1523521083.559234,-0.036825,0.651783,-1.192221,-0.052163,0.042583,-0.072066,-0.029269,-0.606605,-0.794464,-0.026426,-0.021340,0.057891,10.654739,-26.557114,3.919617,,,,,,,
1523521083.589172,-0.030155,0.652497,-1.192908,0.078754,0.284999,0.011969,-0.023957,-0.607172,-0.794208,0.015244,-0.000509,-0.004177,11.327332,-26.934921,4.146484,,,,,,,
1523521083.619140,-0.026046,0.656281,-1.192569,0.150013,-0.029607,-0.002579,-0.020633,-0.610174,-0.791998,0.035587,0.005484,-0.061396,10.510468,-26.929886,5.496033,,,,,,,
1523521083.649108,-0.034581,0.662145,-1.193500,0.225288,-0.458645,-0.066020,-0.027268,-0.614810,-0.788203,-0.039764,-0.030499,0.017771,10.514969,-26.704529,5.870117,,,,,,,
1523521083.679076,-0.045468,0.671582,-1.197034,0.374655,-0.334179,-0.140613,-0.035582,-0.622225,-0.782029,-0.112032,-0.046110,0.170914,11.277374,-25.957153,6.692566,,,,,,,
,,,,,,,,,,,,,,,,25.314799,51.433020,5.731167,-1.000000,-1.000000,1523521083.652095,
1523521083.709045,-0.040378,0.682437,-1.206546,0.287544,0.203245,-0.375639,-0.031326,-0.630686,-0.775405,-0.070969,-0.086706,0.187407,10.382660,-25.652740,7.065857,,,,,,,
1523521083.739013,-0.014249,0.684702,-1.225758,-0.105967,0.591090,-0.538282,-0.011037,-0.632442,-0.774529,0.064061,-0.090947,0.077019,10.697784,-24.678268,7.962158,,,,,,,
,,,,,,,,,,,,,,,,25.314799,51.433020,5.731167,-1.000000,-1.000000,1523521083.700291,
,,,,,,,,,,,,,,,,25.314799,51.433020,5.731167,-1.000000,-1.000000,1523521083.710092,
1523521083.768981,0.011510,0.677412,-1.245367,-0.315798,0.271478,-0.498683,0.008968,-0.626779,-0.779145,0.111774,-0.099707,-0.020797,11.305237,-23.931000,7.959473,,,,,,,
1523521083.798919,0.019529,0.668170,-1.261578,-0.296531,-0.285160,-0.376645,0.015328,-0.619551,-0.784806,0.101264,-0.125246,0.035951,10.856293,-23.779068,7.883606,,,,,,,
1523521083.828887,0.016879,0.658120,-1.273012,-0.333342,-0.238235,-0.237131,0.013353,-0.611630,-0.791030,0.069548,-0.155429,0.093795,10.863022,-23.104095,7.880920,,,,,,,
1523521083.858855,0.021349,0.651251,-1.278340,-0.144448,0.187211,-0.058411,0.016978,-0.606182,-0.795144,0.106404,-0.154850,0.017114,10.347031,-21.977158,7.501160,,,,,,,
1523521083.888824,0.022650,0.648712,-1.275236,-0.112330,-0.021591,0.156003,0.018047,-0.604160,-0.796658,0.099872,-0.125698,-0.000949,10.200623,-21.526642,7.349243,,,,,,,
1523521083.918792,0.011221,0.640762,-1.266137,-0.391922,-0.298183,0.299920,0.008995,-0.597806,-0.801590,0.027382,-0.115496,0.010513,9.824432,-21.600021,7.274353,,,,,,,
1523521083.948760,-0.006084,0.625742,-1.253691,-0.542695,-0.306570,0.337110,-0.004931,-0.585699,-0.810513,-0.021711,-0.050226,0.021527,10.050156,-21.076797,6.522400,,,,,,,
1523521083.978698,-0.016988,0.611566,-1.242459,-0.381041,-0.024000,0.292190,-0.013908,-0.574150,-0.818631,-0.034630,-0.006767,0.004941,9.370346,-20.924789,5.471436,,,,,,,
1523521084.008666,-0.020761,0.605452,-1.232694,-0.087966,0.061521,0.265691,-0.017069,-0.569134,-0.822067,-0.018285,0.011410,-0.024552,9.454193,-19.725693,4.941711,,,,,,,
1523521084.038634,-0.026701,0.605012,-1.223198,-0.011583,-0.066049,0.247756,-0.021959,-0.568772,-0.822202,-0.041975,-0.000671,0.018125,7.354126,-19.641388,4.790344,,,,,,,
1523521084.068603,-0.035211,0.601147,-1.216058,-0.201587,-0.164827,0.156085,-0.029032,-0.565588,-0.824176,-0.095007,-0.011407,0.056949,8.401810,-19.421860,4.039978,,,,,,,
1523521084.098571,-0.037258,0.596161,-1.213234,-0.090735,0.117377,0.028028,-0.030824,-0.561469,-0.826923,-0.080291,0.011405,0.054752,8.696396,-19.648712,3.515991,,,,,,,
,,,,,,,,,,,,,,,,25.310639,51.444836,51.726467,3.800000,156.093750,1523521084.053343,
1523521084.128539,-0.028922,0.596700,-1.214609,0.081425,0.304626,-0.065799,-0.023921,-0.561916,-0.826848,-0.036885,-0.026433,0.006139,8.098511,-19.121536,2.988647,,,,,,,
1523521084.158507,-0.022271,0.599219,-1.215275,0.029933,0.103387,0.011080,-0.018389,-0.563998,-0.825571,-0.005658,-0.041379,-0.009085,8.246857,-19.197357,2.838989,,,,,,,
1523521084.188435,-0.026012,0.595416,-1.214134,-0.239575,-0.210604,0.030370,-0.021533,-0.560853,-0.827635,-0.054974,-0.064635,0.018064,8.692917,-19.050262,1.938660,,,,,,,
1523521084.218403,-0.032107,0.586901,-1.215088,-0.271784,-0.136455,-0.076282,-0.026730,-0.553783,-0.832231,-0.055622,-0.030872,0.054338,8.236649,-19.498505,1.640137,,,,,,,
1523521084.248372,-0.025486,0.583743,-1.220293,0.016703,0.293737,-0.155350,-0.021263,-0.551151,-0.834134,0.057427,0.012470,0.013425,8.154465,-19.948593,1.191956,,,,,,,
1523521084.278340,-0.016283,0.589254,-1.223382,0.253398,0.121212,-0.034587,-0.013536,-0.555741,-0.831245,0.127336,0.021866,0.004051,8.756683,-19.726303,1.191406,,,,,,,
1523521084.308308,-0.021083,0.596403,-1.221243,0.191196,-0.264214,0.095751,-0.017442,-0.561670,-0.827177,0.047425,-0.007361,0.094542,7.704193,-20.246109,1.642883,,,,,,,
1523521084.338277,-0.032569,0.600345,-1.217542,0.107995,-0.262871,0.083975,-0.026870,-0.564927,-0.824703,-0.053422,-0.035720,0.184093,7.548355,-20.920258,1.795532,,,,,,,
1523521084.368214,-0.033613,0.603245,-1.216643,0.096653,0.177845,-0.024104,-0.027675,-0.567318,-0.823034,-0.057698,-0.021397,0.188695,8.072586,-20.997620,1.796082,,,,,,,
1523521084.398183,-0.021850,0.605956,-1.219344,0.064749,0.369622,-0.086116,-0.017959,-0.569548,-0.821761,0.008422,-0.035173,0.086547,7.621429,-21.519913,2.472961,,,,,,,
1523521084.428151,-0.018003,0.605368,-1.221185,-0.089600,-0.179715,-0.035599,-0.014803,-0.569064,-0.822159,0.031084,-0.032864,0.027497,7.472031,-21.594009,2.698181,,,,,,,
1523521084.458119,-0.028079,0.600747,-1.222897,-0.180069,-0.372801,-0.049313,-0.023159,-0.565259,-0.824588,-0.061954,-0.096622,0.130481,7.620239,-21.819611,2.774109,,,,,,,
1523521084.488087,-0.030676,0.595833,-1.225433,-0.140409,0.085383,-0.092363,-0.025386,-0.561199,-0.827291,-0.056538,-0.090764,0.114508,6.793030,-22.040878,2.774597,,,,,,,
1523521084.518056,-0.017310,0.595057,-1.230029,0.040801,0.451813,-0.130966,-0.014334,-0.560556,-0.827992,0.034048,-0.110114,-0.027202,7.171921,-22.191696,3.675415,,,,,,,
1523521084.548024,-0.009386,0.598464,-1.232572,0.125638,-0.018879,-0.016413,-0.007755,-0.563374,-0.826165,0.036167,-0.116497,-0.035758,7.178665,-21.516724,3.672729,,,,,,,
1523521084.577962,-0.019130,0.600278,-1.231305,-0.050456,-0.406709,0.043514,-0.015784,-0.564872,-0.825027,-0.051156,-0.134972,0.071228,6.133499,-21.436340,4.346863,,,,,,,
1523521084.607930,-0.027756,0.594735,-1.230974,-0.243153,-0.124211,-0.019767,-0.022988,-0.560289,-0.827978,-0.070946,-0.135664,0.080327,6.290222,-20.762054,4.344238,,,,,,,
1523521084.637898,-0.021848,0.590348,-1.233789,-0.058160,0.306327,-0.111697,-0.018148,-0.556650,-0.830548,-0.024546,-0.115805,-0.002521,6.664902,-20.389420,3.667969,,,,,,,
1523521084.667866,-0.011653,0.592163,-1.238179,0.129862,0.095491,-0.113488,-0.009668,-0.558157,-0.829679,0.057932,-0.116175,-0.075015,5.475739,-19.708389,4.339661,,,,,,,
1523521084.697835,-0.015625,0.598983,-1.240454,0.273926,-0.307120,-0.033041,-0.012904,-0.563803,-0.825808,0.028712,-0.117990,0.041140,5.103745,-19.182098,3.962341,,,,,,,
1523521084.727803,-0.025553,0.609021,-1.241114,0.390214,-0.307520,-0.016973,-0.020956,-0.572065,-0.819940,-0.030710,-0.122973,0.164087,4.738907,-17.980759,3.657349,,,,,,,
1523521084.757741,-0.029268,0.623901,-1.241242,0.561585,0.030097,-0.035304,-0.023751,-0.584205,-0.811258,-0.038017,-0.063256,0.258676,4.064697,-17.678101,3.280823,,,,,,,
1523521084.787709,-0.021857,0.642141,-1.242266,0.608773,0.307346,-0.039806,-0.017502,-0.598911,-0.800624,-0.015778,-0.049297,0.272486,3.624878,-16.476425,2.975830,,,,,,,
1523521084.817677,-0.013529,0.657129,-1.243843,0.398958,0.159260,-0.062189,-0.010711,-0.610846,-0.791676,-0.021271,-0.047967,0.284993,4.752213,-16.106720,2.749878,,,,,,,
1523521084.847645,-0.011317,0.663667,-1.246914,0.100185,-0.084131,-0.100522,-0.008914,-0.616010,-0.787688,-0.038846,-0.063312,0.298811,3.629196,-15.726974,2.447754,,,,,,,
1523521084.877614,-0.013192,0.662939,-1.251740,-0.114610,-0.189450,-0.157059,-0.010398,-0.615436,-0.788118,-0.049646,-0.085568,0.321306,3.994431,-16.254364,1.700073,,,,,,,
1523521084.907582,-0.011711,0.655604,-1.258620,-0.357050,0.018405,-0.164897,-0.009283,-0.609638,-0.792625,-0.022608,-0.100994,0.253334,4.519104,-15.882401,1.023865,,,,,,,
1523521084.937550,-0.005639,0.641374,-1.263165,-0.528849,0.131997,-0.087364,-0.004518,-0.598297,-0.801261,0.002306,-0.104676,0.126686,4.205490,-16.706894,0.126953,,,,,,,
1523521084.967488,-0.002425,0.624000,-1.266296,-0.643955,-0.066402,-0.091506,-0.001968,-0.584286,-0.811545,0.048492,-0.115268,0.011023,3.975830,-16.856384,-0.397522,,,,,,,
1523521084.997456,-0.010875,0.601300,-1.268914,-0.811771,-0.519036,-0.036835,-0.008967,-0.565715,-0.824552,0.046733,-0.166371,-0.037814,3.660263,-17.830933,-1.368774,,,,,,,
1523521085.027424,-0.027396,0.577662,-1.270181,-0.739313,-0.520493,-0.008000,-0.022948,-0.546067,-0.837427,0.028120,-0.197494,-0.036642,4.259186,-17.758926,-1.668762,,,,,,,
1523521085.057393,-0.037344,0.561550,-1.268752,-0.363524,-0.130309,0.131474,-0.031602,-0.532499,-0.845840,0.050431,-0.215990,-0.057694,4.324875,-18.060272,-2.717529,,,,,,,
1523521085.087361,-0.040121,0.555507,-1.261316,-0.123944,0.083044,0.232653,-0.034079,-0.527374,-0.848949,0.034369,-0.166504,-0.094761,3.349472,-18.280579,-2.417175,,,,,,,
,,,,,,,,,,,,,,,,25.310686,51.444918,10.510891,4.490000,153.984375,1523521085.021125,
1523521085.117329,-0.043669,0.552522,-1.255154,-0.051583,-0.085424,0.135924,-0.037159,-0.524835,-0.850392,-0.012676,-0.132345,-0.055400,2.970154,-18.803726,-2.265198,,,,,,,
1523521085.147298,-0.046574,0.555239,-1.252940,0.218537,0.008280,0.012429,-0.039563,-0.527147,-0.848852,-0.034472,-0.096144,0.071280,3.798279,-18.582306,-2.115723,,,,,,,
1523521085.177235,-0.040624,0.566006,-1.251952,0.404849,0.377510,0.024987,-0.034280,-0.536265,-0.843353,-0.030616,-0.111577,0.174819,3.126007,-18.578827,-1.666077,,,,,,,
1523521085.207193,-0.027848,0.571123,-1.248752,-0.086380,0.489506,0.139582,-0.023425,-0.540577,-0.840968,-0.032453,-0.173534,0.135600,3.132446,-17.978775,-1.593445,,,,,,,
1523521085.237160,-0.016651,0.553177,-1.244103,-0.959788,0.433509,0.100629,-0.014167,-0.525393,-0.850741,0.029136,-0.078840,-0.119016,2.982590,-17.828323,-1.819092,,,,,,,
1523521085.267128,-0.007836,0.518710,-1.243410,-1.072594,0.171966,0.009173,-0.006805,-0.495760,-0.868432,0.061569,-0.065427,-0.288367,3.435547,-16.856491,-2.947754,,,,,,,
1523521085.297096,-0.009220,0.504135,-1.240961,-0.001489,-0.106785,0.133851,-0.008073,-0.483051,-0.875555,0.054414,-0.030164,-0.220453,2.907394,-16.854645,-3.473083,,,,,,,
1523521085.327065,-0.015909,0.519739,-1.233195,0.780479,-0.077914,0.283588,-0.013808,-0.496654,-0.867839,-0.035951,-0.087605,-0.124059,3.728302,-16.634384,-4.523499,,,,,,,
1523521085.357002,-0.026891,0.544482,-1.222405,0.779772,-0.261617,0.263539,-0.023000,-0.517975,-0.855086,-0.090937,-0.074875,-0.024095,3.500015,-17.008286,-4.447144,,,,,,,
1523521085.386971,-0.037712,0.563893,-1.215774,0.597330,-0.188766,0.093900,-0.031866,-0.534481,-0.844579,-0.104670,-0.041783,0.042639,3.338196,-17.833160,-5.043945,,,,,,,
1523521085.416939,-0.041943,0.583105,-1.213333,0.713554,-0.075899,0.018230,-0.035002,-0.550618,-0.834023,-0.075029,-0.048152,0.093315,4.230499,-18.063065,-5.942566,,,,,,,
1523521085.446908,-0.045414,0.604708,-1.210983,0.674843,-0.041309,0.100210,-0.037348,-0.568522,-0.821819,-0.045279,-0.115011,0.258114,3.315414,-19.484100,-6.087341,,,,,,,
1523521085.476876,-0.047418,0.619855,-1.197524,0.410746,0.361219,0.523699,-0.038582,-0.580917,-0.813047,-0.006279,-0.133103,0.361265,3.007065,-20.457474,-5.858643,,,,,,,
1523521085.506845,-0.049101,0.623921,-1.173599,-0.032117,0.330586,0.656580,-0.039834,-0.584222,-0.810616,-0.048026,-0.077476,0.348565,4.032608,-22.412918,-6.675232,,,,,,,
1523521085.536813,-0.047645,0.618068,-1.157542,-0.265242,0.515530,0.275836,-0.038816,-0.579462,-0.814074,-0.059222,-0.090567,0.397067,3.122314,-23.533661,-6.521240,,,,,,,
1523521085.566751,-0.034153,0.605377,-1.150789,-0.545612,0.556928,0.229770,-0.028078,-0.569072,-0.821808,0.044390,-0.134511,0.286469,3.413330,-24.434967,-6.517517,,,,,,,
1523521085.596719,-0.025458,0.588148,-1.138570,-0.468993,0.488432,0.423822,-0.021178,-0.554821,-0.831700,0.025572,-0.157444,0.147389,4.139496,-26.463821,-7.109009,,,,,,,
1523521085.626687,-0.025580,0.577033,-1.121358,-0.355837,0.166312,0.557417,-0.021436,-0.545540,-0.837811,0.098478,-0.160011,0.136471,3.306473,-27.809174,-6.204041,,,,,,,
1523521085.656655,-0.038648,0.558715,-1.081052,-0.757115,0.336806,1.693857,-0.032763,-0.530097,-0.847304,0.112704,-0.235085,0.125914,2.169128,-29.228745,-5.898926,,,,,,,
1523521085.686624,-0.068445,0.528649,-0.999656,-0.851081,0.464386,2.626001,-0.059055,-0.504367,-0.861467,-0.251919,-0.081830,0.055880,1.191467,-29.674057,-5.597656,,,,,,,
1523521085.716592,-0.086398,0.501308,-0.935087,-0.781400,0.598117,1.257793,-0.075673,-0.480573,-0.873684,-0.264659,-0.050326,0.041271,-1.367844,-31.011856,-4.918579,,,,,,,
1523521085.746560,-0.061600,0.471295,-0.923905,-1.118733,1.208637,-0.068596,-0.054849,-0.454041,-0.889291,0.022455,-0.190781,-0.226462,-1.966461,-31.008926,-4.693909,,,,,,,
1523521085.776498,-0.028237,0.433547,-0.935667,-1.332647,0.598850,-0.317473,-0.025621,-0.420093,-0.907119,0.261888,-0.212842,-0.384110,-1.297058,-31.162613,-5.367920,,,,,,,
1523521085.806466,-0.028266,0.397019,-0.938758,-1.079932,-0.404669,0.106742,-0.026064,-0.386671,-0.921849,0.026216,-0.134249,-0.277537,-0.694824,-30.940323,-5.368530,,,,,,,
1523521085.836434,-0.041392,0.374411,-0.939998,-0.486926,-0.424189,-0.199666,-0.038513,-0.365724,-0.929926,-0.055466,-0.037764,-0.204077,-0.383621,-29.816742,-5.372864,,,,,,,
1523521085.866403,-0.048760,0.373129,-0.953887,0.231057,-0.443923,-0.518773,-0.045387,-0.364531,-0.930085,0.001243,-0.023867,-0.135131,0.215317,-30.193985,-4.921021,,,,,,,
1523521085.896371,-0.062155,0.389588,-0.965668,0.695460,-0.671898,-0.298695,-0.057461,-0.379807,-0.923279,0.008785,0.014908,-0.033508,-0.669632,-29.588501,-3.423889,,,,,,,
1523521085.926339,-0.080378,0.413133,-0.972214,0.765922,-0.629831,-0.261391,-0.073536,-0.401481,-0.912911,-0.045422,0.005546,0.075386,-0.892838,-29.587204,-3.124023,,,,,,,
1523521085.956308,-0.089548,0.434896,-0.978643,0.696094,-0.246107,-0.255429,-0.081104,-0.421317,-0.903280,-0.139401,-0.016733,0.100881,0.009689,-29.740585,-2.447998,,,,,,,
1523521085.986245,-0.085660,0.457176,-0.990244,0.684680,0.145226,-0.595739,-0.076769,-0.441416,-0.894013,-0.100629,0.046961,0.084519,-0.812698,-30.110825,-1.396851,,,,,,,
1523521086.016214,-0.071538,0.478206,-1.012666,0.677233,0.015340,-0.710681,-0.063458,-0.460187,-0.885551,0.086606,-0.007693,-0.064751,-0.511215,-30.186813,-1.021423,,,,,,,
1523521086.046182,-0.078416,0.505176,-1.025714,1.012845,-0.737093,-0.205695,-0.068551,-0.483962,-0.872400,0.128060,-0.079271,-0.024161,-0.576736,-30.409561,0.929382,,,,,,,
1523521086.076149,-0.109317,0.537547,-1.018395,1.075819,-0.913750,0.262308,-0.093713,-0.512031,-0.853840,-0.117057,-0.092538,0.114353,-0.646606,-30.483276,1.904724,,,,,,,
1523521086.106117,-0.134349,0.561180,-1.005652,0.620052,-0.193097,0.244189,-0.113402,-0.532185,-0.838998,-0.069444,-0.105769,0.237177,-0.412460,-30.557678,3.555054,,,,,,,
,,,,,,,,,,,,,,,,25.310643,51.444926,10.663509,4.490000,154.687500,1523521086.021067,
1523521086.136086,-0.129162,0.573956,-0.983625,0.477854,1.012855,0.915222,-0.108163,-0.542959,-0.832764,0.063058,-0.197871,0.158494,-1.754730,-30.550369,4.829407,,,,,,,
1523521086.166054,-0.122004,0.581916,-0.930898,0.382796,1.164005,1.668335,-0.101671,-0.549626,-0.829201,0.045885,0.007756,0.034813,-3.691910,-29.940521,5.950989,,,,,,,
1523521086.195981,-0.129910,0.578617,-0.874679,-0.201136,0.499420,1.486361,-0.108457,-0.546866,-0.830165,0.060087,-0.037210,0.097407,-4.211517,-29.263412,5.723022,,,,,,,
1523521086.225949,-0.148511,0.549839,-0.817137,-1.074585,0.478166,2.099476,-0.126157,-0.522550,-0.843223,0.111203,-0.232089,0.217369,-7.516769,-29.474075,5.197205,,,,,,,
1523521086.255917,-0.166656,0.499326,-0.729760,-1.269383,1.197608,3.221671,-0.145632,-0.478834,-0.865742,0.148501,-0.146547,0.228351,-9.614151,-28.940079,4.744019,,,,,,,
1523521086.285885,-0.181728,0.444980,-0.615618,-1.214610,1.071792,3.869678,-0.163130,-0.430440,-0.887755,0.211668,0.105153,0.160964,-12.014542,-28.255478,3.540039,,,,,,,
1523521086.315854,-0.199569,0.377298,-0.491828,-1.727579,1.236793,4.311331,-0.184302,-0.368410,-0.911211,-0.035256,-0.017118,0.039614,-17.257767,-26.583542,1.880798,,,,,,,
1523521086.345822,-0.188423,0.296984,-0.366590,-1.859252,2.201427,4.390166,-0.179110,-0.292637,-0.939299,-0.116773,0.010945,-0.026658,-19.950958,-24.773315,-0.002808,,,,,,,
1523521086.375790,-0.146042,0.227966,-0.244869,-1.357987,2.452997,4.098335,-0.141758,-0.225996,-0.963758,-0.156246,0.150572,-0.155260,-24.065109,-21.383636,-3.843445,,,,,,,
1523521086.405728,-0.108241,0.180904,-0.139596,-1.081463,1.539029,3.107464,-0.106267,-0.179919,-0.977925,-0.187495,0.195239,-0.283855,-26.375366,-19.498932,-4.527100,,,,,,,
1523521086.435696,-0.086834,0.133404,-0.081624,-1.587181,0.858556,1.222854,-0.085954,-0.133008,-0.987381,-0.148009,0.148099,-0.189987,-28.089432,-17.093399,-6.712585,,,,,,,
1523521086.465664,-0.077850,0.092533,-0.071686,-1.018621,-0.238437,0.167372,-0.077438,-0.092401,-0.992706,-0.097473,0.025979,-0.145493,-27.487656,-16.871185,-6.788208,,,,,,,
1523521086.495633,-0.093786,0.076570,-0.065347,-0.161805,-0.307145,0.416357,-0.093374,-0.076496,-0.992688,-0.069620,-0.042996,0.059873,-28.977524,-16.713058,-5.364563,,,,,,,
1523521086.525601,-0.089528,0.081153,-0.036238,0.501863,0.441247,1.348433,-0.089114,-0.081064,-0.992717,-0.007977,-0.064032,-0.104191,-29.118530,-16.037048,-4.992371,,,,,,,
1523521086.555569,-0.090988,0.097774,0.016429,0.765754,-0.193725,1.792539,-0.090428,-0.097619,-0.991107,-0.128200,0.056588,-0.099957,-29.614471,-13.933472,-3.651001,,,,,,,
1523521086.585507,-0.100894,0.115001,0.067828,0.924034,0.380888,1.622653,-0.100057,-0.114747,-0.988343,-0.031489,-0.047621,0.573624,-30.504242,-13.179031,-3.204468,,,,,,,
1523521086.615475,-0.086256,0.145454,0.121548,0.728882,-0.523190,1.207867,-0.085240,-0.144941,-0.985762,0.030232,0.023893,-0.154451,-31.395233,-12.050400,-3.584412,,,,,,,
1523521086.645443,-0.114913,0.138979,0.127470,-0.512004,-0.760431,0.023366,-0.113554,-0.138532,-0.983826,-0.105196,-0.001147,-0.001983,-30.923950,-11.225342,-1.412537,,,,,,,
1523521086.675412,-0.156279,0.132073,0.134637,0.155552,-1.818077,0.290252,-0.154288,-0.131690,-0.979210,-0.150980,0.030005,-0.067085,-31.590805,-11.220993,-0.062805,,,,,,,
1523521086.705380,-0.221993,0.142096,0.140558,0.358661,-2.223167,0.099024,-0.217955,-0.141618,-0.965629,-0.117952,-0.001967,0.027671,-31.197769,-11.669006,3.689148,,,,,,,
1523521086.735348,-0.284692,0.147575,0.156024,0.357615,-1.872157,0.807246,-0.277809,-0.147040,-0.949316,-0.022209,-0.098047,0.127463,-29.903503,-10.773117,5.411194,,,,,,,
1523521086.765316,-0.342243,0.151061,0.199852,0.684927,-1.696193,1.661864,-0.331779,-0.150487,-0.931277,-0.090462,-0.005916,0.064150,-30.168839,-9.193771,8.554810,,,,,,,
1523521086.795254,-0.402796,0.145065,0.258164,0.319687,-1.593336,1.973688,-0.387875,-0.144557,-0.910306,-0.093723,-0.032719,0.106122,-29.470932,-7.845352,10.124756,,,,,,,
1523521086.825223,-0.460394,0.136708,0.321556,0.952881,-1.786353,1.998858,-0.440156,-0.136283,-0.887519,-0.021239,0.050941,0.145285,-28.611206,-5.447418,11.915588,,,,,,,
1523521086.855191,-0.508844,0.138368,0.384046,0.837949,-0.947211,1.629261,-0.482512,-0.137927,-0.864961,0.014433,0.027911,0.260103,-27.770203,-4.250534,12.586182,,,,,,,
1523521086.885159,-0.527457,0.125857,0.426351,-0.022001,-0.130224,1.198395,-0.499356,-0.125525,-0.857255,-0.112536,-0.051126,0.155885,-26.190781,-3.358398,11.833435,,,,,,,
1523521086.915127,-0.524935,0.110919,0.442736,-0.086854,0.217514,0.424431,-0.498077,-0.110692,-0.860039,-0.159592,-0.138271,0.015190,-25.888107,-2.910065,11.531799,,,,,,,
1523521086.945096,-0.523018,0.104584,0.451830,-0.117760,-0.028788,0.404407,-0.496767,-0.104393,-0.861582,-0.091825,-0.070945,0.066004,-26.492905,-3.207642,11.232666,,,,,,,
1523521086.975064,-0.539797,0.084628,0.461534,-0.614374,-0.814378,0.777765,-0.512122,-0.084527,-0.854743,-0.077447,-0.032737,0.231712,-25.897125,-2.911514,10.031799,,,,,,,
1523521087.005002,-0.559258,0.051175,0.462619,-1.161757,-0.323108,0.317614,-0.529863,-0.051153,-0.846539,-0.111266,0.000448,0.225903,-25.224564,-3.064697,9.882690,,,,,,,
1523521087.034970,-0.552263,0.020488,0.435970,-1.454780,0.296390,-0.487700,-0.524505,-0.020486,-0.851161,-0.048630,-0.167670,-0.197820,-25.836075,-3.812607,9.210388,,,,,,,
1523521087.064938,-0.546872,-0.001564,0.403892,-0.864986,0.296560,-0.570368,-0.520018,0.001564,-0.854154,-0.002260,-0.069619,-0.130374,-26.302689,-4.936417,8.314636,,,,,,,
1523521087.094906,-0.552835,-0.010759,0.386014,-0.390116,-0.626046,-0.093868,-0.525071,0.010758,-0.850990,-0.033553,0.027068,-0.079186,-26.305984,-5.086700,8.015259,,,,,,,
,,,,,,,,,,,,,,,,25.310585,51.444966,10.978268,5.560000,150.820312,1523521087.019763,
1523521087.124875,-0.573109,-0.011723,0.384836,0.187395,-0.612840,-0.061479,-0.542210,0.011723,-0.840161,-0.088421,0.037304,0.010220,-25.927704,-4.938095,8.314819,,,,,,,
1523521087.154843,-0.592954,0.000670,0.383834,0.415249,-0.927562,-0.417947,-0.558813,-0.000670,-0.829293,-0.082407,0.044813,0.000756,-24.726868,-4.718719,8.089600,,,,,,,
1523521087.184795,-0.631625,0.031624,0.376746,0.913403,-1.320526,-1.078867,-0.590162,-0.031619,-0.806665,0.027876,0.113924,0.099298,-24.501709,-5.243835,8.991821,,,,,,,
1523521087.214733,-0.643382,0.062416,0.352968,-0.373590,0.179183,-1.130346,-0.598736,-0.062375,-0.798513,-0.142688,-0.066928,-0.055002,-23.764771,-5.923203,7.944885,,,,,,,
1523521087.244701,-0.637057,0.053959,0.327807,-0.648471,-0.099736,-0.049825,-0.593966,-0.053933,-0.802680,-0.097211,0.046579,0.030280,-23.089828,-5.476990,7.193420,,,,,,,
1523521087.274668,-0.641671,0.042496,0.320813,-0.363241,-0.049520,-0.037945,-0.597994,-0.042483,-0.800373,-0.014066,0.036532,0.024388,-23.011536,-5.102417,7.117004,,,,,,,
1523521087.304638,-0.640474,0.037578,0.313351,-0.205410,0.075912,-0.099759,-0.597153,-0.037569,-0.801246,-0.060592,-0.021604,0.010048,-23.309875,-4.576675,6.514709,,,,,,,
1523521087.334605,-0.637857,0.036398,0.312540,0.055330,0.118475,0.100722,-0.595080,-0.036390,-0.802841,-0.071958,0.000303,0.040680,-23.084930,-4.128448,5.763062,,,,,,,
1523521087.364573,-0.632907,0.037764,0.320228,0.303077,0.199266,0.160490,-0.591069,-0.037755,-0.805736,0.018499,0.046041,0.034618,-22.845871,-2.629669,5.607178,,,,,,,
1523521087.394542,-0.629126,0.048086,0.329754,0.543463,0.097508,0.040360,-0.587758,-0.048068,-0.807607,0.007741,-0.009015,0.030706,-22.174057,-2.633224,5.082520,,,,,,,
1523521087.424479,-0.627200,0.061434,0.340835,0.595747,0.093076,0.045744,-0.585773,-0.061395,-0.808146,0.024600,-0.012000,0.022075,-21.413467,-1.212250,4.477234,,,,,,,
1523521087.454448,-0.625236,0.071892,0.349934,0.319574,0.131216,0.009266,-0.583776,-0.071830,-0.808730,-0.017328,0.020240,0.033584,-21.713760,-1.285828,4.552307,,,,,,,
1523521087.484416,-0.619337,0.075812,0.353106,0.124566,0.234657,0.026064,-0.578828,-0.075740,-0.811924,-0.031219,0.033671,0.008152,-22.088760,-0.834885,3.800354,,,,,,,
1523521087.514385,-0.612719,0.078804,0.356000,0.171296,0.169756,0.019780,-0.573309,-0.078723,-0.815548,0.017157,0.019824,-0.049869,-21.718430,-0.762451,2.900269,,,,,,,
1523521087.544353,-0.611950,0.084286,0.360207,0.267669,-0.040656,-0.011904,-0.572425,-0.084186,-0.815623,0.008720,0.012653,-0.043721,-22.998474,-1.131912,2.676086,,,,,,,
1523521087.574321,-0.613160,0.090722,0.362849,0.165803,0.023835,-0.079181,-0.573088,-0.090598,-0.814470,-0.012987,-0.027810,-0.010619,-24.129868,-1.726898,2.602966,,,,,,,
1523521087.604290,-0.610718,0.092239,0.362203,-0.052966,0.107939,-0.025081,-0.571018,-0.092108,-0.815754,-0.049145,-0.031549,-0.011593,-23.979294,-1.353104,2.076477,,,,,,,
1523521087.634228,-0.605371,0.088619,0.358981,-0.213938,0.187890,-0.003973,-0.566834,-0.088503,-0.819064,-0.034530,-0.034925,-0.059247,-25.409622,-2.021439,2.303406,,,,,,,
1523521087.664196,-0.600958,0.082343,0.355594,-0.212399,0.088861,0.024897,-0.563517,-0.082250,-0.822000,-0.019445,0.005650,-0.055594,-25.116211,-2.772614,2.456604,,,,,,,
1523521087.694164,-0.599582,0.079252,0.353335,-0.082407,0.005803,0.003767,-0.562526,-0.079169,-0.822980,0.003261,-0.013879,-0.065432,-24.587021,-2.624542,2.906311,,,,,,,
1523521087.724132,-0.601152,0.078064,0.352565,-0.020819,-0.074043,0.001771,-0.563870,-0.077984,-0.822173,0.005185,0.002179,0.015273,-25.569443,-3.370117,2.908752,,,,,,,
1523521087.754101,-0.603600,0.083382,0.355795,0.267751,-0.054287,-0.038525,-0.565638,-0.083286,-0.820437,0.001337,-0.002530,-0.025632,-24.826523,-3.898758,2.611267,,,,,,,
1523521087.784069,-0.603839,0.084859,0.355399,-0.101393,0.036769,-0.012254,-0.565764,-0.084757,-0.820199,0.013014,-0.013739,0.013666,-23.252075,-3.681290,2.161194,,,,,,,
1523521087.814037,-0.601413,0.078836,0.352224,-0.321586,0.063383,0.058945,-0.564050,-0.078754,-0.821976,-0.005850,0.004398,-0.016556,-23.712540,-4.055344,1.037476,,,,,,,
1523521087.827156,-0.599778,0.071644,0.347306,-0.250602,0.052280,-0.049675,-0.563011,-0.071582,-0.823343,-0.017281,-0.037900,-0.001013,-23.722427,-4.506195,0.139221,,,,,,,
