timestamp(unix),attitude_roll(radians),attitude_pitch(radians),attitude_yaw(radians),rotation_rate_x(radians/s),rotation_rate_y(radians/s),rotation_rate_z(radians/s),gravity_x(G),gravity_y(G),gravity_z(G),user_acc_x(G),user_acc_y(G),user_acc_z(G),magnetic_field_x(microteslas),magnetic_field_y(microteslas),magnetic_field_z(microteslas),latitude(degree),longitude(degree),altitude(meter),speed(m/s),course(degree),timestamp(unix),User Mark
,,,,,,,,,,,,,,,,25.313542,51.456762,12.610011,9.080000,270.000000,1523523222.997820,
1523523223.828021,-0.691317,-0.091942,1.568572,0.095291,-0.023302,-0.031375,-0.634859,0.091813,-0.767153,0.018084,0.041793,-0.003034,-5.873306,-26.657570,-6.729492,,,,,,,
1523523223.857989,-0.690982,-0.090012,1.571341,0.101610,0.069513,0.065499,-0.634714,0.089891,-0.767500,0.022898,0.016661,-0.028108,-5.877045,-27.032555,-6.727966,,,,,,,
1523523223.887957,-0.688800,-0.089837,1.575318,0.093617,-0.004068,0.103936,-0.633048,0.089716,-0.768896,0.006079,-0.024027,-0.008524,-6.096481,-26.656258,-6.429626,,,,,,,
1523523223.917925,-0.689888,-0.090859,1.579003,0.025081,-0.044267,0.104977,-0.633825,0.090734,-0.768136,-0.018214,-0.043630,-0.013160,-6.545258,-26.579170,-6.355164,,,,,,,
1523523223.947894,-0.689233,-0.093005,1.580400,-0.051335,0.007238,0.061178,-0.633197,0.092870,-0.768398,-0.015744,-0.078756,-0.071506,-5.572113,-26.359230,-7.030579,,,,,,,
1523523223.977862,-0.691640,-0.094380,1.580298,-0.023850,-0.122060,0.002727,-0.634962,0.094240,-0.766773,-0.038530,-0.087435,0.058170,-5.717896,-26.432747,-6.205322,,,,,,,
1523523224.007830,-0.694094,-0.093378,1.579776,0.004421,-0.039059,-0.023975,-0.636902,0.093242,-0.765285,-0.028747,-0.094707,0.029185,-6.247986,-26.580956,-6.804993,,,,,,,
1523523224.037798,-0.694543,-0.093684,1.579109,-0.076910,-0.021162,0.028160,-0.637227,0.093547,-0.764977,-0.042857,-0.061091,0.001625,-6.324188,-26.655693,-6.879761,,,,,,,
,,,,,,,,,,,,,,,,25.313543,51.456649,13.197543,10.250000,271.406250,1523523223.997809,
1523523224.067760,-0.695694,-0.097021,1.578433,-0.128478,-0.008792,0.100567,-0.637904,0.096869,-0.763999,-0.037725,-0.024084,-0.034234,-5.795166,-26.432762,-6.580383,,,,,,,
1523523224.097728,-0.694939,-0.099973,1.580219,0.021047,0.035262,0.129405,-0.637141,0.099806,-0.764257,-0.037038,-0.032011,-0.088968,-6.171188,-26.356377,-6.880859,,,,,,,
1523523224.127696,-0.694689,-0.099347,1.584903,0.138338,-0.028611,0.103986,-0.636990,0.099184,-0.764464,-0.020542,-0.042940,-0.036332,-6.693176,-26.054039,-6.882324,,,,,,,
1523523224.157665,-0.695121,-0.097884,1.589506,0.120355,-0.017758,0.079446,-0.637412,0.097728,-0.764300,-0.008096,-0.065471,-0.002241,-6.923401,-26.577995,-6.880371,,,,,,,
1523523224.187633,-0.694561,-0.096926,1.592705,0.054468,0.018704,0.053797,-0.637044,0.096775,-0.764728,-0.008723,-0.086582,0.004871,-6.766663,-26.128319,-6.507080,,,,,,,
1523523224.217601,-0.693357,-0.097322,1.594400,0.008575,0.026260,0.054812,-0.636098,0.097169,-0.765465,-0.010844,-0.101731,0.008370,-8.043854,-26.347588,-6.506836,,,,,,,
1523523224.247569,-0.692833,-0.097859,1.596178,0.009421,-0.001521,0.075092,-0.635664,0.097703,-0.765758,-0.004122,-0.109605,-0.000203,-5.946487,-26.656944,-6.429565,,,,,,,
1523523224.277538,-0.693294,-0.098027,1.597607,-0.006564,-0.026789,0.047402,-0.636006,0.097870,-0.765453,0.003864,-0.065903,0.004604,-6.842102,-26.352684,-6.206238,,,,,,,
1523523224.307506,-0.694103,-0.097776,1.597839,-0.015867,-0.000971,0.007932,-0.636641,0.097620,-0.764956,0.000639,-0.038050,-0.002515,-6.995117,-26.202751,-6.956909,,,,,,,
1523523224.337474,-0.693440,-0.096608,1.597628,0.025015,0.028870,-0.021887,-0.636206,0.096457,-0.765465,-0.007211,-0.040259,-0.042320,-6.769211,-26.428230,-6.430847,,,,,,,
1523523224.367442,-0.693668,-0.094950,1.597693,0.026767,-0.044507,-0.013293,-0.636482,0.094807,-0.765442,0.003242,-0.029972,0.004792,-6.921005,-26.652489,-6.355042,,,,,,,
1523523224.397411,-0.694666,-0.093933,1.598568,0.044963,0.000884,0.020786,-0.637307,0.093795,-0.764880,-0.004310,-0.024581,0.023456,-6.843307,-26.427757,-6.280945,,,,,,,
1523523224.427379,-0.692629,-0.093064,1.600354,0.051576,0.075129,0.040944,-0.635799,0.092930,-0.766239,-0.005161,-0.057713,-0.027645,-6.768753,-26.428169,-6.355835,,,,,,,
1523523224.457347,-0.691117,-0.093020,1.602087,0.005380,0.024151,0.052685,-0.634643,0.092886,-0.767203,-0.008912,-0.072668,-0.052881,-7.441635,-26.349907,-6.131531,,,,,,,
1523523224.487315,-0.692264,-0.093569,1.603108,0.015715,-0.077730,0.030421,-0.635490,0.093433,-0.766435,-0.017174,-0.062488,-0.046126,-6.768311,-26.428093,-6.280884,,,,,,,
1523523224.517284,-0.694728,-0.092394,1.604467,0.061754,-0.071347,0.012339,-0.637446,0.092262,-0.764951,-0.011968,-0.060066,-0.006304,-6.617264,-26.503471,-5.980469,,,,,,,
1523523224.547252,-0.696195,-0.090868,1.605680,0.035245,-0.029835,0.012274,-0.638657,0.090743,-0.764123,-0.013031,-0.048080,0.009331,-7.369186,-26.425545,-6.431152,,,,,,,
1523523224.577220,-0.695831,-0.091246,1.606029,-0.039492,-0.000073,0.037760,-0.638356,0.091119,-0.764329,-0.010951,-0.062005,-0.026275,-6.540298,-26.578362,-5.530212,,,,,,,
1523523224.607188,-0.696802,-0.092232,1.607306,0.032713,-0.043025,0.076214,-0.639040,0.092101,-0.763639,-0.005796,-0.058822,0.008543,-7.292831,-26.650291,-5.830261,,,,,,,
1523523224.637157,-0.697170,-0.091616,1.611018,0.101133,-0.000836,0.096471,-0.639358,0.091488,-0.763447,-0.031937,-0.079082,-0.037075,-7.442825,-26.874229,-5.454468,,,,,,,
1523523224.667125,-0.696604,-0.090816,1.614660,0.064881,-0.015451,0.073011,-0.638972,0.090692,-0.763865,-0.031758,-0.100823,-0.027899,-6.994644,-26.876549,-5.754211,,,,,,,
1523523224.697093,-0.698177,-0.091152,1.616311,-0.015265,-0.053372,0.053810,-0.640154,0.091025,-0.762835,-0.031691,-0.092109,-0.011365,-7.443268,-26.874306,-5.529480,,,,,,,
1523523224.727061,-0.698567,-0.092184,1.617004,-0.018160,0.006168,0.048430,-0.640390,0.092053,-0.762513,-0.052084,-0.085294,-0.042769,-7.214828,-26.575264,-5.455505,,,,,,,
1523523224.757030,-0.698459,-0.093175,1.617714,-0.026838,-0.014032,0.054827,-0.640249,0.093041,-0.762512,-0.044886,-0.096581,-0.045655,-6.842102,-26.352684,-6.206238,,,,,,,
1523523224.786998,-0.699481,-0.094397,1.618941,0.002902,-0.028038,0.071909,-0.640954,0.094257,-0.761770,-0.028434,-0.087695,0.006048,-7.519012,-26.948952,-5.529175,,,,,,,
1523523224.816997,-0.699901,-0.094866,1.621192,0.029686,-0.003711,0.077241,-0.641245,0.094724,-0.761467,-0.007757,-0.074262,0.005928,-7.668579,-26.723595,-5.830139,,,,,,,
1523523224.846965,-0.699201,-0.094775,1.623340,0.039589,0.033654,0.050562,-0.640718,0.094634,-0.761922,0.015108,-0.077605,0.000188,-8.713715,-26.418587,-5.531921,,,,,,,
1523523224.876933,-0.698314,-0.093878,1.625054,0.047149,0.021029,0.027155,-0.640096,0.093740,-0.762554,0.015035,-0.086584,-0.001545,-7.893707,-26.647728,-5.980530,,,,,,,
1523523224.906902,-0.698058,-0.092673,1.626341,0.034350,0.018991,0.020745,-0.639973,0.092540,-0.762805,0.023167,-0.092128,-0.013669,-7.819000,-26.947609,-5.529358,,,,,,,
1523523224.936870,-0.697797,-0.091801,1.627167,0.016121,-0.008533,0.012236,-0.639826,0.091673,-0.763033,0.021433,-0.080396,-0.009382,-7.139526,-26.500664,-5.530823,,,,,,,
1523523224.966838,-0.697351,-0.090994,1.627454,-0.007147,0.023510,-0.002732,-0.639532,0.090868,-0.763375,0.011084,-0.055910,-0.045905,-7.444626,-26.874519,-5.754456,,,,,,,
1523523224.996806,-0.697348,-0.090498,1.626729,-0.026415,-0.008192,-0.020829,-0.639559,0.090374,-0.763411,0.016390,-0.039074,-0.064744,-7.969604,-26.872169,-5.754700,,,,,,,
1523523225.026775,-0.697049,-0.089498,1.625420,-0.018735,0.002623,-0.050668,-0.639389,0.089378,-0.763671,0.020370,-0.010674,-0.049165,-7.440262,-26.574318,-5.530640,,,,,,,
1523523225.056765,-0.696591,-0.087821,1.623894,0.012426,0.009154,-0.083685,-0.639134,0.087708,-0.764078,0.013066,0.011230,-0.026938,-7.218445,-26.800468,-5.679626,,,,,,,
,,,,,,,,,,,,,,,,25.313549,51.456544,13.312271,10.790000,269.648438,1523523224.997798,
1523523225.086733,-0.696274,-0.085223,1.622605,0.047596,-0.005839,-0.081500,-0.639035,0.085120,-0.764453,0.030912,0.006158,0.012653,-7.593124,-26.723854,-5.755127,,,,,,,
1523523225.116701,-0.695323,-0.082672,1.622064,0.042334,0.042910,-0.058129,-0.638445,0.082578,-0.765225,0.012591,0.006350,-0.010029,-6.990738,-26.576424,-5.605347,,,,,,,
1523523225.146670,-0.694213,-0.081559,1.621156,-0.009051,0.020643,-0.048544,-0.637654,0.081468,-0.766003,-0.010310,-0.008211,-0.041920,-7.594620,-26.873848,-5.754517,,,,,,,
1523523225.176638,-0.694620,-0.080677,1.620120,0.019533,-0.036786,-0.051662,-0.638012,0.080590,-0.765798,-0.018467,-0.012337,-0.009867,-7.220688,-27.025459,-5.678711,,,,,,,
1523523225.206606,-0.695476,-0.078703,1.620230,0.068640,-0.012602,-0.031412,-0.638768,0.078622,-0.765372,-0.016399,-0.008233,-0.003640,-6.622055,-27.028374,-5.903442,,,,,,,
1523523225.236574,-0.695054,-0.076799,1.621404,0.063222,0.001028,-0.003723,-0.638539,0.076724,-0.765756,-0.001827,-0.001696,-0.028052,-7.296860,-27.324806,-5.377563,,,,,,,
1523523225.266543,-0.695341,-0.076083,1.622165,0.010870,0.003213,0.005828,-0.638794,0.076010,-0.765614,0.017594,0.016535,-0.019512,-7.448364,-27.249504,-5.752930,,,,,,,
1523523225.296511,-0.694815,-0.075577,1.623115,0.050424,0.025362,0.015425,-0.638416,0.075505,-0.765979,0.027515,0.024456,-0.025220,-6.467560,-26.803688,-5.529236,,,,,,,
1523523225.326479,-0.693935,-0.074244,1.624445,0.066513,0.013832,-0.011199,-0.637805,0.074176,-0.766618,0.007648,0.029172,-0.046157,-7.295975,-27.100044,-5.603455,,,,,,,
1523523225.356447,-0.693936,-0.072342,1.624609,0.042063,-0.017660,-0.058066,-0.637895,0.072279,-0.766724,0.003679,0.001132,-0.048309,-7.211990,-26.649666,-4.855164,,,,,,,
1523523225.386416,-0.693998,-0.070661,1.623031,0.009184,-0.009894,-0.093261,-0.638019,0.070602,-0.766777,-0.009396,-0.011734,-0.052941,-6.920074,-27.326210,-5.077393,,,,,,,
1523523225.416384,-0.695381,-0.068890,1.621337,0.009738,-0.090882,-0.062269,-0.639158,0.068835,-0.765988,-0.002489,0.008542,0.019238,-6.991928,-27.100731,-4.928284,,,,,,,
1523523225.446352,-0.697155,-0.069903,1.620532,-0.084356,0.004251,0.044109,-0.640471,0.069846,-0.764799,-0.011979,0.000177,-0.010439,-7.068436,-27.025780,-5.303650,,,,,,,
1523523225.476321,-0.695757,-0.072364,1.621396,-0.006503,0.025048,0.080380,-0.639289,0.072301,-0.765559,-0.027413,-0.016256,-0.024068,-6.843597,-26.951927,-5.453857,,,,,,,
1523523225.506289,-0.696169,-0.073527,1.623358,0.010390,-0.035451,0.064471,-0.639550,0.073461,-0.765231,-0.003013,-0.022618,-0.012113,-6.919189,-27.101433,-5.303223,,,,,,,
1523523225.536257,-0.696635,-0.074088,1.624717,0.005408,-0.001167,0.026075,-0.639880,0.074020,-0.764902,0.006579,-0.039352,-0.017004,-6.546158,-27.028572,-5.753357,,,,,,,
1523523225.566225,-0.697205,-0.074402,1.624675,-0.026642,-0.034924,0.001582,-0.640301,0.074333,-0.764519,0.003964,-0.019005,0.032997,-6.841949,-26.876793,-5.304138,,,,,,,
1523523225.596194,-0.696957,-0.075099,1.624344,-0.026297,0.058518,0.013197,-0.640078,0.075028,-0.764638,-0.022795,-0.020249,-0.015513,-7.369766,-27.024635,-5.528809,,,,,,,
1523523225.626162,-0.693906,-0.075622,1.624293,-0.017679,0.074444,0.012120,-0.637717,0.075550,-0.766557,-0.006921,-0.035328,-0.070312,-7.449249,-27.474266,-5.527039,,,,,,,
1523523225.656130,-0.695182,-0.075556,1.624762,0.026410,-0.085154,0.022987,-0.638698,0.075485,-0.765746,0.038524,-0.013152,0.035171,-7.599243,-27.473595,-5.527161,,,,,,,
1523523225.686098,-0.695222,-0.074530,1.626895,0.098693,0.093135,0.031377,-0.638778,0.074461,-0.765779,0.025298,0.007433,0.010439,-7.518707,-27.098656,-5.228577,,,,,,,
1523523225.716067,-0.691874,-0.072387,1.628523,0.031508,0.049047,-0.021905,-0.636310,0.072324,-0.768035,0.015491,-0.005460,-0.078370,-6.847031,-27.251976,-5.527649,,,,,,,
1523523225.746035,-0.692337,-0.073109,1.626291,-0.111759,-0.023720,-0.048585,-0.636633,0.073044,-0.767700,0.023275,-0.014664,-0.022248,-7.225159,-27.700050,-5.301025,,,,,,,
1523523225.776003,-0.692310,-0.073460,1.623949,-0.003621,0.031329,-0.058145,-0.636595,0.073394,-0.767698,-0.006029,-0.013762,0.001783,-7.151077,-27.475914,-5.826904,,,,,,,
1523523225.805971,-0.691314,-0.071671,1.623509,0.041901,-0.028459,-0.034607,-0.635913,0.071610,-0.768431,0.007937,0.004410,-0.002626,-6.546600,-27.253258,-5.452454,,,,,,,
1523523225.835970,-0.691635,-0.071479,1.623223,-0.047745,0.027791,0.006826,-0.636169,0.071418,-0.768237,0.011794,0.017678,-0.014615,-6.469208,-27.103462,-5.303040,,,,,,,
1523523225.865938,-0.690416,-0.072582,1.622600,-0.008300,0.016008,0.006864,-0.635181,0.072518,-0.768951,0.013889,-0.001748,-0.020081,-6.923828,-27.476570,-5.451782,,,,,,,
1523523225.895907,-0.690408,-0.072204,1.622991,0.011918,-0.011597,-0.003748,-0.635192,0.072141,-0.768977,-0.015000,0.019030,-0.042195,-6.920242,-27.026741,-5.603516,,,,,,,
1523523225.925875,-0.690602,-0.072625,1.622800,-0.022255,-0.014679,-0.005905,-0.635322,0.072561,-0.768831,0.002113,0.005350,-0.034300,-7.149719,-27.475700,-5.601868,,,,,,,
1523523225.955843,-0.691267,-0.072093,1.622063,0.016332,-0.025131,-0.044227,-0.635858,0.072030,-0.768438,0.002984,0.012778,0.031026,-7.675903,-27.548409,-5.676819,,,,,,,
1523523225.985812,-0.690647,-0.070492,1.621909,0.049685,0.043794,-0.034686,-0.635454,0.070434,-0.768919,0.001436,0.012162,-0.038835,-6.250214,-27.479820,-5.676392,,,,,,,
1523523226.015780,-0.690029,-0.069341,1.621812,0.013026,-0.025268,-0.023981,-0.635030,0.069286,-0.769374,0.011586,0.015645,-0.013875,-7.449249,-27.474266,-5.527039,,,,,,,
1523523226.045748,-0.691369,-0.068755,1.621959,0.033240,-0.014834,-0.002672,-0.636086,0.068701,-0.768553,0.015496,0.026423,0.030379,-6.997025,-27.251305,-5.527710,,,,,,,
,,,,,,,,,,,,,,,,25.313549,51.456420,13.476274,12.030000,269.648438,1523523225.997787,
1523523226.075698,-0.689717,-0.068011,1.623108,0.036744,0.075325,0.018554,-0.634848,0.067958,-0.769643,-0.015055,0.007084,-0.059657,-6.172974,-27.255165,-5.677246,,,,,,,
1523523226.105667,-0.689200,-0.068414,1.623270,-0.025731,-0.061508,0.005860,-0.634433,0.068360,-0.769949,-0.008161,-0.003129,-0.059473,-7.148682,-27.325783,-5.677490,,,,,,,
1523523226.135635,-0.691306,-0.069655,1.623126,-0.022532,-0.030871,0.031397,-0.635998,0.069598,-0.768546,-0.000996,-0.002261,0.010596,-7.147766,-27.325630,-5.527527,,,,,,,
1523523226.165603,-0.690378,-0.070430,1.624143,0.007562,0.028447,0.046284,-0.635250,0.070372,-0.769094,-0.008442,-0.017714,-0.038905,-6.473709,-27.328819,-5.677124,,,,,,,
1523523226.195571,-0.690636,-0.071991,1.624776,-0.067482,-0.030937,0.054816,-0.635377,0.071929,-0.768845,-0.008757,-0.009795,-0.029617,-6.922485,-27.251717,-5.602661,,,,,,,
1523523226.225540,-0.691118,-0.074568,1.624550,-0.038431,-0.001137,0.037761,-0.635628,0.074499,-0.768393,0.013572,-0.033590,-0.029688,-7.447754,-27.324272,-5.527649,,,,,,,
1523523226.255508,-0.691233,-0.073947,1.625539,0.060868,-0.041484,-0.000494,-0.635746,0.073880,-0.768355,0.027973,-0.008481,0.005675,-6.698395,-27.252876,-5.752563,,,,,,,
1523523226.285476,-0.692170,-0.072322,1.625692,0.020750,0.002515,-0.048513,-0.636541,0.072259,-0.767851,0.017080,0.013969,0.015211,-7.223373,-27.250511,-5.752808,,,,,,,
1523523226.315444,-0.690635,-0.071771,1.623402,-0.096272,0.069895,-0.069973,-0.635387,0.071710,-0.768857,-0.010365,0.007575,-0.087131,-6.924118,-27.551476,-5.376465,,,,,,,
1523523226.345413,-0.690258,-0.073533,1.620062,-0.098042,-0.046189,-0.033622,-0.635016,0.073467,-0.768998,-0.036707,0.001530,-0.069091,-6.476852,-27.553947,-5.826233,,,,,,,
1523523226.375381,-0.691885,-0.074216,1.619147,0.016003,-0.039305,0.006934,-0.636234,0.074148,-0.767925,-0.015423,0.016077,-0.025624,-6.773849,-27.252617,-5.827576,,,,,,,
1523523226.405349,-0.692626,-0.072138,1.621622,0.144096,-0.024864,0.024061,-0.636899,0.072076,-0.767570,0.024991,-0.008660,0.039925,-6.923386,-27.251869,-5.752686,,,,,,,
1523523226.435317,-0.692542,-0.070642,1.623729,0.005568,0.027583,0.018581,-0.636903,0.070583,-0.767706,0.022035,0.009831,0.020315,-6.548096,-27.403252,-5.451904,,,,,,,
1523523226.465286,-0.690234,-0.072123,1.622554,-0.079248,0.100422,-0.033769,-0.635062,0.072061,-0.769092,0.004035,-0.015313,-0.083066,-6.993744,-26.876411,-5.604187,,,,,,,
1523523226.495254,-0.690030,-0.070507,1.619388,0.032810,-0.066803,-0.168838,-0.634979,0.070448,-0.769310,-0.001938,0.006853,-0.020622,-6.475510,-27.329109,-5.977112,,,,,,,
1523523226.525222,-0.690917,-0.065405,1.616378,0.064335,0.035275,-0.189166,-0.635881,0.065358,-0.769014,-0.032621,0.055400,-0.024840,-5.797546,-27.256783,-5.602051,,,,,,,
1523523226.555190,-0.690795,-0.061794,1.612918,0.005912,-0.073364,-0.133684,-0.635934,0.061755,-0.769268,0.013849,0.065672,-0.082142,-6.251404,-27.554878,-5.751099,,,,,,,
1523523226.585159,-0.693571,-0.059942,1.611160,0.033424,-0.033604,-0.053797,-0.638139,0.059906,-0.767587,0.016419,0.071747,0.076913,-6.176254,-27.630074,-5.600769,,,,,,,
1523523226.615127,-0.691409,-0.058052,1.612894,0.132931,0.110068,0.030313,-0.636549,0.058020,-0.769050,0.002623,0.042200,-0.022011,-5.499344,-27.258415,-5.901978,,,,,,,
1523523226.645095,-0.689326,-0.057378,1.616372,0.052089,-0.008019,0.077263,-0.634971,0.057347,-0.770405,0.027122,-0.002568,-0.062725,-6.099762,-27.480415,-5.601318,,,,,,,
1523523226.675064,-0.690911,-0.059658,1.617998,-0.029099,-0.030017,0.063358,-0.636106,0.059623,-0.769295,-0.030688,0.016397,-0.023888,-6.472961,-27.253822,-5.677429,,,,,,,
1523523226.705032,-0.689766,-0.061117,1.617845,-0.042207,0.054458,-0.009182,-0.635168,0.061079,-0.769955,-0.026422,-0.025389,-0.102344,-6.323242,-27.554039,-5.226135,,,,,,,
1523523226.735000,-0.690259,-0.060608,1.616193,-0.017101,-0.132218,-0.068635,-0.635568,0.060571,-0.769665,0.005609,-0.037653,-0.042270,-6.478195,-27.778801,-5.675293,,,,,,,
1523523226.764968,-0.695216,-0.061038,1.614977,-0.047346,-0.095610,0.027191,-0.639359,0.061000,-0.766485,0.017227,0.029485,0.024786,-5.582123,-27.858345,-6.199585,,,,,,,
1523523226.794937,-0.694814,-0.062804,1.617056,0.028526,0.045845,0.134716,-0.638980,0.062763,-0.766658,0.007648,0.010723,-0.058201,-5.801437,-27.556908,-5.750854,,,,,,,
1523523226.824905,-0.693772,-0.065483,1.621081,-0.018902,-0.006423,0.178430,-0.638072,0.065437,-0.767191,0.012263,-0.005912,-0.043539,-7.002258,-27.776283,-5.525635,,,,,,,
1523523226.854873,-0.693319,-0.070574,1.624563,-0.064711,0.040308,0.198591,-0.637503,0.070515,-0.767214,0.015524,-0.059361,-0.042493,-7.234161,-27.926140,-6.425110,,,,,,,
1523523226.884841,-0.691588,-0.075116,1.627790,-0.035800,0.013937,0.160282,-0.635963,0.075045,-0.768062,0.015876,-0.105044,-0.044605,-6.180603,-27.705650,-6.200500,,,,,,,
1523523226.914840,-0.691711,-0.078593,1.629646,-0.077289,-0.023791,0.099557,-0.635887,0.078512,-0.767778,-0.007011,-0.104529,-0.049742,-7.455704,-27.849693,-5.975525,,,,,,,
1523523226.944808,-0.692626,-0.081616,1.628786,-0.112225,-0.051802,0.016440,-0.636434,0.081526,-0.767010,0.003347,-0.101347,-0.026661,-7.455856,-27.774849,-6.125854,,,,,,,
1523523226.974777,-0.693957,-0.082795,1.626770,-0.080981,-0.020906,-0.008064,-0.637393,0.082701,-0.766088,0.034152,-0.036970,0.018407,-7.528000,-27.624290,-5.901489,,,,,,,
1523523227.004745,-0.692434,-0.083224,1.625353,-0.058008,0.100220,-0.012444,-0.636203,0.083128,-0.767030,0.007068,0.007860,-0.106535,-7.305420,-27.550819,-6.426636,,,,,,,
1523523227.034713,-0.691744,-0.083153,1.623475,-0.058480,-0.050420,-0.049576,-0.635677,0.083057,-0.767474,0.028484,0.005444,-0.042524,-6.706192,-27.628517,-6.426025,,,,,,,
,,,,,,,,,,,,,,,,25.313553,51.456298,13.572052,12.180000,269.648438,1523523226.997777,
1523523227.064682,-0.693573,-0.083293,1.621543,-0.017931,-0.031521,-0.030391,-0.637072,0.083196,-0.766301,0.025515,0.019526,0.065144,-7.308105,-28.000511,-6.124878,,,,,,,
1523523227.094651,-0.690953,-0.082229,1.621600,0.036150,0.125583,-0.027308,-0.635118,0.082137,-0.768035,0.006822,0.002351,-0.017838,-7.233551,-28.000923,-6.199829,,,,,,,
1523523227.124619,-0.688012,-0.081315,1.620113,-0.038663,0.035875,-0.089069,-0.632904,0.081225,-0.769957,0.022079,-0.008288,0.004241,-7.981750,-27.547997,-6.652039,,,,,,,
1523523227.154587,-0.688165,-0.080385,1.616589,-0.033154,0.035066,-0.125303,-0.633070,0.080299,-0.769918,0.035994,0.012383,0.047155,-6.707977,-27.853432,-6.350098,,,,,,,
1523523227.184555,-0.685981,-0.077757,1.613790,0.050299,0.066758,-0.129528,-0.631518,0.077679,-0.771459,0.027820,0.055866,-0.023966,-6.559631,-27.929253,-6.499756,,,,,,,
1523523227.214524,-0.685681,-0.073703,1.612382,0.070225,0.004988,-0.115606,-0.631481,0.073636,-0.771886,0.019756,0.085192,0.000219,-6.256943,-27.930153,-6.049622,,,,,,,
1523523227.244492,-0.684526,-0.071435,1.611272,0.029565,0.049305,-0.058134,-0.630693,0.071374,-0.772743,0.049287,0.086951,-0.031441,-6.707672,-28.003136,-6.049561,,,,,,,
1523523227.274460,-0.682879,-0.070091,1.611614,0.082572,0.028626,-0.005871,-0.629479,0.070034,-0.773854,0.073693,0.067600,-0.028377,-6.863663,-28.377800,-6.423096,,,,,,,
1523523227.304429,-0.682564,-0.068287,1.613909,0.126193,0.012451,0.011233,-0.629314,0.068234,-0.774149,0.070492,0.095416,0.022699,-6.109055,-28.006050,-6.274292,,,,,,,
1523523227.334397,-0.679433,-0.065670,1.615674,0.119589,0.117144,-0.065598,-0.626997,0.065623,-0.776252,0.042051,0.059759,-0.104790,-7.083237,-28.375923,-5.523254,,,,,,,
1523523227.364365,-0.677711,-0.062835,1.614765,0.022051,-0.021499,-0.111343,-0.625774,0.062793,-0.777472,0.016002,0.024380,-0.084024,-6.184631,-28.380180,-5.747803,,,,,,,
1523523227.394333,-0.679719,-0.062070,1.611757,-0.022117,-0.097941,-0.103848,-0.627364,0.062030,-0.776251,0.020247,0.032468,-0.016046,-5.733170,-28.007591,-6.124023,,,,,,,
1523523227.424302,-0.681899,-0.060762,1.610519,0.041688,-0.081538,-0.040952,-0.629105,0.060725,-0.774944,0.006821,0.029927,0.007991,-6.331924,-28.379082,-5.297852,,,,,,,
1523523227.454270,-0.682208,-0.060051,1.611158,0.023552,-0.008626,0.021838,-0.629372,0.060015,-0.774783,0.004661,0.037992,-0.047758,-6.554672,-28.153084,-5.298889,,,,,,,
1523523227.484238,-0.682627,-0.061595,1.611893,-0.046210,-0.038485,0.063362,-0.629637,0.061556,-0.774446,0.008497,0.006635,-0.061323,-5.958740,-28.381050,-5.597656,,,,,,,
1523523227.514206,-0.684228,-0.064283,1.612508,-0.046327,-0.053404,0.070828,-0.630769,0.064239,-0.773306,0.007935,0.005005,-0.043481,-6.554977,-28.003365,-5.599426,,,,,,,
1523523227.544175,-0.685474,-0.065803,1.613748,0.012573,-0.042768,0.047425,-0.631670,0.065756,-0.772443,-0.003279,-0.009512,-0.054156,-6.631622,-28.078178,-5.749207,,,,,,,
1523523227.574143,-0.686133,-0.065905,1.614165,-0.011579,-0.015772,-0.005893,-0.632174,0.065857,-0.772022,-0.005002,-0.021790,-0.048657,-6.030609,-27.930962,-5.824524,,,,,,,
1523523227.604111,-0.686696,-0.066440,1.613360,-0.037227,-0.025226,-0.011237,-0.632586,0.066391,-0.771638,0.012591,-0.037658,-0.043151,-6.858246,-28.376930,-5.523132,,,,,,,
1523523227.634079,-0.687587,-0.066608,1.612859,0.000041,-0.038133,-0.002670,-0.633266,0.066559,-0.771066,0.025692,0.001236,-0.002494,-6.933105,-28.226814,-5.748779,,,,,,,
1523523227.664048,-0.687278,-0.065989,1.613461,0.046259,0.036096,0.002618,-0.633054,0.065941,-0.771293,0.025938,0.006614,-0.025048,-6.109940,-28.455452,-5.672424,,,,,,,
1523523227.694016,-0.685754,-0.064421,1.614194,0.030327,0.030952,-0.016563,-0.631942,0.064377,-0.772336,0.010162,-0.002548,-0.090640,-6.854355,-28.076790,-5.374329,,,,,,,
1523523227.723984,-0.686613,-0.064185,1.613314,-0.029833,-0.068655,-0.033564,-0.632616,0.064141,-0.771804,0.010194,-0.006494,-0.046646,-6.629074,-28.002892,-5.449524,,,,,,,
1523523227.753952,-0.688230,-0.063905,1.612424,0.008749,-0.028452,-0.023975,-0.633874,0.063862,-0.770794,0.005609,0.002636,-0.018390,-6.181778,-28.229973,-5.523376,,,,,,,
1523523227.783921,-0.689651,-0.063669,1.612998,0.010108,-0.121368,0.043242,-0.634978,0.063626,-0.769905,-0.008943,0.008349,-0.038689,-6.927551,-28.076164,-5.074402,,,,,,,
1523523227.813889,-0.694223,-0.066020,1.613871,-0.081047,-0.178741,0.073076,-0.638394,0.065972,-0.766877,0.023373,-0.013314,-0.073959,-6.929504,-28.001610,-5.524719,,,,,,,
1523523227.843857,-0.699275,-0.070743,1.613451,-0.163302,-0.147929,0.104936,-0.642052,0.070684,-0.763395,0.037270,-0.016562,-0.026965,-6.780426,-28.002434,-5.674561,,,,,,,
1523523227.873826,-0.704465,-0.073941,1.613955,0.029850,-0.237285,0.048707,-0.645857,0.073873,-0.759876,0.016218,0.011805,0.021915,-7.452698,-27.774330,-5.600830,,,,,,,
1523523227.903794,-0.705583,-0.070875,1.616203,0.141444,0.022317,-0.037777,-0.646849,0.070816,-0.759322,-0.010026,0.019196,-0.070085,-7.455093,-27.924461,-5.750244,,,,,,,
1523523227.933762,-0.706037,-0.067896,1.616446,0.004794,0.023740,-0.040016,-0.647328,0.067844,-0.759186,0.048954,0.025372,-0.003342,-6.478195,-27.778801,-5.675293,,,,,,,
1523523227.963761,-0.705175,-0.068821,1.616722,0.029694,-0.029012,0.050615,-0.646632,0.068766,-0.759695,0.048366,0.022588,-0.016580,-7.604340,-27.848793,-5.750610,,,,,,,
1523523227.993729,-0.710557,-0.067532,1.621035,0.105567,-0.177381,0.116894,-0.650769,0.067481,-0.756270,-0.023288,0.008279,-0.051484,-7.079056,-28.000862,-5.449768,,,,,,,
1523523228.023697,-0.712627,-0.069184,1.625588,0.084636,-0.061614,0.133803,-0.652259,0.069129,-0.754837,0.019385,-0.006538,-0.022507,-7.147919,-27.475410,-5.301880,,,,,,,
1523523228.053666,-0.710031,-0.069553,1.629421,0.038622,0.089763,0.080342,-0.650281,0.069497,-0.756507,-0.013232,-0.050957,-0.121819,-7.450134,-27.923668,-4.925232,,,,,,,
,,,,,,,,,,,,,,,,25.313547,51.456148,13.512857,13.450000,269.648438,1523523227.997765,
1523523228.083617,-0.711148,-0.070483,1.630287,-0.059026,-0.096556,0.014399,-0.651083,0.070425,-0.755731,0.009543,-0.062002,-0.054205,-8.280365,-27.995689,-5.675354,,,,,,,
1523523228.113585,-0.715945,-0.071925,1.628410,-0.078132,-0.139690,-0.042036,-0.654633,0.071863,-0.752522,-0.002838,-0.033197,-0.017055,-7.453140,-27.999031,-5.299927,,,,,,,
1523523228.143553,-0.717232,-0.072695,1.625976,-0.104602,-0.069581,-0.027222,-0.655565,0.072631,-0.751637,0.009645,-0.000717,-0.032329,-8.124527,-27.546150,-5.452087,,,,,,,
1523523228.173522,-0.717378,-0.076031,1.624313,-0.119275,0.125160,0.088716,-0.655511,0.075958,-0.751355,0.078225,0.083908,0.034726,-7.976776,-27.771828,-5.451111,,,,,,,
1523523228.203490,-0.704965,-0.075417,1.624965,0.109591,0.589530,0.006371,-0.646165,0.075346,-0.759469,-0.016875,0.017443,-0.076087,-7.902084,-27.622459,-5.751648,,,,,,,
1523523228.233459,-0.687033,-0.073053,1.627221,0.106483,0.608644,0.007426,-0.632554,0.072988,-0.771068,-0.007628,-0.031652,-0.030598,-7.599548,-27.548515,-5.451843,,,,,,,
1523523228.263427,-0.669193,-0.073285,1.629081,-0.027964,0.456649,0.062876,-0.618687,0.073220,-0.782217,-0.005427,-0.013344,-0.145456,-7.450745,-27.848885,-5.150574,,,,,,,
1523523228.293396,-0.667712,-0.073700,1.627702,-0.004091,-0.139360,-0.114443,-0.617510,0.073633,-0.783109,0.050630,-0.005289,-0.013293,-7.828125,-27.997337,-5.300110,,,,,,,
1523523228.323364,-0.672913,-0.070561,1.623852,-0.044541,-0.183466,-0.175161,-0.621716,0.070502,-0.780063,0.041180,0.013284,-0.043927,-7.526489,-27.698921,-5.526184,,,,,,,
1523523228.353332,-0.677279,-0.068699,1.618016,-0.046084,-0.086530,-0.207234,-0.625197,0.068645,-0.777442,0.032698,0.048939,0.024634,-6.480438,-27.779152,-6.050293,,,,,,,
1523523228.383300,-0.677325,-0.063169,1.615472,0.193337,0.029410,-0.157093,-0.625461,0.063127,-0.777697,0.018100,-0.002824,0.029605,-5.874161,-27.556206,-5.375916,,,,,,,
1523523228.413269,-0.678054,-0.056798,1.616379,0.139001,-0.097425,-0.083481,-0.626267,0.056767,-0.777539,0.003067,0.009303,-0.073871,-6.704514,-28.002617,-5.524597,,,,,,,
1523523228.443237,-0.681852,-0.054386,1.617202,0.083972,-0.132913,-0.003573,-0.629300,0.054359,-0.775258,-0.019229,0.008812,-0.032679,-6.628174,-28.002739,-5.299500,,,,,,,
1523523228.473204,-0.687100,-0.052939,1.619317,0.096143,-0.271130,0.001911,-0.633409,0.052915,-0.772005,0.030397,-0.018689,-0.037962,-6.850464,-28.001289,-4.849609,,,,,,,
1523523228.503174,-0.692885,-0.051876,1.618816,-0.065190,-0.135309,-0.064412,-0.637900,0.051852,-0.768371,0.041465,0.021405,-0.021287,-6.776505,-28.151558,-4.773987,,,,,,,
1523523228.533141,-0.697426,-0.053457,1.614089,-0.185841,-0.162482,-0.086849,-0.641329,0.053431,-0.765403,0.020754,0.031362,0.034492,-6.100052,-27.555336,-5.526062,,,,,,,
1523523228.563109,-0.701706,-0.055714,1.609894,-0.056855,-0.151436,-0.039886,-0.644520,0.055685,-0.762557,0.014698,-0.061041,0.038542,-6.925171,-27.701408,-5.300842,,,,,,,
1523523228.593077,-0.706718,-0.052133,1.611284,0.258295,-0.135084,-0.059908,-0.648459,0.052109,-0.759463,0.024100,0.014450,0.069919,-6.927414,-27.926399,-5.299927,,,,,,,
1523523228.623046,-0.705443,-0.044413,1.617014,0.319006,0.100480,-0.033463,-0.647732,0.044398,-0.760573,0.063640,-0.005747,-0.043840,-6.029541,-28.230293,-5.148315,,,,,,,
1523523228.653014,-0.703064,-0.038901,1.619975,0.109195,-0.032798,-0.045211,-0.646069,0.038891,-0.762287,0.011883,0.026203,-0.134990,-6.999985,-28.225166,-4.398804,,,,,,,
1523523228.682982,-0.714648,-0.037071,1.620487,0.083173,-0.577962,-0.029762,-0.654901,0.037063,-0.754805,-0.026251,-0.035766,0.024290,-6.700455,-28.226601,-4.473633,,,,,,,
1523523228.712950,-0.723639,-0.030913,1.624486,0.374883,-0.062212,-0.037518,-0.661799,0.030908,-0.749043,-0.022374,-0.044946,0.034947,-6.926483,-28.375496,-4.398193,,,,,,,
1523523228.742919,-0.718534,-0.019170,1.632119,0.501460,0.257624,-0.080371,-0.658160,0.019169,-0.752633,0.084109,-0.011509,-0.066306,-7.069122,-28.223885,-3.423828,,,,,,,
1523523228.772887,-0.709908,-0.007399,1.641183,0.474740,0.370664,0.022852,-0.651746,0.007399,-0.758401,0.057355,-0.037535,-0.020469,-6.619141,-28.450539,-3.047729,,,,,,,
1523523228.802855,-0.691546,0.002031,1.652369,0.442534,0.623308,0.070525,-0.637727,-0.002031,-0.770259,-0.029936,-0.013930,-0.042058,-5.867203,-28.753090,-2.221130,,,,,,,
1523523228.832824,-0.683705,0.008652,1.657436,0.101625,0.172352,-0.052877,-0.631646,-0.008652,-0.775208,0.016793,-0.042908,0.086991,-6.464920,-28.750023,-1.846436,,,,,,,
1523523228.862792,-0.672648,0.007781,1.656813,-0.074971,0.446149,0.060725,-0.623040,-0.007781,-0.782151,0.100580,-0.030152,0.024613,-6.686172,-28.374031,-1.848022,,,,,,,
1523523228.892761,-0.660705,-0.001383,1.660182,-0.262350,0.276159,0.426234,-0.613673,0.001383,-0.789559,0.039775,-0.011301,-0.086525,-6.166153,-28.377190,-2.672791,,,,,,,
1523523228.922729,-0.662575,-0.015479,1.666861,-0.189670,-0.150309,0.452290,-0.615075,0.015479,-0.788316,-0.032401,0.026117,-0.023925,-7.516693,-28.520973,-2.522888,,,,,,,
1523523228.952697,-0.663346,-0.021720,1.672744,0.040295,0.085974,0.165589,-0.615611,0.021718,-0.787751,-0.049214,0.026439,0.011414,-7.964279,-28.368813,-2.373718,,,,,,,
1523523228.982666,-0.654084,-0.020197,1.675778,0.089595,0.392044,-0.011545,-0.608309,0.020196,-0.793443,0.013521,0.046272,-0.087645,-7.366562,-28.371880,-2.748413,,,,,,,
1523523229.012634,-0.645892,-0.016723,1.678910,0.386848,0.168312,0.118890,-0.601827,0.016722,-0.798451,0.089284,-0.031264,-0.126811,-7.739883,-28.519661,-2.222961,,,,,,,
1523523229.042633,-0.637263,-0.001349,1.703588,1.189318,0.424552,0.419702,-0.594997,0.001349,-0.803726,-0.050541,-0.028510,-0.043671,-8.336548,-28.591316,-1.547974,,,,,,,
1523523229.072616,-0.615463,0.020076,1.733211,0.976814,0.945763,0.265594,-0.577220,-0.020074,-0.816342,-0.145162,0.012872,-0.005848,-8.470184,-27.988976,0.174500,,,,,,,
,,,,,,,,,,,,,,,,25.313554,51.456012,13.512857,13.790000,267.890625,1523523228.997755,
1523523229.102583,-0.587601,0.034182,1.743839,0.309019,0.787999,-0.184395,-0.554042,-0.034175,-0.831787,-0.072255,0.028987,-0.026505,-8.693817,-28.212364,0.775330,,,,,,,
1523523229.132553,-0.584607,0.040100,1.736712,-0.052219,-0.408667,-0.332647,-0.551428,-0.040089,-0.833259,0.020483,-0.004803,0.060691,-8.320923,-28.513908,0.926697,,,,,,,
1523523229.162520,-0.596012,0.042786,1.728092,-0.083723,-0.185028,-0.240194,-0.560833,-0.042773,-0.826823,0.059170,-0.014707,0.140391,-7.201660,-28.819374,0.478455,,,,,,,
1523523229.192488,-0.589987,0.043912,1.721627,-0.127540,0.321685,-0.203442,-0.555814,-0.043898,-0.830147,0.031064,0.006391,0.026848,-7.648956,-28.592308,0.552307,,,,,,,
1523523229.222456,-0.586523,0.041660,1.710627,-0.348801,-0.076688,-0.292702,-0.552988,-0.041648,-0.832147,0.026652,-0.020287,-0.042044,-7.200470,-28.519691,0.177246,,,,,,,
1523523229.252425,-0.595096,0.035828,1.696393,-0.447682,-0.424113,-0.263661,-0.560229,-0.035821,-0.827563,0.037798,-0.054908,-0.036405,-6.234818,-28.825081,-0.871033,,,,,,,
1523523229.282393,-0.602048,0.032671,1.686206,-0.128998,0.017659,-0.186086,-0.566029,-0.032665,-0.823738,0.040120,-0.024540,-0.052483,-6.005936,-28.525963,-0.722107,,,,,,,
1523523229.312361,-0.599074,0.034947,1.682624,0.023275,0.037854,-0.090092,-0.563534,-0.034940,-0.825354,0.044033,-0.029986,-0.075785,-6.159821,-29.050041,-0.495056,,,,,,,
1523523229.342330,-0.601204,0.035278,1.683073,0.011508,-0.234341,0.089185,-0.565284,-0.035270,-0.824142,0.053077,-0.018181,-0.066071,-5.331421,-28.529076,-0.796753,,,,,,,
1523523229.372298,-0.610373,0.036021,1.688384,0.219466,-0.233039,0.134083,-0.572801,-0.036013,-0.818903,-0.000929,-0.007688,0.035501,-6.083023,-28.825462,-0.570984,,,,,,,
1523523229.402267,-0.607889,0.042920,1.695365,0.298092,0.237344,0.002621,-0.570610,-0.042907,-0.820099,-0.027855,0.036651,0.057633,-6.076721,-28.599815,0.103149,,,,,,,
1523523229.432235,-0.603074,0.046502,1.694058,-0.104774,-0.027226,-0.159378,-0.566564,-0.046485,-0.822706,0.016805,0.018393,0.027845,-5.554001,-28.602547,-0.271606,,,,,,,
1523523229.462203,-0.606554,0.042303,1.688576,-0.212785,-0.106765,0.008970,-0.569529,-0.042290,-0.820882,0.038081,-0.037575,-0.026621,-6.305466,-28.749168,-0.271362,,,,,,,
1523523229.492172,-0.604392,0.037893,1.688419,-0.027968,0.267188,0.106761,-0.567854,-0.037884,-0.822257,-0.013536,-0.029148,-0.041024,-6.683899,-29.047539,-0.345337,,,,,,,
1523523229.522140,-0.594806,0.038765,1.691253,0.115561,0.256869,0.010987,-0.559927,-0.038755,-0.827635,-0.004084,-0.013872,-0.015917,-6.231369,-28.749657,-0.421326,,,,,,,
1523523229.552108,-0.589835,0.041064,1.692115,0.050971,0.126426,-0.001722,-0.555755,-0.041052,-0.830332,0.033706,0.008719,0.027796,-6.080170,-28.675255,-0.346497,,,,,,,
1523523229.582076,-0.587507,0.041235,1.693054,-0.038338,0.016942,0.035612,-0.553817,-0.041224,-0.831618,0.027983,0.005533,-0.011904,-5.558655,-28.753059,-0.795959,,,,,,,
1523523229.612045,-0.589425,0.036485,1.691673,-0.209765,-0.097531,0.053722,-0.555513,-0.036477,-0.830707,0.016557,0.013513,-0.023525,-5.556702,-28.602989,-0.721558,,,,,,,
1523523229.642013,-0.591030,0.029378,1.689157,-0.255467,-0.034779,0.064265,-0.556976,-0.029374,-0.830009,-0.004639,0.011170,-0.086113,-6.458008,-28.823769,-0.571167,,,,,,,
1523523229.671981,-0.593754,0.022341,1.686502,-0.207904,-0.153860,0.055904,-0.559337,-0.022339,-0.828639,0.018321,0.038361,-0.076893,-6.312668,-28.750343,-1.471313,,,,,,,
1523523229.701950,-0.598588,0.020147,1.688500,0.115390,-0.114825,0.131764,-0.563362,-0.020145,-0.825964,-0.009895,0.041614,-0.002405,-5.936798,-28.527260,-1.697083,,,,,,,
1523523229.731918,-0.596067,0.024249,1.694904,0.290112,0.157501,0.028257,-0.561227,-0.024247,-0.827306,-0.052206,0.056717,-0.000300,-7.357086,-28.370338,-1.173401,,,,,,,
1523523229.761885,-0.592264,0.030285,1.696051,0.086688,0.065720,-0.146545,-0.557985,-0.030280,-0.829298,-0.016402,0.014960,0.001997,-6.832855,-28.672310,-0.796936,,,,,,,
1523523229.791853,-0.593188,0.032269,1.691871,-0.083880,-0.096528,-0.132661,-0.558716,-0.032263,-0.828731,0.035187,-0.005517,-0.001957,-6.458908,-28.823921,-0.721130,,,,,,,
1523523229.821822,-0.597577,0.030241,1.688541,-0.058946,-0.128161,-0.026050,-0.562383,-0.030236,-0.826324,0.022482,0.005288,0.037154,-6.312073,-29.049736,-0.870178,,,,,,,
1523523229.851790,-0.595138,0.031574,1.689081,0.079103,0.174383,-0.031584,-0.560344,-0.031569,-0.827658,-0.016942,0.010451,-0.001565,-5.487106,-28.828819,-1.245605,,,,,,,
1523523229.881758,-0.593897,0.033160,1.686445,-0.045258,-0.061521,-0.137995,-0.559287,-0.033154,-0.828311,0.000220,-0.010563,-0.022397,-6.310852,-28.974663,-0.795471,,,,,,,
1523523229.911726,-0.596452,0.034091,1.682269,-0.054144,-0.116894,-0.118762,-0.561384,-0.034084,-0.826853,0.032865,-0.017002,-0.037939,-6.463272,-29.124123,-0.944946,,,,,,,
1523523229.941695,-0.598443,0.034793,1.680693,0.055916,0.031874,-0.006947,-0.563016,-0.034786,-0.825713,0.043485,-0.015507,0.011611,-5.190277,-29.055305,-1.394592,,,,,,,
1523523229.971663,-0.594885,0.036583,1.682482,0.051987,0.103123,-0.012355,-0.560039,-0.036575,-0.827659,-0.007878,-0.025666,-0.020959,-6.013123,-29.201012,-0.794373,,,,,,,
1523523230.001631,-0.594553,0.037389,1.680599,-0.064904,-0.089514,-0.079374,-0.559747,-0.037381,-0.827820,0.012002,-0.012287,-0.051040,-5.563736,-29.352882,-0.643616,,,,,,,
1523523230.031600,-0.598571,0.035934,1.677387,-0.088711,-0.130024,-0.052710,-0.563099,-0.035926,-0.825608,0.027286,-0.013192,-0.036971,-5.562393,-28.903419,-1.170349,,,,,,,
1523523230.061565,-0.600517,0.038012,1.676864,0.151235,0.040479,-0.055898,-0.564661,-0.038003,-0.824447,0.026056,-0.029013,0.036071,-4.963486,-29.056023,-1.094421,,,,,,,
,,,,,,,,,,,,,,,,25.313572,51.455848,13.460965,14.220000,267.187500,1523523229.997744,
1523523230.091563,-0.593158,0.044950,1.679364,0.243279,0.333508,-0.051868,-0.558418,-0.044935,-0.828342,0.028175,-0.067644,-0.010312,-5.336670,-29.054054,-0.794617,,,,,,,
1523523230.121532,-0.588016,0.048029,1.681440,-0.000064,-0.015079,0.041008,-0.554072,-0.048011,-0.831083,0.021342,-0.089746,-0.031634,-4.440002,-29.208382,-1.093567,,,,,,,
1523523230.151500,-0.594504,0.043089,1.681135,-0.217348,-0.274400,0.125280,-0.559578,-0.043076,-0.827657,0.032051,-0.028824,0.014959,-5.257309,-28.754189,-0.570801,,,,,,,
1523523230.181468,-0.597441,0.035098,1.681972,-0.215099,0.032411,0.164399,-0.562182,-0.035091,-0.826269,-0.039930,0.024287,-0.047343,-6.015091,-29.126442,-1.244690,,,,,,,
1523523230.211436,-0.598014,0.030001,1.679267,-0.211701,-0.173260,-0.053838,-0.562749,-0.029997,-0.826083,-0.011027,0.038603,-0.073911,-5.117828,-29.130928,-1.694275,,,,,,,
1523523230.241405,-0.604290,0.026869,1.676464,-0.083054,-0.165873,0.058138,-0.567973,-0.026865,-0.822608,0.024256,0.015147,-0.031045,-5.794769,-29.277962,-1.769043,,,,,,,
1523523230.271373,-0.606758,0.026591,1.679778,0.158809,-0.031592,0.066714,-0.570005,-0.026588,-0.821210,-0.031511,-0.004601,-0.021456,-5.718842,-29.278160,-1.618958,,,,,,,
1523523230.301341,-0.603416,0.033124,1.683656,0.257605,0.150995,-0.092171,-0.567147,-0.033118,-0.822950,-0.021994,-0.016809,-0.007189,-4.968872,-29.506157,-1.242676,,,,,,,
1523523230.331310,-0.603505,0.035376,1.681328,-0.175241,-0.191108,-0.098540,-0.567177,-0.035369,-0.822836,0.037712,-0.035767,-0.051569,-5.868835,-29.502098,-1.243103,,,,,,,
1523523230.361278,-0.614695,0.027618,1.676874,-0.305840,-0.449698,0.153087,-0.576489,-0.027614,-0.816638,0.086728,-0.009816,-0.026975,-6.168686,-29.126350,-1.844788,,,,,,,
1523523230.391246,-0.623140,0.016890,1.680889,-0.160332,-0.085298,0.412831,-0.583504,-0.016890,-0.811934,-0.042549,0.049406,-0.025880,-5.944443,-28.977745,-2.220215,,,,,,,
1523523230.421214,-0.620337,0.008488,1.687859,-0.093823,0.060059,0.271008,-0.581288,-0.008488,-0.813653,-0.064906,0.091023,-0.058081,-6.846954,-29.273598,-2.144531,,,,,,,
1523523230.451183,-0.621786,0.006214,1.689276,0.059782,-0.078532,-0.023879,-0.582476,-0.006214,-0.812823,-0.005399,0.056431,0.012057,-7.521774,-29.345421,-1.994568,,,,,,,
1523523230.481151,-0.620226,0.009858,1.690206,0.120769,0.157421,-0.051783,-0.581191,-0.009858,-0.813707,-0.004976,0.004930,-0.046339,-6.846802,-29.348457,-1.994263,,,,,,,
1523523230.511119,-0.617633,0.011485,1.689047,-0.037696,0.027315,-0.079479,-0.579069,-0.011485,-0.815198,0.002180,-0.027684,-0.061695,-7.066391,-29.121941,-1.470215,,,,,,,
1523523230.541087,-0.619755,0.010324,1.687191,-0.056026,-0.157071,0.003818,-0.580805,-0.010324,-0.813977,0.022471,-0.007575,-0.052966,-7.220444,-29.346550,-1.769470,,,,,,,
1523523230.571056,-0.624397,0.009602,1.689771,0.095296,-0.088111,0.117870,-0.584581,-0.009602,-0.811278,-0.007765,0.030110,-0.000825,-6.694565,-29.124138,-1.995056,,,,,,,
1523523230.601024,-0.623330,0.011972,1.695147,0.209403,0.067059,0.073046,-0.583700,-0.011972,-0.811881,-0.030161,0.059213,0.026664,-7.518326,-29.269981,-1.544861,,,,,,,
1523523230.630992,-0.618725,0.017647,1.699716,0.252247,0.211166,-0.034690,-0.579907,-0.017646,-0.814491,-0.038028,0.015983,0.031914,-7.812912,-29.043129,-1.020935,,,,,,,
1523523230.660960,-0.613838,0.024637,1.700515,0.168058,0.089047,-0.168880,-0.575834,-0.024635,-0.817195,0.000730,-0.025735,-0.011876,-6.839294,-29.272362,-0.869507,,,,,,,
1523523230.690929,-0.614901,0.026914,1.696831,-0.111616,-0.082723,-0.123096,-0.576669,-0.026911,-0.816534,0.033441,-0.042394,-0.031915,-7.289139,-29.120567,-1.095337,,,,,,,
1523523230.720897,-0.618165,0.024486,1.692059,-0.123478,-0.036354,-0.062425,-0.579367,-0.024483,-0.814699,0.048621,-0.024879,-0.026000,-7.062180,-28.971504,-1.020874,,,,,,,
1523523230.750865,-0.616881,0.025443,1.691631,0.112655,0.077347,0.003707,-0.578307,-0.025440,-0.815422,0.034270,-0.010006,-0.035926,-6.470612,-29.499702,-1.543457,,,,,,,
1523523230.780833,-0.615245,0.029830,1.695068,0.174222,0.020743,0.022987,-0.576901,-0.029825,-0.816269,-0.002734,-0.011755,0.018310,-6.986603,-29.046623,-0.795471,,,,,,,
1523523230.810802,-0.614466,0.030953,1.696423,-0.043624,-0.015742,-0.000579,-0.576246,-0.030948,-0.816690,-0.001772,-0.014599,0.002862,-6.914139,-29.346870,-0.719238,,,,,,,
1523523230.840770,-0.614317,0.030006,1.694761,-0.028227,0.035540,-0.044313,-0.576141,-0.030002,-0.816800,-0.002717,-0.024365,-0.001270,-6.015686,-29.276299,-1.094055,,,,,,,
1523523230.870738,-0.611586,0.031237,1.692522,-0.034203,0.053002,-0.109323,-0.573886,-0.031232,-0.818339,0.017261,-0.033923,-0.063466,-6.689453,-29.198189,-1.019775,,,,,,,
1523523230.900707,-0.613899,0.030985,1.688290,-0.110062,-0.167995,-0.085718,-0.575782,-0.030980,-0.817016,0.057472,-0.017649,-0.043733,-6.239914,-28.975655,-1.470398,,,,,,,
1523523230.930675,-0.617209,0.029321,1.687722,-0.004772,-0.039963,0.104967,-0.578512,-0.029316,-0.815146,0.030020,-0.032039,-0.050164,-5.638443,-28.828362,-1.470703,,,,,,,
1523523230.960643,-0.616903,0.026968,1.690831,-0.038878,-0.015505,0.114507,-0.578301,-0.026965,-0.815377,-0.025092,0.005847,-0.073569,-6.760696,-28.822868,-1.021301,,,,,,,
1523523230.990611,-0.617995,0.025886,1.691797,0.057548,-0.035344,0.031481,-0.579208,-0.025883,-0.814769,0.026717,0.031025,-0.012242,-6.613251,-28.898842,-1.320923,,,,,,,
1523523231.020580,-0.617270,0.030124,1.696220,0.267264,0.069299,0.035796,-0.578548,-0.030120,-0.815092,0.018490,0.035979,0.029813,-6.606796,-28.748039,-0.496521,,,,,,,
1523523231.050548,-0.613146,0.036436,1.700296,0.167800,0.152045,-0.062381,-0.575061,-0.036428,-0.817299,0.007373,0.006719,0.025246,-6.908127,-28.971535,-0.345764,,,,,,,
,,,,,,,,,,,,,,,,25.313565,51.455703,14.553777,14.590000,267.187500,1523523230.997733,
1523523231.080516,-0.611131,0.036835,1.697286,-0.167153,-0.054085,-0.095465,-0.573405,-0.036827,-0.818444,0.060191,-0.011757,0.008629,-6.459946,-28.973839,-0.645569,,,,,,,
1523523231.110484,-0.615556,0.030458,1.692133,-0.306042,-0.144017,0.049436,-0.577145,-0.030453,-0.816073,0.065869,-0.037525,0.014743,-6.165527,-29.350471,-0.943909,,,,,,,
1523523231.140483,-0.618076,0.018430,1.689472,-0.424203,-0.092922,0.230434,-0.579369,-0.018429,-0.814856,0.004372,0.040539,-0.062555,-6.314316,-28.825478,-1.621033,,,,,,,
1523523231.170451,-0.618932,0.005474,1.689099,-0.265828,-0.002012,0.241120,-0.580156,-0.005474,-0.814486,-0.002745,0.086056,-0.064389,-6.617020,-28.599937,-2.447144,,,,,,,
1523523231.200420,-0.618060,0.002165,1.692676,0.100207,0.036305,0.102832,-0.579454,-0.002165,-0.815002,-0.027007,0.070220,-0.049714,-7.063263,-28.447563,-2.072937,,,,,,,
1523523231.230388,-0.616204,0.006171,1.695397,0.170590,0.050123,-0.074008,-0.577930,-0.006171,-0.816063,0.007480,0.061927,-0.027962,-7.665771,-28.744774,-1.997070,,,,,,,
1523523231.260356,-0.614911,0.010024,1.694912,0.048948,0.037833,-0.097523,-0.576857,-0.010024,-0.816783,0.024809,0.014739,-0.025181,-7.139740,-28.821831,-1.696472,,,,,,,
1523523231.290324,-0.615723,0.011886,1.692173,-0.004788,-0.071283,-0.125161,-0.577508,-0.011886,-0.816298,0.054680,0.006301,-0.006944,-7.438828,-28.820335,-1.546631,,,,,,,
1523523231.320293,-0.617379,0.013088,1.690582,0.021546,-0.033793,-0.025023,-0.578850,-0.013088,-0.815329,0.045952,-0.000645,-0.006495,-6.991852,-28.897728,-1.921082,,,,,,,
1523523231.350261,-0.618492,0.011762,1.690523,-0.088869,-0.065812,0.033535,-0.579767,-0.011761,-0.814697,0.013956,0.025342,-0.011398,-6.314789,-28.600929,-2.071960,,,,,,,
1523523231.380229,-0.620288,0.009090,1.689372,-0.069599,-0.093260,0.000549,-0.581245,-0.009090,-0.813677,0.011528,0.023083,-0.013014,-7.364594,-28.671043,-1.922180,,,,,,,
1523523231.410197,-0.620649,0.008287,1.688492,-0.057189,0.043857,-0.009173,-0.581543,-0.008287,-0.813473,-0.017746,0.015352,-0.040332,-7.218796,-29.046776,-1.995605,,,,,,,
1523523231.440166,-0.619845,0.005781,1.685490,-0.171503,-0.030930,-0.061400,-0.580899,-0.005781,-0.813955,-0.007693,0.018446,-0.092036,-6.245773,-28.976601,-2.445435,,,,,,,
1523523231.470134,-0.623325,0.003997,1.681933,-0.032233,-0.140875,-0.040935,-0.583733,-0.003997,-0.811935,0.033211,0.012740,-0.056686,-6.992752,-28.673241,-2.447021,,,,,,,
1523523231.500102,-0.622884,0.007124,1.683201,0.197432,0.112568,-0.048476,-0.583365,-0.007124,-0.812178,0.006476,-0.009600,-0.038056,-6.920151,-28.823723,-2.596375,,,,,,,
1523523231.530071,-0.619606,0.014398,1.683576,0.158512,0.076474,-0.191249,-0.580654,-0.014397,-0.814023,0.018856,-0.038261,0.001752,-6.015244,-28.602348,-2.146851,,,,,,,
1523523231.560039,-0.620007,0.017955,1.678544,-0.117940,-0.141716,-0.192311,-0.580947,-0.017955,-0.813743,0.073852,-0.046773,-0.003701,-6.095184,-29.276680,-1.844116,,,,,,,
1523523231.590007,-0.629231,0.016947,1.673347,-0.053583,-0.392562,-0.054551,-0.588439,-0.016946,-0.808364,0.086364,-0.012733,0.092040,-6.464325,-28.600182,-1.997009,,,,,,,
1523523231.619975,-0.635696,0.022518,1.676070,0.351815,0.019721,-0.046137,-0.593587,-0.022516,-0.804454,0.028096,-0.029440,0.178127,-5.561066,-28.453941,-1.697205,,,,,,,
1523523231.649944,-0.624905,0.030439,1.678999,0.003828,0.473477,-0.077752,-0.584749,-0.030434,-0.810643,-0.054838,-0.051506,-0.004390,-5.864792,-28.827568,-1.695862,,,,,,,
1523523231.679912,-0.621498,0.019121,1.664126,-0.943674,-0.290221,-0.239659,-0.582147,-0.019120,-0.812858,0.014260,-0.083877,-0.151207,-5.569778,-28.605110,-2.896606,,,,,,,
1523523231.709880,-0.640765,-0.005452,1.644800,-0.976507,-0.685231,0.186925,-0.597799,0.005452,-0.801627,0.065268,-0.045369,-0.059259,-5.053375,-28.608849,-4.321289,,,,,,,
1523523231.739848,-0.648298,-0.027583,1.643184,-0.353024,0.082808,0.450876,-0.603601,0.027579,-0.796809,-0.044272,0.032678,-0.108815,-6.705841,-28.676720,-4.621826,,,,,,,
1523523231.769817,-0.645411,-0.035355,1.647527,0.042321,-0.040964,0.080490,-0.601151,0.035348,-0.798353,-0.023483,0.106162,-0.051913,-6.930695,-28.525932,-4.847534,,,,,,,
1523523231.799785,-0.649188,-0.025235,1.648850,0.406715,-0.173079,-0.300571,-0.604347,0.025233,-0.796321,0.052894,0.081350,0.127803,-6.027420,-28.379692,-4.547668,,,,,,,
1523523231.829753,-0.647316,-0.012018,1.643804,-0.019775,0.284683,-0.422807,-0.603004,0.012018,-0.797648,0.099555,-0.016229,0.110804,-5.346451,-28.232002,-3.797913,,,,,,,
1523523231.859721,-0.642958,-0.018500,1.624179,-0.906171,-0.123968,-0.323964,-0.599462,0.018499,-0.800189,0.137625,-0.094488,-0.143262,-4.752792,-28.235725,-4.847595,,,,,,,
1523523231.889690,-0.658484,-0.034567,1.612760,-0.324186,-0.280943,0.338314,-0.611553,0.034560,-0.790448,0.167278,-0.092772,-0.216739,-4.605362,-27.862434,-5.899109,,,,,,,
1523523231.919658,-0.668225,-0.047447,1.626269,0.059937,-0.289301,0.787199,-0.618896,0.047429,-0.784039,-0.009446,-0.058492,-0.045154,-7.231735,-28.225243,-5.523926,,,,,,,
1523523231.949626,-0.666612,-0.060909,1.648997,0.221125,0.211641,0.816650,-0.617180,0.060871,-0.784464,-0.164604,0.104214,0.048563,-8.508636,-28.369576,-5.598938,,,,,,,
1523523231.979594,-0.653607,-0.064173,1.666248,0.197276,0.482045,0.299575,-0.606802,0.064129,-0.792262,-0.042124,0.068439,0.093882,-7.827530,-27.847496,-5.450745,,,,,,,
1523523232.009563,-0.635039,-0.066563,1.671744,-0.008604,0.794045,0.126499,-0.591895,0.066514,-0.803266,0.039969,0.085586,-0.062793,-8.724792,-27.843010,-5.001221,,,,,,,
1523523232.039531,-0.600455,-0.063377,1.672411,0.172165,1.264101,-0.144481,-0.563883,0.063335,-0.823422,-0.043096,0.002903,-0.191348,-8.577789,-28.143684,-4.999939,,,,,,,
,,,,,,,,,,,,,,,,25.313554,51.455557,14.655121,14.770000,268.945312,1523523231.997722,
1523523232.069491,-0.574394,-0.055257,1.667236,0.069860,0.501282,-0.430415,-0.542496,0.055229,-0.838240,-0.063323,-0.050163,-0.131410,-6.850143,-28.150993,-4.549011,,,,,,,
1523523232.099459,-0.570646,-0.049528,1.649936,-0.326025,0.043807,-0.664670,-0.539514,0.049508,-0.840520,-0.015220,-0.046258,-0.046657,-6.480423,-28.228401,-5.298523,,,,,,,
1523523232.129428,-0.569474,-0.047740,1.623918,-0.395413,0.116194,-0.809710,-0.538575,0.047722,-0.841225,0.072816,-0.016029,-0.014687,-5.580917,-28.007896,-5.748962,,,,,,,
1523523232.159396,-0.563287,-0.040713,1.602781,-0.008776,0.368874,-0.614671,-0.533526,0.040702,-0.844803,0.071551,0.020455,0.024247,-3.105576,-27.794350,-6.048584,,,,,,,
1523523232.189395,-0.547653,-0.025126,1.596049,0.554825,0.623981,-0.370508,-0.520521,0.025123,-0.853479,0.086835,0.085640,-0.023611,-2.957962,-28.394402,-5.446106,,,,,,,
1523523232.219363,-0.531741,-0.004851,1.597849,0.536020,0.399910,-0.232839,-0.507028,0.004851,-0.861915,0.103281,0.039201,-0.016350,-2.806763,-28.769264,-4.619507,,,,,,,
1523523232.249331,-0.524810,0.004454,1.597804,0.069793,0.125141,-0.129562,-0.501044,-0.004454,-0.865410,0.149237,0.013334,-0.107154,-1.377914,-28.700157,-4.094055,,,,,,,
1523523232.279300,-0.524189,0.000642,1.594517,-0.217024,-0.121545,-0.005920,-0.500511,-0.000642,-0.865730,0.061104,0.076646,-0.079522,-2.204529,-28.546974,-4.620117,,,,,,,
1523523232.309268,-0.531173,-0.005218,1.592016,-0.165973,-0.351503,0.038036,-0.506538,0.005218,-0.862201,0.031166,0.002991,-0.009960,-2.354813,-28.621223,-4.544861,,,,,,,
1523523232.339236,-0.541130,-0.007564,1.592728,0.009867,-0.392493,0.063775,-0.515090,0.007564,-0.857102,0.043365,-0.048503,-0.071151,-2.432983,-28.621391,-5.069946,,,,,,,
1523523232.369204,-0.552375,-0.008229,1.594987,0.027757,-0.424562,0.085128,-0.524693,0.008229,-0.851252,0.048558,-0.030538,-0.090780,-2.733246,-28.919594,-4.618896,,,,,,,
1523523232.399173,-0.569984,-0.009784,1.597129,-0.032075,-0.669899,0.087468,-0.539593,0.009784,-0.841869,0.061138,-0.013004,-0.047886,-2.733856,-28.620186,-5.220093,,,,,,,
1523523232.429141,-0.587591,-0.011360,1.599209,0.031273,-0.579813,0.098083,-0.554322,0.011360,-0.832225,0.035843,0.005653,-0.000280,-3.031738,-28.768257,-4.619629,,,,,,,
1523523232.459109,-0.600984,-0.010201,1.602934,0.116496,-0.395058,0.088365,-0.565425,0.010200,-0.824736,0.066890,-0.014580,0.009932,-3.780212,-28.614891,-4.620667,,,,,,,
1523523232.489077,-0.607811,-0.009937,1.606849,0.030664,-0.223939,0.112641,-0.571044,0.009937,-0.820859,0.109404,0.025890,-0.080478,-4.307617,-28.538033,-5.146240,,,,,,,
1523523232.519046,-0.613414,-0.011826,1.608230,-0.057465,-0.204028,0.033696,-0.575622,0.011826,-0.817630,0.095901,0.055313,-0.092572,-3.332031,-28.617195,-4.920410,,,,,,,
1523523232.549014,-0.620607,-0.013459,1.608002,-0.031009,-0.265676,0.026322,-0.581477,0.013459,-0.813452,0.060740,0.033310,-0.019541,-4.231979,-28.837761,-4.544983,,,,,,,
1523523232.578982,-0.623821,-0.013620,1.609360,0.056421,-0.040723,0.040017,-0.584087,0.013619,-0.811577,0.065364,-0.007653,-0.013146,-4.456085,-28.611992,-4.770996,,,,,,,
1523523232.608950,-0.621251,-0.012873,1.612360,0.103771,0.061074,0.054860,-0.582005,0.012873,-0.813083,0.061710,0.007574,-0.072796,-4.228836,-28.612633,-4.395874,,,,,,,
1523523232.638919,-0.617259,-0.012957,1.614520,-0.004664,0.190802,0.079164,-0.578753,0.012956,-0.815400,0.075930,0.014800,-0.073883,-4.680786,-28.760689,-4.470459,,,,,,,
1523523232.668887,-0.611563,-0.016453,1.617528,-0.028058,0.095567,0.182595,-0.574070,0.016453,-0.818641,0.059406,-0.001469,-0.129007,-3.781708,-28.764885,-4.620056,,,,,,,
1523523232.698855,-0.610802,-0.018585,1.624627,0.168105,-0.115843,0.258600,-0.573426,0.018584,-0.819047,0.072113,-0.019789,-0.138641,-5.280136,-28.832756,-4.245544,,,,,,,
1523523232.728824,-0.617207,-0.016956,1.635491,0.302924,-0.270388,0.275913,-0.578677,0.016955,-0.815380,0.118914,-0.025225,-0.084705,-5.650925,-28.680626,-3.796326,,,,,,,
1523523232.758792,-0.621123,-0.014908,1.646989,0.238895,-0.045895,0.258589,-0.581884,0.014908,-0.813135,0.138235,0.023041,-0.086661,-5.127747,-28.907921,-3.720093,,,,,,,
1523523232.788760,-0.620779,-0.013973,1.655995,0.178352,-0.043192,0.198864,-0.581612,0.013973,-0.813346,0.179878,0.029805,-0.115334,-6.249695,-28.827492,-3.346008,,,,,,,
1523523232.818728,-0.620626,-0.013390,1.660860,0.048176,0.052658,0.062286,-0.581492,0.013390,-0.813442,0.180552,0.002464,-0.120442,-6.624985,-29.125359,-2.895020,,,,,,,
1523523232.848697,-0.615570,-0.014033,1.660176,-0.035287,0.133229,-0.034809,-0.577367,0.014032,-0.816364,0.158071,-0.018213,-0.144787,-6.627823,-29.275566,-3.119446,,,,,,,
1523523232.878665,-0.613843,-0.013949,1.659456,-0.011536,-0.030562,-0.021840,-0.575957,0.013949,-0.817361,0.136763,0.027936,-0.091605,-6.474991,-29.126030,-2.894958,,,,,,,
1523523232.908633,-0.613450,-0.015008,1.659054,-0.045145,-0.085006,0.027196,-0.575627,0.015007,-0.817574,0.172017,-0.031548,-0.098197,-6.474823,-28.976250,-3.120544,,,,,,,
1523523232.938601,-0.614406,-0.015844,1.660702,0.045629,-0.013339,0.081519,-0.576400,0.015844,-0.817014,0.191253,-0.034001,-0.070071,-5.649414,-28.755272,-3.421021,,,,,,,
1523523232.968570,-0.610039,-0.015456,1.663513,0.072086,0.123916,0.044123,-0.572831,0.015455,-0.819528,0.172577,-0.019102,-0.105414,-6.626480,-29.050728,-3.270325,,,,,,,
1523523232.998538,-0.606655,-0.013834,1.664960,0.063294,0.006360,-0.009041,-0.570068,0.013833,-0.821481,0.189926,0.009635,-0.096214,-6.476791,-29.126320,-3.194946,,,,,,,
1523523233.028506,-0.604900,-0.011767,1.665296,0.039066,0.041709,-0.041058,-0.568640,0.011766,-0.822502,0.203055,0.017912,-0.071709,-5.878159,-29.129234,-3.419617,,,,,,,
1523523233.058474,-0.599008,-0.011235,1.664393,-0.033206,0.143730,-0.016710,-0.563788,0.011235,-0.825843,0.212942,-0.004353,-0.151421,-6.698471,-28.975029,-2.895691,,,,,,,
,,,,,,,,,,,,,,,,25.313540,51.455405,14.886416,15.000000,268.945312,1523523232.997711,
1523523233.088424,-0.593652,-0.012370,1.665228,0.020554,0.112026,0.089921,-0.559348,0.012370,-0.828840,0.221778,-0.010325,-0.195330,-6.700729,-29.200020,-2.894775,,,,,,,
1523523233.118392,-0.593718,-0.013764,1.669547,0.040341,-0.164702,0.148808,-0.559393,0.013763,-0.828787,0.174628,-0.013550,-0.141916,-6.099701,-28.828163,-3.345947,,,,,,,
1523523233.148360,-0.597290,-0.015676,1.672606,-0.015965,-0.193763,0.069947,-0.562334,0.015676,-0.826761,0.149416,0.005763,-0.113379,-6.997864,-28.823830,-3.046387,,,,,,,
1523523233.178328,-0.604402,-0.015874,1.672640,-0.009495,-0.295111,-0.027967,-0.568198,0.015873,-0.822738,0.171653,0.000210,-0.048676,-7.299194,-28.822701,-3.271606,,,,,,,
1523523233.208327,-0.606675,-0.015924,1.671226,-0.043471,-0.022936,-0.035732,-0.570067,0.015923,-0.821444,0.203474,0.009819,-0.127577,-6.323044,-28.752022,-3.196350,,,,,,,
1523523233.238295,-0.609264,-0.016883,1.669157,-0.079571,-0.219410,-0.038756,-0.572183,0.016882,-0.819952,0.183572,0.011194,-0.111566,-6.547440,-28.601158,-3.347046,,,,,,,
1523523233.268264,-0.611638,-0.018404,1.666717,-0.087086,-0.004695,-0.047492,-0.574112,0.018403,-0.818570,0.146210,0.027694,-0.150699,-7.225403,-28.898109,-3.346191,,,,,,,
1523523233.298232,-0.609945,-0.019126,1.664318,-0.055246,-0.046214,-0.047428,-0.572718,0.019125,-0.819529,0.147654,0.015681,-0.191213,-6.323044,-28.527397,-3.572266,,,,,,,
1523523233.328200,-0.613007,-0.019966,1.661705,-0.078113,-0.162930,-0.063313,-0.575214,0.019965,-0.817759,0.144505,0.020089,-0.135229,-7.075562,-28.823921,-3.496460,,,,,,,
1523523233.358169,-0.616065,-0.021666,1.658893,-0.121722,-0.087593,-0.031462,-0.577692,0.021665,-0.815967,0.136896,0.011706,-0.114392,-6.477692,-28.901848,-3.720825,,,,,,,
1523523233.388137,-0.617490,-0.024379,1.656153,-0.125964,-0.063257,-0.015504,-0.578818,0.024376,-0.815092,0.160758,0.006172,-0.126314,-5.874130,-28.454704,-3.872314,,,,,,,
1523523233.418105,-0.618144,-0.026949,1.654191,-0.078978,-0.043285,-0.000575,-0.579313,0.026946,-0.814660,0.170194,0.009385,-0.125770,-6.775589,-28.600655,-3.872192,,,,,,,
1523523233.448073,-0.618782,-0.027905,1.653424,-0.020278,-0.046626,0.000537,-0.579817,0.027901,-0.814268,0.166808,0.000114,-0.093752,-6.324402,-28.527611,-3.797241,,,,,,,
1523523233.478042,-0.615359,-0.028745,1.653333,-0.033404,0.133957,0.013136,-0.577013,0.028741,-0.816229,0.146715,0.006003,-0.185480,-5.723389,-28.155769,-4.248474,,,,,,,
1523523233.508010,-0.614603,-0.029219,1.652435,-0.031036,-0.105861,-0.034572,-0.576388,0.029215,-0.816653,0.164477,0.005881,-0.133725,-6.324265,-28.377831,-4.022888,,,,,,,
1523523233.537978,-0.617580,-0.029050,1.651263,-0.000016,-0.104785,-0.046278,-0.578819,0.029046,-0.814938,0.178978,0.002052,-0.090351,-6.476944,-28.602226,-4.096985,,,,,,,
1523523233.567946,-0.616774,-0.028843,1.650201,-0.041190,0.032132,-0.012329,-0.578166,0.028839,-0.815409,0.184260,0.003006,-0.123327,-5.874725,-28.379936,-4.097595,,,,,,,
1523523233.597915,-0.613018,-0.030343,1.649705,-0.040956,0.133845,0.030188,-0.575073,0.030338,-0.817539,0.167282,0.000637,-0.117825,-6.476349,-28.452370,-4.247620,,,,,,,
1523523233.627883,-0.606790,-0.031234,1.650171,0.004061,0.164591,0.023799,-0.569955,0.031229,-0.821082,0.158639,0.000647,-0.162118,-6.180099,-28.828697,-4.245972,,,,,,,
1523523233.657851,-0.603391,-0.031156,1.650799,0.016228,0.007412,0.009038,-0.567163,0.031151,-0.823016,0.167916,0.000801,-0.184842,-5.576843,-28.456490,-4.322205,,,,,,,
1523523233.687819,-0.604499,-0.029888,1.651664,0.066015,-0.103082,-0.011059,-0.568096,0.029883,-0.822419,0.182873,-0.003898,-0.158660,-6.706131,-28.751640,-4.546570,,,,,,,
1523523233.717788,-0.606603,-0.029050,1.651631,-0.008622,-0.094325,-0.021775,-0.569839,0.029046,-0.821243,0.193588,-0.010827,-0.163529,-6.332962,-28.753624,-4.846313,,,,,,,
1523523233.747756,-0.608779,-0.029771,1.650481,-0.058895,-0.103830,-0.012213,-0.571613,0.029767,-0.819983,0.204807,0.005755,-0.153970,-5.805145,-28.605766,-4.621704,,,,,,,
1523523233.777724,-0.610762,-0.031120,1.649215,-0.059654,-0.032647,-0.010155,-0.573214,0.031115,-0.818815,0.187151,0.010602,-0.106066,-6.481735,-28.902504,-4.395874,,,,,,,
1523523233.807692,-0.607409,-0.031491,1.648510,0.003925,0.098927,-0.007036,-0.570458,0.031486,-0.820723,0.162133,0.000710,-0.196520,-6.925598,-28.150734,-4.624084,,,,,,,
1523523233.837661,-0.606242,-0.031969,1.648378,-0.055599,-0.055119,0.011179,-0.569492,0.031963,-0.821375,0.162006,0.000202,-0.213110,-6.324112,-28.228065,-4.248474,,,,,,,
1523523233.867629,-0.609015,-0.033991,1.647408,-0.048397,-0.131562,-0.001520,-0.571730,0.033985,-0.819738,0.182127,-0.001331,-0.161036,-6.553894,-28.527321,-4.547363,,,,,,,
1523523233.897597,-0.612802,-0.033060,1.647254,0.052135,-0.124160,-0.030232,-0.574847,0.033054,-0.817593,0.186130,-0.015522,-0.112995,-6.552856,-28.377403,-4.622986,,,,,,,
1523523233.927565,-0.613738,-0.032278,1.646910,-0.025499,-0.042263,-0.015443,-0.575627,0.032273,-0.817075,0.186726,-0.005081,-0.134585,-6.476654,-28.527290,-4.172302,,,,,,,
1523523233.957534,-0.614811,-0.033821,1.645984,-0.066237,-0.042361,0.014353,-0.576474,0.033814,-0.816415,0.180508,0.004806,-0.128882,-6.554642,-28.826942,-4.171143,,,,,,,
1523523233.987502,-0.614510,-0.034646,1.645887,0.018253,-0.017059,0.011204,-0.576212,0.034639,-0.816566,0.182886,-0.002565,-0.136376,-5.881927,-28.605721,-4.921692,,,,,,,
