timestamp(unix),attitude_roll(radians),attitude_pitch(radians),attitude_yaw(radians),rotation_rate_x(radians/s),rotation_rate_y(radians/s),rotation_rate_z(radians/s),gravity_x(G),gravity_y(G),gravity_z(G),user_acc_x(G),user_acc_y(G),user_acc_z(G),magnetic_field_x(microteslas),magnetic_field_y(microteslas),magnetic_field_z(microteslas),latitude(degree),longitude(degree),altitude(meter),speed(m/s),course(degree),timestamp(unix),User Mark
,,,,,,,,,,,,,,,,25.313094,51.448765,11.007198,-1.000000,-1.000000,1522136915.111088,
1522136934.505841,-0.089489,-0.059162,-0.990241,0.010899,0.018096,-0.078186,-0.089213,0.059128,-0.994256,-0.093755,-0.007095,-0.138313,37.545853,37.032013,-26.340088,,,,,,,
1522136934.535809,-0.092105,-0.062846,-0.993536,-0.089257,-0.210961,-0.109991,-0.091793,0.062804,-0.993795,-0.113742,0.013123,-0.011210,36.334076,35.987244,-26.561462,,,,,,,
1522136934.565778,-0.104405,-0.059241,-0.997313,0.188574,-0.447225,-0.155370,-0.104032,0.059206,-0.992810,-0.097399,-0.038439,0.074719,35.108063,33.966797,-27.528992,,,,,,,
1522136934.595746,-0.113749,-0.054927,-1.000644,0.048646,-0.146659,-0.086506,-0.113332,0.054900,-0.992039,-0.080515,-0.045134,0.056095,35.094574,33.066101,-28.275391,,,,,,,
1522136934.625714,-0.114537,-0.055906,-1.001878,-0.050400,-0.000305,-0.008951,-0.114108,0.055877,-0.991895,-0.095486,-0.011351,-0.000735,34.625916,31.193235,-28.268127,,,,,,,
1522136934.655682,-0.117649,-0.055729,-1.002109,0.027898,-0.157769,-0.008733,-0.117196,0.055700,-0.991545,-0.113181,-0.003377,0.006804,33.849747,29.020994,-29.009827,,,,,,,
1522136934.685651,-0.123459,-0.055525,-1.000506,-0.058651,-0.177729,-0.011968,-0.122956,0.055496,-0.990859,-0.113967,-0.028916,0.024810,34.136703,27.669783,-28.929260,,,,,,,
1522136934.715619,-0.127182,-0.059096,-0.995981,-0.161921,-0.060883,0.031519,-0.126618,0.059062,-0.990191,-0.097381,-0.065608,0.053805,33.207672,25.347990,-29.895386,,,,,,,
1522136934.745587,-0.126290,-0.065537,-0.991994,-0.229877,0.115107,0.112275,-0.125684,0.065490,-0.989906,-0.080920,-0.084045,0.047325,32.666397,23.625578,-29.738831,,,,,,,
1522136934.775555,-0.120800,-0.073317,-0.985801,-0.263561,0.217235,0.107883,-0.120182,0.073252,-0.990045,-0.103405,-0.059122,-0.023581,33.239410,21.372267,-30.479553,,,,,,,
1522136934.805524,-0.116723,-0.079168,-0.983891,-0.146536,0.087530,0.076134,-0.116094,0.079086,-0.990084,-0.083339,-0.066940,-0.055402,32.022263,19.877378,-30.849182,,,,,,,
1522136934.835492,-0.117207,-0.081536,-0.981791,-0.059560,-0.034921,0.080586,-0.116550,0.081446,-0.989839,-0.072994,-0.092157,-0.042463,30.567520,17.258329,-31.439392,,,,,,,
1522136934.865460,-0.118143,-0.084128,-0.979546,-0.101214,-0.027431,0.089067,-0.117452,0.084029,-0.989517,-0.042277,-0.073775,-0.051957,30.777985,16.206709,-32.110046,,,,,,,
1522136934.895429,-0.121578,-0.085710,-0.977564,0.003952,-0.185807,0.056284,-0.120833,0.085605,-0.988974,-0.059984,-0.053394,-0.059564,27.146240,13.522230,-32.926147,,,,,,,
1522136934.925397,-0.130898,-0.083112,-0.975898,0.140644,-0.417778,0.054485,-0.130074,0.083016,-0.988022,-0.093757,-0.061410,-0.040557,26.001221,11.876799,-33.520203,,,,,,,
1522136934.955365,-0.142368,-0.078862,-0.973873,0.114572,-0.296427,0.037276,-0.141447,0.078780,-0.986806,-0.078905,-0.084044,-0.009608,25.231033,10.304518,-34.264282,,,,,,,
1522136934.985333,-0.147491,-0.078535,-0.973342,-0.047659,-0.084372,0.007120,-0.146504,0.078454,-0.986094,-0.100200,-0.073388,0.027811,21.229736,7.622602,-34.180542,,,,,,,
1522136935.015302,-0.147371,-0.079839,-0.973949,-0.038193,0.066828,-0.039912,-0.146370,0.079755,-0.986009,-0.079109,-0.053861,0.063066,20.168564,6.277754,-33.800659,,,,,,,
1522136935.045270,-0.145629,-0.078792,-0.976199,0.059234,0.059548,-0.097368,-0.144665,0.078710,-0.986345,-0.103230,-0.065862,0.052553,17.597275,3.964643,-33.492737,,,,,,,
1522136935.075238,-0.147149,-0.073405,-0.979274,0.192158,-0.108411,-0.137578,-0.146224,0.073340,-0.986529,-0.093171,-0.043982,0.028414,15.258453,2.400465,-33.187622,,,,,,,
1522136935.105206,-0.150912,-0.066421,-0.982709,0.209400,-0.075481,-0.140801,-0.150008,0.066372,-0.986454,-0.079637,-0.007747,0.052967,11.944107,0.016966,-31.604736,,,,,,,
,,,,,,,,,,,,,,,,25.313947,51.449123,11.009810,-1.000000,-1.000000,1522136935.101723,
1522136935.135175,-0.151982,-0.059999,-0.985486,0.173329,0.007315,-0.114279,-0.151125,0.059963,-0.986694,-0.073805,0.005695,0.024643,10.735641,-1.102144,-31.150879,,,,,,,
1522136935.165143,-0.151066,-0.056404,-0.988768,0.040434,0.106610,-0.135783,-0.150253,0.056374,-0.987039,-0.092301,0.004493,0.013009,6.828827,-2.957598,-29.195374,,,,,,,
1522136935.195111,-0.147224,-0.056196,-0.992508,-0.024804,0.129890,-0.096441,-0.146461,0.056167,-0.987620,-0.062340,-0.041457,-0.031194,4.945847,-4.298235,-28.290955,,,,,,,
1522136935.225079,-0.145597,-0.057322,-0.994277,-0.056350,0.068942,-0.034586,-0.144845,0.057291,-0.987794,-0.038932,-0.039469,-0.016952,1.878830,-5.256502,-25.363708,,,,,,,
1522136935.255048,-0.142573,-0.060838,-0.996136,-0.172260,0.157535,-0.048620,-0.141828,0.060800,-0.988022,-0.055224,-0.036264,-0.033615,0.985947,-5.625673,-23.562683,,,,,,,
1522136935.285016,-0.139967,-0.064075,-0.997629,-0.061873,0.043385,-0.022853,-0.139224,0.064031,-0.988188,-0.080152,-0.045934,-0.041063,-1.550095,-6.660219,-19.509827,,,,,,,
1522136935.315000,-0.140940,-0.064316,-0.998118,0.007962,-0.064306,0.005010,-0.140183,0.064272,-0.988037,-0.083099,-0.039827,-0.051193,-3.942444,-7.247194,-17.258667,,,,,,,
1522136935.344968,-0.141861,-0.064116,-0.997802,-0.029174,-0.008979,0.008122,-0.141095,0.064072,-0.987920,-0.029666,-0.038757,-0.070841,-4.535049,-7.767427,-15.156860,,,,,,,
1522136935.374937,-0.141124,-0.066933,-0.999075,-0.135666,0.014903,-0.025018,-0.140341,0.066883,-0.987841,-0.078210,-0.033116,-0.067869,-3.981216,-7.765123,-10.356628,,,,,,,
1522136935.404905,-0.143156,-0.071094,-0.999356,-0.130102,-0.108771,0.030524,-0.142307,0.071034,-0.987270,-0.086438,-0.034322,-0.004383,-4.340271,-7.835726,-7.581543,,,,,,,
1522136935.434873,-0.146926,-0.074980,-0.997979,-0.136630,-0.085669,0.073112,-0.145986,0.074910,-0.986446,-0.051569,-0.050267,0.054195,-5.889359,-7.899340,-3.156982,,,,,,,
1522136935.464842,-0.143638,-0.080607,-0.997093,-0.226841,0.245168,0.051408,-0.142679,0.080519,-0.986488,-0.045141,-0.082869,0.019188,-5.425858,-7.899172,-0.906799,,,,,,,
1522136935.494810,-0.135251,-0.088511,-0.996750,-0.248016,0.270803,0.039648,-0.134311,0.088395,-0.986988,-0.091000,-0.084763,-0.009853,-5.399261,-8.119493,3.894104,,,,,,,
1522136935.524778,-0.132113,-0.091941,-0.996498,-0.022801,-0.020667,0.004946,-0.131173,0.091811,-0.987099,-0.090079,-0.074279,-0.001473,-5.085007,-8.043657,6.143982,,,,,,,
1522136935.554746,-0.134827,-0.090311,-0.997876,0.008649,-0.013758,-0.082410,-0.133871,0.090188,-0.986886,-0.057840,-0.062585,0.010323,-2.951157,-7.673235,11.168518,,,,,,,
1522136935.584715,-0.131272,-0.092236,-1.000987,-0.156807,0.229992,-0.082778,-0.130339,0.092105,-0.987182,-0.055483,-0.056125,-0.027314,-2.492874,-8.198046,13.420837,,,,,,,
1522136935.614683,-0.125380,-0.097577,-1.003473,-0.201070,0.165039,-0.046524,-0.124456,0.097422,-0.987430,-0.076853,-0.037760,-0.010525,-0.820541,-8.576220,17.773254,,,,,,,
1522136935.644651,-0.124393,-0.100561,-1.004938,-0.045113,-0.027833,-0.023843,-0.123446,0.100391,-0.987260,-0.063962,-0.019352,0.034837,1.368942,-8.658510,20.324646,,,,,,,
1522136935.674619,-0.126066,-0.099775,-1.005925,0.031898,-0.005674,-0.030195,-0.125107,0.099610,-0.987130,-0.059769,-0.040574,0.046670,2.583008,-8.511873,22.424683,,,,,,,
1522136935.704588,-0.124438,-0.098421,-1.006212,0.045096,0.108888,-0.005796,-0.123516,0.098262,-0.987465,-0.051762,-0.049815,0.002556,5.074600,-8.969561,25.952759,,,,,,,
1522136935.734556,-0.122854,-0.096093,-1.005643,0.119397,0.023595,0.006077,-0.121980,0.095946,-0.987884,-0.086944,-0.034071,-0.002671,6.435669,-9.123583,28.054016,,,,,,,
1522136935.764524,-0.122716,-0.091765,-1.005425,0.116445,0.040852,-0.028045,-0.121894,0.091636,-0.988304,-0.061166,-0.003303,-0.013665,10.119873,-9.962236,30.984253,,,,,,,
1522136935.794492,-0.118567,-0.091062,-1.006156,-0.076100,0.234526,0.002507,-0.117799,0.090937,-0.988865,-0.023192,-0.034815,-0.047879,11.474930,-10.491610,32.712036,,,,,,,
1522136935.824461,-0.110220,-0.095640,-1.005827,-0.172210,0.271700,0.038628,-0.109495,0.095495,-0.989389,-0.017977,-0.045446,-0.071783,15.003281,-11.555162,35.043091,,,,,,,
1522136935.854429,-0.106155,-0.099651,-1.005367,-0.095104,0.062322,0.017585,-0.105430,0.099486,-0.989437,-0.059868,-0.055312,-0.057438,16.203720,-12.234362,36.246399,,,,,,,
1522136935.884397,-0.106713,-0.100418,-1.005539,0.011357,-0.046098,-0.016319,-0.105974,0.100250,-0.989302,-0.050124,-0.043106,-0.009172,19.644791,-14.347795,38.281494,,,,,,,
1522136935.914365,-0.107992,-0.099223,-1.006040,0.040255,-0.028123,-0.014182,-0.107252,0.099060,-0.989284,-0.024873,-0.056656,0.010357,21.670929,-14.955706,39.484924,,,,,,,
1522136935.944334,-0.108598,-0.097651,-1.006443,0.034993,-0.016393,-0.018459,-0.107869,0.097496,-0.989373,-0.077327,-0.066490,-0.005088,24.289703,-16.391146,40.841980,,,,,,,
1522136935.974302,-0.109138,-0.096979,-1.006644,-0.001334,-0.012093,-0.011039,-0.108410,0.096827,-0.989379,-0.055515,-0.034205,-0.003464,26.158218,-17.224245,41.146301,,,,,,,
1522136936.004270,-0.109424,-0.097511,-1.007519,-0.047068,0.018876,-0.017494,-0.108687,0.097356,-0.989297,-0.015626,-0.039037,0.010125,30.047577,-18.516359,41.528381,,,,,,,
1522136936.034238,-0.107495,-0.099481,-1.007164,-0.082288,0.104538,0.053782,-0.106757,0.099317,-0.989312,-0.018410,-0.042951,0.003365,32.214722,-19.351046,41.607788,,,,,,,
1522136936.064207,-0.105341,-0.100923,-1.005261,-0.010108,0.028793,0.069900,-0.104611,0.100752,-0.989396,-0.024249,-0.019255,0.003648,33.857178,-20.333055,41.987549,,,,,,,
1522136936.094175,-0.106098,-0.099824,-1.003757,0.049567,-0.042274,0.030591,-0.105372,0.099658,-0.989426,-0.063726,-0.046390,0.015534,37.739487,-21.701189,41.319946,,,,,,,
1522136936.124143,-0.106664,-0.098638,-1.002281,0.022943,0.004350,0.058230,-0.105944,0.098478,-0.989483,-0.032468,-0.070219,0.031643,39.080139,-22.457521,41.023682,,,,,,,
1522136936.154112,-0.104086,-0.098907,-1.000742,-0.030763,0.152274,0.044196,-0.103390,0.098746,-0.989727,-0.004825,-0.060400,0.013424,42.804520,-24.125765,39.532227,,,,,,,
1522136936.184080,-0.098227,-0.100618,-1.000509,-0.083563,0.212345,-0.016643,-0.097573,0.100448,-0.990146,-0.039085,-0.043975,-0.052548,44.672699,-24.584551,39.159973,,,,,,,
1522136936.214048,-0.093812,-0.102998,-1.002319,-0.091374,0.087267,-0.059139,-0.093178,0.102816,-0.990326,-0.023674,-0.039248,-0.058929,47.412506,-26.848970,37.070496,,,,,,,
1522136936.244016,-0.094622,-0.103311,-1.003112,0.029324,-0.061162,0.005016,-0.093977,0.103128,-0.990218,-0.006304,-0.064370,-0.012528,49.496231,-27.984163,36.251038,,,,,,,
1522136936.273985,-0.095505,-0.100805,-1.001993,0.103244,0.016086,0.024176,-0.094875,0.100635,-0.990389,-0.024708,-0.032504,-0.004072,53.068512,-29.277712,33.782959,,,,,,,
1522136936.303951,-0.093992,-0.097626,-1.002425,0.097335,0.033628,-0.053616,-0.093406,0.097471,-0.990845,-0.012596,-0.019010,-0.053390,54.554489,-29.735964,32.210571,,,,,,,
1522136936.333919,-0.096189,-0.093299,-1.003715,0.175452,-0.159950,-0.052311,-0.095623,0.093164,-0.991048,-0.028904,-0.040353,-0.037837,56.043320,-30.044008,30.862549,,,,,,,
1522136936.363887,-0.103643,-0.086652,-1.004192,0.223968,-0.271793,-0.032975,-0.103069,0.086543,-0.990902,-0.023609,-0.038936,-0.002522,60.281509,-30.892809,26.143066,,,,,,,
1522136936.393856,-0.108522,-0.082142,-1.004847,0.065887,-0.051401,-0.036520,-0.107944,0.082050,-0.990765,0.019092,-0.043369,0.022107,61.167206,-31.198671,24.269714,,,,,,,
1522136936.423824,-0.106584,-0.083669,-1.005698,-0.150058,0.142403,-0.019820,-0.106010,0.083572,-0.990847,0.003776,-0.057876,-0.005949,63.611755,-31.364458,19.471619,,,,,,,
1522136936.453792,-0.100741,-0.090055,-1.007857,-0.226382,0.215152,-0.062573,-0.100164,0.089934,-0.990898,-0.005687,-0.017317,-0.054863,65.317001,-31.674913,16.698669,,,,,,,
1522136936.483760,-0.098480,-0.093198,-1.009217,-0.009982,-0.038642,-0.012076,-0.097894,0.093063,-0.990836,0.000009,-0.031204,-0.040323,65.432632,-32.055527,11.600281,,,,,,,
1522136936.513729,-0.102465,-0.089256,-1.009304,0.195618,-0.151706,-0.022472,-0.101879,0.089137,-0.990795,-0.009846,-0.022518,-0.021153,65.784515,-32.435333,8.376953,,,,,,,
1522136936.543697,-0.106871,-0.082327,-1.010163,0.227881,-0.155735,-0.068248,-0.106306,0.082234,-0.990927,0.013930,-0.039159,-0.013391,64.988327,-33.637451,2.681335,,,,,,,
1522136936.573665,-0.111282,-0.077124,-1.011409,0.112856,-0.090629,-0.067338,-0.110722,0.077048,-0.990860,-0.032802,-0.021460,-0.000229,64.146957,-33.561523,-0.169373,,,,,,,
1522136936.603633,-0.112898,-0.074299,-1.013665,0.083276,-0.058441,-0.100427,-0.112348,0.074230,-0.990892,-0.018557,0.007892,-0.013747,62.605743,-34.310196,-5.792114,,,,,,,
1522136936.633602,-0.116317,-0.070933,-1.015422,0.101835,-0.137522,-0.042797,-0.115763,0.070873,-0.990745,-0.001424,0.007145,0.017005,60.786301,-35.128891,-7.664795,,,,,,,
1522136936.663570,-0.117853,-0.069785,-1.016966,-0.034951,0.044675,-0.065453,-0.117294,0.069728,-0.990646,0.002731,0.005254,-0.007492,57.449524,-36.018524,-12.312927,,,,,,,
1522136936.693538,-0.116573,-0.072119,-1.019180,-0.094917,0.026617,-0.046294,-0.116007,0.072057,-0.990631,0.009043,-0.013112,-0.014786,55.334442,-36.311020,-14.337769,,,,,,,
1522136936.723507,-0.118112,-0.075120,-1.019923,-0.108443,-0.074622,0.001739,-0.117505,0.075049,-0.990232,-0.024936,-0.004752,0.010313,54.795059,-36.535629,-16.362183,,,,,,,
1522136936.753475,-0.119163,-0.078732,-1.019773,-0.120983,0.015555,0.027209,-0.118513,0.078651,-0.989832,-0.016207,-0.009926,0.016810,49.445221,-37.264481,-19.286926,,,,,,,
1522136936.783443,-0.117268,-0.082405,-1.018427,-0.133796,0.076861,0.079343,-0.116602,0.082312,-0.989762,-0.009115,-0.042654,-0.002365,47.037964,-37.179993,-20.638428,,,,,,,
1522136936.813411,-0.113253,-0.087294,-1.017218,-0.172662,0.172855,0.040863,-0.112580,0.087184,-0.989810,-0.012237,-0.027095,-0.040952,42.159531,-36.709396,-21.992798,,,,,,,
1522136936.843380,-0.108644,-0.090862,-1.017342,-0.068049,0.119747,-0.000556,-0.107983,0.090737,-0.990003,0.001172,-0.047708,-0.065676,40.280243,-36.551910,-22.969360,,,,,,,
1522136936.873348,-0.107944,-0.090778,-1.017252,0.045505,-0.028240,0.001799,-0.107291,0.090654,-0.990086,-0.001550,-0.048753,-0.047420,36.685043,-36.385208,-22.446838,,,,,,,
1522136936.903316,-0.110633,-0.088051,-1.017060,0.105104,-0.096255,-0.019393,-0.109979,0.087938,-0.990036,0.016458,-0.025194,-0.023010,34.440079,-36.149673,-21.998901,,,,,,,
1522136936.933284,-0.112922,-0.085323,-1.017384,0.064669,-0.070620,-0.023712,-0.112272,0.085219,-0.990016,0.016370,-0.017333,-0.017751,31.377670,-35.834305,-20.426697,,,,,,,
1522136936.963253,-0.114751,-0.083785,-1.018143,0.030584,-0.070433,-0.038653,-0.114098,0.083687,-0.989938,0.011803,-0.007561,-0.008628,30.410187,-35.079956,-20.430176,,,,,,,
1522136936.993221,-0.117488,-0.083600,-1.019407,-0.038894,-0.087256,-0.038692,-0.116808,0.083503,-0.989637,0.016451,-0.030265,0.018614,30.654709,-34.478806,-18.182434,,,,,,,
1522136937.023189,-0.117854,-0.086733,-1.020406,-0.154646,0.075462,-0.017630,-0.117139,0.086625,-0.989330,0.024030,-0.027649,0.053600,31.784897,-34.183517,-17.808044,,,,,,,
1522136937.053157,-0.112030,-0.091486,-1.021796,-0.151685,0.221253,-0.049738,-0.111328,0.091358,-0.989575,0.054520,-0.020359,-0.006976,32.694870,-33.362320,-17.510925,,,,,,,
1522136937.083126,-0.108915,-0.092833,-1.023564,0.012870,0.022076,-0.041953,-0.108231,0.092700,-0.989794,0.022355,-0.015567,-0.023649,35.332199,-32.623367,-16.687561,,,,,,,
1522136937.113094,-0.109272,-0.090436,-1.024335,0.098039,-0.010132,-0.023750,-0.108609,0.090312,-0.989973,0.043774,-0.014705,-0.011751,36.540695,-31.728884,-16.765503,,,,,,,
1522136937.143062,-0.108377,-0.087806,-1.024262,0.061879,0.061970,0.011313,-0.107748,0.087693,-0.990303,0.038214,-0.018250,-0.025398,39.840652,-30.695467,-18.492981,,,,,,,
1522136937.173030,-0.105023,-0.086420,-1.024129,0.048275,0.097228,-0.011109,-0.104439,0.086312,-0.990779,0.053017,-0.027535,-0.042776,40.143188,-30.172274,-18.944946,,,,,,,
1522136937.202999,-0.103318,-0.085533,-1.025058,-0.012552,0.056215,-0.051599,-0.102758,0.085429,-0.991031,0.037526,-0.043040,-0.025235,42.088989,-28.833956,-21.874329,,,,,,,
1522136937.232967,-0.100177,-0.086583,-1.028204,-0.051096,0.151573,-0.151874,-0.099635,0.086475,-0.991259,0.028941,-0.021610,-0.001432,43.361801,-28.016420,-23.601990,,,,,,,
1522136937.262935,-0.095585,-0.086679,-1.033687,-0.022034,0.159225,-0.191292,-0.095081,0.086570,-0.991698,0.070011,-0.033225,-0.029115,43.810684,-26.820604,-25.781555,,,,,,,
1522136937.292903,-0.090084,-0.088640,-1.039944,-0.143168,0.241618,-0.230884,-0.089609,0.088524,-0.992035,0.063455,-0.016350,-0.092041,44.330994,-26.524233,-27.057373,,,,,,,
1522136937.322860,-0.084148,-0.093189,-1.048538,-0.178486,0.159232,-0.287311,-0.083684,0.093054,-0.992138,0.061178,0.009485,-0.076283,46.124435,-25.559999,-29.760315,,,,,,,
1522136937.352828,-0.083291,-0.095863,-1.057576,-0.065159,-0.033443,-0.278508,-0.082812,0.095717,-0.991958,0.038775,0.001940,-0.023255,44.771286,-25.105196,-31.037842,,,,,,,
1522136937.382796,-0.088402,-0.095937,-1.063751,0.000605,-0.221484,-0.154675,-0.087881,0.095790,-0.991514,0.026586,-0.001613,0.020048,45.285767,-25.034380,-32.912903,,,,,,,
1522136937.412765,-0.094857,-0.094424,-1.065966,0.069503,-0.183275,-0.023591,-0.094293,0.094284,-0.991070,0.047296,-0.008743,0.067745,45.413223,-25.263323,-36.286926,,,,,,,
1522136937.442733,-0.097370,-0.091247,-1.064956,0.133892,-0.033016,0.043435,-0.096812,0.091121,-0.991123,0.043711,-0.007258,0.056003,44.503372,-25.485506,-37.561462,,,,,,,
1522136937.472701,-0.095738,-0.087503,-1.063136,0.119473,0.084975,0.043302,-0.095226,0.087391,-0.991612,0.016964,-0.003864,-0.019680,43.583267,-26.008837,-40.034851,,,,,,,
1522136937.502669,-0.093154,-0.084293,-1.061584,0.106408,0.029724,0.045487,-0.092690,0.084193,-0.992129,0.036156,-0.016566,-0.065244,42.747498,-26.006884,-41.835266,,,,,,,
1522136937.532638,-0.094856,-0.081928,-1.060262,0.082360,-0.117761,0.024301,-0.094396,0.081836,-0.992165,0.012700,-0.023776,-0.044868,40.036484,-26.071413,-43.561340,,,,,,,
1522136937.562606,-0.098788,-0.080187,-1.060573,0.014232,-0.131073,-0.024743,-0.098310,0.080101,-0.991927,0.003813,-0.026223,-0.008608,38.303894,-25.840258,-45.213135,,,,,,,
1522136937.592574,-0.100263,-0.082016,-1.061833,-0.120688,0.018060,-0.027135,-0.099759,0.081924,-0.991633,0.044171,-0.022735,0.005137,35.757263,-24.555391,-46.794556,,,,,,,
1522136937.622542,-0.099430,-0.086547,-1.063215,-0.163229,0.033182,-0.046364,-0.098895,0.086439,-0.991336,0.016040,-0.018842,-0.012082,34.183792,-23.949053,-47.547791,,,,,,,
1522136937.652511,-0.098744,-0.090968,-1.065514,-0.147141,0.008932,-0.080419,-0.098176,0.090843,-0.991014,0.025209,-0.008247,-0.023482,31.797195,-22.064226,-48.456482,,,,,,,
1522136937.682479,-0.101002,-0.093849,-1.068450,-0.070911,-0.124149,-0.071701,-0.100387,0.093711,-0.990525,0.040817,-0.024192,0.025437,30.675827,-21.384706,-48.984802,,,,,,,
1522136937.712447,-0.105351,-0.094319,-1.069280,-0.007151,-0.110964,-0.003479,-0.104689,0.094179,-0.990035,0.018965,-0.018388,0.082229,27.538681,-20.095598,-48.991516,,,,,,,
1522136937.742415,-0.103568,-0.095771,-1.068076,-0.094901,0.166096,0.068628,-0.102909,0.095625,-0.990083,0.062825,-0.013227,0.038805,27.169373,-19.568865,-48.918762,,,,,,,
1522136937.772384,-0.095822,-0.100346,-1.066219,-0.180895,0.268346,0.064203,-0.095194,0.100178,-0.990405,0.031336,-0.022999,-0.046888,26.954697,-18.443056,-49.073425,,,,,,,
1522136937.802352,-0.089108,-0.105917,-1.065849,-0.167204,0.159276,0.005717,-0.088492,0.105719,-0.990451,0.037710,-0.010229,-0.082639,25.091583,-16.710573,-49.981262,,,,,,,
1522136937.832320,-0.087461,-0.108595,-1.066362,-0.037675,-0.018426,-0.006785,-0.086835,0.108382,-0.990309,0.062650,-0.051360,-0.037096,24.272293,-15.732576,-50.660645,,,,,,,
1522136937.862288,-0.089508,-0.107199,-1.065880,0.089999,-0.093262,0.013625,-0.088876,0.106994,-0.990279,0.044701,-0.046660,-0.025620,22.334015,-13.700289,-52.094727,,,,,,,
1522136937.892257,-0.091124,-0.103832,-1.066290,0.100288,-0.029011,-0.061017,-0.090508,0.103646,-0.990487,0.043205,-0.007942,-0.046988,20.240967,-12.641466,-52.699951,,,,,,,
1522136937.922225,-0.091973,-0.101732,-1.069282,0.034325,-0.031706,-0.107946,-0.091368,0.101557,-0.990625,0.024794,0.004690,-0.046698,17.107819,-10.003954,-54.287109,,,,,,,
1522136937.952193,-0.093515,-0.100522,-1.071574,0.031716,-0.069271,-0.051448,-0.092907,0.100352,-0.990604,0.042172,0.009724,-0.037411,15.169281,-8.945086,-54.142273,,,,,,,
1522136937.982161,-0.096606,-0.099020,-1.072291,0.060042,-0.138684,-0.014056,-0.095983,0.098859,-0.990461,0.050496,0.020663,-0.014879,9.941162,-6.072695,-55.281372,,,,,,,
1522136938.012130,-0.100577,-0.097322,-1.072126,0.051299,-0.137843,0.023217,-0.099933,0.097168,-0.990238,0.033282,0.004165,0.016437,7.255920,-4.410921,-55.589417,,,,,,,
1522136938.042098,-0.103672,-0.096119,-1.071438,0.045175,-0.084684,0.017848,-0.103008,0.095971,-0.990039,0.033444,-0.011544,0.042102,1.887299,-1.985582,-54.401794,,,,,,,
1522136938.072066,-0.105788,-0.094243,-1.070259,0.086770,-0.065796,0.040222,-0.105122,0.094103,-0.989997,0.023320,-0.031023,0.050605,-0.801636,-1.372652,-53.580566,,,,,,,
1522136938.102035,-0.105296,-0.092977,-1.068357,-0.006890,0.029866,0.067768,-0.104648,0.092843,-0.990166,0.048343,-0.020638,0.005150,-2.960342,-0.461748,-52.385315,,,,,,,
1522136938.132003,-0.102454,-0.096231,-1.067333,-0.161108,0.125048,0.035591,-0.101802,0.096083,-0.990153,0.032893,-0.023955,-0.049886,-6.825394,1.058943,-49.093323,,,,,,,
1522136938.161971,-0.099442,-0.102390,-1.067415,-0.232621,0.096707,0.008938,-0.098758,0.102211,-0.989848,0.018985,-0.030815,-0.062276,-8.983505,1.445829,-46.920959,,,,,,,
1522136938.191939,-0.096042,-0.109197,-1.067830,-0.197387,0.089274,-0.000635,-0.095323,0.108980,-0.989463,0.033189,-0.043383,-0.055169,-10.073212,2.729475,-43.176636,,,,,,,
1522136938.221908,-0.095641,-0.110412,-1.067798,0.070979,-0.045402,0.015687,-0.094914,0.110187,-0.989368,0.025105,-0.039448,-0.030224,-11.481766,2.888288,-40.702942,,,,,,,
1522136938.251876,-0.098935,-0.104279,-1.066677,0.263829,-0.160511,-0.005354,-0.098237,0.104090,-0.989704,0.052079,-0.015986,-0.021526,-13.251648,3.425367,-36.580933,,,,,,,
1522136938.281844,-0.103492,-0.096192,-1.067001,0.218466,-0.111071,-0.068308,-0.102829,0.096044,-0.990051,0.019928,-0.006398,-0.029999,-12.563309,3.499372,-34.480957,,,,,,,
1522136938.311814,-0.104389,-0.093000,-1.068659,0.033153,0.005120,-0.055772,-0.103749,0.092866,-0.990258,0.029775,0.009994,-0.004951,-12.534042,3.953367,-30.357727,,,,,,,
1522136938.341783,-0.104503,-0.092434,-1.069145,0.020833,-0.029409,0.024166,-0.103868,0.092302,-0.990299,0.026063,-0.006838,0.008273,-12.066360,4.553205,-28.409851,,,,,,,
1522136938.371751,-0.104501,-0.091801,-1.067988,0.032660,0.007642,0.040119,-0.103871,0.091672,-0.990357,0.029515,-0.001325,0.009171,-9.563568,5.669722,-25.638184,,,,,,,
1522136938.401719,-0.104492,-0.090732,-1.067284,0.033806,-0.005972,0.012424,-0.103873,0.090608,-0.990454,0.021537,-0.022858,0.007834,-8.879868,5.593214,-24.062500,,,,,,,
1522136938.431687,-0.102970,-0.091320,-1.067209,-0.060747,0.089954,0.004797,-0.102360,0.091193,-0.990558,0.022801,-0.029776,-0.007718,-8.423584,5.592207,-23.012329,,,,,,,
1522136938.461656,-0.100078,-0.094629,-1.067291,-0.136642,0.069954,0.004760,-0.099464,0.094488,-0.990544,0.042961,-0.027456,-0.024150,-5.564072,5.506071,-21.285522,,,,,,,
1522136938.491624,-0.098895,-0.098385,-1.068469,-0.116295,0.023500,-0.046318,-0.098256,0.098226,-0.990301,0.018361,-0.025213,-0.016809,-5.634857,5.207594,-20.084351,,,,,,,
1522136938.521592,-0.098868,-0.100297,-1.070143,-0.047060,-0.010711,-0.043028,-0.098211,0.100129,-0.990115,0.028890,-0.024018,0.006778,-3.159912,3.848707,-17.827637,,,,,,,
1522136938.551560,-0.099161,-0.100090,-1.070759,0.035844,-0.040993,0.002883,-0.098503,0.099923,-0.990107,0.034371,-0.029351,0.006968,-1.434662,3.466627,-17.150269,,,,,,,
1522136938.581529,-0.100464,-0.097858,-1.070091,0.072127,-0.017871,0.026328,-0.099815,0.097702,-0.990197,0.016762,-0.008408,0.015130,0.961105,1.733030,-14.967163,,,,,,,
1522136938.611497,-0.099128,-0.097952,-1.069266,-0.073690,0.077106,0.020794,-0.098492,0.097796,-0.990321,0.033672,-0.031695,-0.026052,3.209976,1.348356,-14.514465,,,,,,,
1522136938.641465,-0.096335,-0.101888,-1.068178,-0.141253,0.073724,0.074016,-0.095687,0.101712,-0.990201,0.013335,-0.046780,-0.035678,8.003189,0.576948,-14.359009,,,,,,,
1522136938.671403,-0.096349,-0.105031,-1.065861,-0.060713,-0.065656,0.069959,-0.095670,0.104838,-0.989877,-0.008074,-0.042887,0.006371,9.048050,0.197020,-14.581970,,,,,,,
1522136938.701371,-0.098538,-0.105250,-1.064690,0.017299,-0.088988,0.035943,-0.097835,0.105056,-0.989642,0.016688,-0.056564,0.048693,12.553268,-0.570772,-16.602173,,,,,,,
1522136938.731340,-0.099150,-0.105109,-1.062451,-0.017822,0.023205,0.111457,-0.098441,0.104915,-0.989597,0.030951,-0.077068,0.039218,14.721405,-0.581652,-17.726013,,,,,,,
1522136938.761308,-0.095410,-0.107165,-1.059171,-0.083321,0.172160,0.106999,-0.094719,0.106960,-0.989741,0.011970,-0.056835,0.005427,14.695297,-1.484377,-20.572388,,,,,,,
1522136938.791276,-0.088624,-0.110382,-1.056056,-0.120633,0.226189,0.143147,-0.087969,0.110158,-0.990013,0.022021,-0.042012,-0.043327,14.532410,-1.785295,-22.221313,,,,,,,
1522136938.821244,-0.081777,-0.115614,-1.050301,-0.214029,0.223654,0.236837,-0.081140,0.115357,-0.990004,0.009180,-0.077759,-0.046998,14.293152,-2.310717,-23.719360,,,,,,,
1522136938.851213,-0.073110,-0.123542,-1.043358,-0.268334,0.269414,0.247401,-0.072488,0.123228,-0.989727,0.031168,-0.078490,-0.050755,11.947098,-3.202181,-25.741882,,,,,,,
1522136938.881181,-0.064787,-0.131337,-1.037576,-0.233933,0.237925,0.177146,-0.064184,0.130960,-0.989307,0.046759,-0.109323,-0.047756,10.585327,-3.797029,-26.715210,,,,,,,
1522136938.911149,-0.058635,-0.135858,-1.034306,-0.082219,0.139466,0.071869,-0.058062,0.135440,-0.989082,0.038500,-0.116351,-0.067940,7.725403,-4.609453,-27.013367,,,,,,,
1522136938.941117,-0.057874,-0.135144,-1.033419,0.096496,-0.077321,0.010420,-0.057314,0.134733,-0.989223,0.040636,-0.111586,-0.069737,6.594162,-5.054674,-27.312134,,,,,,,
1522136938.971086,-0.064101,-0.129291,-1.033736,0.222970,-0.269580,-0.044700,-0.063522,0.128931,-0.989617,-0.006272,-0.077998,-0.048561,3.955963,-6.467638,-27.157776,,,,,,,
1522136939.001054,-0.071238,-0.122973,-1.035668,0.161683,-0.194641,-0.102360,-0.070640,0.122664,-0.989931,0.018913,-0.048445,-0.023482,2.074753,-7.358721,-26.705200,,,,,,,
1522136939.031022,-0.076311,-0.118450,-1.038828,0.143691,-0.156368,-0.099212,-0.075703,0.118174,-0.990103,0.039204,-0.048212,0.006384,-1.523834,-8.615206,-24.377014,,,,,,,
1522136939.060990,-0.081304,-0.112599,-1.040780,0.211912,-0.146103,-0.070410,-0.080700,0.112361,-0.990385,0.023831,-0.031504,-0.010149,-2.345947,-8.910524,-23.401184,,,,,,,
1522136939.090959,-0.084910,-0.105551,-1.042192,0.221795,-0.101402,-0.084299,-0.084336,0.105355,-0.990852,-0.000411,-0.011987,-0.023354,-3.765732,-10.101274,-20.547180,,,,,,,
1522136939.120927,-0.089473,-0.099051,-1.044013,0.197580,-0.234359,-0.058603,-0.088916,0.098889,-0.991118,0.019534,-0.023007,-0.010378,-3.991867,-10.849215,-19.494324,,,,,,,
1522136939.150895,-0.096768,-0.093860,-1.043709,0.128945,-0.187064,0.040392,-0.096192,0.093722,-0.990940,0.031830,-0.002291,0.044758,-5.116653,-11.592867,-18.216858,,,,,,,
1522136939.180863,-0.097538,-0.092683,-1.041750,-0.002497,0.041611,0.056048,-0.096965,0.092550,-0.990975,0.008098,0.011789,-0.009788,-5.712967,-12.937334,-15.361816,,,,,,,
1522136939.210832,-0.096296,-0.093804,-1.040359,-0.052947,-0.014589,0.058194,-0.095724,0.093666,-0.990991,0.019354,-0.016991,-0.021872,-6.832214,-13.081102,-14.161804,,,,,,,
1522136939.240800,-0.097518,-0.095561,-1.038882,-0.056270,-0.035876,0.063544,-0.096919,0.095416,-0.990708,0.012248,-0.046023,0.005951,-6.456711,-14.655077,-11.455261,,,,,,,
1522136939.270768,-0.097049,-0.097594,-1.037019,-0.052782,0.041609,0.075186,-0.096436,0.097439,-0.990558,0.021530,-0.046765,0.010989,-6.453522,-15.328447,-9.802612,,,,,,,
1522136939.300736,-0.095198,-0.098469,-1.034593,-0.001531,0.042547,0.075221,-0.094593,0.098310,-0.990650,0.016041,-0.059064,-0.007001,-6.977524,-16.898302,-7.021606,,,,,,,
1522136939.330680,-0.095289,-0.097134,-1.033204,0.061446,-0.036839,0.009282,-0.094697,0.096981,-0.990771,0.008149,-0.048123,-0.020216,-6.679626,-17.648745,-6.118408,,,,,,,
1522136939.360648,-0.095244,-0.095938,-1.033391,-0.001096,0.037845,-0.012147,-0.094663,0.095791,-0.990890,0.036954,-0.040386,-0.042710,-6.449158,-19.445879,-2.211121,,,,,,,
1522136939.390616,-0.093506,-0.097482,-1.033404,-0.104512,0.091101,0.005840,-0.092926,0.097328,-0.990904,0.010437,-0.022102,-0.051164,-6.820221,-19.817934,-0.934814,,,,,,,
1522136939.420585,-0.088872,-0.101453,-1.033671,-0.138496,0.125245,-0.000620,-0.088299,0.101279,-0.990932,0.058178,-0.016272,-0.071401,-5.463608,-20.871187,1.920044,,,,,,,
1522136939.450553,-0.089333,-0.103349,-1.033620,-0.010484,-0.092140,0.039130,-0.088738,0.103165,-0.990698,0.013039,-0.055603,-0.008677,-5.753815,-21.242617,4.171387,,,,,,,
1522136939.480521,-0.093738,-0.101279,-1.031028,0.125578,-0.175643,0.080863,-0.093122,0.101106,-0.990508,-0.017535,-0.052064,0.039397,-5.303055,-22.068148,5.674927,,,,,,,
1522136939.510489,-0.097578,-0.096889,-1.027715,0.143918,-0.112055,0.098924,-0.096966,0.096737,-0.990575,0.041165,-0.056225,0.050832,-3.715347,-22.372667,8.301941,,,,,,,
1522136939.540458,-0.097032,-0.095003,-1.024838,-0.005534,0.107333,0.080484,-0.096443,0.094860,-0.990808,0.009986,-0.067913,0.015283,-4.230850,-22.593386,10.252563,,,,,,,
1522136939.570426,-0.091230,-0.097742,-1.023489,-0.130829,0.196231,0.024894,-0.090669,0.097587,-0.991088,0.009126,-0.055198,-0.050355,-2.707047,-21.922396,13.100647,,,,,,,
1522136939.600394,-0.089153,-0.100557,-1.023420,-0.064477,-0.026957,0.007055,-0.088585,0.100388,-0.990997,0.006172,-0.061814,-0.028245,-1.199142,-21.852983,14.301147,,,,,,,
1522136939.630362,-0.090544,-0.100062,-1.023499,0.051943,-0.049352,-0.021611,-0.089968,0.099895,-0.990922,0.012636,-0.045024,0.000932,0.252502,-21.256075,17.749512,,,,,,,
1522136939.660331,-0.091017,-0.098302,-1.023893,0.024320,0.012164,0.004943,-0.090452,0.098143,-0.991053,0.030821,-0.035796,-0.012884,1.619568,-20.585497,19.472473,,,,,,,
1522136939.690299,-0.089766,-0.098784,-1.023227,-0.053579,0.054663,0.033611,-0.089208,0.098623,-0.991118,0.016729,-0.026983,-0.038133,5.702209,-19.026033,22.318298,,,,,,,
1522136939.720267,-0.087145,-0.100716,-1.022647,-0.063980,0.089878,0.013335,-0.086594,0.100546,-0.991157,0.004914,-0.027716,-0.052529,7.136169,-18.806353,23.443176,,,,,,,
1522136939.750235,-0.086437,-0.101232,-1.022325,0.016540,-0.036804,0.020967,-0.085888,0.101059,-0.991166,0.013241,-0.052536,-0.027999,10.907883,-17.397051,24.714355,,,,,,,
1522136939.780204,-0.088792,-0.099771,-1.020662,0.061911,-0.113709,0.059446,-0.088234,0.099606,-0.991107,0.005943,-0.044048,0.009417,14.067337,-16.586046,24.937744,,,,,,,
1522136939.810172,-0.090889,-0.097257,-1.019255,0.108173,-0.065814,0.032791,-0.090335,0.097104,-0.991166,0.007464,-0.047452,0.024827,16.025040,-15.994555,25.236328,,,,,,,
1522136939.840140,-0.092333,-0.094288,-1.018382,0.052991,-0.011352,0.014578,-0.091792,0.094148,-0.991317,0.017650,-0.040636,-0.002213,19.932205,-14.738039,24.333252,,,,,,,
1522136939.870108,-0.090218,-0.096061,-1.018147,-0.136593,0.102724,0.026052,-0.089680,0.095914,-0.991341,0.005619,-0.034390,-0.009010,22.780411,-14.152132,23.057373,,,,,,,
1522136939.900077,-0.086621,-0.101081,-1.017799,-0.179292,0.103890,0.026021,-0.086071,0.100909,-0.991165,0.009808,-0.040668,-0.016617,25.997726,-13.793489,21.182495,,,,,,,
1522136939.930045,-0.083658,-0.105386,-1.017617,-0.116365,0.094154,0.029270,-0.083097,0.105191,-0.990974,0.004591,-0.052289,-0.000985,28.238480,-13.505602,19.157471,,,,,,,
1522136939.960013,-0.081241,-0.105943,-1.017486,0.043676,0.033399,-0.001447,-0.080696,0.105744,-0.991113,0.024895,-0.035478,-0.046545,31.820282,-13.300097,15.783447,,,,,,,
1522136939.989982,-0.084255,-0.102721,-1.017775,0.115583,-0.163114,-0.037421,-0.083711,0.102540,-0.991200,0.015016,-0.034639,-0.037395,32.783066,-13.306444,13.758972,,,,,,,
1522136940.019950,-0.087846,-0.099546,-1.019187,0.070155,-0.076765,-0.057802,-0.087298,0.099381,-0.991212,0.004962,-0.008790,-0.013060,33.953293,-13.541292,9.185486,,,,,,,
1522136940.049918,-0.089492,-0.097815,-1.020425,0.042366,-0.049281,-0.028013,-0.088946,0.097659,-0.991237,0.019381,-0.001026,0.009746,35.291489,-13.324633,6.860291,,,,,,,
1522136940.079886,-0.090479,-0.096199,-1.019906,0.056062,-0.007327,0.044417,-0.089937,0.096051,-0.991305,0.008394,-0.003354,0.043597,34.817337,-13.626024,3.336243,,,,,,,
1522136940.109855,-0.088601,-0.095362,-1.017232,0.000561,0.077322,0.114619,-0.088084,0.095217,-0.991552,0.014780,-0.024569,-0.000605,34.578964,-13.926668,1.612305,,,,,,,
1522136940.139823,-0.084521,-0.098112,-1.013959,-0.150576,0.178672,0.111206,-0.084014,0.097955,-0.991638,0.006713,-0.038751,-0.038712,33.066544,-13.322954,-1.465881,,,,,,,
1522136940.169791,-0.079337,-0.104715,-1.011479,-0.230774,0.133277,0.096279,-0.078819,0.104524,-0.991394,0.004860,-0.054872,-0.048798,33.141983,-12.649340,-2.518494,,,,,,,
1522136940.199759,-0.077247,-0.110693,-1.009014,-0.167209,0.020526,0.092168,-0.076698,0.110467,-0.990916,0.011177,-0.070932,-0.013662,31.567444,-11.743685,-3.947937,,,,,,,
1522136940.229728,-0.076220,-0.112731,-1.006173,0.005731,0.030600,0.107215,-0.075663,0.112492,-0.990767,0.018137,-0.088094,-0.006974,30.143051,-10.239687,-6.354675,,,,,,,
1522136940.259696,-0.075069,-0.110776,-1.002717,0.081541,0.027258,0.103010,-0.074539,0.110550,-0.991071,0.035430,-0.067337,-0.005969,28.723038,-9.333971,-7.033997,,,,,,,
1522136940.289664,-0.073206,-0.109508,-1.000531,-0.022556,0.079977,0.046409,-0.072703,0.109289,-0.991347,0.002665,-0.049917,-0.032792,26.251373,-7.824800,-8.991272,,,,,,,
1522136940.319628,-0.067143,-0.113245,-0.999507,-0.187177,0.268507,0.041830,-0.066662,0.113003,-0.991356,0.036618,-0.045453,-0.058037,24.688263,-6.767550,-8.771240,,,,,,,
1522136940.349597,-0.060605,-0.118587,-0.999248,-0.152288,0.141192,-0.000629,-0.060142,0.118309,-0.991154,0.025627,-0.043678,-0.074505,20.122452,-5.847017,-8.777222,,,,,,,
1522136940.379565,-0.059995,-0.120017,-1.000327,0.020032,-0.056528,-0.049323,-0.059528,0.119729,-0.991020,0.023776,-0.032358,-0.048164,17.958481,-5.236452,-7.955811,,,,,,,
1522136940.409533,-0.065042,-0.116023,-1.002098,0.192269,-0.233236,-0.063942,-0.064559,0.115763,-0.991176,0.040863,-0.032816,-0.017979,13.842514,-5.141588,-6.608215,,,,,,,
1522136940.439501,-0.072552,-0.108236,-1.003812,0.271408,-0.225891,-0.080928,-0.072064,0.108024,-0.991533,0.019665,-0.017387,0.001817,12.117599,-5.583071,-5.857300,,,,,,,
1522136940.469470,-0.078158,-0.100649,-1.005047,0.214959,-0.156893,-0.049082,-0.077683,0.100479,-0.991902,0.026352,0.004578,-0.007122,10.402328,-6.097872,-3.381104,,,,,,,
1522136940.499438,-0.080416,-0.097110,-1.006348,0.029814,-0.021461,-0.052550,-0.079951,0.096957,-0.992072,0.015315,0.007276,-0.030435,8.981445,-6.764681,-1.579163,,,,,,,
1522136940.529406,-0.081079,-0.097877,-1.007630,-0.052747,-0.058695,-0.017410,-0.080603,0.097721,-0.991944,0.032202,-0.008731,0.004701,8.236603,-7.284594,0.147583,,,,,,,
1522136940.559374,-0.082382,-0.099357,-1.007831,-0.035593,-0.010046,0.010253,-0.081883,0.099194,-0.991693,0.001026,-0.010754,0.017694,8.911667,-8.860003,2.779236,,,,,,,
1522136940.589343,-0.082254,-0.099838,-1.007081,-0.004675,0.003549,0.030508,-0.081752,0.099672,-0.991656,0.025783,-0.026979,0.018115,8.238373,-10.129564,5.183960,,,,,,,
1522136940.619311,-0.080026,-0.101478,-1.006253,-0.107655,0.120768,0.019658,-0.079529,0.101304,-0.991671,0.031785,-0.033631,-0.034497,9.124786,-12.981081,7.670837,,,,,,,
1522136940.649279,-0.076312,-0.105695,-1.006723,-0.149077,0.110576,-0.029369,-0.075812,0.105499,-0.991525,-0.006387,-0.002837,-0.072623,9.945007,-14.183565,8.876038,,,,,,,
1522136940.679248,-0.076160,-0.107087,-1.008390,0.035863,-0.103267,-0.055665,-0.075650,0.106882,-0.991389,0.012998,-0.009073,-0.031285,9.629501,-16.955095,10.911926,,,,,,,
1522136940.709216,-0.081639,-0.102339,-1.009221,0.212634,-0.187786,-0.038391,-0.081122,0.102160,-0.991455,0.012457,-0.014254,0.011871,10.596390,-18.308550,11.817871,,,,,,,
1522136940.739184,-0.085689,-0.095569,-1.010684,0.205809,-0.096056,-0.084311,-0.085193,0.095424,-0.991784,0.015552,0.018956,-0.007132,12.092499,-19.963167,13.925232,,,,,,,
1522136940.769152,-0.087329,-0.091470,-1.012552,0.051301,0.002970,-0.057891,-0.086853,0.091343,-0.992024,0.016342,0.028805,-0.022304,12.469162,-20.788210,15.578735,,,,,,,
1522136940.799121,-0.086008,-0.091978,-1.014219,-0.032957,0.034968,-0.046259,-0.085539,0.091848,-0.992092,0.025679,0.039149,-0.029103,13.599396,-21.391420,17.456726,,,,,,,
1522136940.829089,-0.087718,-0.091320,-1.015502,0.063642,-0.088532,-0.046066,-0.087241,0.091194,-0.992004,0.009009,0.040154,0.016083,15.332138,-21.248171,18.507019,,,,,,,
1522136940.859057,-0.090150,-0.088348,-1.015866,0.116846,-0.075171,-0.000223,-0.089677,0.088233,-0.992055,0.017625,0.023568,0.036748,15.865067,-20.949755,19.331055,,,,,,,
1522136940.889025,-0.090372,-0.085681,-1.014735,0.068981,0.035035,0.060366,-0.089918,0.085577,-0.992266,0.021284,0.005259,0.022005,18.656174,-20.510347,21.280762,,,,,,,
1522136940.918994,-0.086843,-0.087006,-1.012895,-0.107549,0.175827,0.047308,-0.086405,0.086897,-0.992463,0.013835,0.003863,-0.040954,20.619263,-19.468752,21.727478,,,,,,,
1522136940.948962,-0.081106,-0.092229,-1.012704,-0.178777,0.184849,-0.002829,-0.080672,0.092098,-0.992476,0.005157,0.020619,-0.044343,24.456070,-18.735262,22.476501,,,,,,,
1522136940.978930,-0.076747,-0.095930,-1.012906,-0.062993,0.074989,0.015479,-0.076319,0.095783,-0.992472,0.029643,0.016659,-0.038442,26.262451,-18.143312,22.550049,,,,,,,
1522136941.008898,-0.077669,-0.094692,-1.012021,0.104931,-0.082754,0.025346,-0.077243,0.094551,-0.992519,0.053287,-0.019737,-0.018666,30.532867,-17.564257,20.824890,,,,,,,
1522136941.038867,-0.081085,-0.090796,-1.011365,0.141137,-0.132619,0.000918,-0.080662,0.090671,-0.992609,-0.003521,-0.021564,0.021844,31.651825,-17.720034,20.076050,,,,,,,
1522136941.068835,-0.084907,-0.085750,-1.011577,0.191444,-0.139980,-0.028867,-0.084494,0.085645,-0.992736,-0.002039,-0.016599,0.042556,34.037598,-17.209002,16.850159,,,,,,,
1522136941.098803,-0.087709,-0.081444,-1.012197,0.069263,-0.012136,-0.033346,-0.087306,0.081354,-0.992854,0.002834,-0.006677,0.025325,35.671600,-17.593370,14.827576,,,,,,,
1522136941.128771,-0.085787,-0.083471,-1.013225,-0.161057,0.070183,-0.020823,-0.085383,0.083374,-0.992853,0.058009,0.004135,-0.053991,36.099213,-17.898531,11.603943,,,,,,,
1522136941.158740,-0.084437,-0.089222,-1.014381,-0.184608,0.043730,-0.030395,-0.084001,0.089103,-0.992474,0.009508,0.020119,-0.044956,36.160126,-18.275530,9.880493,,,,,,,
1522136941.188708,-0.085507,-0.091321,-1.014597,0.028079,-0.087831,0.017840,-0.085047,0.091194,-0.992195,-0.019918,0.003777,-0.008934,37.273193,-18.432253,8.156738,,,,,,,
1522136941.218676,-0.088794,-0.087493,-1.012088,0.176831,-0.141957,0.108568,-0.088339,0.087381,-0.992250,0.007818,-0.037180,0.010530,36.129166,-18.580034,5.231689,,,,,,,
1522136941.248645,-0.091558,-0.083326,-1.008384,0.107885,-0.061993,0.092464,-0.091113,0.083230,-0.992356,0.006930,-0.030373,-0.000350,35.819122,-18.730059,3.807129,,,,,,,
1522136941.278613,-0.091628,-0.083564,-1.006678,-0.076184,0.004808,0.027259,-0.091181,0.083466,-0.992330,0.002115,-0.029191,0.001592,34.748734,-19.103014,1.033142,,,,,,,
1522136941.308591,-0.090184,-0.087692,-1.007317,-0.172723,0.091426,-0.016585,-0.089716,0.087580,-0.992109,-0.002997,-0.025370,0.002790,33.612701,-19.623873,0.059631,,,,,,,
1522136941.338559,-0.086113,-0.092468,-1.007848,-0.141672,0.150617,0.017474,-0.085639,0.092337,-0.992038,0.004066,-0.021689,-0.021146,31.501068,-19.840960,-1.515564,,,,,,,
1522136941.368528,-0.081195,-0.095540,-1.007247,-0.097951,0.158892,0.034545,-0.080736,0.095394,-0.992160,-0.002592,-0.029400,-0.078412,30.599609,-19.762270,-1.891357,,,,,,,
1522136941.398496,-0.077846,-0.098132,-1.006932,-0.074663,0.067718,-0.004766,-0.077394,0.097974,-0.992175,-0.003264,-0.027433,-0.076749,27.525330,-19.598589,-2.043518,,,,,,,
1522136941.428464,-0.079325,-0.098338,-1.007550,0.034438,-0.146013,-0.022582,-0.078859,0.098179,-0.992039,-0.007170,-0.038228,-0.039684,26.775345,-19.145967,-2.795715,,,,,,,
1522136941.458432,-0.083953,-0.095719,-1.007660,0.113364,-0.128363,0.008359,-0.083470,0.095573,-0.991916,-0.009318,-0.020698,-0.002316,23.493271,-17.031725,-3.330811,,,,,,,
1522136941.488401,-0.088179,-0.090766,-1.006620,0.197527,-0.167881,0.008456,-0.087702,0.090642,-0.992014,-0.006261,-0.007008,0.025400,22.461884,-15.301882,-3.113220,,,,,,,
1522136941.518369,-0.091654,-0.085119,-1.006858,0.148070,-0.067503,-0.043895,-0.091194,0.085016,-0.992197,-0.035820,0.002386,0.005076,20.294891,-14.542055,-3.042419,,,,,,,
1522136941.548337,-0.093842,-0.082387,-1.008212,0.049746,-0.094877,-0.047128,-0.093386,0.082294,-0.992223,0.002779,-0.025837,0.000112,17.713577,-10.929171,-1.783081,,,,,,,
1522136941.578305,-0.095373,-0.083042,-1.009342,-0.071552,0.017931,-0.029215,-0.094900,0.082946,-0.992025,-0.007745,-0.001907,0.009420,16.610779,-9.198397,-0.965576,,,,,,,
1522136941.608274,-0.094923,-0.084378,-1.010631,0.000910,-0.021495,-0.037653,-0.094444,0.084278,-0.991956,-0.006142,0.026150,0.006071,16.432556,-5.820436,1.195801,,,,,,,
1522136941.638242,-0.097938,-0.080879,-1.010688,0.173180,-0.124274,0.008408,-0.097461,0.080791,-0.991954,-0.040676,-0.029506,0.022304,16.226578,-4.318834,1.864685,,,,,,,
1522136941.668210,-0.100046,-0.076981,-1.009490,0.068872,-0.022159,0.032724,-0.099584,0.076905,-0.992052,0.010182,-0.033875,0.001147,15.518417,-1.613192,4.328552,,,,,,,
1522136941.698178,-0.098059,-0.079733,-1.008074,-0.178291,0.141834,0.070732,-0.097591,0.079649,-0.992034,-0.019413,-0.005582,-0.028336,15.466171,0.262724,4.996033,,,,,,,
1522136941.728147,-0.093050,-0.085814,-1.007207,-0.172810,0.126146,0.031335,-0.092574,0.085709,-0.992010,-0.041841,0.027465,-0.036707,16.549545,2.659407,6.562012,,,,,,,
1522136941.758115,-0.093287,-0.086821,-1.006866,0.061124,-0.096441,0.021072,-0.092801,0.086712,-0.991901,-0.020663,-0.027584,0.000462,16.410019,3.710035,6.557739,,,,,,,
1522136941.788083,-0.097681,-0.082647,-1.004916,0.168532,-0.142689,0.062753,-0.097193,0.082553,-0.991836,-0.027791,-0.041262,0.031478,18.079422,5.203260,7.302551,,,,,,,
1522136941.818051,-0.099233,-0.079867,-1.003432,0.030712,0.023712,0.019867,-0.098755,0.079783,-0.991908,-0.010422,-0.036387,0.017329,17.340851,5.807493,8.199768,,,,,,,
1522136941.848020,-0.097051,-0.080938,-1.004415,-0.061404,0.108394,-0.053801,-0.096582,0.080849,-0.992036,-0.042410,-0.022897,0.012009,16.827866,6.335920,9.322388,,,,,,,
1522136941.877988,-0.094706,-0.081937,-1.006309,-0.034798,0.064911,-0.075049,-0.094247,0.081846,-0.992178,-0.040976,-0.023328,-0.005609,17.358093,6.633909,9.696472,,,,,,,
1522136941.907956,-0.093558,-0.082778,-1.008760,-0.065915,0.039435,-0.067589,-0.093101,0.082684,-0.992217,0.002586,-0.014919,-0.019563,16.311005,6.564222,10.296265,,,,,,,
1522136941.937925,-0.090306,-0.087231,-1.010834,-0.212776,0.187268,-0.032692,-0.089841,0.087121,-0.992138,0.007336,0.017738,-0.042316,15.190430,5.970991,12.023071,,,,,,,
1522136941.967893,-0.084198,-0.093140,-1.012070,-0.163711,0.193430,-0.018813,-0.083734,0.093005,-0.992138,0.013726,0.036206,-0.076694,15.041641,5.822111,12.473572,,,,,,,
1522136941.997861,-0.082791,-0.094633,-1.011508,0.040840,-0.056264,0.056184,-0.082326,0.094492,-0.992116,-0.009593,-0.011804,-0.041500,13.849075,5.529203,14.199158,,,,,,,
1522136942.027829,-0.086891,-0.090630,-1.007858,0.192366,-0.207091,0.145948,-0.086425,0.090506,-0.992139,-0.021317,-0.047125,-0.002704,13.552994,5.606062,14.723694,,,,,,,
1522136942.057798,-0.092035,-0.085982,-1.002851,0.140277,-0.150682,0.151181,-0.091565,0.085876,-0.992089,0.005674,-0.061950,0.028344,14.013611,6.129881,15.621826,,,,,,,
1522136942.087766,-0.093181,-0.084632,-0.999570,-0.015240,0.049123,0.049640,-0.092713,0.084531,-0.992098,-0.046157,-0.049253,0.014727,13.347626,6.583632,16.369629,,,,,,,
1522136942.117734,-0.090982,-0.086638,-1.000196,-0.111958,0.033047,-0.048442,-0.090516,0.086530,-0.992129,-0.015152,-0.030881,-0.016676,14.121124,8.081572,17.789124,,,,,,,
1522136942.147702,-0.091148,-0.090946,-1.003456,-0.194885,0.037942,-0.111373,-0.090646,0.090821,-0.991733,-0.023231,-0.022019,0.017124,15.256393,9.201307,17.635132,,,,,,,
1522136942.177671,-0.085703,-0.097033,-1.007032,-0.218477,0.287499,-0.080742,-0.085195,0.096880,-0.991643,0.004934,0.001310,-0.015498,16.630142,11.445341,17.851868,,,,,,,
1522136942.207639,-0.079369,-0.100720,-1.008935,-0.051687,0.145527,-0.045325,-0.078884,0.100550,-0.991800,-0.017200,0.028433,-0.071677,17.613022,12.190992,17.924377,,,,,,,
1522136942.237607,-0.080505,-0.098589,-1.009633,0.126380,-0.128146,-0.028916,-0.080028,0.098429,-0.991921,-0.052601,0.019689,-0.015022,20.544617,13.526670,16.795471,,,,,,,
1522136942.267575,-0.080825,-0.095921,-1.010399,0.023664,0.088731,-0.005778,-0.080366,0.095773,-0.992153,0.020490,-0.035425,-0.038105,24.818924,14.630476,14.843201,,,,,,,
1522136942.297544,-0.078168,-0.097340,-1.009204,-0.046243,0.050205,0.058139,-0.077719,0.097187,-0.992227,-0.041254,-0.032520,-0.069175,27.062653,15.442976,12.441101,,,,,,,
1522136942.327508,-0.081795,-0.094993,-1.007649,0.195903,-0.279563,0.021369,-0.081336,0.094850,-0.992163,-0.014672,-0.032304,-0.045297,31.984192,15.790510,7.117188,,,,,,,
1522136942.357476,-0.095875,-0.084442,-1.007365,0.426817,-0.505071,-0.026185,-0.095387,0.084342,-0.991860,-0.071514,-0.045432,0.047570,33.465347,15.705839,4.118225,,,,,,,
1522136942.387444,-0.105867,-0.073595,-1.006099,0.278393,-0.222357,0.017110,-0.105384,0.073529,-0.991709,0.007453,-0.032407,0.083674,36.797256,15.309324,-2.403564,,,,,,,
1522136942.417413,-0.108512,-0.068592,-1.005056,0.089470,0.010927,0.002880,-0.108044,0.068538,-0.991780,-0.054920,0.014943,0.011922,38.645462,14.922194,-6.226013,,,,,,,
1522136942.447381,-0.105548,-0.067709,-1.005752,-0.003661,0.141106,-0.042068,-0.105111,0.067657,-0.992156,-0.025169,0.023880,-0.065690,40.021606,13.635008,-12.220215,,,,,,,
1522136942.477349,-0.103828,-0.067507,-1.006179,0.014493,-0.026175,0.016714,-0.103405,0.067456,-0.992349,-0.022831,-0.013943,-0.059302,40.294739,12.880552,-15.442078,,,,,,,
1522136942.507317,-0.105212,-0.067452,-1.005549,-0.004690,-0.029229,0.006039,-0.104780,0.067400,-0.992209,0.002653,0.002561,-0.012018,39.342239,11.453474,-21.811829,,,,,,,
1522136942.537286,-0.105461,-0.068546,-1.005090,-0.062197,0.034453,0.034713,-0.105018,0.068493,-0.992109,-0.017220,0.000279,0.005964,38.492081,10.554594,-24.508667,,,,,,,
1522136942.567254,-0.101593,-0.073164,-1.005278,-0.216133,0.172259,-0.014555,-0.101147,0.073099,-0.992182,-0.008320,0.004126,-0.006353,37.125015,10.333281,-26.983398,,,,,,,
1522136942.597222,-0.096442,-0.079377,-1.006087,-0.165023,0.175136,0.013176,-0.095989,0.079294,-0.992219,-0.046345,-0.031366,-0.016418,34.837723,9.214216,-31.330078,,,,,,,
1522136942.627191,-0.095524,-0.079659,-1.005050,0.129275,-0.119046,0.037135,-0.095076,0.079574,-0.992284,-0.007967,-0.050613,-0.001444,32.044128,8.250288,-32.827576,,,,,,,
1522136942.657159,-0.102113,-0.072272,-1.003478,0.287967,-0.222424,0.023509,-0.101669,0.072209,-0.992194,-0.073074,-0.044057,0.020148,27.735840,6.991240,-36.274719,,,,,,,
1522136942.687127,-0.107140,-0.065929,-1.002590,0.131528,-0.134737,0.000924,-0.106702,0.065881,-0.992106,-0.016909,-0.025308,0.020563,26.153992,6.847456,-37.174988,,,,,,,
1522136942.717095,-0.106762,-0.066874,-1.004106,-0.175319,0.146112,-0.085903,-0.106321,0.066825,-0.992084,-0.033068,0.003763,-0.009671,21.421539,6.642851,-38.076477,,,,,,,
1522136942.747064,-0.101796,-0.073623,-1.008163,-0.216928,0.131464,-0.104031,-0.101345,0.073557,-0.992128,-0.015064,-0.002665,-0.043028,19.703064,7.026030,-37.628906,,,,,,,
1522136942.777032,-0.104950,-0.074849,-1.009932,0.076656,-0.261899,-0.028827,-0.104464,0.074779,-0.991713,-0.031095,-0.003886,0.011702,15.056702,7.346998,-37.557495,,,,,,,
1522136942.807000,-0.114766,-0.068004,-1.009981,0.315508,-0.335810,-0.031760,-0.114249,0.067952,-0.991125,-0.023446,0.020610,0.053808,13.256790,7.355101,-37.558472,,,,,,,
1522136942.836968,-0.121942,-0.058487,-1.009337,0.249864,-0.151101,0.020206,-0.121432,0.058453,-0.990877,0.021060,-0.022855,0.051134,9.959488,6.996000,-36.508667,,,,,,,
1522136942.866937,-0.120515,-0.057592,-1.007896,-0.136090,0.207941,0.021691,-0.120024,0.057560,-0.991101,-0.046327,0.005230,-0.010761,7.492538,6.858671,-34.934326,,,,,,,
1522136942.896905,-0.109992,-0.068226,-1.009456,-0.458578,0.385450,-0.021356,-0.109515,0.068173,-0.991644,-0.054166,-0.002362,-0.068948,5.491531,6.871641,-30.960388,,,,,,,
1522136942.926873,-0.101508,-0.081225,-1.011443,-0.387942,0.198140,-0.008313,-0.100999,0.081136,-0.991572,0.005769,-0.028036,-0.057759,5.807434,7.247252,-28.936768,,,,,,,
1522136942.956841,-0.100260,-0.089211,-1.011460,-0.180974,-0.013101,0.042118,-0.099694,0.089092,-0.991021,-0.032615,-0.027081,-0.009101,5.742950,6.949797,-26.685669,,,,,,,
1522136942.986810,-0.099061,-0.091580,-1.010944,-0.025774,0.051422,0.026200,-0.098484,0.091452,-0.990927,0.016789,-0.005728,-0.024286,5.600555,5.004942,-22.177917,,,,,,,
1522136943.016778,-0.099480,-0.090557,-1.009116,0.061247,-0.016036,0.068952,-0.098909,0.090433,-0.990978,-0.058058,-0.046228,-0.041233,6.652817,4.102079,-20.298767,,,,,,,
1522136943.046746,-0.097853,-0.089388,-1.008288,0.028771,0.041931,-0.001463,-0.097307,0.089269,-0.991243,-0.013884,-0.034460,-0.054107,8.817612,1.544905,-17.737488,,,,,,,
1522136943.076714,-0.099233,-0.087679,-1.007563,0.069710,-0.075293,0.031719,-0.098690,0.087567,-0.991258,-0.010288,-0.036297,-0.016692,10.835648,0.261808,-16.756287,,,,,,,
1522136943.106683,-0.102359,-0.085222,-1.006732,0.095210,-0.147363,-0.005477,-0.101810,0.085119,-0.991155,-0.002866,-0.037558,0.012014,14.339569,-2.303209,-15.994324,,,,,,,
1522136943.136651,-0.106006,-0.082222,-1.007406,0.077523,-0.071691,-0.030080,-0.105450,0.082129,-0.991027,-0.075687,-0.018332,0.027755,15.453934,-3.957247,-15.012146,,,,,,,
1522136943.166619,-0.107180,-0.080960,-1.007909,0.005180,-0.013092,-0.028055,-0.106624,0.080871,-0.991005,-0.024876,-0.010864,0.008217,17.898026,-7.417620,-14.397034,,,,,,,
1522136943.196588,-0.107025,-0.080154,-1.009104,0.056583,-0.007740,-0.052526,-0.106478,0.080068,-0.991086,-0.017011,0.002436,-0.005176,20.732193,-9.229982,-14.013367,,,,,,,
1522136943.226556,-0.110644,-0.075813,-1.010431,0.189282,-0.166426,-0.045887,-0.110102,0.075740,-0.991030,-0.023001,0.001073,0.022051,23.026901,-12.539858,-13.549072,,,,,,,
1522136943.256524,-0.115496,-0.070379,-1.010162,0.151873,-0.124147,-0.001202,-0.114954,0.070321,-0.990878,-0.002020,0.019889,0.045581,24.508698,-14.047045,-14.067261,,,,,,,
1522136943.286492,-0.115581,-0.068439,-1.010280,-0.009356,0.102618,-0.006871,-0.115054,0.068386,-0.991002,-0.032956,0.023945,0.001516,25.839615,-15.329073,-15.111450,,,,,,,
1522136943.316457,-0.110120,-0.071357,-1.010163,-0.144662,0.211092,0.030205,-0.109618,0.071297,-0.991413,-0.020128,-0.002815,-0.051800,26.781158,-17.285631,-17.428162,,,,,,,
1522136943.346425,-0.105779,-0.076732,-1.009389,-0.197481,0.110204,0.039860,-0.105271,0.076657,-0.991484,0.023301,-0.023388,-0.047044,26.173523,-17.508791,-18.327576,,,,,,,
1522136943.376393,-0.101750,-0.083733,-1.008741,-0.233565,0.163396,0.044041,-0.101218,0.083635,-0.991342,-0.015069,-0.019868,-0.039023,24.511261,-17.428484,-20.503723,,,,,,,
1522136943.406361,-0.098147,-0.088883,-1.007561,-0.115647,0.057748,0.066610,-0.097602,0.088766,-0.991259,-0.004464,-0.033163,-0.023054,23.012222,-17.196978,-20.730408,,,,,,,
1522136943.436330,-0.097016,-0.090507,-1.006895,-0.022472,0.039943,-0.003627,-0.096467,0.090384,-0.991224,0.006273,-0.054251,-0.017962,20.179703,-15.534075,-20.588501,,,,,,,
1522136943.466267,-0.095561,-0.091036,-1.006852,-0.015922,0.081304,0.004864,-0.095020,0.090911,-0.991315,-0.045239,-0.045333,-0.025500,19.584824,-14.931551,-20.741150,,,,,,,
1522136943.496236,-0.094578,-0.090030,-1.006780,0.075491,-0.046199,-0.027976,-0.094054,0.089909,-0.991499,0.007644,-0.016926,-0.048662,17.588364,-13.195696,-18.874084,,,,,,,
1522136943.526204,-0.098705,-0.084725,-1.008521,0.229020,-0.181016,-0.102309,-0.098191,0.084624,-0.991563,-0.001800,0.003572,-0.011046,16.476883,-12.065340,-18.504150,,,,,,,
1522136943.556172,-0.106185,-0.076089,-1.010528,0.282908,-0.257933,-0.061708,-0.105679,0.076015,-0.991490,-0.012226,-0.007275,0.024327,15.671249,-10.486116,-17.910889,,,,,,,
1522136943.586140,-0.112277,-0.069929,-1.009545,0.126024,-0.145505,0.023306,-0.111767,0.069872,-0.991275,0.003308,0.030790,0.036868,15.307480,-9.359484,-17.915588,,,,,,,
1522136943.616109,-0.111769,-0.070747,-1.009823,-0.128726,0.132782,-0.021913,-0.111258,0.070688,-0.991274,0.002997,0.024527,0.000384,14.420242,-8.080492,-17.921143,,,,,,,
1522136943.646077,-0.107254,-0.075335,-1.010442,-0.126932,0.088997,0.006909,-0.106745,0.075264,-0.991433,0.005015,-0.021751,-0.026084,14.070374,-4.929979,-18.983948,,,,,,,
1522136943.676045,-0.107938,-0.077224,-1.009815,-0.021019,-0.069784,0.033787,-0.107408,0.077147,-0.991217,-0.017409,-0.021193,-0.022928,12.888992,-2.974825,-19.142334,,,,,,,
1522136943.706013,-0.109390,-0.078356,-1.008933,-0.058246,-0.031434,0.036900,-0.108837,0.078276,-0.990973,-0.009662,-0.014235,-0.005854,10.595459,1.083982,-20.659729,,,,,,,
1522136943.735982,-0.107423,-0.082618,-1.007928,-0.201742,0.130306,0.054750,-0.106850,0.082524,-0.990844,-0.023612,-0.018590,-0.039597,9.413132,3.488234,-21.719971,,,,,,,
1522136943.765950,-0.102483,-0.088505,-1.007724,-0.145901,0.140070,0.003649,-0.101903,0.088389,-0.990859,-0.015009,-0.013301,-0.073487,4.503433,8.159269,-22.791077,,,,,,,
1522136943.795918,-0.103242,-0.087835,-1.007314,0.149372,-0.163698,0.033994,-0.102661,0.087722,-0.990840,0.010285,-0.049606,-0.046391,1.445892,10.497038,-23.776978,,,,,,,
1522136943.825886,-0.110318,-0.080484,-1.005541,0.280413,-0.245740,0.018195,-0.109738,0.080397,-0.990703,-0.028018,-0.029005,0.000271,-7.071289,13.835264,-23.869568,,,,,,,
1522136943.855855,-0.117149,-0.072260,-1.004751,0.257055,-0.246566,-0.007393,-0.116576,0.072197,-0.990554,-0.021959,0.013603,0.029067,-10.731171,15.351728,-23.877441,,,,,,,
1522136943.885823,-0.122774,-0.066332,-1.004675,0.136014,-0.118628,-0.025723,-0.122197,0.066284,-0.990290,-0.006389,0.005783,0.070749,-18.779449,18.691008,-20.819885,,,,,,,
1522136943.915791,-0.122458,-0.063802,-1.005162,0.068483,0.080143,-0.008934,-0.121903,0.063759,-0.990492,-0.049865,-0.000663,0.043211,-22.944046,20.662367,-18.204834,,,,,,,
1522136943.945760,-0.121357,-0.060401,-1.004107,0.155212,-0.052151,0.034956,-0.120838,0.060364,-0.990835,0.000935,-0.018235,-0.002283,-26.962372,22.258070,-15.588257,,,,,,,
1522136943.975728,-0.125718,-0.056414,-1.002857,0.082466,-0.113403,0.008317,-0.125187,0.056384,-0.990529,-0.068386,-0.015827,0.057638,-32.434769,26.114195,-9.081360,,,,,,,
1522136944.005696,-0.121580,-0.059729,-1.003765,-0.268909,0.294699,-0.027517,-0.121065,0.059693,-0.990848,-0.005507,0.017379,-0.029538,-33.362671,28.671965,-5.492065,,,,,,,
1522136944.035664,-0.110553,-0.072746,-1.005534,-0.535480,0.419362,0.015860,-0.110036,0.072682,-0.991266,0.026327,0.005611,-0.092779,-35.900253,32.516525,2.666321,,,,,,,
1522136944.065633,-0.099378,-0.088112,-1.007279,-0.437614,0.295061,-0.022301,-0.098830,0.087998,-0.991206,0.027098,-0.020020,-0.089040,-36.762863,33.874374,6.635437,,,,,,,
1522136944.095601,-0.097304,-0.093420,-1.008270,0.014385,-0.065388,0.002897,-0.096727,0.093284,-0.990930,-0.028166,-0.028236,-0.045539,-34.822372,36.197693,13.677124,,,,,,,
1522136944.125569,-0.102326,-0.087318,-1.007023,0.294456,-0.209647,0.018170,-0.101759,0.087207,-0.990979,0.004316,-0.039584,-0.010135,-33.519699,37.169815,16.673889,,,,,,,
1522136944.155537,-0.106457,-0.079185,-1.006123,0.222502,-0.092409,-0.005448,-0.105923,0.079103,-0.991223,0.020718,-0.033250,-0.031040,-29.429474,37.906891,22.148010,,,,,,,
1522136944.185506,-0.109517,-0.073112,-1.007228,0.222816,-0.136371,-0.102358,-0.109006,0.073047,-0.991353,0.006681,-0.006045,-0.059825,-27.844452,37.377304,24.700928,,,,,,,
1522136944.215474,-0.119741,-0.061573,-1.009314,0.492512,-0.474894,-0.109281,-0.119228,0.061534,-0.990958,-0.020634,0.010289,-0.018335,-20.403641,36.522888,28.758057,,,,,,,
1522136944.245442,-0.135764,-0.043481,-1.008733,0.626290,-0.536417,-0.019620,-0.135220,0.043467,-0.989861,-0.029087,0.034429,0.050149,-15.978500,35.904022,29.812744,,,,,,,
1522136944.275410,-0.147293,-0.028061,-1.006670,0.405509,-0.244778,-0.013669,-0.146703,0.028058,-0.988782,-0.017832,0.063770,0.065107,-12.157837,34.837891,30.868896,,,,,,,
1522136944.305379,-0.146319,-0.024140,-1.006032,-0.056049,0.187625,0.011117,-0.145755,0.024137,-0.989026,0.011905,0.030306,-0.016513,-5.424850,32.633423,31.706116,,,,,,,
1522136944.335325,-0.140817,-0.030129,-1.006852,-0.224872,0.138217,-0.006004,-0.140289,0.030124,-0.989652,-0.028657,0.006863,-0.037982,-1.837433,31.192610,32.013611,,,,,,,
1522136944.365293,-0.140189,-0.035734,-1.007229,-0.140401,-0.021686,0.036842,-0.139641,0.035727,-0.989557,-0.047920,0.003046,0.038645,4.579987,28.238218,31.503723,,,,,,,
1522136944.395261,-0.138804,-0.039093,-1.004970,-0.081590,0.100814,0.125200,-0.138253,0.039083,-0.989625,-0.021628,-0.024374,0.018098,7.860825,26.498167,31.212341,,,,,,,
1522136944.425230,-0.132770,-0.042557,-1.001483,-0.120324,0.257208,0.112224,-0.132260,0.042544,-0.990301,-0.025882,-0.025043,-0.045298,11.430710,24.155989,30.098450,,,,,,,
1522136944.455198,-0.125442,-0.047383,-1.000534,-0.188303,0.214527,0.008866,-0.124972,0.047366,-0.991029,-0.022336,-0.033282,-0.100402,12.842346,22.949415,29.878967,,,,,,,
1522136944.485166,-0.121529,-0.053256,-1.001255,-0.175140,0.065668,0.017550,-0.121058,0.053231,-0.991217,-0.032217,-0.045723,-0.068674,15.670700,20.462217,30.415344,,,,,,,
1522136944.515135,-0.122080,-0.054599,-1.001124,0.074183,-0.080323,-0.010891,-0.121596,0.054572,-0.991078,-0.013109,-0.011664,-0.025234,17.689178,19.853056,30.343750,,,,,,,
1522136944.545103,-0.127928,-0.047462,-1.000968,0.313804,-0.250709,-0.042511,-0.127436,0.047444,-0.990711,0.006464,0.000133,0.028004,20.971085,18.038298,30.352661,,,,,,,
1522136944.575071,-0.133973,-0.037963,-1.001422,0.273879,-0.136745,-0.067158,-0.133477,0.037953,-0.990325,-0.001823,0.001384,0.050963,23.437271,17.651381,29.530457,,,,,,,
1522136944.605039,-0.135454,-0.031657,-1.002817,0.161228,-0.003724,-0.053530,-0.134972,0.031652,-0.990343,-0.030082,0.011180,0.030184,28.889557,16.499983,27.662781,,,,,,,
1522136944.635008,-0.135610,-0.027948,-1.003326,0.098174,-0.013184,-0.048229,-0.135142,0.027944,-0.990432,0.005595,0.014536,0.017577,30.744400,15.290281,26.318542,,,,,,,
1522136944.664976,-0.136325,-0.025656,-1.004930,0.038693,0.026467,-0.073890,-0.135859,0.025653,-0.990396,-0.017736,0.032742,-0.000235,32.451767,14.605803,24.522156,,,,,,,
1522136944.694944,-0.133390,-0.027130,-1.006665,-0.120366,0.095524,-0.017597,-0.132946,0.027127,-0.990752,0.048824,0.017139,-0.024232,35.337341,13.088789,20.479614,,,,,,,
1522136944.724912,-0.131969,-0.031495,-1.006968,-0.146436,0.049592,0.027176,-0.131521,0.031489,-0.990813,-0.029703,0.013356,-0.007799,35.772049,12.410398,19.057556,,,,,,,
1522136944.754881,-0.130967,-0.035730,-1.005882,-0.113813,-0.004970,0.069869,-0.130509,0.035722,-0.990803,-0.015624,-0.013719,0.003453,36.942429,11.426847,15.762085,,,,,,,
