timestamp(unix),attitude_roll(radians),attitude_pitch(radians),attitude_yaw(radians),rotation_rate_x(radians/s),rotation_rate_y(radians/s),rotation_rate_z(radians/s),gravity_x(G),gravity_y(G),gravity_z(G),user_acc_x(G),user_acc_y(G),user_acc_z(G),magnetic_field_x(microteslas),magnetic_field_y(microteslas),magnetic_field_z(microteslas),latitude(degree),longitude(degree),altitude(meter),speed(m/s),course(degree),timestamp(unix),User Mark
1522314284.525835,-0.285112,-0.121063,1.724522,0.988663,-0.271107,0.069516,-0.279206,0.120768,-0.952606,-0.109970,-0.002680,0.278152,9.664444,-25.114830,-17.177734,,,,,,,1
1522314284.555803,-0.286957,-0.091426,1.739805,0.890884,0.058195,0.269438,-0.281853,0.091298,-0.955104,0.043266,0.017741,0.148280,10.571945,-25.941292,-14.548950,,,,,,,1
,,,,,,,,,,,,,,,,25.299911,51.440923,15.563639,4.960000,291.093750,1522314283.996514,1
1522314284.585796,-0.280779,-0.093395,1.748367,-0.582709,0.223544,0.245798,-0.275896,0.093259,-0.956652,0.193957,0.009539,0.120745,9.741440,-26.088234,-15.223755,,,,,,,1
1522314284.615765,-0.278243,-0.115140,1.747272,-0.501829,-0.033673,0.074569,-0.272848,0.114886,-0.955173,0.141378,-0.049655,0.091083,8.764511,-26.009285,-15.674561,,,,,,,1
1522314284.645733,-0.284689,-0.106974,1.742930,0.756315,-0.243946,-0.390976,-0.279253,0.106770,-0.954263,-0.033827,-0.123936,-0.104667,9.293869,-26.160683,-14.698730,,,,,,,1
1522314284.675701,-0.284164,-0.081226,1.739798,0.567161,0.276699,-0.318125,-0.279431,0.081136,-0.956731,0.065350,0.106974,-0.348078,9.143890,-26.609261,-13.947021,,,,,,,1
1522314284.705669,-0.282381,-0.085932,1.727224,-0.778994,-0.198916,-0.355947,-0.277615,0.085826,-0.956851,-0.017337,0.096044,-0.518247,8.395706,-26.380974,-14.023315,,,,,,,1
1522314284.735638,-0.299513,-0.112665,1.710410,-0.908823,-0.620184,-0.392916,-0.293185,0.112427,-0.949422,-0.223386,0.115066,-0.199900,9.147308,-25.635323,-15.000916,,,,,,,1
1522314284.765606,-0.320683,-0.117873,1.696840,0.041337,-0.646265,-0.195049,-0.313027,0.117601,-0.942435,-0.143470,0.104598,0.096411,7.937729,-25.781227,-16.350891,,,,,,,1
1522314284.795574,-0.332016,-0.111636,1.696007,0.185557,-0.179283,-0.013211,-0.323921,0.111404,-0.939502,0.017921,0.043122,0.271472,7.711243,-25.705589,-16.726318,,,,,,,1
1522314284.825543,-0.333421,-0.112278,1.700071,-0.068138,-0.088688,0.190021,-0.325217,0.112042,-0.938978,0.193549,0.068027,0.454222,10.109787,-25.716606,-16.950134,,,,,,,1
1522314284.855511,-0.333948,-0.116334,1.704814,-0.052178,0.092175,0.152560,-0.325560,0.116071,-0.938370,0.237517,0.100130,0.640579,9.360718,-25.488472,-17.176392,,,,,,,1
1522314284.885479,-0.330323,-0.104370,1.703868,0.753762,-0.076171,-0.371974,-0.322584,0.104180,-0.940790,-0.171694,-0.158624,0.101083,7.724869,-24.430519,-16.581421,,,,,,,1
1522314284.915447,-0.347887,-0.064464,1.695831,1.238250,-0.594189,-0.772789,-0.340204,0.064420,-0.938142,-0.432471,-0.271527,-0.422087,8.177429,-24.581871,-15.905640,,,,,,,1
1522314284.945446,-0.351692,-0.044988,1.684331,-0.148290,0.268114,-0.508306,-0.344138,0.044973,-0.937841,-0.150506,0.033488,-0.018946,9.671967,-25.038750,-16.053040,,,,,,,1
1522314284.975414,-0.332341,-0.060352,1.667658,-0.946048,0.851120,-0.171722,-0.325663,0.060315,-0.943560,0.150904,0.081302,0.529757,11.475021,-24.597084,-16.278931,,,,,,,1
1522314285.005383,-0.311248,-0.084378,1.655925,-0.483932,0.522991,-0.214736,-0.305157,0.084278,-0.948565,0.182751,0.107250,0.640780,12.979721,-23.629677,-17.106995,,,,,,,1
1522314285.035351,-0.321104,-0.069771,1.648564,0.696638,-0.523889,-0.451483,-0.314847,0.069714,-0.946578,-0.220447,-0.147855,-0.398728,8.406555,-23.533958,-16.959717,,,,,,,1
,,,,,,,,,,,,,,,,25.299942,51.440874,15.612886,5.230000,296.718750,1522314284.996500,1
1522314285.065319,-0.331885,-0.066835,1.639165,-0.846714,-0.099046,-0.180275,-0.325098,0.066785,-0.943319,-0.454229,0.004535,-1.449381,5.703079,-23.971642,-16.809265,,,,,,,1
1522314285.095287,-0.323439,-0.098748,1.628184,-1.102617,0.501286,0.068262,-0.316280,0.098588,-0.943529,0.043362,0.177276,-0.318297,7.346237,-23.755531,-18.309326,,,,,,,1
1522314285.125256,-0.311416,-0.124769,1.619427,-0.665437,0.263929,-0.029209,-0.304025,0.124446,-0.944501,0.163599,0.086507,0.343869,8.322083,-23.085899,-19.286560,,,,,,,1
1522314285.155224,-0.318450,-0.130296,1.618028,0.109203,-0.518171,0.003051,-0.310441,0.129928,-0.941671,-0.041091,-0.125579,-0.076853,8.477631,-22.711311,-18.987915,,,,,,,1
1522314285.185192,-0.338542,-0.117845,1.622385,0.688533,-0.639541,-0.019827,-0.329809,0.117573,-0.936697,-0.013651,-0.104389,-0.182703,8.481079,-22.635872,-18.538269,,,,,,,1
1522314285.215160,-0.340654,-0.095544,1.630439,0.783449,0.350193,0.035714,-0.332579,0.095399,-0.938237,0.165694,-0.136048,0.181493,9.388687,-22.414055,-17.638672,,,,,,,1
1522314285.245129,-0.318566,-0.075304,1.635946,0.575396,0.894903,-0.135474,-0.312317,0.075233,-0.946994,0.096268,-0.157051,0.042697,9.692429,-22.265053,-17.264099,,,,,,,1
1522314285.275097,-0.302139,-0.069585,1.626125,-0.371338,0.079389,-0.486982,-0.296843,0.069529,-0.952391,-0.237001,-0.228724,-0.430635,9.018021,-21.662910,-18.166870,,,,,,,1
1522314285.305065,-0.323463,-0.094888,1.609164,-1.264876,-0.899595,-0.124379,-0.316421,0.094746,-0.943875,-0.182556,-0.131397,-0.070606,9.021896,-20.688911,-19.145752,,,,,,,1
1522314285.335033,-0.334569,-0.132851,1.600212,-1.247432,0.133489,0.290155,-0.325469,0.132461,-0.936228,-0.019136,-0.045501,0.355692,9.024857,-19.715065,-20.274658,,,,,,,1
1522314285.365002,-0.319808,-0.157161,1.595789,-0.440384,0.520090,0.031439,-0.310510,0.156515,-0.937596,-0.095557,-0.093008,0.164647,8.650589,-18.739861,-21.778748,,,,,,,1
1522314285.394970,-0.318257,-0.161341,1.596484,-0.037726,-0.312382,0.103970,-0.308847,0.160642,-0.937447,-0.013144,-0.072309,-0.013664,9.779602,-18.519661,-21.479065,,,,,,,1
1522314285.424938,-0.329840,-0.172294,1.599289,-0.567050,-0.273103,0.296400,-0.319096,0.171443,-0.932086,0.161641,0.040669,0.322467,12.097763,-19.429710,-21.099243,,,,,,,1
1522314285.454907,-0.326262,-0.196344,1.604040,-0.663198,0.360460,0.445934,-0.314346,0.195085,-0.929047,0.346542,0.155791,0.632538,12.167526,-19.730400,-21.473022,,,,,,,1
1522314285.484875,-0.311317,-0.203256,1.610324,0.275994,0.329885,0.079053,-0.300007,0.201860,-0.932335,0.089970,0.216887,0.010521,9.925385,-18.895378,-21.552490,,,,,,,1
1522314285.514843,-0.323080,-0.174337,1.602337,1.224670,-0.664147,-1.095586,-0.312676,0.173455,-0.933888,-0.248817,0.009574,-0.476619,8.430099,-18.513512,-21.404785,,,,,,,1
1522314285.544811,-0.345302,-0.146542,1.580967,-0.041114,-0.385058,-0.743060,-0.334853,0.146018,-0.930888,-0.431382,0.223398,-0.353628,6.629272,-18.505547,-21.555725,,,,,,,1
1522314285.574762,-0.344173,-0.146659,1.560944,-0.175129,0.278529,-0.469971,-0.333796,0.146134,-0.931249,-0.283284,0.178420,0.024739,7.225647,-18.508842,-22.155396,,,,,,,1
1522314285.604730,-0.338893,-0.143569,1.552019,0.009604,0.123181,-0.201173,-0.329023,0.143077,-0.933420,-0.249896,0.066900,0.117883,8.808640,-17.391487,-22.684082,,,,,,,1
1522314285.634698,-0.338784,-0.142978,1.550411,0.039043,0.023911,0.004592,-0.328949,0.142492,-0.933535,-0.220169,0.010020,0.084216,8.583374,-17.465401,-22.608887,,,,,,,1
1522314285.664666,-0.329622,-0.139511,1.553418,0.272379,0.461742,0.067196,-0.320540,0.139059,-0.936972,-0.100221,-0.036230,0.119696,9.790359,-17.170158,-21.934448,,,,,,,1
1522314285.694635,-0.314816,-0.128117,1.560773,0.479716,0.391434,0.170774,-0.307103,0.127767,-0.943060,0.048925,-0.061880,0.198233,12.572769,-17.555794,-20.056519,,,,,,,1
1522314285.724603,-0.307754,-0.116253,1.570544,0.545713,0.069540,0.135988,-0.300874,0.115991,-0.946584,0.153657,0.010291,0.116765,12.121628,-18.302711,-19.003723,,,,,,,1
1522314285.754571,-0.307111,-0.097835,1.574297,0.570679,-0.027844,-0.230432,-0.300861,0.097679,-0.948652,0.010562,-0.029381,-0.120851,11.447556,-18.748772,-18.102295,,,,,,,1
1522314285.784539,-0.309123,-0.088886,1.570487,-0.025776,-0.057917,-0.124296,-0.303023,0.088769,-0.948840,-0.107607,0.054877,-0.130079,10.844879,-18.971153,-18.176758,,,,,,,1
1522314285.814508,-0.308843,-0.092110,1.565129,-0.119868,0.080870,-0.183111,-0.302668,0.091980,-0.948647,-0.150213,0.055726,-0.125800,10.468994,-18.744972,-18.702820,,,,,,,1
1522314285.844476,-0.303608,-0.091751,1.561567,-0.069721,0.268698,-0.013840,-0.297708,0.091622,-0.950250,0.002145,0.030860,0.024270,11.217316,-19.048119,-18.476257,,,,,,,1
1522314285.874444,-0.296382,-0.097624,1.561596,-0.176155,0.177144,0.047974,-0.290671,0.097469,-0.951846,0.087225,0.017506,-0.077299,12.126724,-18.601387,-17.652527,,,,,,,1
1522314285.904412,-0.294958,-0.100300,1.559224,-0.085223,0.045141,-0.101002,-0.289238,0.100132,-0.952006,0.075798,-0.032825,-0.170828,11.823303,-18.900093,-17.726501,,,,,,,1
1522314285.934381,-0.292304,-0.103178,1.554939,-0.182068,0.099648,-0.112843,-0.286626,0.102995,-0.952490,0.108068,-0.001920,-0.065073,12.578964,-18.378426,-17.653198,,,,,,,1
1522314285.964349,-0.289817,-0.106456,1.549572,-0.096782,0.055971,-0.126591,-0.284159,0.106255,-0.952871,0.071878,0.024406,0.062139,13.253784,-18.306602,-17.803223,,,,,,,1
1522314285.994317,-0.292683,-0.106763,1.546746,-0.024486,-0.179450,-0.067703,-0.286879,0.106560,-0.952022,0.029875,0.064460,0.107036,12.048737,-18.901039,-17.651367,,,,,,,1
1522314286.024285,-0.298610,-0.105821,1.543431,0.015271,-0.211951,-0.144359,-0.292546,0.105623,-0.950400,-0.075221,-0.000246,-0.116861,11.902802,-18.450447,-17.728271,,,,,,,1
,,,,,,,,,,,,,,,,25.299973,51.440832,15.853878,5.210000,299.531250,1522314285.996489,1
1522314286.054254,-0.308804,-0.104205,1.540508,0.015194,-0.378249,-0.068540,-0.302271,0.104016,-0.947530,-0.103201,-0.034757,-0.039485,11.831528,-17.850517,-18.105713,,,,,,,1
1522314286.084222,-0.314384,-0.104699,1.540621,-0.060986,-0.059243,0.076005,-0.307538,0.104507,-0.945779,-0.058276,-0.035522,0.095865,10.855057,-17.771492,-18.481506,,,,,,,1
1522314286.114190,-0.312507,-0.111423,1.543071,-0.260269,0.069559,0.115148,-0.305538,0.111193,-0.945665,-0.018406,0.005995,0.058824,11.084686,-17.397377,-18.332886,,,,,,,1
1522314286.144159,-0.314297,-0.120244,1.538899,-0.391118,-0.073129,-0.098976,-0.306915,0.119955,-0.944147,-0.004684,-0.112417,-0.067038,11.612350,-16.950050,-18.634399,,,,,,,1
1522314286.174127,-0.315560,-0.132727,1.531645,-0.551445,0.097453,-0.122709,-0.307619,0.132338,-0.942262,0.063021,-0.077192,-0.096465,10.561951,-16.945412,-18.709961,,,,,,,1
1522314286.204095,-0.314745,-0.149627,1.519251,-0.719718,0.085757,-0.213393,-0.306115,0.149069,-0.940251,0.020425,-0.050787,-0.115245,11.539581,-16.050850,-19.763000,,,,,,,1
1522314286.234063,-0.316440,-0.169679,1.507362,-0.770061,-0.138602,-0.172722,-0.306716,0.168866,-0.936701,-0.109254,0.012561,-0.031148,11.317276,-15.600151,-20.065002,,,,,,,1
1522314286.264032,-0.324100,-0.182780,1.499557,-0.337552,-0.178989,-0.022120,-0.313151,0.181763,-0.932147,-0.033132,0.007461,0.094531,10.934341,-15.899254,-20.888916,,,,,,,1
1522314286.294000,-0.326855,-0.185444,1.498506,-0.023626,-0.101577,0.039841,-0.315561,0.184383,-0.930819,0.051416,0.051563,0.208315,11.309464,-15.751167,-21.114380,,,,,,,1
1522314286.323968,-0.328741,-0.181611,1.498571,0.278798,0.026203,-0.106037,-0.317542,0.180615,-0.930884,0.015922,0.054188,0.172034,11.532822,-16.051949,-20.888000,,,,,,,1
1522314286.353936,-0.326235,-0.171226,1.494096,0.313730,0.073608,-0.211544,-0.315792,0.170390,-0.933404,-0.096378,0.034566,-0.078407,10.937042,-15.674202,-20.814880,,,,,,,1
1522314286.383905,-0.327052,-0.167357,1.487932,-0.114342,-0.057660,-0.131809,-0.316764,0.166576,-0.933763,-0.107034,0.090092,-0.119933,10.407867,-16.046883,-20.888611,,,,,,,1
1522314286.413873,-0.328581,-0.172451,1.482552,-0.277550,0.055970,-0.062792,-0.317913,0.171598,-0.932462,-0.070636,0.032565,-0.094256,10.787033,-15.448891,-21.190857,,,,,,,1
1522314286.443841,-0.327244,-0.179918,1.476229,-0.252363,0.063093,-0.177860,-0.316246,0.178949,-0.931647,-0.141884,0.004782,-0.077921,11.013214,-15.374840,-21.116028,,,,,,,1
1522314286.473809,-0.327531,-0.184104,1.470380,-0.161124,-0.013941,-0.134034,-0.316270,0.183066,-0.930838,-0.037032,-0.001517,0.094153,11.542847,-15.002068,-20.967224,,,,,,,1
1522314286.503778,-0.330816,-0.184070,1.467217,0.088872,-0.123518,-0.053818,-0.319327,0.183032,-0.929800,0.044837,-0.031269,0.205008,12.067810,-14.779823,-21.342834,,,,,,,1
1522314286.533746,-0.331584,-0.175069,1.467330,0.420188,0.072947,-0.153932,-0.320565,0.174176,-0.931075,0.037179,-0.025021,0.103209,11.312912,-15.451103,-21.040588,,,,,,,1
1522314286.563704,-0.329613,-0.162025,1.465462,0.270574,-0.033566,-0.217860,-0.319438,0.161318,-0.933775,-0.047215,-0.021349,-0.153368,11.390762,-15.525871,-20.440247,,,,,,,1
1522314286.593672,-0.336437,-0.156658,1.459879,0.028516,-0.226215,-0.238093,-0.326084,0.156018,-0.932377,-0.096554,0.018741,-0.144390,10.860703,-15.898689,-20.664001,,,,,,,1
1522314286.623641,-0.340381,-0.155296,1.453708,-0.097887,-0.005321,-0.173420,-0.329828,0.154672,-0.931284,-0.162939,0.026251,-0.073401,10.937790,-15.599205,-20.815186,,,,,,,1
1522314286.653609,-0.342394,-0.159518,1.447270,-0.265111,-0.070269,-0.098876,-0.331481,0.158843,-0.929994,-0.177720,-0.014250,0.020677,11.539230,-14.778038,-21.943176,,,,,,,1
1522314286.683577,-0.342000,-0.167781,1.444518,-0.278863,0.123255,0.041556,-0.330662,0.166995,-0.928857,-0.113887,-0.052814,0.081094,10.189133,-14.921730,-21.718262,,,,,,,1
1522314286.713546,-0.338715,-0.171388,1.443812,0.038238,0.066454,-0.005019,-0.327407,0.170550,-0.929364,-0.108292,-0.117038,0.040265,11.018875,-14.175926,-22.170837,,,,,,,1
1522314286.743514,-0.338356,-0.168070,1.445169,0.103121,0.022701,0.001451,-0.327259,0.167280,-0.930010,-0.015850,-0.091153,0.079867,12.295486,-14.331139,-21.644531,,,,,,,1
1522314286.773482,-0.339625,-0.167204,1.443640,-0.085614,-0.009276,-0.071102,-0.328488,0.166426,-0.929730,-0.021457,-0.086287,0.037121,11.323227,-14.326317,-21.195068,,,,,,,1
1522314286.803450,-0.343074,-0.169301,1.439762,-0.166071,-0.100393,-0.078540,-0.331574,0.168493,-0.928261,-0.021346,-0.096396,0.099526,12.144745,-14.405464,-21.644287,,,,,,,1
1522314286.833419,-0.344890,-0.172981,1.435608,-0.180369,0.047324,-0.075503,-0.333047,0.172119,-0.927068,-0.058173,-0.082871,0.099858,11.924393,-13.804695,-21.871887,,,,,,,1
1522314286.863387,-0.343471,-0.176436,1.431061,-0.193138,0.034706,-0.092535,-0.331529,0.175522,-0.926974,-0.148192,-0.070725,-0.088728,10.573990,-13.798698,-21.947571,,,,,,,1
1522314286.893355,-0.345760,-0.180986,1.426442,-0.229961,-0.028202,-0.047753,-0.333376,0.179999,-0.925452,-0.173384,-0.057441,-0.036203,11.022476,-13.726097,-22.322632,,,,,,,1
1522314286.923323,-0.344001,-0.191168,1.422797,-0.501697,0.179106,0.032824,-0.331112,0.190005,-0.924263,-0.100315,-0.058093,0.015526,11.624069,-13.204399,-22.924377,,,,,,,1
1522314286.953292,-0.341070,-0.204512,1.417674,-0.448159,0.134823,-0.035287,-0.327525,0.203089,-0.922758,-0.104879,-0.040674,-0.048418,11.029343,-12.901344,-22.550903,,,,,,,1
1522314286.983260,-0.341907,-0.212264,1.412523,-0.278963,0.007954,-0.036096,-0.327759,0.210674,-0.920973,-0.030014,-0.062801,0.018430,11.848312,-13.055779,-23.299866,,,,,,,1
1522314287.013228,-0.341521,-0.219133,1.408849,-0.226337,0.106500,-0.012728,-0.326911,0.217384,-0.919714,0.015205,-0.058494,0.170004,12.450821,-12.758568,-23.375793,,,,,,,1
1522314287.043196,-0.339394,-0.219633,1.404054,0.116369,0.067579,-0.041192,-0.324918,0.217871,-0.920304,-0.057101,-0.070853,0.073426,11.703857,-12.679832,-23.001465,,,,,,,1
,,,,,,,,,,,,,,,,25.299994,51.440777,15.890959,5.290000,300.585938,1522314286.996477,1
1522314287.073165,-0.337685,-0.212645,1.397163,0.191310,0.102500,-0.048622,-0.323842,0.211047,-0.922272,-0.070415,-0.081377,-0.041519,11.330063,-12.603065,-22.926941,,,,,,,1
1522314287.103133,-0.334904,-0.210789,1.392583,-0.038481,0.055234,-0.044490,-0.321403,0.209231,-0.923538,-0.150154,-0.102969,-0.182007,11.032913,-12.226891,-23.078613,,,,,,,1
1522314287.133101,-0.336420,-0.210200,1.384356,0.051500,-0.068535,-0.003810,-0.322844,0.208655,-0.923166,-0.160798,-0.121070,-0.115180,10.430405,-12.524101,-23.002747,,,,,,,1
1522314287.163069,-0.337320,-0.212169,1.384486,-0.064728,-0.032124,-0.001807,-0.323538,0.210581,-0.922485,-0.156351,-0.105814,-0.006012,10.584137,-12.149803,-23.004150,,,,,,,1
1522314287.193038,-0.337084,-0.211204,1.384768,0.140690,0.021790,-0.035801,-0.323387,0.209637,-0.922753,-0.100823,-0.125317,0.049767,11.859070,-11.930916,-23.379395,,,,,,,1
1522314287.223006,-0.335581,-0.203137,1.387122,0.239862,0.075222,0.035619,-0.322546,0.201743,-0.924805,0.052313,-0.131827,0.132248,11.703568,-12.754753,-22.926147,,,,,,,1
1522314287.252974,-0.330987,-0.202641,1.389092,-0.079083,0.166221,0.055518,-0.318327,0.201257,-0.926371,0.007582,-0.088098,-0.027654,11.333969,-12.527565,-22.402222,,,,,,,1
1522314287.282942,-0.328499,-0.207828,1.387624,-0.289835,-0.000745,-0.005189,-0.315680,0.206335,-0.926160,-0.077981,-0.098563,-0.209949,11.856995,-12.455376,-22.852295,,,,,,,1
1522314287.312911,-0.330521,-0.218485,1.383149,-0.367530,-0.013937,-0.064910,-0.316821,0.216751,-0.923387,-0.072767,-0.054855,0.009447,11.405655,-12.453575,-23.077515,,,,,,,1
1522314287.342879,-0.330384,-0.226418,1.378503,-0.231730,0.033524,-0.062723,-0.316126,0.224488,-0.921775,-0.059713,-0.061677,0.081855,11.330658,-12.228600,-23.453491,,,,,,,1
1522314287.372847,-0.333412,-0.225694,1.375998,0.145475,-0.133170,-0.063345,-0.318970,0.223783,-0.920967,-0.087372,-0.108487,0.167060,10.954315,-12.227135,-23.678650,,,,,,,1
1522314287.402816,-0.332724,-0.223587,1.378208,0.030570,0.129572,0.087619,-0.318489,0.221729,-0.921630,-0.081597,-0.050037,0.150237,11.558487,-11.854790,-23.604797,,,,,,,1
1522314287.432784,-0.328941,-0.218822,1.381063,0.339101,0.031620,0.006960,-0.315337,0.217080,-0.923817,-0.092972,-0.072991,-0.063686,11.254761,-12.228416,-23.603455,,,,,,,1
1522314287.462752,-0.329924,-0.209331,1.383758,0.189503,-0.015705,-0.010153,-0.316899,0.207806,-0.925415,-0.065273,-0.071300,-0.144974,11.711639,-12.079567,-22.703857,,,,,,,1
1522314287.492720,-0.329744,-0.210259,1.383323,-0.133146,-0.054256,-0.003965,-0.316670,0.208713,-0.925289,-0.135021,-0.055729,-0.271275,10.889664,-11.775871,-22.705505,,,,,,,1
1522314287.522689,-0.334578,-0.218887,1.380570,-0.463570,-0.124904,0.034224,-0.320536,0.217143,-0.922012,-0.054388,-0.046245,0.026183,10.732330,-12.150764,-23.304077,,,,,,,1
1522314287.552657,-0.335530,-0.236600,1.375992,-0.627264,0.063406,0.058427,-0.320096,0.234399,-0.917930,-0.022494,-0.050378,0.332618,11.852921,-12.006783,-24.279053,,,,,,,1
1522314287.582643,-0.334836,-0.244114,1.373704,0.190722,-0.027116,-0.049568,-0.318872,0.241697,-0.916462,-0.095114,-0.084074,0.254567,11.183792,-11.328911,-24.432129,,,,,,,1
1522314287.612611,-0.334799,-0.217833,1.380096,1.175227,-0.041061,-0.079707,-0.320814,0.216114,-0.922157,-0.070726,-0.083912,-0.021538,11.256851,-12.153206,-23.378784,,,,,,,1
1522314287.642580,-0.332972,-0.194797,1.388075,0.325606,-0.019972,0.094381,-0.320671,0.193567,-0.927201,-0.111106,-0.084498,-0.256927,10.208710,-12.372810,-22.703430,,,,,,,1
1522314287.672548,-0.331160,-0.199600,1.390054,-0.220333,0.095343,0.057630,-0.318685,0.198277,-0.926890,-0.214625,-0.073216,-0.258397,9.758438,-12.445702,-22.628357,,,,,,,1
1522314287.702516,-0.332058,-0.204906,1.388106,-0.235623,-0.086764,-0.032761,-0.319170,0.203475,-0.925596,-0.095412,-0.094283,0.063093,11.931381,-12.156303,-23.453491,,,,,,,1
1522314287.732484,-0.334725,-0.215336,1.384872,-0.360756,-0.055031,0.034233,-0.320922,0.213675,-0.922687,0.015808,-0.101279,0.270984,11.409546,-11.928810,-23.304626,,,,,,,1
1522314287.762453,-0.334534,-0.216963,1.386478,0.146413,0.021889,0.097405,-0.320631,0.215265,-0.922419,-0.004930,-0.115259,0.114329,11.704742,-12.455070,-23.227356,,,,,,,1
1522314287.792421,-0.331292,-0.210455,1.389717,0.258207,0.091280,0.012175,-0.318088,0.208904,-0.924759,-0.056912,-0.137615,-0.078735,11.557297,-12.154472,-23.303650,,,,,,,1
1522314287.822389,-0.330522,-0.204065,1.392036,0.287658,-0.053035,-0.027081,-0.317803,0.202652,-0.926247,-0.146095,-0.152191,-0.190590,11.264359,-11.852486,-22.630005,,,,,,,1
1522314287.852357,-0.332680,-0.193949,1.393934,0.254448,-0.108033,-0.052620,-0.320454,0.192736,-0.927449,-0.164272,-0.165667,-0.265818,10.136124,-12.446953,-22.178162,,,,,,,1
1522314287.882326,-0.338085,-0.197663,1.392150,-0.378331,-0.198260,0.006671,-0.325222,0.196379,-0.925022,-0.159809,-0.078016,-0.100704,9.982086,-12.671562,-22.477356,,,,,,,1
1522314287.912324,-0.340669,-0.212256,1.389377,-0.537177,0.040126,0.165065,-0.326620,0.210665,-0.921379,-0.029276,-0.147403,0.172142,10.802979,-12.451302,-23.527771,,,,,,,1
1522314287.942293,-0.335906,-0.228756,1.392247,-0.320413,0.184329,0.284419,-0.321038,0.226766,-0.919517,0.016320,-0.118642,0.230125,11.108353,-12.002541,-23.379456,,,,,,,1
1522314287.972261,-0.331221,-0.224937,1.399074,0.508407,0.020005,0.085956,-0.317006,0.223045,-0.921823,0.006047,-0.182228,-0.082449,11.860718,-11.855766,-23.229675,,,,,,,1
1522314288.002229,-0.332847,-0.211848,1.405979,0.332642,-0.109308,0.101939,-0.319430,0.210267,-0.923987,-0.046460,-0.194550,-0.131173,10.583405,-12.449409,-22.627930,,,,,,,1
1522314288.032198,-0.329568,-0.212053,1.410543,-0.114654,0.162641,0.120511,-0.316385,0.210468,-0.924989,-0.090597,-0.149295,-0.135055,10.284164,-12.373070,-22.628418,,,,,,,1
,,,,,,,,,,,,,,,,25.300065,51.440706,15.827014,6.930000,309.023438,1522314287.996464,1
1522314288.062166,-0.329550,-0.214046,1.409760,-0.014733,-0.123356,-0.043224,-0.316233,0.212415,-0.924595,-0.145025,-0.186185,-0.091518,11.406403,-12.378578,-23.077820,,,,,,,1
1522314288.092134,-0.331854,-0.217246,1.409947,-0.173049,-0.006138,0.116374,-0.318138,0.215541,-0.923217,-0.010994,-0.186153,0.224655,10.955383,-12.526466,-23.002441,,,,,,,1
1522314288.122102,-0.330814,-0.221038,1.412226,0.056684,-0.009629,0.078189,-0.316911,0.219242,-0.922768,-0.028655,-0.139942,0.151543,10.880234,-12.451271,-23.152771,,,,,,,1
1522314288.152071,-0.330475,-0.216031,1.416502,0.242570,0.031255,0.092136,-0.316950,0.214355,-0.923902,-0.030676,-0.138366,0.112791,11.183502,-12.077721,-23.229126,,,,,,,1
1522314288.182039,-0.326387,-0.209739,1.422578,0.275824,0.110618,0.129367,-0.313596,0.208204,-0.926449,-0.061190,-0.109938,-0.048252,9.753052,-12.895821,-22.776550,,,,,,,1
1522314288.212007,-0.324420,-0.199843,1.427299,0.399808,-0.031091,-0.015291,-0.312415,0.198515,-0.928972,-0.115991,-0.142821,-0.159514,9.901703,-13.345970,-22.249695,,,,,,,1
1522314288.241975,-0.323194,-0.194108,1.429982,0.038966,0.074456,0.066361,-0.311632,0.192892,-0.930418,-0.099623,-0.123220,-0.097551,10.279236,-13.047752,-22.325745,,,,,,,1
1522314288.271944,-0.322662,-0.194475,1.432066,0.042680,-0.018187,0.093096,-0.311115,0.193251,-0.930517,-0.037762,-0.123549,-0.040858,9.752609,-13.345161,-22.099731,,,,,,,1
1522314288.301912,-0.320194,-0.193477,1.434955,0.096719,0.091313,0.064268,-0.308878,0.192273,-0.931464,-0.083258,-0.136090,-0.137780,9.754257,-13.270012,-21.950073,,,,,,,1
1522314288.331880,-0.320219,-0.189656,1.438860,0.163130,-0.063141,0.094308,-0.309130,0.188521,-0.932147,-0.061826,-0.160522,-0.040128,10.729065,-13.199547,-22.099854,,,,,,,1
1522314288.361848,-0.318733,-0.187209,1.443691,0.094089,0.080094,0.149521,-0.307888,0.186117,-0.933041,-0.004718,-0.189307,0.061733,10.205597,-13.271812,-21.724854,,,,,,,1
1522314288.391817,-0.314788,-0.186450,1.447862,0.018594,0.131407,0.133425,-0.304249,0.185371,-0.934382,-0.048305,-0.222252,0.061427,10.433136,-13.197548,-21.425049,,,,,,,1
1522314288.421785,-0.312425,-0.182771,1.451617,0.239359,-0.011010,0.058085,-0.302247,0.181755,-0.935741,-0.122771,-0.198219,-0.088581,11.478912,-13.577324,-21.497986,,,,,,,1
1522314288.451753,-0.315050,-0.170838,1.455469,0.397531,-0.050272,-0.005690,-0.305353,0.170008,-0.936940,-0.057547,-0.200358,-0.016734,10.953644,-13.874489,-21.047058,,,,,,,1
1522314288.481721,-0.312534,-0.158960,1.458413,0.319380,0.154920,0.006830,-0.303594,0.158291,-0.939561,-0.047328,-0.106777,0.039063,10.947357,-14.549400,-20.969360,,,,,,,1
1522314288.511690,-0.310849,-0.148284,1.461564,0.218331,0.054961,0.052676,-0.302510,0.147741,-0.941626,0.024816,-0.074758,0.051001,11.994919,-14.928886,-20.742310,,,,,,,1
1522314288.541658,-0.308802,-0.143946,1.464269,0.053816,0.056300,0.071731,-0.300774,0.143449,-0.942845,0.011101,-0.071046,0.051396,11.845840,-15.152687,-20.216492,,,,,,,1
1522314288.571624,-0.309330,-0.143074,1.467694,0.061623,-0.043973,0.125110,-0.301310,0.142587,-0.942805,0.015376,-0.071328,0.109523,11.386276,-15.751213,-20.814331,,,,,,,1
1522314288.601593,-0.310583,-0.137359,1.472344,0.318014,-0.082434,0.063539,-0.302735,0.136927,-0.943187,-0.054443,-0.102458,0.000911,11.765747,-15.527550,-20.440063,,,,,,,1
1522314288.631561,-0.314020,-0.128031,1.477147,0.342365,-0.175712,0.022095,-0.306356,0.127681,-0.943315,-0.159007,-0.094112,-0.149611,10.121521,-15.219704,-19.992126,,,,,,,1
1522314288.661529,-0.319342,-0.119915,1.481866,0.117922,-0.118410,0.114563,-0.311688,0.119628,-0.942624,-0.163746,-0.107711,-0.102145,10.044281,-15.444359,-19.991211,,,,,,,1
1522314288.691497,-0.320869,-0.117016,1.485332,0.108636,-0.062014,0.103859,-0.313234,0.116749,-0.942472,-0.128904,-0.091115,-0.091616,9.669586,-15.367744,-20.066772,,,,,,,1
1522314288.721466,-0.321460,-0.115465,1.488057,-0.038466,0.040084,0.145194,-0.313848,0.115209,-0.942458,0.009115,-0.155767,0.095808,10.118378,-15.669472,-19.765259,,,,,,,1
1522314288.751434,-0.318562,-0.123055,1.490944,-0.199286,0.097001,0.117310,-0.310833,0.122745,-0.942506,-0.044056,-0.126773,0.128037,10.638702,-15.597694,-20.665344,,,,,,,1
1522314288.781402,-0.317939,-0.123885,1.493687,0.067419,-0.000082,0.076060,-0.310214,0.123568,-0.942602,-0.034452,-0.201022,-0.013804,10.642441,-15.447350,-20.290894,,,,,,,1
1522314288.811370,-0.318371,-0.124158,1.494753,-0.106570,-0.053459,0.021641,-0.310611,0.123839,-0.942436,-0.073697,-0.227019,-0.127953,9.443710,-15.591499,-19.840942,,,,,,,1
1522314288.841339,-0.319781,-0.130554,1.493443,-0.248480,-0.023411,0.030028,-0.311684,0.130184,-0.941226,-0.154625,-0.198681,-0.174528,9.143250,-15.365608,-20.291992,,,,,,,1
1522314288.871307,-0.318519,-0.137923,1.492526,-0.286420,0.133653,0.071402,-0.310186,0.137486,-0.940682,-0.132929,-0.154393,0.021263,9.517487,-15.217659,-20.667419,,,,,,,1
1522314288.901275,-0.315256,-0.146753,1.492516,-0.277335,0.049505,0.098126,-0.306727,0.146227,-0.940498,-0.045446,-0.096605,0.053169,9.291595,-15.216805,-20.817566,,,,,,,1
1522314288.931243,-0.314457,-0.149871,1.493679,-0.019842,0.083965,0.092957,-0.305833,0.149311,-0.940304,-0.007354,-0.135242,0.028653,8.914047,-15.290398,-21.117432,,,,,,,1
1522314288.961212,-0.312131,-0.149152,1.496626,0.023720,0.036064,0.090899,-0.303678,0.148600,-0.941115,-0.008456,-0.148890,-0.027040,8.770798,-14.839378,-20.744324,,,,,,,1
1522314288.991180,-0.313299,-0.153641,1.497185,-0.352000,0.007553,0.046961,-0.304568,0.153037,-0.940116,-0.032590,-0.119147,0.027320,9.370193,-14.991920,-20.593384,,,,,,,1
1522314289.021148,-0.312709,-0.162218,1.492633,-0.349975,0.095437,-0.060744,-0.303599,0.161508,-0.939012,0.014521,-0.116754,0.203508,10.043930,-14.396156,-21.795410,,,,,,,1
1522314289.051116,-0.309404,-0.168518,1.487850,-0.081852,0.127659,-0.056299,-0.300177,0.167721,-0.939022,-0.033105,-0.116559,0.141339,9.071518,-14.316490,-21.496216,,,,,,,1
,,,,,,,,,,,,,,,,25.300136,51.440660,15.885578,8.070000,315.703125,1522314288.996452,1
1522314289.081085,-0.306878,-0.164402,1.489462,0.272766,0.062212,0.061227,-0.298011,0.163663,-0.940428,-0.103494,-0.098553,-0.127047,8.323792,-14.312752,-21.121643,,,,,,,1
1522314289.111053,-0.305407,-0.156650,1.495756,0.283608,-0.043562,0.141248,-0.297000,0.156010,-0.942047,-0.137509,-0.060536,-0.317063,7.649734,-14.309563,-20.971924,,,,,,,1
1522314289.141021,-0.306822,-0.154091,1.500452,0.076662,-0.081915,0.075081,-0.298452,0.153482,-0.942003,-0.128123,-0.036874,-0.159605,8.472458,-14.538261,-20.970642,,,,,,,1
1522314289.170989,-0.306559,-0.151164,1.502997,0.116916,0.040457,0.036627,-0.298339,0.150589,-0.942506,-0.020051,-0.056610,0.118104,8.918396,-14.990181,-20.893555,,,,,,,1
1522314289.200958,-0.306195,-0.145384,1.505182,0.260749,-0.038457,0.026155,-0.298253,0.144873,-0.943428,0.045506,-0.076269,0.223152,9.366608,-15.441750,-20.441589,,,,,,,1
1522314289.230926,-0.304980,-0.141519,1.508722,-0.015714,0.090112,0.124916,-0.297272,0.141047,-0.944317,0.068116,-0.121821,0.198376,9.594437,-15.292549,-20.217041,,,,,,,1
1522314289.260894,-0.302718,-0.146129,1.511614,-0.086566,-0.022199,0.102605,-0.294939,0.145610,-0.944356,-0.105910,-0.151484,-0.239756,8.543427,-15.437752,-20.141968,,,,,,,1
1522314289.290863,-0.306896,-0.146992,1.512954,-0.042182,-0.210937,0.028245,-0.298844,0.146463,-0.942996,-0.190261,-0.177851,-0.325055,8.474564,-14.687675,-20.370056,,,,,,,1
1522314289.320831,-0.309425,-0.149780,1.512495,-0.160645,0.009499,0.003421,-0.301101,0.149221,-0.941844,-0.166596,-0.166051,-0.062321,7.947937,-14.760445,-20.519958,,,,,,,1
1522314289.350799,-0.311699,-0.159981,1.510253,-0.505279,-0.109060,0.061885,-0.302760,0.159299,-0.939659,0.007671,-0.098844,0.192009,8.764801,-15.214729,-21.117798,,,,,,,1
1522314289.380767,-0.314720,-0.177999,1.506498,-0.617248,-0.056833,0.079858,-0.304660,0.177061,-0.935859,0.063006,-0.116209,0.306464,9.437820,-14.918587,-21.943665,,,,,,,1
1522314289.410736,-0.315046,-0.190652,1.505777,-0.124598,0.051314,0.088650,-0.304246,0.189499,-0.933555,0.002885,-0.084152,0.115851,7.792374,-14.685799,-21.570435,,,,,,,1
1522314289.440704,-0.312584,-0.186709,1.508600,0.179639,0.020924,0.071858,-0.302174,0.185626,-0.935005,-0.022747,-0.106555,-0.125191,7.945816,-14.386421,-21.496521,,,,,,,1
1522314289.470672,-0.310354,-0.183173,1.511254,0.182321,0.082923,0.019580,-0.300286,0.182150,-0.936296,-0.073966,-0.119528,-0.063064,7.418869,-14.309502,-21.947083,,,,,,,1
1522314289.500640,-0.305506,-0.176451,1.513837,0.257624,0.178531,-0.004959,-0.296106,0.175537,-0.938887,-0.133765,-0.101089,-0.085329,7.574432,-14.384148,-20.896667,,,,,,,1
1522314289.530609,-0.303731,-0.170630,1.514492,0.129683,-0.079015,-0.055934,-0.294739,0.169803,-0.940370,-0.105865,-0.085880,-0.146620,7.949265,-14.310982,-21.046814,,,,,,,1
1522314289.560577,-0.304663,-0.173520,1.515323,-0.242125,0.083161,0.133291,-0.295467,0.172651,-0.939623,0.017208,-0.055951,0.049639,8.695175,-14.315010,-21.721436,,,,,,,1
1522314289.590549,-0.301359,-0.176640,1.517857,0.112215,0.014550,0.096317,-0.292200,0.175723,-0.940075,-0.017035,-0.051135,-0.079548,8.022156,-14.386528,-21.271423,,,,,,,1
1522314289.620517,-0.300724,-0.171805,1.522224,0.198780,0.013392,0.079333,-0.291851,0.170961,-0.941061,-0.007847,-0.092134,0.026022,8.237595,-15.437355,-21.117188,,,,,,,1
1522314289.650486,-0.299981,-0.164680,1.525300,0.249319,0.014795,0.012244,-0.291504,0.163937,-0.942417,0.061829,-0.129772,0.167881,9.063599,-15.291145,-21.192383,,,,,,,1
1522314289.680454,-0.297720,-0.162314,1.527237,-0.060241,0.083262,0.057756,-0.289485,0.161603,-0.943442,-0.049580,-0.127484,-0.034311,8.017685,-15.061134,-20.893738,,,,,,,1
1522314289.710422,-0.296137,-0.163778,1.526370,-0.022605,0.015916,-0.050827,-0.287922,0.163047,-0.943672,-0.095958,-0.139472,-0.215966,7.796280,-14.610298,-21.045715,,,,,,,1
1522314289.740390,-0.297699,-0.167414,1.525966,-0.186917,-0.044110,0.081238,-0.289220,0.166633,-0.942648,-0.061213,-0.071723,-0.020868,8.621109,-14.539146,-21.195557,,,,,,,1
1522314289.770359,-0.297669,-0.169635,1.527012,0.048388,0.017135,0.053645,-0.289083,0.168822,-0.942300,-0.015193,-0.092544,0.112955,8.469910,-14.838173,-20.894409,,,,,,,1
1522314289.800327,-0.295475,-0.170157,1.530882,-0.060754,0.085750,0.157912,-0.286989,0.169338,-0.942848,0.021883,-0.090755,0.007072,8.020691,-14.985771,-20.519043,,,,,,,1
1522314289.830295,-0.295153,-0.172297,1.533340,-0.063275,-0.116506,0.057958,-0.286580,0.171446,-0.942591,-0.060543,-0.123946,-0.429037,7.800186,-14.534782,-20.520935,,,,,,,1
1522314289.860264,-0.299161,-0.178332,1.531869,-0.369175,-0.028448,0.034202,-0.290045,0.177388,-0.940429,0.016165,-0.146382,-0.083054,7.944183,-14.910805,-20.894409,,,,,,,1
1522314289.890232,-0.294576,-0.196803,1.527976,-0.699821,0.297435,0.047483,-0.284730,0.195535,-0.938453,0.005906,-0.075617,0.295677,8.613907,-14.764946,-22.019653,,,,,,,1
1522314289.920200,-0.289992,-0.201872,1.525429,0.360477,-0.004332,-0.027078,-0.280138,0.200504,-0.938787,-0.067885,-0.166126,0.248113,8.839767,-14.316566,-22.621338,,,,,,,1
1522314289.950168,-0.289638,-0.183084,1.532210,0.642942,-0.026767,0.042408,-0.280832,0.182063,-0.942330,-0.019156,-0.106669,-0.008658,8.540710,-14.988945,-21.343811,,,,,,,1
1522314289.980137,-0.289330,-0.173724,1.538113,0.164262,0.017207,0.151769,-0.281016,0.172851,-0.944009,0.002787,-0.121917,0.036340,8.241943,-15.137138,-20.893311,,,,,,,1
1522314290.010105,-0.285959,-0.169550,1.543572,0.331427,0.047194,0.060223,-0.278033,0.168739,-0.945635,-0.088132,-0.087257,-0.203017,7.341080,-15.357857,-20.667908,,,,,,,1
1522314290.040073,-0.289209,-0.156466,1.542455,0.290886,-0.111063,-0.084573,-0.281710,0.155828,-0.946761,-0.037306,-0.075399,-0.171693,7.716217,-15.434395,-20.517395,,,,,,,1
,,,,,,,,,,,,,,,,25.300187,51.440589,15.936038,8.120000,315.351562,1522314289.996440,1
1522314290.070041,-0.289993,-0.163694,1.532745,-0.529177,0.002801,0.030846,-0.282123,0.162964,-0.945436,-0.032665,-0.054031,-0.027113,8.015442,-15.286125,-20.892822,,,,,,,1
1522314290.100010,-0.290525,-0.175904,1.529816,-0.285050,0.059790,0.151377,-0.282035,0.174998,-0.943309,-0.023110,-0.101527,0.055934,8.620667,-14.763847,-20.894653,,,,,,,1
1522314290.129978,-0.284149,-0.179199,1.533293,0.044841,0.221974,0.090724,-0.275851,0.178242,-0.944529,-0.098279,-0.124027,-0.189305,7.348694,-14.458138,-20.896484,,,,,,,1
1522314290.159946,-0.283153,-0.176754,1.534854,0.050207,-0.100542,0.013278,-0.275032,0.175835,-0.945219,-0.057427,-0.155449,-0.210054,7.043777,-14.906837,-20.969849,,,,,,,1
1522314290.189914,-0.285817,-0.178514,1.534208,-0.057266,-0.058584,-0.020947,-0.277461,0.177567,-0.944185,0.021205,-0.159241,0.156709,8.615128,-15.139122,-21.193176,,,,,,,1
1522314290.219883,-0.284624,-0.182121,1.535695,-0.143690,0.132881,0.133298,-0.276153,0.181116,-0.943894,0.056991,-0.129160,0.378175,8.765396,-15.064888,-21.268372,,,,,,,1
1522314290.249851,-0.277485,-0.180502,1.539924,0.273108,0.192585,0.107979,-0.269487,0.179523,-0.946123,0.020052,-0.108540,0.091646,7.862915,-15.360741,-21.192688,,,,,,,1
1522314290.279819,-0.278886,-0.172034,1.542606,0.169133,-0.271734,-0.010978,-0.271221,0.171187,-0.947172,-0.089085,-0.180251,-0.311846,7.490341,-15.433540,-20.667542,,,,,,,1
1522314290.309787,-0.286393,-0.180851,1.541770,-0.514599,-0.092788,0.019233,-0.277887,0.179867,-0.943624,-0.067572,-0.114696,-0.180323,6.821350,-14.830528,-20.670288,,,,,,,1
1522314290.339756,-0.288263,-0.193858,1.535377,-0.394961,-0.053569,-0.161852,-0.278962,0.192646,-0.940780,-0.081114,-0.073444,-0.112717,7.347488,-14.308586,-21.347107,,,,,,,1
1522314290.369724,-0.293223,-0.203811,1.527651,-0.545053,-0.086795,-0.070284,-0.283057,0.202403,-0.937503,-0.014124,-0.088816,0.119891,7.119812,-14.532631,-21.421326,,,,,,,1
1522314290.399692,-0.291993,-0.227715,1.520465,-1.002432,0.231058,0.076082,-0.280430,0.225753,-0.932949,-0.000789,-0.043273,0.199185,6.369827,-13.630745,-22.925293,,,,,,,1
1522314290.429660,-0.283332,-0.251537,1.517237,-0.491491,0.448138,0.151907,-0.270759,0.248893,-0.929915,-0.031457,-0.103522,0.049941,6.374146,-12.881294,-23.453369,,,,,,,1
1522314290.459629,-0.265405,-0.254682,1.522887,0.219494,0.454723,0.173737,-0.253840,0.251937,-0.933859,-0.064489,-0.065948,-0.337793,5.330643,-12.725777,-22.629456,,,,,,,1
1522314290.489597,-0.261811,-0.244975,1.527050,0.362014,-0.128717,-0.019491,-0.251103,0.242532,-0.937084,-0.049801,-0.153054,0.010646,5.703384,-12.952461,-22.628357,,,,,,,1
1522314290.519565,-0.261396,-0.233925,1.531191,0.418171,0.090667,0.045313,-0.251391,0.231798,-0.939719,-0.009717,-0.149904,0.198295,6.750946,-13.331947,-22.401306,,,,,,,1
1522314290.549534,-0.256276,-0.217321,1.537179,0.727615,0.064281,0.059433,-0.247518,0.215615,-0.944587,-0.023798,-0.087883,-0.135964,6.377792,-13.779213,-21.349731,,,,,,,1
1522314290.579494,-0.257839,-0.197321,1.543247,0.515040,-0.244117,0.018028,-0.250043,0.196043,-0.948180,-0.103884,-0.128721,-0.362825,6.452484,-14.079109,-20.898438,,,,,,,1
1522314290.609462,-0.263360,-0.195273,1.545777,-0.110160,-0.068736,0.081316,-0.255379,0.194034,-0.947171,-0.008461,-0.095676,0.054287,7.864700,-14.911201,-21.644409,,,,,,,1
1522314290.639430,-0.261446,-0.198814,1.546912,-0.003209,0.122778,0.007686,-0.253386,0.197507,-0.946988,-0.003343,-0.059552,0.333966,7.118027,-14.757545,-21.345398,,,,,,,1
1522314290.669399,-0.257854,-0.188475,1.547454,0.588484,0.036032,-0.105799,-0.250490,0.187361,-0.949816,-0.029661,-0.057356,0.124727,7.413971,-15.433418,-20.892578,,,,,,,1
1522314290.699367,-0.261243,-0.178056,1.548600,0.048907,-0.195917,-0.023916,-0.254198,0.177116,-0.950796,0.045382,-0.035042,-0.068125,8.165741,-15.211891,-20.968079,,,,,,,1
1522314290.729365,-0.265976,-0.186733,1.546710,-0.419805,-0.123977,0.037455,-0.258281,0.185650,-0.948064,0.018337,-0.017544,-0.198863,6.597397,-14.904228,-20.370117,,,,,,,1
1522314290.759333,-0.269005,-0.198269,1.543061,-0.425613,-0.071393,-0.032932,-0.260566,0.196972,-0.945149,-0.077889,-0.018475,-0.290965,5.547272,-14.600029,-20.896851,,,,,,,1
1522314290.789301,-0.274165,-0.210027,1.536778,-0.445766,-0.122931,-0.102151,-0.264794,0.208486,-0.941498,-0.109214,-0.054998,0.038315,6.218918,-14.079475,-22.323608,,,,,,,1
1522314290.819269,-0.275697,-0.226943,1.532000,-0.712874,0.060182,0.093530,-0.265238,0.224999,-0.937563,-0.047384,-0.119454,0.205934,5.397400,-13.551079,-22.626160,,,,,,,1
1522314290.849238,-0.271116,-0.249076,1.531160,-0.580021,0.223128,0.145675,-0.259542,0.246508,-0.933740,-0.135935,-0.097018,-0.006643,4.657272,-12.198357,-23.231873,,,,,,,1
1522314290.879206,-0.261817,-0.253387,1.531096,0.070139,0.286287,0.003300,-0.250571,0.250684,-0.935079,-0.133279,-0.180127,-0.281963,5.411743,-11.976372,-22.857422,,,,,,,1
1522314290.909174,-0.259616,-0.254150,1.530787,-0.165014,-0.026509,-0.010406,-0.248464,0.251423,-0.935442,0.016438,-0.191182,-0.037595,5.257736,-12.425606,-22.780701,,,,,,,1
1522314290.939142,-0.261005,-0.262189,1.527283,-0.338792,-0.024684,-0.057421,-0.249232,0.259195,-0.933114,0.065318,-0.215692,0.237023,6.827271,-12.658195,-23.303955,,,,,,,1
1522314290.969111,-0.260950,-0.271967,1.524220,-0.312912,0.123467,0.021297,-0.248516,0.268627,-0.930634,0.054317,-0.204494,0.282563,8.551727,-12.441399,-23.754028,,,,,,,1
1522314290.999079,-0.254847,-0.272526,1.525177,0.156365,0.244510,0.018335,-0.242794,0.269165,-0.931988,0.069500,-0.091736,-0.013859,7.130997,-12.509178,-22.929443,,,,,,,1
1522314291.029047,-0.257641,-0.259883,1.524812,0.580329,-0.425706,-0.171414,-0.246244,0.256967,-0.934522,-0.079150,-0.072626,-0.431170,6.377747,-12.880714,-22.853333,,,,,,,1
1522314291.059016,-0.265160,-0.254503,1.522846,-0.195250,0.027347,-0.103184,-0.253622,0.251765,-0.933965,-0.063883,0.041875,-0.192103,6.448257,-13.331047,-22.851440,,,,,,,1
,,,,,,,,,,,,,,,,25.300191,51.440516,15.861889,8.670000,315.000000,1522314290.996427,1
1522314291.088984,-0.262559,-0.267048,1.518165,-0.538518,0.091906,0.056321,-0.250352,0.263885,-0.931498,-0.074080,-0.002319,0.120600,6.597031,-13.182152,-23.302002,,,,,,,1
1522314291.118953,-0.261806,-0.280912,1.518284,-0.264037,0.001204,0.165298,-0.248681,0.277232,-0.928063,-0.001792,-0.044306,0.265389,6.896240,-12.809242,-24.053345,,,,,,,1
1522314291.148921,-0.256962,-0.277063,1.526277,0.479606,0.179612,0.217895,-0.244452,0.273532,-0.930282,0.085989,-0.111331,0.131530,7.724060,-12.662743,-23.828552,,,,,,,1
1522314291.178890,-0.248531,-0.255974,1.536138,0.952344,0.200674,0.077575,-0.237966,0.253188,-0.937693,0.091970,-0.170806,-0.042120,7.727997,-13.261116,-22.176147,,,,,,,1
1522314291.208858,-0.240056,-0.221981,1.544921,1.230619,0.195606,-0.056467,-0.231923,0.220162,-0.947492,-0.028483,-0.146722,-0.331882,7.801361,-14.010460,-21.198120,,,,,,,1
1522314291.238826,-0.240594,-0.191323,1.548799,0.787142,-0.209763,-0.127784,-0.233932,0.190158,-0.953476,-0.113282,-0.143283,-0.250504,8.547440,-14.313988,-21.346497,,,,,,,1
1522314291.268793,-0.247318,-0.183189,1.550658,-0.060437,-0.149764,0.100622,-0.240708,0.182166,-0.953349,-0.099380,-0.071036,-0.065999,8.095978,-14.686577,-20.970215,,,,,,,1
1522314291.298763,-0.250745,-0.190905,1.552212,-0.244005,-0.149205,0.086630,-0.243618,0.189748,-0.951129,-0.110722,-0.035466,-0.118756,7.641785,-14.834969,-21.419861,,,,,,,1
1522314291.328730,-0.255066,-0.196977,1.552983,-0.108173,-0.115415,0.069645,-0.247431,0.195706,-0.948935,-0.046194,-0.032162,0.057700,7.940277,-14.986305,-21.419128,,,,,,,1
1522314291.358698,-0.255647,-0.195805,1.555699,0.195544,0.001746,0.075077,-0.248040,0.194556,-0.949012,0.062676,-0.051032,0.224052,8.612427,-15.139565,-21.643127,,,,,,,1
1522314291.388666,-0.252675,-0.184003,1.560979,0.532498,0.103135,0.042204,-0.245775,0.182966,-0.951902,0.094515,-0.085661,0.161772,9.365402,-15.292198,-20.892151,,,,,,,1
1522314291.418635,-0.251412,-0.171659,1.563941,0.276002,-0.054976,-0.047342,-0.245116,0.170817,-0.954327,0.068846,-0.081355,-0.058063,10.117310,-15.370140,-20.441528,,,,,,,1
1522314291.448603,-0.255467,-0.171022,1.561814,-0.173704,-0.147079,-0.087015,-0.249010,0.170189,-0.953430,0.042696,-0.082604,-0.133133,8.988785,-15.814903,-20.290283,,,,,,,1
1522314291.478571,-0.258487,-0.177914,1.557469,-0.282982,0.025195,-0.069145,-0.251583,0.176976,-0.951517,-0.025395,-0.053716,0.022745,7.935516,-15.735832,-20.966125,,,,,,,1
1522314291.508539,-0.256518,-0.182533,1.554412,-0.050181,0.063772,-0.045573,-0.249499,0.181521,-0.951210,-0.073560,-0.023272,0.015159,7.565750,-14.984550,-21.344299,,,,,,,1
1522314291.538508,-0.255626,-0.181416,1.554033,0.068726,-0.054679,-0.017654,-0.248702,0.180423,-0.951628,-0.076585,-0.043994,-0.099657,7.189713,-15.132790,-21.268860,,,,,,,1
1522314291.568454,-0.257794,-0.175418,1.556194,0.193327,-0.027923,0.064447,-0.251035,0.174520,-0.952116,-0.050585,-0.049734,-0.132067,6.588257,-15.504707,-20.892700,,,,,,,1
1522314291.598422,-0.257385,-0.172340,1.560168,0.102586,0.027236,0.110143,-0.250781,0.171488,-0.952733,-0.026913,-0.032206,-0.112178,7.262939,-15.582664,-20.817078,,,,,,,1
1522314291.628390,-0.255670,-0.168692,1.561811,0.131953,0.000425,-0.016607,-0.249304,0.167893,-0.953761,-0.009546,-0.100846,-0.133458,7.491837,-15.283546,-20.668152,,,,,,,1
1522314291.658359,-0.257960,-0.166544,1.561509,-0.044462,-0.052265,-0.015626,-0.251579,0.165775,-0.953534,0.040123,-0.122928,0.029141,9.067795,-15.140709,-20.742920,,,,,,,1
1522314291.688327,-0.258765,-0.169702,1.560672,-0.063761,-0.052332,0.000346,-0.252211,0.168889,-0.952820,-0.002489,-0.145527,-0.003509,9.368103,-15.291756,-20.442200,,,,,,,1
1522314291.718295,-0.261097,-0.166306,1.560616,0.117865,-0.041029,-0.011240,-0.254579,0.165541,-0.952778,-0.028548,-0.123564,0.083286,8.835464,-15.515266,-21.341553,,,,,,,1
1522314291.748264,-0.260372,-0.162118,1.562494,0.125216,0.003149,0.050521,-0.254064,0.161408,-0.953624,-0.017329,-0.102098,0.168758,8.908051,-15.441124,-21.866821,,,,,,,1
1522314291.778232,-0.258857,-0.157681,1.565427,0.176753,0.086847,0.067524,-0.252800,0.157028,-0.954691,0.002251,-0.102249,0.166910,8.385193,-15.812782,-20.890564,,,,,,,1
1522314291.808200,-0.255832,-0.152105,1.567809,0.181317,0.095698,0.017431,-0.250129,0.151519,-0.956283,-0.001321,-0.121032,0.045181,8.314545,-15.512245,-20.666809,,,,,,,1
1522314291.838168,-0.255586,-0.152866,1.567211,-0.203861,-0.129423,-0.019918,-0.249864,0.152272,-0.956233,-0.029875,-0.143025,-0.283666,8.247345,-14.911644,-20.369263,,,,,,,1
1522314291.868137,-0.263961,-0.162897,1.563063,-0.430669,-0.267847,-0.050846,-0.257453,0.162178,-0.952584,-0.089074,-0.125373,-0.479881,6.376907,-14.453239,-20.372009,,,,,,,1
1522314291.898105,-0.268245,-0.177826,1.559462,-0.614789,0.041818,0.103203,-0.260860,0.176890,-0.949032,0.000606,-0.076838,-0.042621,6.222397,-14.677910,-20.746216,,,,,,,1
1522314291.928073,-0.263535,-0.201111,1.556814,-0.788893,0.225246,0.070923,-0.255245,0.199758,-0.946016,0.004177,-0.026739,0.099428,7.942795,-14.012520,-22.623047,,,,,,,1
1522314291.958041,-0.261126,-0.214199,1.554320,-0.140529,0.006067,0.032204,-0.252269,0.212565,-0.944021,0.053371,-0.092372,0.179999,7.344162,-14.009605,-22.398315,,,,,,,1
1522314291.988010,-0.260534,-0.205001,1.556092,0.568811,0.013299,-0.038664,-0.252202,0.203568,-0.946020,0.054708,-0.082917,0.170614,7.640411,-14.385933,-22.396667,,,,,,,1
1522314292.017978,-0.262476,-0.184666,1.559837,0.658897,-0.133546,-0.039525,-0.255061,0.183619,-0.949330,0.044200,-0.145456,0.137242,9.284073,-15.068260,-22.318115,,,,,,,1
1522314292.047946,-0.263859,-0.169303,1.563793,0.501384,-0.014212,-0.031229,-0.257079,0.168495,-0.951588,-0.052965,-0.113899,-0.024669,7.938339,-15.361000,-21.117615,,,,,,,1
1522314292.077914,-0.262869,-0.154503,1.566318,0.385368,0.043610,-0.051626,-0.256756,0.153889,-0.954146,-0.039463,-0.060490,-0.128770,8.462891,-15.588066,-20.816467,,,,,,,1
,,,,,,,,,,,,,,,,25.300241,51.440454,15.872182,8.690000,315.000000,1522314291.996415,1
1522314292.107883,-0.262034,-0.152062,1.565138,-0.105883,0.011908,-0.055151,-0.256057,0.151477,-0.954720,-0.080354,-0.029193,-0.086464,7.935959,-15.735756,-20.891113,,,,,,,1
1522314292.137851,-0.263133,-0.156670,1.564119,-0.199590,-0.045982,0.051387,-0.256921,0.156030,-0.953754,-0.029883,-0.017694,-0.173825,6.590805,-15.429420,-20.593018,,,,,,,1
1522314292.167819,-0.264460,-0.163468,1.564316,-0.231713,-0.044979,0.070546,-0.257903,0.162741,-0.952366,-0.109116,0.007089,-0.240139,6.809814,-15.581154,-21.342285,,,,,,,1
1522314292.197787,-0.264513,-0.168819,1.564519,-0.207917,0.061005,0.102418,-0.257723,0.168018,-0.951498,0.064165,-0.094806,0.006506,8.386826,-15.288399,-21.492676,,,,,,,1
1522314292.227756,-0.258164,-0.181811,1.565161,-0.400393,0.211442,0.084008,-0.251098,0.180811,-0.950924,-0.021103,-0.102915,0.030316,7.339706,-14.908836,-21.644714,,,,,,,1
1522314292.257724,-0.258523,-0.180267,1.566780,0.370961,-0.037345,-0.019583,-0.251510,0.179292,-0.951103,0.033523,-0.112672,0.026542,7.865143,-14.911125,-21.569458,,,,,,,1
1522314292.287692,-0.256457,-0.161630,1.568348,0.702981,0.075196,-0.122811,-0.250349,0.160927,-0.954687,0.059325,-0.137704,0.219976,9.514023,-15.068474,-21.492981,,,,,,,1
1522314292.317660,-0.253781,-0.142162,1.570644,0.531995,0.114463,-0.056906,-0.248533,0.141684,-0.958205,0.053876,-0.086462,0.325942,9.956696,-16.569176,-20.211731,,,,,,,1
1522314292.347629,-0.250947,-0.134048,1.573224,0.131796,0.047739,0.054739,-0.246093,0.133647,-0.959988,-0.029267,-0.080821,0.100750,10.032440,-16.494530,-20.212036,,,,,,,1
1522314292.377597,-0.254474,-0.133458,1.573593,-0.068040,-0.330521,-0.031330,-0.249497,0.133062,-0.959190,-0.124190,-0.074621,-0.419747,7.867889,-15.584557,-19.991760,,,,,,,1
1522314292.407565,-0.268974,-0.138463,1.571008,-0.285048,-0.376800,-0.020797,-0.263200,0.138021,-0.954817,-0.105163,-0.028829,-0.290849,6.891113,-15.805092,-19.916382,,,,,,,1
1522314292.437534,-0.266149,-0.149873,1.568815,-0.446725,0.326493,0.059350,-0.260070,0.149313,-0.953975,-0.069429,-0.028967,-0.049046,7.041687,-15.431297,-20.442810,,,,,,,1
1522314292.467502,-0.261988,-0.158399,1.567166,-0.128931,-0.036393,0.022661,-0.255759,0.157738,-0.953785,0.004233,-0.076469,-0.086071,8.465561,-15.138374,-21.118225,,,,,,,1
1522314292.497470,-0.264050,-0.163242,1.568044,-0.227484,-0.027105,0.095044,-0.257522,0.162517,-0.952507,0.048431,-0.101314,-0.096992,7.642563,-15.209221,-20.668396,,,,,,,1
1522314292.527438,-0.263934,-0.173875,1.569142,-0.305474,-0.015335,0.113078,-0.256946,0.173000,-0.950815,0.040897,-0.178371,0.008402,8.244644,-14.912086,-20.819275,,,,,,,1
1522314292.557407,-0.262653,-0.174145,1.570431,0.256048,0.081771,0.006846,-0.255717,0.173266,-0.951098,0.036356,-0.179095,0.033572,8.839203,-15.140282,-21.343018,,,,,,,1
1522314292.587378,-0.261707,-0.158408,1.572465,0.610200,-0.138174,-0.121593,-0.255490,0.157746,-0.953856,-0.044696,-0.144074,0.074736,9.513123,-15.293236,-21.267090,,,,,,,1
1522314292.617346,-0.265923,-0.139466,1.574545,0.516002,-0.096034,-0.037522,-0.260248,0.139014,-0.955482,-0.015234,-0.177329,0.270820,10.036484,-15.820000,-20.664734,,,,,,,1
1522314292.647314,-0.263167,-0.128577,1.579101,0.295499,0.197765,0.118647,-0.257993,0.128223,-0.957600,-0.024722,-0.109821,0.309026,10.859055,-16.423088,-20.061951,,,,,,,1
1522314292.677283,-0.254177,-0.126578,1.583696,-0.013386,0.303033,0.067164,-0.249438,0.126240,-0.960127,-0.080442,-0.075047,-0.111452,10.637360,-16.047173,-20.138489,,,,,,,1
1522314292.707251,-0.254053,-0.131380,1.582521,-0.277500,-0.319684,0.014314,-0.249163,0.131003,-0.959560,-0.134352,-0.133978,-0.458637,9.217499,-15.440941,-20.291626,,,,,,,1
1522314292.737219,-0.264520,-0.142731,1.581483,-0.415801,-0.106384,0.103502,-0.258788,0.142247,-0.955403,-0.095750,-0.079197,-0.126125,9.293091,-15.291420,-20.442261,,,,,,,1
1522314292.767187,-0.255631,-0.157246,1.581529,-0.510648,0.457787,0.147615,-0.249736,0.156598,-0.955567,-0.049077,-0.101194,0.088151,8.911804,-15.515388,-21.116516,,,,,,,1
1522314292.797156,-0.246745,-0.171891,1.581568,-0.366459,0.131801,0.061750,-0.240650,0.171046,-0.955422,-0.017956,-0.102580,-0.011100,8.986664,-15.216255,-21.642639,,,,,,,1
1522314292.827124,-0.243412,-0.176779,1.581021,0.003421,0.142062,-0.017897,-0.237259,0.175859,-0.955396,0.020417,-0.143923,-0.098819,9.217178,-14.841988,-21.344055,,,,,,,1
1522314292.857092,-0.241540,-0.166358,1.579897,0.451871,0.031143,-0.118677,-0.235896,0.165592,-0.957566,0.143596,-0.147877,0.056229,10.189468,-15.520683,-20.665833,,,,,,,1
1522314292.887060,-0.238416,-0.160445,1.579389,-0.013406,0.151969,-0.059482,-0.233131,0.159757,-0.959233,0.082069,-0.021406,0.097065,11.615906,-15.377098,-20.665710,,,,,,,1
1522314292.917029,-0.237905,-0.156569,1.578402,0.169103,-0.062316,-0.026090,-0.232784,0.155930,-0.959946,0.060680,-0.064896,0.095902,10.043961,-15.294655,-20.291809,,,,,,,1
1522314292.946997,-0.236188,-0.150484,1.579930,0.161807,0.047822,0.032384,-0.231354,0.149917,-0.961249,-0.010498,-0.022628,0.044272,9.964783,-15.669365,-20.365356,,,,,,,1
1522314292.976965,-0.238372,-0.147140,1.582198,0.102256,-0.146416,0.022942,-0.233570,0.146610,-0.961224,-0.125592,0.025738,-0.095097,9.441284,-15.292397,-20.742126,,,,,,,1
1522314293.006934,-0.242371,-0.144817,1.582206,0.009306,-0.206529,-0.013273,-0.237493,0.144312,-0.960610,-0.164271,-0.010416,-0.210746,8.695511,-15.138588,-20.293152,,,,,,,1
1522314293.036902,-0.248494,-0.147548,1.582714,-0.126374,-0.147117,0.051546,-0.243273,0.147013,-0.958752,-0.128203,0.032262,-0.106083,7.114746,-15.357079,-20.893005,,,,,,,1
,,,,,,,,,,,,,,,,25.300297,51.440366,15.703087,9.000000,312.187500,1522314292.996403,1
1522314293.066870,-0.250704,-0.150760,1.582202,-0.122566,-0.039651,0.029069,-0.245272,0.150190,-0.957750,0.047152,-0.073774,0.182664,7.860672,-15.585732,-21.191772,,,,,,,1
1522314293.096838,-0.249062,-0.160847,1.583182,-0.394532,0.114560,0.106496,-0.243313,0.160154,-0.956634,0.054944,-0.071470,0.330093,9.058502,-15.666344,-21.415833,,,,,,,1
1522314293.126807,-0.243942,-0.165070,1.583131,0.140296,0.150482,-0.052976,-0.238247,0.164321,-0.957203,-0.048557,-0.157104,-0.063641,9.216431,-14.916985,-21.343750,,,,,,,1
1522314293.156775,-0.244803,-0.147613,1.581068,0.698056,-0.206648,-0.238662,-0.239729,0.147077,-0.959634,-0.072786,-0.140562,-0.391760,8.921097,-14.989754,-20.443604,,,,,,,1
1522314293.186743,-0.253901,-0.135172,1.579094,0.127132,-0.178804,-0.065442,-0.248891,0.134761,-0.959110,-0.125438,-0.074550,-0.139950,8.163361,-15.811272,-20.365723,,,,,,,1
1522314293.216711,-0.253369,-0.142009,1.579622,-0.363466,0.143147,0.110749,-0.248143,0.141532,-0.958329,-0.127589,0.007012,0.138687,8.757767,-15.739983,-21.415710,,,,,,,1
1522314293.246680,-0.246547,-0.154576,1.580717,-0.360224,0.179089,0.135227,-0.241147,0.153961,-0.958198,-0.049716,-0.006638,0.175972,9.508026,-15.443825,-21.866516,,,,,,,1
1522314293.276648,-0.245399,-0.161377,1.583363,-0.155147,0.007209,0.176046,-0.239787,0.160677,-0.957437,0.072703,-0.051455,0.173288,8.761215,-15.439934,-21.341858,,,,,,,1
1522314293.306616,-0.244478,-0.164781,1.587473,0.036382,0.028436,0.113293,-0.238771,0.164036,-0.957121,0.071535,-0.109181,0.070372,8.612885,-15.364113,-21.192261,,,,,,,1
1522314293.336584,-0.241701,-0.158755,1.587590,0.267841,0.144511,-0.154109,-0.236345,0.158089,-0.958723,0.007326,-0.205559,-0.047595,10.036606,-15.445595,-21.266174,,,,,,,1
1522314293.366553,-0.238531,-0.151834,1.583894,0.092650,0.097282,-0.176565,-0.233557,0.151252,-0.960507,-0.025339,-0.212241,-0.114581,9.818222,-15.144005,-20.667542,,,,,,,1
1522314293.396521,-0.239677,-0.152735,1.577053,-0.228190,-0.069548,-0.216051,-0.234625,0.152142,-0.960106,-0.090097,-0.179028,-0.195854,9.745468,-14.918694,-20.668457,,,,,,,1
1522314293.426489,-0.241914,-0.163816,1.570088,-0.528752,-0.007218,-0.057573,-0.236354,0.163084,-0.957883,-0.000340,-0.099882,0.071760,10.189590,-14.921669,-21.643250,,,,,,,1
1522314293.456457,-0.241584,-0.174581,1.568134,-0.164784,0.064609,0.025739,-0.235605,0.173696,-0.956201,0.018228,0.010707,-0.033988,9.887802,-14.920601,-21.943420,,,,,,,1
1522314293.486426,-0.241270,-0.165640,1.567977,0.392510,-0.027636,-0.048344,-0.235665,0.164884,-0.957745,0.127328,-0.024594,-0.033085,10.337067,-15.671501,-20.815186,,,,,,,1
1522314293.516394,-0.241185,-0.159656,1.569872,0.068789,-0.001774,0.015320,-0.235816,0.158979,-0.958706,0.056738,0.029193,-0.029591,10.934647,-15.824333,-20.964233,,,,,,,1
1522314293.546393,-0.242991,-0.154861,1.569655,0.181934,-0.135178,-0.094210,-0.237727,0.154243,-0.959007,0.021525,0.002037,-0.114861,9.432312,-16.192345,-20.738525,,,,,,,1
1522314293.576356,-0.245270,-0.150961,1.567751,0.033517,-0.094692,-0.057066,-0.240057,0.150388,-0.959039,-0.044810,0.014193,-0.117377,9.432755,-15.967659,-21.039429,,,,,,,1
1522314293.606323,-0.249598,-0.150266,1.565967,-0.037164,-0.120138,-0.038985,-0.244231,0.149701,-0.958092,-0.033845,0.005069,-0.023246,8.456284,-15.888634,-21.415222,,,,,,,1
1522314293.636293,-0.250954,-0.155605,1.564572,-0.173519,-0.053912,-0.040216,-0.245328,0.154978,-0.956972,-0.109683,-0.024912,0.021304,8.234894,-15.437782,-21.567200,,,,,,,1
1522314293.666260,-0.252160,-0.153864,1.564637,0.130605,-0.023210,0.018589,-0.246549,0.153257,-0.956936,0.046049,-0.053724,0.196560,9.133499,-15.666679,-21.415771,,,,,,,1
1522314293.696229,-0.253342,-0.148607,1.566697,0.235015,-0.041707,0.044253,-0.247878,0.148061,-0.957410,0.039916,-0.066792,0.125928,10.409195,-15.372795,-21.791321,,,,,,,1
1522314293.726197,-0.256714,-0.137589,1.567446,0.505608,-0.167451,-0.153602,-0.251504,0.137155,-0.958089,-0.048804,-0.120523,-0.083171,9.060623,-15.815758,-20.815247,,,,,,,1
1522314293.756166,-0.257853,-0.130665,1.567589,-0.073734,0.011982,-0.077501,-0.252832,0.130294,-0.958697,-0.073020,0.011049,-0.140409,7.935959,-15.735756,-20.891113,,,,,,,1
1522314293.786134,-0.261864,-0.131588,1.565905,0.055001,-0.269201,-0.029177,-0.256643,0.131209,-0.957559,-0.088129,0.050325,-0.193397,8.607651,-15.889076,-21.190186,,,,,,,1
1522314293.816102,-0.262848,-0.132458,1.564633,-0.212315,0.206963,0.048995,-0.257555,0.132071,-0.957195,0.007983,0.001657,0.119304,8.454788,-16.263252,-21.038757,,,,,,,1
1522314293.846070,-0.257134,-0.142867,1.564209,-0.242425,0.152880,0.043700,-0.251719,0.142381,-0.957270,0.004969,-0.011552,0.201365,8.823624,-16.565437,-21.562378,,,,,,,1
1522314293.876039,-0.249789,-0.143467,1.567297,0.178231,0.191948,0.080209,-0.244660,0.142976,-0.959010,0.075898,-0.110673,0.011393,9.428543,-16.342720,-21.112976,,,,,,,1
1522314293.906007,-0.246789,-0.136811,1.569953,0.205748,0.048992,0.001515,-0.242009,0.136385,-0.960641,0.075429,-0.137895,-0.146491,9.955338,-16.344780,-20.812683,,,,,,,1
1522314293.935975,-0.245538,-0.132988,1.568723,-0.003067,0.034240,-0.095579,-0.240932,0.132596,-0.961442,0.023372,-0.100598,-0.300598,10.563263,-15.822060,-20.364441,,,,,,,1
1522314293.965943,-0.247184,-0.133813,1.563075,-0.089421,-0.024518,-0.171239,-0.242487,0.133414,-0.960937,0.067591,-0.185492,0.015655,10.335129,-16.046181,-20.513672,,,,,,,1
1522314293.995912,-0.243598,-0.139583,1.558161,-0.235269,0.134843,-0.115036,-0.238850,0.139130,-0.961038,-0.036434,-0.096253,0.192590,10.634354,-15.897896,-20.889099,,,,,,,1
1522314294.025880,-0.244918,-0.141259,1.557066,0.007313,-0.095391,0.052661,-0.240061,0.140789,-0.960494,0.059107,-0.098645,0.290954,12.054794,-15.905052,-21.638367,,,,,,,1
1522314294.055848,-0.244209,-0.138454,1.559817,0.151902,0.054844,0.095236,-0.239475,0.138012,-0.961043,0.027241,-0.126781,0.149108,11.455414,-15.977135,-21.413391,,,,,,,1
,,,,,,,,,,,,,,,,25.300347,51.440294,15.818138,9.030000,310.429688,1522314293.996390,1
1522314294.085816,-0.243802,-0.131704,1.561805,0.270719,-0.097124,-0.095257,-0.239303,0.131323,-0.962023,-0.053376,-0.075568,-0.419432,9.061081,-16.040306,-20.364319,,,,,,,1
1522314294.115785,-0.255478,-0.129364,1.558612,-0.097654,-0.396601,-0.143171,-0.250596,0.129003,-0.959458,-0.054976,-0.119741,-0.467727,8.159012,-16.336098,-20.213562,,,,,,,1
1522314294.145753,-0.256889,-0.140406,1.553487,-0.515185,0.147964,-0.068375,-0.251573,0.139945,-0.957667,-0.029112,-0.052924,-0.104924,9.134552,-15.741386,-21.115479,,,,,,,1
1522314294.175721,-0.253775,-0.154916,1.547978,-0.502834,0.074428,-0.042715,-0.248053,0.154297,-0.956380,-0.001489,-0.023682,0.047566,9.055359,-15.891472,-21.564941,,,,,,,1
1522314294.205688,-0.255742,-0.165517,1.543507,-0.313507,-0.102334,-0.057312,-0.249506,0.164762,-0.954254,-0.009283,-0.010206,0.046920,10.255142,-15.372780,-22.466370,,,,,,,1
1522314294.235658,-0.259976,-0.165268,1.541053,0.192401,-0.109081,-0.031361,-0.253554,0.164516,-0.953228,0.130508,-0.065166,0.109768,8.988312,-15.141106,-21.492981,,,,,,,1
1522314294.265625,-0.260741,-0.158731,1.542661,0.278098,-0.039208,-0.024974,-0.254556,0.158066,-0.954053,-0.033027,-0.030838,-0.095706,8.916443,-14.915642,-21.343872,,,,,,,1
1522314294.295594,-0.262438,-0.153874,1.544077,0.047156,-0.106658,-0.021884,-0.256370,0.153267,-0.954350,-0.091073,-0.049004,-0.170528,9.434677,-15.368340,-21.716797,,,,,,,1
1522314294.325562,-0.264500,-0.157180,1.544594,-0.302373,-0.017632,0.133343,-0.258204,0.156534,-0.953325,0.050471,-0.061212,0.177797,9.359406,-15.442924,-21.641541,,,,,,,1
1522314294.355531,-0.264125,-0.171914,1.542719,-0.419449,0.014839,0.090601,-0.257216,0.171069,-0.951092,-0.037355,-0.014788,0.241527,8.835724,-14.766472,-22.544556,,,,,,,1
1522314294.385499,-0.264302,-0.169745,1.541636,0.428263,-0.002710,-0.128268,-0.257481,0.168931,-0.951402,-0.047298,-0.141999,0.096605,8.686478,-14.690804,-22.544922,,,,,,,1
1522314294.415467,-0.263589,-0.156290,1.542784,0.382564,0.056822,-0.116637,-0.257372,0.155655,-0.953694,-0.013853,-0.015594,-0.235790,7.865601,-15.135674,-21.118591,,,,,,,1
1522314294.445436,-0.268921,-0.149974,1.539031,-0.136790,-0.299892,-0.130513,-0.262709,0.149412,-0.953237,-0.024736,-0.044050,-0.372066,8.611694,-15.663811,-20.891052,,,,,,,1
1522314294.475404,-0.270354,-0.161864,1.535285,-0.516654,0.189697,0.043456,-0.263582,0.161158,-0.951080,0.047823,-0.020624,0.050140,8.990677,-14.541710,-22.095337,,,,,,,1
1522314294.505372,-0.264585,-0.170594,1.531794,-0.040205,0.123375,-0.063735,-0.257712,0.169768,-0.951190,-0.035195,-0.008253,-0.010876,8.391449,-14.688637,-21.720093,,,,,,,1
1522314294.535340,-0.265657,-0.165725,1.531293,0.217345,-0.054753,-0.059103,-0.258946,0.164967,-0.951700,0.063450,-0.031743,0.023340,9.588272,-15.143806,-21.492676,,,,,,,1
1522314294.565309,-0.262434,-0.162673,1.533932,0.019833,0.145356,0.113170,-0.256007,0.161957,-0.953011,0.021342,0.006973,-0.072257,9.361206,-15.442635,-21.341553,,,,,,,1
1522314294.595298,-0.260711,-0.158785,1.537497,0.225288,-0.021766,0.083648,-0.254525,0.158119,-0.954052,0.014183,-0.038947,-0.099857,8.992355,-14.915825,-21.193909,,,,,,,1
