timestamp(unix),attitude_roll(radians),attitude_pitch(radians),attitude_yaw(radians),rotation_rate_x(radians/s),rotation_rate_y(radians/s),rotation_rate_z(radians/s),gravity_x(G),gravity_y(G),gravity_z(G),user_acc_x(G),user_acc_y(G),user_acc_z(G),magnetic_field_x(microteslas),magnetic_field_y(microteslas),magnetic_field_z(microteslas),latitude(degree),longitude(degree),altitude(meter),speed(m/s),course(degree),timestamp(unix),User Mark
1523694534.716221,0.699698,0.006736,0.515067,-0.121388,-0.316514,-0.043207,0.643955,-0.006736,-0.764998,-0.022968,-0.023263,0.012847,22.474701,-6.260656,18.331177,,,,,,,
,,,,,,,,,,,,,,,,25.304074,51.439126,15.613626,12.200000,175.078125,1523694533.994340,
1523694534.746190,0.691752,0.002914,0.515815,-0.107775,-0.155975,-0.059347,0.637867,-0.002914,-0.770106,-0.015873,-0.026246,-0.064489,22.250168,-6.484198,18.781921,,,,,,,
1523694534.776158,0.691408,0.000873,0.516680,-0.046228,0.066606,0.000142,0.637605,-0.000873,-0.770328,-0.043855,-0.039272,-0.043729,22.322769,-6.634680,18.632629,,,,,,,
1523694534.806126,0.692655,-0.000264,0.517279,-0.059270,-0.005494,-0.017908,0.638566,0.000264,-0.769532,-0.018326,-0.041676,0.007402,22.621414,-6.636236,18.407715,,,,,,,
1523694534.836094,0.689477,-0.002151,0.519123,-0.095447,-0.168256,0.021650,0.636116,0.002151,-0.771556,-0.036323,-0.037994,-0.032658,22.468277,-6.860708,18.258606,,,,,,,
1523694534.866063,0.683901,-0.005025,0.522080,-0.170880,-0.121132,-0.006146,0.631797,0.005025,-0.775083,-0.030128,-0.041249,-0.113558,22.919571,-6.637884,18.107910,,,,,,,
1523694534.896031,0.683735,-0.008929,0.523281,-0.104713,0.073378,-0.037193,0.631651,0.008929,-0.775167,-0.022231,-0.028399,-0.105555,22.167816,-6.859426,18.183411,,,,,,,
1523694534.925999,0.687248,-0.008953,0.522324,0.052088,0.098160,0.010842,0.634370,0.008953,-0.772943,-0.041597,-0.033642,-0.051947,22.016205,-7.158514,18.409546,,,,,,,
1523694534.955967,0.689438,-0.006171,0.519771,0.122463,0.088364,0.019426,0.636075,0.006171,-0.771568,-0.047680,-0.024589,0.012123,23.293213,-6.639791,17.883118,,,,,,,
1523694534.985936,0.692092,-0.003932,0.518100,0.047946,0.103653,-0.011553,0.638127,0.003932,-0.769886,-0.080556,-0.039652,0.007236,22.543686,-6.636343,17.957703,,,,,,,
1523694535.015904,0.692737,-0.006428,0.517863,-0.140012,-0.020619,-0.106386,0.638615,0.006428,-0.769464,-0.052586,-0.059682,-0.010717,22.168106,-6.784506,18.108093,,,,,,,
1523694535.045872,0.690882,-0.012898,0.517987,-0.167839,-0.086113,-0.151097,0.637147,0.012898,-0.770600,-0.016908,-0.064564,-0.082886,22.773804,-6.486776,18.557251,,,,,,,
,,,,,,,,,,,,,,,,25.303955,51.439146,15.586624,13.310000,175.781250,1523694534.994318,
1523694535.075810,0.688434,-0.017500,0.516984,-0.029163,-0.058068,-0.106281,0.635214,0.017499,-0.772103,-0.012137,-0.059521,-0.107292,23.367783,-6.864828,18.184021,,,,,,,
1523694535.105778,0.688426,-0.015992,0.513170,0.193043,0.039770,-0.045474,0.635224,0.015991,-0.772127,-0.038056,-0.062668,-0.057279,22.844284,-6.487844,17.807251,,,,,,,
1523694535.135746,0.690228,-0.010659,0.506967,0.227201,0.067093,-0.016693,0.636660,0.010658,-0.771036,-0.039736,-0.100517,0.013300,23.226913,-6.039038,18.330627,,,,,,,
1523694535.165715,0.691421,-0.009013,0.503931,-0.024895,0.056001,-0.008368,0.637589,0.009013,-0.770288,-0.040360,-0.099437,0.036600,22.327255,-6.184698,18.630798,,,,,,,
1523694535.195683,0.692823,-0.010334,0.504869,-0.137487,0.019670,0.057664,0.638661,0.010334,-0.769384,-0.074085,-0.075291,0.040655,22.697159,-6.786200,18.783386,,,,,,,
1523694535.225651,0.692564,-0.014547,0.509425,-0.279329,-0.012505,-0.001015,0.638427,0.014547,-0.769509,-0.029495,-0.014943,-0.018256,23.146820,-6.413900,18.107117,,,,,,,
1523694535.255619,0.691904,-0.019571,0.512921,-0.102138,-0.061588,-0.034930,0.637865,0.019570,-0.769865,-0.010835,0.002662,-0.128985,22.316467,-6.860312,17.958496,,,,,,,
1523694535.285588,0.690417,-0.018161,0.510783,0.166278,0.039715,-0.029503,0.636737,0.018160,-0.770833,-0.042178,-0.040820,-0.057643,22.096283,-6.559027,18.257202,,,,,,,
1523694535.315556,0.695112,-0.012979,0.506325,0.226580,0.202909,0.012998,0.640400,0.012978,-0.767897,-0.055713,-0.082162,0.064146,21.948685,-6.408209,18.406494,,,,,,,
1523694535.345524,0.697313,-0.010901,0.506588,-0.115325,-0.022992,0.071579,0.642104,0.010900,-0.766504,-0.018585,-0.044119,0.009836,22.095993,-6.858572,18.708374,,,,,,,
1523694535.375492,0.694437,-0.013505,0.512362,-0.170338,-0.113350,0.098256,0.639877,0.013505,-0.768323,-0.029587,0.024169,-0.116061,22.390717,-6.935659,17.958801,,,,,,,
1523694535.405461,0.692437,-0.012966,0.513615,0.055862,0.002413,0.024798,0.638344,0.012966,-0.769607,-0.063958,0.025700,-0.119370,22.097610,-6.334188,18.106262,,,,,,,
1523694535.435429,0.695940,-0.009619,0.508847,0.210829,0.172670,-0.063702,0.641060,0.009619,-0.767395,-0.068962,-0.056310,0.005554,21.345108,-6.630728,18.182129,,,,,,,
1523694535.465397,0.700213,-0.007005,0.502404,0.118738,0.112317,-0.062639,0.644347,0.007005,-0.764665,-0.078917,-0.072816,0.084855,21.653488,-6.331213,19.080994,,,,,,,
1523694535.495366,0.701669,-0.007237,0.499316,-0.011892,0.011786,-0.076482,0.645459,0.007237,-0.763725,-0.088040,-0.071934,0.076042,22.702698,-6.410940,19.081848,,,,,,,
1523694535.525334,0.699380,-0.008941,0.495539,0.089030,-0.109503,-0.088021,0.643700,0.008941,-0.765190,-0.037087,-0.045287,-0.099297,21.505142,-5.806143,18.478882,,,,,,,
1523694535.555305,0.696268,-0.003505,0.488952,0.394461,-0.052106,-0.049479,0.641337,0.003505,-0.767216,-0.022380,-0.050563,-0.125973,21.432846,-5.580740,18.552917,,,,,,,
1523694535.585274,0.701134,0.007185,0.476246,0.648645,0.355829,-0.123229,0.645050,-0.007185,-0.764070,-0.092789,-0.078921,0.037416,21.216705,-5.278799,19.526611,,,,,,,
1523694535.615242,0.713399,0.020150,0.461015,0.595116,0.342036,-0.107272,0.654256,-0.020149,-0.755967,-0.150533,-0.095635,0.259888,21.520737,-5.054876,19.825867,,,,,,,
1523694535.645211,0.717650,0.023963,0.450660,0.079441,-0.022486,-0.220237,0.657408,-0.023960,-0.753115,-0.131407,-0.137524,0.328784,21.225677,-4.378851,19.523010,,,,,,,
1523694535.675179,0.712049,0.015811,0.449899,-0.295699,-0.280176,-0.162713,0.653286,-0.015810,-0.756908,-0.123516,-0.175566,0.120403,21.752426,-3.931662,19.071472,,,,,,,
1523694535.705147,0.698443,0.005266,0.454642,-0.493100,-0.629874,-0.078332,0.642999,-0.005266,-0.765813,0.007345,-0.136855,-0.098872,21.002762,-3.853369,18.995850,,,,,,,
1523694535.735116,0.679553,-0.010900,0.463244,-0.648316,-0.476495,-0.074344,0.628392,0.010900,-0.777787,0.048640,-0.087163,-0.265334,21.811996,-4.982748,18.250732,,,,,,,
1523694535.765084,0.677201,-0.019454,0.469865,-0.118953,0.166956,0.110804,0.626479,0.019453,-0.779162,-0.066787,-0.054029,-0.158735,22.560760,-5.061193,18.176453,,,,,,,
1523694535.795051,0.686512,-0.010822,0.467935,0.433696,0.329120,0.124907,0.633790,0.010822,-0.773395,-0.124329,-0.076267,0.033695,20.909943,-5.053915,18.025574,,,,,,,
1523694535.825019,0.693072,-0.002332,0.463955,0.120399,0.154996,0.064113,0.638885,0.002332,-0.769264,-0.109160,-0.078763,0.155906,21.287933,-4.980246,18.400452,,,,,,,
1523694535.854988,0.694185,-0.005509,0.469825,-0.410254,-0.032080,0.109720,0.639732,0.005509,-0.768543,-0.136711,-0.075669,0.112369,21.061905,-5.353781,18.851868,,,,,,,
1523694535.884956,0.689835,-0.018414,0.482021,-0.720019,-0.251199,-0.052248,0.636285,0.018413,-0.771199,-0.010263,-0.040187,-0.080043,21.805115,-6.032125,18.854919,,,,,,,
1523694535.914924,0.683097,-0.039609,0.492393,-0.726218,-0.158674,-0.214297,0.630686,0.039599,-0.774993,0.069998,-0.025637,-0.373887,22.625290,-5.886862,17.804749,,,,,,,
1523694535.944892,0.686000,-0.050646,0.492244,0.133994,0.280990,-0.180002,0.632618,0.050624,-0.772773,0.086208,0.026570,-0.364709,22.249557,-6.184790,18.180786,,,,,,,
1523694535.974861,0.699881,-0.035288,0.473766,1.097848,0.564841,-0.087927,0.643708,0.035280,-0.764421,-0.054703,-0.064455,0.075502,21.429092,-5.731100,18.178528,,,,,,,
1523694536.004829,0.714646,-0.011267,0.450064,0.900090,0.356618,-0.021818,0.655290,0.011267,-0.755255,-0.146791,-0.090826,0.344443,21.824890,-4.456533,19.523621,,,,,,,
1523694536.034797,0.706890,-0.011468,0.444755,-0.570443,-0.697517,-0.253075,0.649411,0.011468,-0.760314,0.024966,-0.091897,0.145873,22.647324,-4.535543,19.224365,,,,,,,
,,,,,,,,,,,,,,,,25.303817,51.439158,15.871678,14.140000,178.593750,1523694535.994297,
1523694536.064766,0.681366,-0.048701,0.461903,-1.530178,-0.752070,-0.317655,0.629091,0.048682,-0.775772,0.186812,0.028589,-0.460983,22.557602,-5.061712,17.651428,,,,,,,
1523694536.094734,0.676281,-0.068681,0.476909,-0.267997,0.021746,0.109782,0.624405,0.068627,-0.778047,0.078964,0.012107,-0.519637,22.476044,-5.586569,17.428467,,,,,,,
1523694536.124702,0.674434,-0.061596,0.474207,0.551037,-0.020264,0.050771,0.623255,0.061557,-0.779559,0.001150,-0.112613,-0.236615,22.254944,-5.510046,17.953064,,,,,,,
1523694536.154670,0.681800,-0.039148,0.461008,0.998478,0.460740,0.245613,0.629692,0.039138,-0.775824,-0.182304,-0.190551,0.173255,22.481903,-5.585623,18.403442,,,,,,,
1523694536.184639,0.695247,-0.011408,0.449882,0.792567,0.297414,0.276509,0.640516,0.011408,-0.767825,-0.268751,-0.202692,0.266955,23.018692,-4.313192,18.248657,,,,,,,
1523694536.214576,0.685150,-0.008316,0.447627,-0.505093,-0.784391,-0.163424,0.632750,0.008316,-0.774277,0.039506,-0.135102,0.052704,21.742676,-4.232748,17.947693,,,,,,,
1523694536.244545,0.664392,-0.038674,0.458813,-1.175945,-0.328951,-0.318892,0.616104,0.038664,-0.786683,0.065460,-0.084684,-0.221419,22.931992,-4.988623,17.426331,,,,,,,
1523694536.274513,0.670478,-0.059608,0.463849,-0.242456,0.259254,-0.281480,0.620241,0.059572,-0.782113,0.034025,-0.033205,-0.346183,23.759827,-5.066748,18.027039,,,,,,,
1523694536.304482,0.673510,-0.059908,0.451259,0.523644,0.158477,-0.274415,0.622598,0.059872,-0.780215,0.046088,-0.102887,-0.212720,23.387527,-4.840002,18.100952,,,,,,,
1523694536.334450,0.681193,-0.046045,0.435272,0.647415,0.308735,0.075018,0.629037,0.046029,-0.775978,0.005805,-0.138573,0.004189,22.497437,-3.711218,17.871033,,,,,,,
1523694536.364419,0.688258,-0.032638,0.430027,0.262949,0.207806,0.210147,0.634838,0.032632,-0.771922,-0.013485,-0.117639,0.130396,22.801636,-3.562140,18.320496,,,,,,,
1523694536.394387,0.692607,-0.026504,0.434339,-0.086113,0.100620,0.312298,0.638305,0.026500,-0.769293,-0.056121,-0.028026,0.117315,22.499557,-4.085257,18.847473,,,,,,,
1523694536.424355,0.696534,-0.024223,0.446110,-0.244301,0.117705,0.357972,0.641357,0.024221,-0.766825,-0.129532,0.008784,0.083643,22.563324,-5.210531,18.851990,,,,,,,
1523694536.454322,0.696943,-0.025041,0.457764,-0.266570,-0.042598,0.191900,0.641658,0.025038,-0.766547,-0.123927,0.046602,0.026236,22.786972,-4.987143,18.251282,,,,,,,
1523694536.484292,0.699966,-0.028274,0.462451,-0.099881,0.189230,-0.043695,0.643916,0.028270,-0.764538,-0.121852,0.022328,-0.026234,21.887009,-5.207724,18.626709,,,,,,,
1523694536.514259,0.704264,-0.030227,0.458252,0.134399,0.095261,-0.212845,0.647159,0.030222,-0.761719,-0.062870,-0.024424,-0.012619,21.811996,-5.207373,18.626648,,,,,,,
1523694536.544227,0.706571,-0.029100,0.448886,0.261176,0.072374,-0.177557,0.648936,0.029096,-0.760250,-0.021754,-0.081327,0.009533,22.114868,-5.283148,19.227112,,,,,,,
1523694536.574181,0.706386,-0.025801,0.444180,0.109873,-0.046919,0.068582,0.648854,0.025798,-0.760439,-0.026754,-0.081432,0.021150,21.812592,-5.057531,18.476013,,,,,,,
1523694536.604150,0.702951,-0.021890,0.449107,-0.079631,-0.158421,0.277396,0.646299,0.021889,-0.762734,-0.061125,-0.028404,-0.011268,21.433289,-5.356054,18.252075,,,,,,,
1523694536.634118,0.698463,-0.019513,0.458156,-0.178658,-0.133536,0.248530,0.642902,0.019511,-0.765665,-0.073688,-0.048930,-0.065924,21.886703,-5.058020,18.326050,,,,,,,
1523694536.664086,0.696685,-0.020807,0.464167,-0.156748,-0.001469,0.048083,0.641522,0.020805,-0.766787,-0.102246,-0.030616,-0.120023,21.802261,-6.182333,18.630554,,,,,,,
1523694536.694054,0.695947,-0.023445,0.462693,0.020366,-0.028143,-0.153130,0.640919,0.023443,-0.767216,-0.129490,-0.115835,-0.012692,21.574142,-6.406454,18.481323,,,,,,,
1523694536.724023,0.694431,-0.026103,0.456069,0.055885,-0.078526,-0.253219,0.639713,0.026100,-0.768135,-0.088383,-0.164116,-0.004951,21.879959,-5.283728,17.576965,,,,,,,
1523694536.753991,0.687718,-0.031496,0.450311,-0.069787,-0.240823,-0.248888,0.634444,0.031490,-0.772293,-0.009169,-0.162457,-0.093201,21.129242,-5.579977,17.952759,,,,,,,
1523694536.783959,0.684729,-0.036113,0.446974,-0.019853,0.057986,-0.146855,0.632034,0.036105,-0.774065,-0.022873,-0.172488,-0.069273,21.437180,-5.055914,18.400818,,,,,,,
1523694536.813928,0.687216,-0.036694,0.443738,0.038465,0.025634,-0.098837,0.633944,0.036685,-0.772474,-0.010806,-0.166995,-0.084200,22.709427,-5.286718,18.327393,,,,,,,
1523694536.843896,0.685154,-0.037179,0.442703,-0.020088,-0.068401,-0.005008,0.632338,0.037170,-0.773766,-0.039824,-0.099350,-0.104560,22.035339,-4.834280,17.725220,,,,,,,
1523694536.873864,0.682891,-0.035019,0.443479,0.086117,-0.093714,0.081406,0.630635,0.035012,-0.775256,-0.041020,-0.068245,-0.126218,21.356918,-5.131308,17.651062,,,,,,,
1523694536.903832,0.683435,-0.030735,0.442310,0.156837,0.149772,0.036454,0.631146,0.030730,-0.775022,-0.060940,-0.098998,0.015256,21.286575,-4.980459,18.175476,,,,,,,
1523694536.933801,0.689836,-0.027656,0.440831,0.019252,0.183049,0.037383,0.636151,0.027653,-0.771035,-0.118268,-0.105106,0.028039,21.817993,-4.832037,19.000183,,,,,,,
1523694536.963769,0.690643,-0.028511,0.445493,-0.188185,-0.014742,0.131198,0.636757,0.028507,-0.770503,-0.121254,-0.069874,0.012767,21.734924,-5.282263,18.401855,,,,,,,
1523694536.993737,0.694049,-0.027532,0.450380,0.016573,0.192888,0.150318,0.639395,0.027529,-0.768350,-0.126593,-0.028353,-0.014365,20.681213,-5.427893,18.026917,,,,,,,
1523694537.023705,0.696526,-0.023231,0.451945,0.043667,-0.024588,0.089821,0.641366,0.023229,-0.766848,-0.109689,-0.014486,-0.056379,20.980606,-5.579092,18.177734,,,,,,,
,,,,,,,,,,,,,,,,25.303684,51.439164,15.871678,14.720000,178.242188,1523694536.994277,
1523694537.053674,0.693667,-0.025631,0.452735,-0.148919,-0.109865,-0.108415,0.639134,0.025629,-0.768633,0.009517,0.005652,-0.191267,22.185043,-5.359137,18.552429,,,,,,,
1523694537.083642,0.692778,-0.028327,0.450257,0.175427,0.082697,-0.104109,0.638404,0.028323,-0.769145,-0.044410,-0.004657,-0.107671,22.708389,-5.436636,18.402954,,,,,,,
1523694537.113610,0.694308,-0.020275,0.439599,0.529506,-0.007425,-0.106949,0.639705,0.020274,-0.768318,-0.156093,-0.114680,0.069786,21.661697,-4.832373,17.950012,,,,,,,
1523694537.143578,0.686961,-0.015686,0.430375,0.112750,-0.355787,-0.134616,0.634096,0.015686,-0.773062,-0.030473,-0.150085,-0.014383,21.889832,-4.608252,18.099243,,,,,,,
1523694537.173547,0.676638,-0.019911,0.428212,-0.137668,-0.256284,-0.142364,0.626035,0.019910,-0.779508,-0.015211,-0.129056,-0.157534,22.490265,-4.610891,18.174622,,,,,,,
1523694537.203515,0.675983,-0.023629,0.427118,0.010926,0.088277,-0.083991,0.625474,0.023627,-0.779855,-0.066560,-0.074409,-0.187201,22.868256,-4.537207,18.549500,,,,,,,
1523694537.233483,0.674804,-0.022616,0.422194,0.171609,-0.115630,-0.157187,0.624569,0.022614,-0.780610,0.094990,-0.107926,-0.222671,23.618484,-3.791784,17.346863,,,,,,,
1523694537.263451,0.673354,-0.021481,0.413689,0.248071,0.043463,-0.143429,0.623451,0.021480,-0.781535,-0.011513,-0.104335,-0.154043,22.420944,-3.860876,17.871582,,,,,,,
1523694537.293420,0.674801,-0.014658,0.406382,0.349786,0.011583,-0.025063,0.624659,0.014658,-0.780728,-0.086359,-0.162012,-0.018375,22.355103,-3.260061,18.394104,,,,,,,
1523694537.323388,0.674737,-0.010346,0.401429,0.078890,0.054863,-0.041281,0.624643,0.010346,-0.780810,-0.017022,-0.209976,-0.043882,23.926132,-3.791891,18.622070,,,,,,,
1523694537.353356,0.675086,-0.015569,0.404134,-0.363761,-0.043108,-0.005287,0.624873,0.015568,-0.780539,-0.009562,-0.167805,-0.140649,23.624359,-4.015463,18.697754,,,,,,,
1523694537.383294,0.677756,-0.022529,0.411991,-0.239523,0.175735,0.109663,0.626871,0.022527,-0.778764,-0.068064,-0.054982,-0.224257,22.575272,-3.561346,18.095398,,,,,,,
1523694537.413262,0.681447,-0.019636,0.412937,0.251788,0.115632,0.021645,0.629780,0.019635,-0.776492,-0.060825,-0.035901,-0.134168,22.574524,-3.636343,18.095703,,,,,,,
1523694537.443231,0.688217,-0.013877,0.404010,0.280966,0.295957,-0.094659,0.635083,0.013877,-0.772285,-0.055051,-0.103980,-0.029305,22.435501,-3.259512,19.294189,,,,,,,
1523694537.473199,0.695901,-0.010196,0.398476,0.118716,0.183021,0.005495,0.641027,0.010196,-0.767416,-0.069737,-0.099490,0.020910,22.881592,-3.561666,19.145569,,,,,,,
1523694537.503167,0.698846,-0.010216,0.398421,-0.141396,0.087687,0.053354,0.643284,0.010216,-0.765524,-0.041248,-0.065651,-0.053278,23.253708,-3.264318,18.169617,,,,,,,
1523694537.533135,0.701995,-0.011510,0.403212,-0.065946,0.099695,0.132249,0.645682,0.011509,-0.763484,-0.032095,-0.002400,-0.187352,22.355560,-3.709234,19.220886,,,,,,,
1523694537.563116,0.702098,-0.005778,0.405110,0.191636,-0.031879,0.167723,0.645792,0.005778,-0.763456,-0.010569,0.006627,-0.221804,22.350922,-4.308981,19.448303,,,,,,,
1523694537.593084,0.704277,0.004066,0.403197,0.359085,0.168523,0.169777,0.647460,-0.004066,-0.762053,-0.101775,-0.016686,-0.048677,23.247742,-4.538168,19.299683,,,,,,,
1523694537.623052,0.708596,0.015447,0.399195,0.342982,0.084981,0.116580,0.650672,-0.015447,-0.759165,-0.158347,-0.047923,0.050943,22.203598,-3.858618,19.146423,,,,,,,
1523694537.653020,0.709036,0.020704,0.396761,0.065428,-0.019879,0.016313,0.650945,-0.020703,-0.758806,-0.157293,-0.075672,0.014726,22.052872,-3.932943,19.146667,,,,,,,
1523694537.682989,0.706965,0.018947,0.396894,-0.105110,-0.066611,-0.078595,0.649395,-0.018946,-0.760179,-0.124492,-0.085561,-0.043471,22.574707,-4.385061,19.373718,,,,,,,
1523694537.712957,0.705724,0.014575,0.396159,-0.056570,-0.021692,-0.136148,0.648498,-0.014574,-0.761040,-0.096161,-0.104597,-0.060432,22.281036,-4.382696,20.423584,,,,,,,
1523694537.742925,0.703141,0.012801,0.391650,0.112927,-0.136545,-0.183851,0.646546,-0.012801,-0.762732,-0.079377,-0.121126,-0.035669,22.726669,-4.460302,19.824097,,,,,,,
1523694537.772892,0.699343,0.012516,0.383992,0.170869,-0.088788,-0.196638,0.643647,-0.012516,-0.765185,-0.084916,-0.139889,-0.036832,23.180832,-3.638021,19.145996,,,,,,,
1523694537.802862,0.698527,0.014972,0.376582,0.247670,0.001752,-0.103968,0.643001,-0.014972,-0.765683,-0.083049,-0.173459,-0.026171,22.585190,-3.335119,19.369568,,,,,,,
1523694537.832829,0.697771,0.019786,0.370599,0.205509,-0.019962,-0.022999,0.642368,-0.019785,-0.766105,-0.085026,-0.182852,0.050926,22.738190,-3.260427,19.744324,,,,,,,
1523694537.862797,0.697549,0.023244,0.370036,0.016927,-0.028795,0.094062,0.642150,-0.023242,-0.766191,-0.148696,-0.153256,0.108339,23.636658,-3.414465,19.745422,,,,,,,
1523694537.892766,0.695460,0.022740,0.374393,-0.192748,-0.126008,0.089746,0.640555,-0.022738,-0.767540,-0.160483,-0.123563,0.099083,22.733856,-3.560629,19.520508,,,,,,,
1523694537.922734,0.690603,0.018368,0.380087,-0.241704,-0.173225,0.020504,0.636878,-0.018367,-0.770711,-0.139884,-0.076893,-0.006282,22.433411,-3.783987,19.821228,,,,,,,
1523694537.952703,0.686859,0.011712,0.383761,-0.247927,-0.026853,-0.091524,0.634051,-0.011712,-0.773168,-0.120441,-0.089164,-0.064280,22.209152,-3.707968,19.820801,,,,,,,
1523694537.982671,0.690758,0.005434,0.384514,-0.109206,0.175866,-0.106543,0.637095,-0.005434,-0.770731,-0.111872,-0.129454,-0.079077,22.205124,-4.382498,20.273499,,,,,,,
1523694538.012639,0.695553,0.004098,0.383000,0.042036,0.152811,-0.055258,0.640787,-0.004098,-0.767672,-0.110010,-0.137793,-0.010160,22.504227,-4.383993,20.123718,,,,,,,
1523694538.042608,0.698902,0.004524,0.381419,0.040465,0.083506,-0.020033,0.643353,-0.004524,-0.765520,-0.123364,-0.100075,-0.006483,22.137329,-3.707129,20.345764,,,,,,,
,,,,,,,,,,,,,,,,25.303551,51.439167,15.789596,14.700000,181.406250,1523694537.994256,
1523694538.072576,0.699256,0.004194,0.381319,-0.072110,-0.046734,-0.044500,0.643625,-0.004194,-0.765294,-0.078897,-0.080156,-0.081066,20.933624,-3.852087,19.970764,,,,,,,
1523694538.102544,0.699452,-0.000327,0.382196,-0.182057,0.104963,-0.121448,0.643781,0.000327,-0.765174,-0.055707,-0.064338,-0.121987,21.461456,-3.928854,20.571289,,,,,,,
1523694538.132513,0.702544,-0.005765,0.382197,-0.112731,0.081457,-0.127766,0.646133,0.005765,-0.763167,-0.045578,-0.079465,-0.158373,22.131180,-4.007620,19.821960,,,,,,,
1523694538.162481,0.704099,-0.008527,0.380026,0.055811,0.077670,-0.102064,0.647306,0.008527,-0.762146,-0.022718,-0.063947,-0.135391,20.783936,-3.551855,19.519470,,,,,,,
1523694538.192449,0.706570,-0.005718,0.374538,0.226443,0.066399,-0.072082,0.649200,0.005718,-0.760559,-0.021469,-0.076122,-0.132293,21.162811,-3.253424,19.668518,,,,,,,
1523694538.222417,0.708082,-0.005098,0.370379,0.004563,0.085154,-0.092508,0.650351,0.005098,-0.759580,0.028391,-0.057863,-0.117343,20.790527,-3.251287,20.118347,,,,,,,
1523694538.252386,0.712744,-0.007444,0.370334,-0.072360,0.164536,-0.018072,0.653875,0.007443,-0.756528,-0.026663,-0.056256,-0.075244,21.391541,-3.104086,20.043030,,,,,,,
1523694538.282354,0.715153,-0.008855,0.371761,-0.061505,-0.008863,0.004494,0.655688,0.008855,-0.754942,-0.012316,-0.051930,-0.113360,21.993134,-2.357779,19.065308,,,,,,,
1523694538.312322,0.713481,-0.008389,0.371850,0.086761,-0.032630,0.008882,0.654428,0.008389,-0.756040,-0.015573,-0.032071,-0.179232,21.093933,-2.503347,19.440430,,,,,,,
1523694538.342290,0.714500,-0.005772,0.368728,0.137745,0.092943,-0.035956,0.655210,0.005772,-0.755387,-0.026396,-0.057606,-0.126449,21.691376,-2.805960,19.516968,,,,,,,
1523694538.372259,0.718008,-0.003840,0.366091,0.073541,0.085514,-0.014685,0.657862,0.003840,-0.753090,-0.050578,-0.067134,-0.012749,22.666931,-2.885122,19.742798,,,,,,,
1523694538.402227,0.717523,-0.004575,0.365715,-0.090330,-0.068995,-0.047677,0.657495,0.004575,-0.753407,-0.064645,-0.074933,-0.006664,22.819916,-2.585821,19.741699,,,,,,,
1523694538.432194,0.716259,-0.007561,0.367052,-0.051851,-0.020438,-0.014669,0.656530,0.007561,-0.754224,-0.110601,-0.063225,-0.063021,21.697357,-2.205984,19.514526,,,,,,,
1523694538.462162,0.714115,-0.006145,0.365786,0.092080,-0.087644,-0.030466,0.654918,0.006145,-0.755637,-0.085521,-0.105327,-0.052011,21.696457,-2.206137,19.364563,,,,,,,
1523694538.492131,0.713357,-0.005742,0.364052,0.007277,0.035921,-0.042380,0.654347,0.005742,-0.756135,-0.074162,-0.084660,-0.042418,22.148849,-2.507269,20.265991,,,,,,,
1523694538.522099,0.712753,-0.005522,0.363119,0.030270,-0.051404,-0.023097,0.653890,0.005522,-0.756532,-0.071218,-0.061674,-0.052627,21.998703,-2.431753,20.115662,,,,,,,
1523694538.552037,0.713344,-0.004902,0.361464,0.071650,0.120682,-0.029633,0.654340,0.004902,-0.756147,-0.071713,-0.051991,-0.049364,22.522308,-1.985083,19.139099,,,,,,,
1523694538.581975,0.714261,-0.002139,0.358794,0.125262,-0.045338,-0.012379,0.655039,0.002139,-0.755554,-0.114359,-0.074191,-0.015671,21.699295,-2.055929,19.588989,,,,,,,
1523694538.611943,0.711961,-0.002122,0.358061,-0.073272,-0.032110,-0.010406,0.653300,0.002122,-0.757059,-0.056025,-0.083635,-0.039160,22.373230,-2.433508,20.040833,,,,,,,
1523694538.641911,0.712112,-0.003434,0.359769,-0.050886,0.006892,0.027922,0.653411,0.003434,-0.756958,-0.097091,-0.068909,-0.049820,22.970795,-2.361715,19.515808,,,,,,,
1523694538.671880,0.711791,-0.003025,0.360382,0.013424,0.033480,0.002368,0.653170,0.003025,-0.757168,-0.116320,-0.072468,-0.008671,22.519470,-2.359915,19.290588,,,,,,,
1523694538.701848,0.712982,-0.001621,0.358653,0.136243,0.017360,-0.016697,0.654073,0.001621,-0.756392,-0.076345,-0.040332,-0.068635,21.929672,-1.606817,19.737305,,,,,,,
1523694538.731816,0.712444,0.002927,0.353336,0.233551,0.017307,-0.044324,0.653664,-0.002927,-0.756742,-0.088280,-0.067126,0.017927,22.233856,-1.457739,20.186829,,,,,,,
1523694538.761785,0.714324,0.005791,0.350290,0.047657,0.051420,0.006644,0.655077,-0.005791,-0.755502,-0.077089,-0.070457,0.032831,22.229370,-1.907705,20.188599,,,,,,,
1523694538.791753,0.711426,0.003358,0.352201,-0.199713,-0.140147,-0.015716,0.652892,-0.003358,-0.757406,-0.012053,-0.053939,-0.088480,22.002579,-1.682364,19.512634,,,,,,,
1523694538.821721,0.708521,-0.000696,0.354757,-0.086297,-0.077751,-0.011444,0.650693,0.000696,-0.759304,-0.064465,-0.034006,-0.191670,22.148666,-1.758551,18.988037,,,,,,,
1523694538.851689,0.706820,0.001582,0.353015,0.196843,-0.016927,0.002560,0.649400,-0.001582,-0.760409,-0.095933,-0.106694,-0.073957,21.550949,-1.755484,19.362732,,,,,,,
1523694538.881658,0.707868,0.006602,0.349523,0.163938,0.070007,0.041878,0.650183,-0.006602,-0.759712,-0.082297,-0.122411,-0.008507,22.224121,-2.208059,19.814819,,,,,,,
1523694538.911626,0.708432,0.008927,0.349338,-0.044553,-0.027050,0.015185,0.650600,-0.008926,-0.759331,-0.072139,-0.076172,-0.022834,23.042191,-2.362646,18.915894,,,,,,,
1523694538.941594,0.708266,0.004077,0.352186,-0.251903,0.069656,-0.063917,0.650494,-0.004077,-0.759463,-0.044446,-0.025449,-0.126691,21.767853,-2.431677,19.140503,,,,,,,
1523694538.971562,0.710059,-0.000558,0.353217,-0.023474,0.022537,-0.093531,0.651860,0.000558,-0.758302,-0.030843,-0.060342,-0.165435,21.843292,-2.431952,19.215515,,,,,,,
1523694539.001531,0.711782,0.000358,0.348487,0.192566,0.103817,-0.093450,0.653165,-0.000358,-0.757178,-0.038816,-0.115212,-0.065256,22.077438,-2.057104,20.114197,,,,,,,
1523694539.031499,0.712356,0.003722,0.344285,0.125164,-0.038042,0.009979,0.653595,-0.003722,-0.756797,-0.072159,-0.101014,-0.027718,22.073685,-2.207464,19.739807,,,,,,,
1523694539.061467,0.711868,0.003034,0.344752,-0.117551,0.081755,-0.019074,0.653228,-0.003034,-0.757118,-0.009322,-0.076419,-0.050637,22.676056,-1.835394,19.513550,,,,,,,
,,,,,,,,,,,,,,,,25.303422,51.439167,15.603571,14.530000,182.460938,1523694538.994235,
1523694539.091435,0.715563,0.001851,0.345851,0.016704,0.057816,0.013018,0.656022,-0.001851,-0.754701,-0.059648,-0.041149,-0.100295,22.676193,-1.685629,19.287964,,,,,,,
1523694539.121404,0.713002,0.001433,0.344915,-0.042088,-0.074152,-0.088120,0.654088,-0.001433,-0.756379,-0.027364,-0.076219,-0.058547,21.254410,-1.678701,19.812195,,,,,,,
1523694539.151372,0.713535,-0.000131,0.344447,0.018599,0.008924,0.015194,0.654492,0.000131,-0.756031,-0.096493,-0.081536,-0.046108,22.525925,-2.209112,20.114990,,,,,,,
1523694539.181340,0.709995,0.001369,0.345028,-0.046055,-0.102608,0.032305,0.651811,-0.001369,-0.758343,-0.032914,-0.055546,-0.034092,23.721039,-2.065542,19.065002,,,,,,,
1523694539.211308,0.710947,-0.001635,0.348233,-0.174246,0.095464,0.014973,0.652532,0.001635,-0.757722,-0.016057,-0.010607,-0.170104,21.402145,-1.679739,19.437317,,,,,,,
1523694539.241277,0.711486,-0.003170,0.350280,0.000429,-0.004795,0.007737,0.652938,0.003170,-0.757367,-0.058501,-0.006070,-0.135821,21.854065,-1.756323,19.887817,,,,,,,
1523694539.271245,0.714656,-0.000356,0.347942,0.165536,0.138297,0.000259,0.655338,0.000356,-0.755297,-0.093281,-0.042913,-0.019132,22.450180,-2.283773,20.115295,,,,,,,
1523694539.301213,0.716475,0.001897,0.345870,0.025273,0.045154,-0.002945,0.656710,-0.001897,-0.754102,-0.106036,-0.051906,0.048322,22.156174,-1.682455,20.112732,,,,,,,
1523694539.331181,0.717885,0.001546,0.346838,-0.047663,0.012162,0.031126,0.657773,-0.001546,-0.753176,-0.136747,-0.024348,0.045290,22.448959,-1.909597,19.288757,,,,,,,
1523694539.361150,0.713749,-0.000951,0.348184,-0.155897,-0.208857,-0.082742,0.654653,0.000951,-0.755891,-0.031942,-0.000142,-0.124007,21.402603,-1.679663,19.512329,,,,,,,
1523694539.391118,0.709919,-0.006984,0.348264,-0.077756,0.003916,-0.144708,0.651738,0.006983,-0.758375,0.005031,0.000570,-0.204363,22.455704,-1.683874,20.037842,,,,,,,
1523694539.421086,0.713360,-0.005052,0.343501,0.272313,0.111661,-0.026280,0.654351,0.005052,-0.756136,-0.068048,-0.056825,-0.064909,22.306610,-1.458441,19.811829,,,,,,,
1523694539.451055,0.713852,-0.000826,0.339036,0.122375,0.023711,-0.010308,0.654731,0.000826,-0.755823,-0.015724,-0.077731,-0.022604,22.975555,-1.612188,19.062805,,,,,,,
1523694539.481023,0.715131,0.002575,0.339213,0.085377,0.040843,0.136685,0.655695,-0.002575,-0.754983,-0.092051,-0.030399,-0.034461,22.153458,-1.458273,19.286804,,,,,,,
1523694539.510991,0.716032,0.005271,0.340559,-0.045446,0.032318,0.034309,0.656368,-0.005271,-0.754384,-0.122722,-0.050728,0.023580,21.706635,-1.455740,19.811523,,,,,,,
1523694539.540959,0.714765,0.000447,0.342441,-0.287916,-0.095038,-0.054178,0.655421,-0.000447,-0.755225,-0.035563,0.000691,-0.072045,22.453918,-1.908789,20.113770,,,,,,,
1523694539.570950,0.712383,-0.004754,0.345144,-0.065476,-0.003187,-0.046655,0.653613,0.004754,-0.756776,-0.078662,-0.000817,-0.097350,22.971985,-2.062033,19.214600,,,,,,,
1523694539.600918,0.713250,-0.002395,0.341394,0.267827,0.042715,-0.043257,0.654275,0.002395,-0.756215,-0.068185,-0.024062,-0.050669,23.049820,-1.687521,19.063171,,,,,,,
1523694539.630886,0.712995,0.003645,0.335155,0.230196,0.004423,-0.025129,0.654079,-0.003645,-0.756380,-0.034572,-0.062685,0.020265,21.709488,-1.080893,19.660095,,,,,,,
1523694539.660854,0.715527,0.005535,0.334223,-0.036757,0.103272,0.066206,0.655986,-0.005535,-0.754714,-0.067714,-0.041874,0.046096,22.682510,-1.684607,20.337952,,,,,,,
1523694539.690823,0.713083,0.005163,0.339367,-0.160049,-0.167879,0.135651,0.654142,-0.005163,-0.756316,-0.087979,0.001577,-0.005173,21.928177,-1.532187,19.362000,,,,,,,
1523694539.720791,0.709551,0.005318,0.344506,-0.046313,-0.050179,0.130293,0.651465,-0.005318,-0.758622,-0.079490,0.032281,-0.054336,22.679947,-1.535269,19.662415,,,,,,,
1523694539.750729,0.708179,0.008803,0.346222,0.077578,-0.088448,0.088866,0.650408,-0.008803,-0.759497,-0.138353,0.004637,-0.016809,22.373825,-2.059042,19.514282,,,,,,,
1523694539.780697,0.706333,0.009483,0.346849,-0.056148,-0.012056,0.001316,0.649001,-0.009483,-0.760691,-0.079528,0.000557,-0.016317,21.701096,-1.831015,19.513062,,,,,,,
1523694539.810665,0.705280,0.007283,0.347685,-0.073195,-0.060537,-0.048732,0.648211,-0.007282,-0.761389,-0.075106,-0.002163,-0.069864,23.046402,-2.436834,19.741211,,,,,,,
1523694539.840632,0.703020,0.005336,0.346935,0.031497,-0.044873,-0.046539,0.646497,-0.005336,-0.762861,-0.042997,-0.007054,-0.154086,22.596252,-2.135336,19.214722,,,,,,,
1523694539.870602,0.701224,0.008722,0.343880,0.215873,-0.039448,0.022856,0.645111,-0.008722,-0.764002,-0.048935,-0.029593,-0.123662,23.349213,-1.838720,19.213928,,,,,,,
1523694539.900569,0.701722,0.013856,0.341097,0.122248,0.062613,0.048259,0.645454,-0.013855,-0.763637,-0.101905,-0.076782,0.013148,22.602982,-1.684988,19.587952,,,,,,,
1523694539.930537,0.702212,0.013759,0.342618,-0.151265,-0.024611,0.007648,0.645829,-0.013759,-0.763321,-0.079026,-0.026799,-0.030960,22.598206,-2.209890,19.665039,,,,,,,
1523694539.960505,0.699874,0.007223,0.345990,-0.241397,-0.006660,-0.095793,0.644086,-0.007223,-0.764882,-0.039640,0.001440,-0.161433,23.798004,-1.915823,19.139465,,,,,,,
1523694539.990474,0.700768,0.003789,0.345301,0.055405,-0.000012,-0.088122,0.644782,-0.003789,-0.764320,-0.021384,-0.011149,-0.191231,22.225159,-1.833517,19.363342,,,,,,,
1523694540.020442,0.700748,0.005921,0.340161,0.191339,0.065566,-0.094472,0.644760,-0.005921,-0.764325,-0.009323,-0.073639,-0.058261,22.076523,-1.832617,19.588257,,,,,,,
1523694540.050411,0.704753,0.008472,0.335745,0.125055,0.151195,-0.006178,0.647804,-0.008472,-0.761722,-0.068459,-0.086316,0.064915,23.205978,-1.612326,19.962952,,,,,,,
,,,,,,,,,,,,,,,,25.303298,51.439165,15.784370,14.320000,182.460938,1523694539.994215,
1523694540.080379,0.706074,0.009332,0.336689,-0.120562,-0.031381,0.052433,0.648805,-0.009332,-0.760860,-0.095674,-0.068854,0.059490,22.378754,-1.608984,19.587524,,,,,,,
1523694540.110348,0.704478,0.004445,0.342077,-0.285921,-0.035002,0.022473,0.647611,-0.004445,-0.761921,-0.036832,-0.002070,-0.064983,22.375595,-1.609488,19.062500,,,,,,,
1523694540.140316,0.703895,-0.000889,0.347418,-0.213183,-0.027626,0.004411,0.647173,0.000889,-0.762305,-0.061129,-0.003620,-0.133676,22.974075,-1.986807,19.439331,,,,,,,
1523694540.170284,0.702366,-0.004519,0.349064,-0.061078,-0.004117,-0.069016,0.646001,0.004519,-0.763286,-0.042867,-0.011156,-0.083393,22.227417,-2.057775,20.114258,,,,,,,
1523694540.200253,0.702774,-0.004831,0.346769,0.084058,-0.007759,-0.057175,0.646311,0.004831,-0.763022,-0.060160,-0.048990,-0.042596,22.674408,-1.910543,19.363892,,,,,,,
1523694540.230221,0.701192,-0.003265,0.345136,0.073787,-0.043434,0.035541,0.645108,0.003265,-0.764048,-0.046276,-0.024841,-0.069708,22.899231,-1.612082,18.837769,,,,,,,
1523694540.260189,0.700049,0.001180,0.344284,0.146117,-0.022844,0.104830,0.644236,-0.001180,-0.764789,-0.029994,0.024694,-0.101102,21.699738,-1.831228,19.288086,,,,,,,
1523694540.290157,0.699588,0.004940,0.345302,0.001071,0.007276,0.102569,0.643877,-0.004940,-0.765077,-0.045747,0.031948,-0.052108,21.625198,-2.055441,19.738953,,,,,,,
1523694540.320126,0.700730,0.006357,0.348105,-0.009444,0.036039,0.096138,0.644745,-0.006357,-0.764334,-0.092545,0.035944,-0.028695,22.668564,-2.360739,19.140686,,,,,,,
1523694540.350094,0.699892,0.008530,0.348946,0.080163,-0.029753,0.052578,0.644093,-0.008530,-0.764863,-0.095845,0.034668,-0.027480,21.850311,-1.682058,19.137512,,,,,,,
1523694540.380062,0.699160,0.013151,0.346990,0.203002,-0.028944,0.044151,0.643501,-0.013151,-0.765295,-0.089440,0.030164,-0.013086,21.848663,-1.757193,18.987854,,,,,,,
1523694540.410030,0.697975,0.017030,0.344622,0.085832,-0.010347,0.008887,0.642557,-0.017029,-0.766012,-0.074853,0.008500,0.010138,22.977371,-1.611898,19.362854,,,,,,,
1523694540.439999,0.697362,0.016820,0.344597,-0.049921,-0.066186,-0.010342,0.642089,-0.016820,-0.766409,-0.063827,0.000386,-0.035654,22.450165,-2.059149,19.739380,,,,,,,
1523694540.469967,0.693850,0.014430,0.345365,-0.079754,-0.092466,-0.042294,0.639417,-0.014429,-0.768689,-0.034254,-0.028768,-0.116382,22.589951,-2.360983,18.540649,,,,,,,
1523694540.499934,0.690875,0.014373,0.344682,0.118534,-0.104954,0.002612,0.637129,-0.014372,-0.770588,-0.041426,-0.027513,-0.195583,23.195465,-1.763784,18.463562,,,,,,,
1523694540.529902,0.689552,0.020334,0.340432,0.276980,0.004018,0.014341,0.636043,-0.020332,-0.771351,-0.048961,-0.078987,-0.128567,22.522461,-2.059927,19.289429,,,,,,,
1523694540.559849,0.690426,0.024449,0.337020,0.090372,0.055474,0.015222,0.636658,-0.024446,-0.770723,-0.016800,-0.080092,-0.068907,22.143890,-2.508078,19.440979,,,,,,,
1523694540.589817,0.692690,0.027227,0.337721,0.031160,0.057109,0.107867,0.638355,-0.027224,-0.769225,-0.070957,-0.063352,-0.041017,22.595795,-2.135412,19.139709,,,,,,,
1523694540.619785,0.692433,0.027491,0.340505,-0.079695,0.034362,0.055606,0.638153,-0.027487,-0.769383,-0.036987,0.007300,-0.091671,22.597290,-1.985418,19.139099,,,,,,,
1523694540.649753,0.696089,0.027470,0.341286,0.007375,0.086694,-0.012578,0.640962,-0.027467,-0.767045,-0.081910,-0.016265,-0.052215,23.044586,-2.212500,19.065247,,,,,,,
1523694540.679722,0.696079,0.025367,0.340721,-0.098229,0.004703,-0.102080,0.640989,-0.025364,-0.767094,-0.053694,-0.063168,-0.004924,22.298676,-2.208471,19.739929,,,,,,,
1523694540.709690,0.696044,0.020453,0.340330,-0.108903,-0.024835,-0.128699,0.641035,-0.020452,-0.767203,-0.066893,-0.073695,-0.050821,22.968994,-2.362005,19.215820,,,,,,,
1523694540.739658,0.692365,0.015229,0.339245,-0.117811,-0.126707,-0.145648,0.638268,-0.015228,-0.769628,-0.056038,-0.080185,-0.067607,23.497101,-1.689993,18.613403,,,,,,,
1523694540.769627,0.689118,0.012862,0.337763,0.032320,-0.119179,-0.060302,0.635786,-0.012862,-0.771723,-0.035033,-0.100725,-0.097021,23.048325,-1.612890,18.687866,,,,,,,
1523694540.799595,0.686091,0.014237,0.335965,0.056890,-0.037899,0.007831,0.633436,-0.014236,-0.773629,-0.055219,-0.128861,-0.031470,22.528000,-1.684652,19.587891,,,,,,,
1523694540.829563,0.685388,0.015113,0.337133,-0.078042,-0.046532,0.075925,0.632884,-0.015113,-0.774064,-0.069087,-0.088860,-0.046935,22.971832,-2.211798,19.440186,,,,,,,
1523694540.859531,0.684425,0.013855,0.341677,-0.145980,0.032312,0.069404,0.632150,-0.013854,-0.774687,-0.072687,-0.024155,-0.035020,22.893539,-2.137121,18.764893,,,,,,,
1523694540.889500,0.686524,0.013370,0.344761,-0.032634,0.058671,0.058806,0.633779,-0.013370,-0.773364,-0.138555,-0.022580,0.009189,22.295822,-2.134054,19.139587,,,,,,,
1523694540.919468,0.684901,0.012727,0.345815,-0.113974,-0.098770,-0.039124,0.632528,-0.012726,-0.774398,-0.109015,-0.040527,0.030105,23.270325,-2.138525,19.065063,,,,,,,
1523694540.949406,0.682571,0.006924,0.347661,-0.184915,-0.034423,-0.097847,0.630758,-0.006924,-0.775914,-0.075323,-0.024845,-0.045116,22.592819,-2.660025,19.516846,,,,,,,
1523694540.979374,0.682715,0.003853,0.347334,0.024496,0.049724,-0.050884,0.630880,-0.003853,-0.775836,-0.097128,-0.057625,-0.061810,22.964493,-2.587362,18.841736,,,,,,,
1523694541.009342,0.684388,0.006989,0.343955,0.202347,0.010649,0.002568,0.632166,-0.006989,-0.774766,-0.050044,-0.055938,-0.065581,23.269730,-2.063742,18.839783,,,,,,,
1523694541.039310,0.682688,0.011740,0.341870,0.120740,-0.034127,0.052631,0.630820,-0.011740,-0.775806,-0.040214,-0.022089,-0.078473,22.372772,-1.984335,19.213989,,,,,,,
,,,,,,,,,,,,,,,,25.303159,51.439156,15.848065,14.630000,182.812500,1523694540.994194,
1523694541.069279,0.683469,0.013456,0.341966,0.000651,0.066200,0.032195,0.631413,-0.013456,-0.775296,-0.091465,0.003614,-0.049930,22.069641,-2.432745,19.440613,,,,,,,
1523694541.099247,0.682409,0.013000,0.342859,-0.081915,-0.074550,-0.020999,0.630594,-0.013000,-0.775970,-0.046381,-0.029938,-0.086762,23.416428,-2.439322,18.916382,,,,,,,
1523694541.129215,0.682682,0.010714,0.344023,-0.029089,0.068606,0.003397,0.630823,-0.010714,-0.775818,-0.059931,-0.032087,-0.129425,22.144318,-2.058752,18.764160,,,,,,,
1523694541.159183,0.682346,0.013263,0.342767,0.162613,-0.027565,0.012160,0.630543,-0.013262,-0.776007,-0.111271,-0.047315,-0.038843,22.369019,-2.134695,18.839600,,,,,,,
1523694541.189152,0.684331,0.016702,0.339139,0.115589,0.121803,-0.056225,0.632050,-0.016702,-0.774713,-0.095917,-0.094794,0.050501,22.598038,-1.910421,19.138794,,,,,,,
1523694541.219120,0.685570,0.015063,0.337969,-0.111303,-0.011458,-0.065846,0.633025,-0.015062,-0.773950,-0.071899,-0.055693,0.025354,22.447174,-2.134512,19.364685,,,,,,,
1523694541.249088,0.683493,0.009833,0.339629,-0.162532,-0.028231,-0.081841,0.631458,-0.009832,-0.775313,-0.045749,-0.005472,-0.065812,22.298050,-1.684439,18.762756,,,,,,,
1523694541.279056,0.682513,0.009285,0.338392,0.119961,-0.064351,-0.030457,0.630701,-0.009285,-0.775936,-0.044749,-0.017326,-0.104115,22.747284,-1.761465,18.763306,,,,,,,
1523694541.309025,0.680816,0.012839,0.334869,0.126472,-0.031512,-0.019820,0.629359,-0.012838,-0.776975,-0.042277,-0.091226,-0.060077,22.079971,-1.532568,19.662048,,,,,,,
1523694541.338993,0.679906,0.012440,0.334097,-0.067883,-0.031078,-0.012508,0.628654,-0.012440,-0.777552,-0.033653,-0.090664,-0.093969,23.048492,-2.136999,19.589966,,,,,,,
1523694541.368961,0.678826,0.010478,0.336296,-0.101036,0.000650,0.022587,0.627829,-0.010478,-0.778247,-0.043616,-0.059499,-0.142880,22.823044,-1.911428,19.138916,,,,,,,
1523694541.398930,0.680259,0.011185,0.337185,0.079383,0.042416,0.063173,0.628938,-0.011184,-0.777341,-0.065935,-0.038056,-0.134890,22.075180,-1.832846,19.363281,,,,,,,
1523694541.428898,0.680980,0.014931,0.335664,0.112728,0.027849,0.005683,0.629468,-0.014931,-0.776849,-0.076657,-0.070061,-0.047476,21.999878,-1.907431,19.438477,,,,,,,
1523694541.458866,0.682854,0.015824,0.334595,0.001017,0.087795,-0.017900,0.630914,-0.015823,-0.775657,-0.056268,-0.070297,-0.029122,23.271835,-2.213156,19.440369,,,,,,,
1523694541.488834,0.683740,0.016238,0.335642,-0.026491,0.011797,0.071655,0.631597,-0.016237,-0.775093,-0.033727,-0.040617,-0.080666,22.523071,-2.134710,19.514709,,,,,,,
1523694541.518803,0.686428,0.016893,0.337939,-0.003397,0.165801,0.074710,0.633671,-0.016893,-0.773384,-0.045765,0.021943,-0.138848,22.076065,-1.608068,19.137329,,,,,,,
1523694541.548771,0.688642,0.021644,0.337256,0.233907,-0.011170,0.072934,0.635323,-0.021643,-0.771908,-0.067040,0.002981,-0.044895,22.374405,-1.684561,18.987854,,,,,,,
1523694541.578750,0.687967,0.027690,0.333961,0.145655,0.003255,0.016385,0.634707,-0.027686,-0.772222,-0.082644,-0.046639,0.061010,22.528458,-1.684576,19.662903,,,,,,,
1523694541.608718,0.687090,0.027449,0.335087,-0.138765,-0.072624,0.029028,0.634034,-0.027446,-0.772784,-0.119523,-0.046239,0.040926,22.521866,-2.209768,19.439941,,,,,,,
1523694541.638687,0.681787,0.022078,0.339717,-0.279849,-0.156976,-0.014678,0.630012,-0.022077,-0.776238,-0.109107,-0.054797,-0.000923,21.924423,-1.682547,18.987610,,,,,,,
1523694541.668655,0.678665,0.017762,0.343006,-0.058724,-0.113024,0.002497,0.627639,-0.017761,-0.778268,-0.084334,-0.022904,-0.141150,22.445801,-1.910116,18.763733,,,,,,,
1523694541.698623,0.674858,0.020126,0.340708,0.180825,-0.070860,-0.034657,0.624644,-0.020125,-0.780617,-0.057551,-0.039629,-0.104347,22.527100,-1.684805,19.437866,,,,,,,
1523694541.728591,0.676552,0.024504,0.335470,0.233896,0.099023,-0.033726,0.625904,-0.024502,-0.779482,-0.104831,-0.081471,0.016756,23.048798,-2.286703,19.890564,,,,,,,
1523694541.758560,0.676924,0.029074,0.331885,0.132630,-0.040289,0.018546,0.626117,-0.029070,-0.779153,-0.099430,-0.092070,0.064737,23.049088,-1.987143,19.439331,,,,,,,
1523694541.788528,0.674613,0.030669,0.332379,-0.022707,-0.092371,0.074959,0.624285,-0.030665,-0.780561,-0.055468,-0.030615,-0.050921,22.070816,-1.908422,18.763550,,,,,,,
1523694541.818496,0.671390,0.031548,0.335351,-0.064355,-0.074321,0.091958,0.621750,-0.031543,-0.782548,-0.071411,0.016284,-0.143371,23.122742,-1.987707,19.214417,,,,,,,
1523694541.848464,0.671710,0.031614,0.337529,-0.023883,0.065224,0.027920,0.621999,-0.031608,-0.782347,-0.061925,-0.015969,-0.124955,22.518127,-2.584753,19.441467,,,,,,,
1523694541.878433,0.671991,0.032943,0.337043,0.085915,-0.006030,-0.001766,0.622191,-0.032937,-0.782139,-0.064254,-0.038596,-0.105358,22.442841,-2.659338,19.516724,,,,,,,
1523694541.908401,0.672426,0.035762,0.334191,0.174894,0.044922,-0.026255,0.622472,-0.035754,-0.781792,-0.098851,-0.048062,-0.105598,21.924423,-1.682547,18.987610,,,,,,,
1523694541.938369,0.673633,0.039555,0.329219,0.179375,0.036724,-0.072055,0.623326,-0.039544,-0.780929,-0.059864,-0.083472,-0.089967,22.072327,-1.983053,19.138855,,,,,,,
1523694541.968337,0.674403,0.039037,0.327416,-0.094058,0.033051,-0.056279,0.623940,-0.039027,-0.780465,-0.004631,-0.083593,-0.116920,22.902084,-1.686483,19.438049,,,,,,,
1523694541.998306,0.674374,0.034321,0.329310,-0.161481,-0.000791,-0.055230,0.624025,-0.034315,-0.780618,-0.040926,-0.065173,-0.150199,22.751648,-1.910513,19.738953,,,,,,,
1523694542.028274,0.675355,0.030528,0.329159,-0.030668,0.056657,-0.111662,0.624867,-0.030523,-0.780101,-0.054631,-0.080912,-0.138615,21.781464,-0.931967,18.909546,,,,,,,
,,,,,,,,,,,,,,,,25.303030,51.439147,15.978017,14.580000,183.164062,1523694541.994173,
1523694542.058242,0.676701,0.031036,0.324139,0.183630,0.009249,-0.094407,0.625906,-0.031031,-0.779247,-0.070822,-0.112173,-0.071247,22.609116,-0.710623,18.984070,,,,,,,
1523694542.088211,0.676757,0.032647,0.319240,0.066230,0.021202,-0.091305,0.625918,-0.032641,-0.779172,-0.056552,-0.138685,0.015592,22.459595,-0.934500,19.434814,,,,,,,
1523694542.118179,0.678970,0.030202,0.318723,-0.133443,0.073448,-0.044630,0.627689,-0.030197,-0.777845,-0.078403,-0.115204,0.029569,22.690735,-0.635015,19.958801,,,,,,,
1523694542.148147,0.676879,0.025019,0.321814,-0.243242,-0.140840,-0.057280,0.626151,-0.025016,-0.779267,-0.011267,-0.060173,-0.115004,22.986649,-0.637030,19.283936,,,,,,,
1523694542.178115,0.674012,0.019087,0.325056,-0.192917,-0.048873,-0.006192,0.623996,-0.019086,-0.781161,0.024365,-0.020159,-0.247418,22.389236,-0.334417,19.207458,,,,,,,
1523694542.208084,0.670060,0.018493,0.329590,-0.052039,-0.153183,0.119753,0.620911,-0.018491,-0.783630,0.039657,-0.028643,-0.319336,22.535034,-0.710135,19.133972,,,,,,,
1523694542.238021,0.674650,0.019662,0.331251,0.040812,0.507789,0.082926,0.624487,-0.019661,-0.780755,-0.120764,-0.116081,0.085671,23.509109,-1.163916,19.736328,,,,,,,
1523694542.267990,0.696594,0.026340,0.332902,0.161306,0.681542,0.263987,0.641369,-0.026337,-0.766745,-0.296368,-0.129181,0.342886,22.533859,-1.234457,19.811096,,,,,,,
1523694542.297958,0.706381,0.033814,0.338661,-0.066253,0.018574,0.331607,0.648696,-0.033807,-0.760260,-0.270125,-0.064307,0.345404,21.785233,-1.006247,19.659851,,,,,,,
1523694542.327926,0.693917,0.031688,0.351527,-0.506409,-0.619407,0.243487,0.639215,-0.031683,-0.768340,-0.193582,0.082251,0.085097,22.600739,-1.685354,19.212952,,,,,,,
1523694542.357894,0.674580,0.017308,0.366974,-0.761012,-0.557445,-0.016752,0.624460,-0.017307,-0.780833,-0.039727,0.179172,-0.227438,23.115417,-2.812521,19.367737,,,,,,,
1523694542.387863,0.661224,-0.001636,0.369251,-0.293801,-0.325338,-0.551529,0.614068,0.001636,-0.789221,0.132743,0.161191,-0.442179,23.564926,-2.365362,18.541138,,,,,,,
1523694542.417831,0.663156,-0.005156,0.351953,0.679073,0.355615,-0.416172,0.615584,0.005156,-0.788023,-0.073851,-0.020415,-0.198930,23.800385,-1.316427,18.537048,,,,,,,
1523694542.447799,0.673195,0.016574,0.325600,1.217226,0.307135,-0.057707,0.623385,-0.016573,-0.781707,-0.168353,-0.151914,0.235366,22.382782,-0.709829,18.758911,,,,,,,
1523694542.477767,0.686112,0.043480,0.309388,0.755899,0.452469,0.291302,0.632918,-0.043466,-0.772964,-0.262206,-0.193839,0.394347,22.089081,-0.258215,19.056946,,,,,,,
1523694542.507736,0.686404,0.049932,0.315254,-0.566878,-0.431784,0.330625,0.632953,-0.049911,-0.772546,-0.140643,-0.102585,0.144860,24.108170,-0.942144,19.210693,,,,,,,
1523694542.537704,0.663890,0.033074,0.342007,-1.070601,-0.633417,0.319800,0.615833,-0.033068,-0.787151,-0.131214,0.059939,-0.132145,23.719086,-1.990988,18.614746,,,,,,,
1523694542.567663,0.655369,0.018085,0.356558,-0.402870,-0.081667,-0.105403,0.609338,-0.018084,-0.792674,-0.082116,0.154605,-0.236073,23.564468,-2.365438,18.466125,,,,,,,
1523694542.597631,0.656281,0.012776,0.350957,0.246958,0.069060,-0.311788,0.610110,-0.012776,-0.792183,-0.054064,-0.076015,-0.231864,23.862946,-2.292166,18.091003,,,,,,,
1523694542.627600,0.655902,0.019384,0.332909,0.642359,-0.107164,-0.326224,0.609745,-0.019383,-0.792330,-0.019795,-0.168346,-0.134016,22.689255,-1.009634,20.335266,,,,,,,
1523694542.657568,0.653507,0.024857,0.316502,0.289178,-0.043652,-0.315906,0.607772,-0.024854,-0.793692,0.072617,-0.176211,-0.210122,23.740067,-0.340338,19.358154,,,,,,,
1523694542.687536,0.654661,0.023681,0.310486,-0.002178,0.097298,-0.009381,0.608705,-0.023679,-0.793013,0.046706,-0.122897,-0.115282,22.764359,-0.186331,18.982056,,,,,,,
1523694542.717505,0.657558,0.025732,0.316086,-0.115075,0.059190,0.313426,0.610969,-0.025729,-0.791206,-0.051917,-0.061689,-0.062127,23.137711,-0.487783,19.208435,,,,,,,
1523694542.747473,0.657292,0.025188,0.328306,-0.376868,-0.037620,0.270708,0.610767,-0.025185,-0.791379,-0.070621,0.001580,-0.195635,24.553497,-1.319296,19.062439,,,,,,,
1523694542.777441,0.656308,0.017400,0.338422,-0.376248,0.015374,-0.010658,0.610089,-0.017399,-0.792111,-0.108456,-0.003597,-0.307864,24.997635,-1.546896,18.463562,,,,,,,
1523694542.807409,0.658473,0.012295,0.340669,-0.059727,0.057467,-0.065863,0.611849,-0.012295,-0.790849,-0.072191,-0.087940,-0.434203,23.876740,-1.091925,18.386169,,,,,,,
1523694542.837378,0.662039,0.011429,0.338007,0.126899,0.284157,-0.031851,0.614671,-0.011429,-0.788670,0.022032,-0.083664,-0.378094,23.729126,-0.941107,18.535522,,,,,,,
1523694542.867346,0.676070,0.021765,0.335904,0.382468,0.476973,0.263294,0.625569,-0.021763,-0.779833,-0.149327,-0.085659,-0.119184,24.030472,-0.942236,18.760681,,,,,,,
1523694542.897314,0.685878,0.033715,0.337261,0.135450,0.174625,0.280463,0.632976,-0.033708,-0.773403,-0.151256,-0.043669,-0.044452,23.727188,-1.765051,19.588806,,,,,,,
1523694542.927282,0.686310,0.036652,0.344393,-0.161695,0.025994,0.215393,0.633245,-0.036644,-0.773050,-0.163548,0.062599,-0.087378,23.949783,-1.691580,19.063599,,,,,,,
1523694542.957251,0.690717,0.035137,0.350438,-0.163680,0.148033,0.087406,0.636680,-0.035130,-0.770293,-0.235999,0.102863,-0.078325,23.576309,-1.764517,19.438721,,,,,,,
1523694542.987219,0.686721,0.034258,0.354125,-0.051241,-0.281365,0.062350,0.633616,-0.034252,-0.772855,-0.167780,0.106029,-0.242465,23.274536,-1.988089,19.514465,,,,,,,
1523694543.017187,0.681488,0.035661,0.355106,0.122186,0.071921,0.078123,0.629533,-0.035653,-0.776122,-0.194917,0.040063,-0.183457,24.324951,-2.217367,19.965942,,,,,,,
1523694543.047155,0.687706,0.045549,0.351457,0.448207,0.223761,0.132540,0.634091,-0.045533,-0.771882,-0.267880,-0.007522,-0.001357,23.420502,-2.663290,19.967285,,,,,,,
,,,,,,,,,,,,,,,,25.302887,51.439146,16.050189,14.700000,182.812500,1523694542.994152,
1523694543.077124,0.691298,0.056248,0.346186,0.298273,0.051329,0.074007,0.636512,-0.056218,-0.769180,-0.244438,-0.007564,-0.010162,22.526672,-2.134115,20.114746,,,,,,,
1523694543.107092,0.689439,0.061160,0.344822,0.114127,-0.053404,0.076089,0.634898,-0.061121,-0.770140,-0.303279,0.023615,-0.017321,23.354462,-1.763006,19.963623,,,,,,,
1523694543.137060,0.689886,0.065044,0.344073,0.088019,0.021333,0.032322,0.635087,-0.064998,-0.769667,-0.333634,0.018215,0.015715,23.352661,-1.987921,20.039551,,,,,,,
1523694543.167028,0.685881,0.062428,0.345706,-0.246992,-0.259909,-0.050752,0.632105,-0.062388,-0.772333,-0.245905,0.029612,-0.131857,23.194321,-2.961981,20.268311,,,,,,,
1523694543.196997,0.678908,0.054177,0.349378,-0.240666,-0.106501,-0.108444,0.627006,-0.054151,-0.777097,-0.150596,0.034192,-0.232242,23.646835,-2.439459,19.816467,,,,,,,
1523694543.226965,0.679152,0.051618,0.344537,0.267640,0.015266,-0.226464,0.627281,-0.051595,-0.777049,-0.135017,-0.028910,-0.183446,23.277390,-2.062506,20.114807,,,,,,,
1523694543.256933,0.678714,0.057784,0.329713,0.518268,-0.078667,-0.254953,0.626728,-0.057752,-0.777062,-0.191670,-0.129763,-0.043953,23.427979,-1.913336,19.964233,,,,,,,
1523694543.286901,0.676235,0.060358,0.317497,0.106152,-0.080790,-0.259526,0.624705,-0.060321,-0.778494,-0.167384,-0.168134,0.005393,24.111023,-1.465811,20.562805,,,,,,,
1523694543.316870,0.676462,0.053607,0.315795,-0.267527,0.066955,-0.133154,0.625123,-0.053581,-0.778652,-0.158601,-0.112877,-0.033009,23.436676,-1.537542,20.787781,,,,,,,
1523694543.346838,0.676429,0.045544,0.322208,-0.385371,-0.017125,0.077826,0.625347,-0.045528,-0.778985,-0.114223,-0.042042,-0.115012,23.057648,-1.761145,20.488464,,,,,,,
1523694543.376806,0.674924,0.043006,0.332102,-0.181080,0.011005,0.236714,0.624244,-0.042993,-0.780013,-0.128486,0.070886,-0.156938,23.953262,-2.065390,20.265137,,,,,,,
1523694543.406775,0.676728,0.045959,0.337057,0.042180,0.124000,0.106769,0.625568,-0.045943,-0.778783,-0.210513,0.039351,-0.020869,22.376099,-2.732550,21.017029,,,,,,,
1523694543.436743,0.680360,0.046019,0.336873,-0.073408,0.085188,-0.076544,0.628391,-0.046003,-0.776503,-0.179004,-0.041125,-0.094774,22.447220,-3.257620,21.244202,,,,,,,
1523694543.466711,0.679201,0.039112,0.336856,-0.168421,-0.009594,-0.162836,0.627675,-0.039102,-0.777459,-0.078908,-0.039084,-0.182715,22.975006,-2.660543,20.717041,,,,,,,
1523694543.496679,0.681014,0.036356,0.333643,0.127474,0.084904,-0.107294,0.629149,-0.036348,-0.776401,-0.078581,-0.004347,-0.185437,21.628662,-2.204626,20.564514,,,,,,,
1523694543.526648,0.681274,0.040955,0.328730,0.252460,-0.002307,0.010099,0.629239,-0.040944,-0.776099,-0.063626,0.025349,-0.096704,21.848999,-2.580770,20.416138,,,,,,,
1523694543.556585,0.683978,0.046306,0.325565,0.140968,0.159369,0.029021,0.631187,-0.046289,-0.774214,-0.073280,0.034418,-0.005464,22.378632,-2.208014,20.564880,,,,,,,
1523694543.586545,0.687452,0.046728,0.325781,-0.069534,0.085727,-0.001962,0.633861,-0.046711,-0.772001,-0.093044,0.061329,-0.012240,22.450790,-2.583181,20.716431,,,,,,,
1523694543.616513,0.688443,0.044415,0.327151,-0.078298,0.025247,-0.011497,0.634692,-0.044401,-0.771454,-0.060351,0.072584,-0.064850,22.445526,-2.434286,19.590881,,,,,,,
1523694543.646481,0.688278,0.043714,0.328471,-0.015701,0.004474,0.048247,0.634585,-0.043700,-0.771582,-0.037875,0.061996,-0.119882,22.667526,-2.510656,19.216248,,,,,,,
1523694543.676449,0.688415,0.044935,0.330861,-0.016938,0.040168,0.111074,0.634656,-0.044920,-0.771454,-0.033872,0.052122,-0.117127,21.918610,-2.581991,19.516174,,,,,,,
1523694543.706418,0.690578,0.046255,0.334033,-0.031622,0.091242,0.105688,0.636284,-0.046238,-0.770033,-0.087517,0.035222,-0.056704,22.745682,-2.735113,20.117249,,,,,,,
1523694543.736386,0.691396,0.047250,0.335436,0.034602,0.017217,0.033344,0.636884,-0.047233,-0.769476,-0.142347,0.013633,0.017950,23.870483,-2.665319,19.967468,,,,,,,
1523694543.766354,0.690361,0.048784,0.335306,0.017156,-0.063524,0.035553,0.636041,-0.048765,-0.770078,-0.122934,-0.039080,-0.045565,22.598206,-2.434515,20.040955,,,,,,,
1523694543.796322,0.684182,0.047624,0.337603,-0.096845,-0.235462,0.046299,0.631306,-0.047605,-0.774037,-0.094792,0.008451,-0.122188,22.813644,-3.260687,19.819336,,,,,,,
1523694543.826291,0.679901,0.047455,0.339257,-0.042415,-0.053569,0.001398,0.627992,-0.047437,-0.776739,-0.112214,-0.013019,-0.057352,23.491913,-3.113455,20.119141,,,,,,,
1523694543.856259,0.677889,0.042257,0.340650,-0.223230,-0.032153,-0.110631,0.626574,-0.042244,-0.778183,-0.063036,-0.024040,-0.026535,22.592255,-3.483725,20.795166,,,,,,,
1523694543.886227,0.677301,0.036370,0.341780,-0.140127,-0.034737,-0.076460,0.626261,-0.036362,-0.778732,-0.073680,-0.031342,-0.053437,23.044785,-2.961233,20.343262,,,,,,,
1523694543.916195,0.675660,0.032626,0.342218,-0.078302,-0.012822,-0.040215,0.625064,-0.032620,-0.779859,-0.042377,0.004773,-0.149310,22.744934,-2.810095,20.117554,,,,,,,
1523694543.946164,0.675272,0.034263,0.344336,0.048730,-0.011398,0.167648,0.624727,-0.034256,-0.780059,-0.051515,0.012711,-0.172212,21.166412,-3.252829,20.268494,,,,,,,
1523694543.976132,0.674803,0.038382,0.348535,-0.036453,0.060947,0.185625,0.624268,-0.038372,-0.780235,-0.075760,0.010678,-0.075081,21.239777,-3.552938,20.494751,,,,,,,
1523694544.006100,0.680031,0.038508,0.354437,-0.165744,0.205112,0.127856,0.628334,-0.038499,-0.776957,-0.151558,0.021104,-0.002691,21.613113,-3.629766,20.345215,,,,,,,
1523694544.036069,0.680856,0.035119,0.359524,-0.181092,-0.011896,0.016178,0.629054,-0.035111,-0.776535,-0.077571,0.093888,-0.097809,21.238113,-3.403448,19.969116,,,,,,,
,,,,,,,,,,,,,,,,25.302762,51.439156,15.815314,14.360000,182.109375,1523694543.994132,
1523694544.066037,0.682603,0.034057,0.360510,0.052243,0.104470,0.006651,0.630433,-0.034050,-0.775463,-0.137116,0.088585,-0.052311,21.843292,-2.656576,19.591431,,,,,,,
1523694544.096005,0.681109,0.036292,0.359354,0.060430,-0.183658,0.028249,0.629224,-0.036284,-0.776343,-0.098875,0.054762,-0.051507,21.694672,-2.655676,19.816345,,,,,,,
1523694544.125973,0.673538,0.035677,0.360951,-0.099952,-0.242734,0.022867,0.623342,-0.035670,-0.781103,-0.015752,0.037882,-0.202342,22.285370,-3.408621,19.519653,,,,,,,
1523694544.155942,0.666764,0.033849,0.362727,-0.031274,-0.175864,0.011118,0.618076,-0.033843,-0.785358,-0.061100,0.015471,-0.204419,23.030075,-3.487722,18.770325,,,,,,,
1523694544.185910,0.663346,0.036607,0.360466,0.245787,-0.052295,0.018670,0.615329,-0.036599,-0.787389,-0.033008,0.038156,-0.179652,23.107452,-2.888678,18.168030,,,,,,,
1523694544.215878,0.661708,0.046018,0.356222,0.331504,-0.103168,0.121075,0.613799,-0.046001,-0.788090,-0.060577,0.054363,-0.123852,22.885162,-2.662603,18.242004,,,,,,,
1523694544.245846,0.656843,0.052654,0.356242,0.063629,-0.073840,0.125109,0.609759,-0.052630,-0.790807,-0.117999,0.052996,-0.033824,22.507172,-2.736288,17.867126,,,,,,,
1523694544.275815,0.659286,0.051846,0.360125,-0.189141,0.122931,0.037343,0.611714,-0.051823,-0.789348,-0.132329,0.038502,-0.061375,22.880981,-3.262274,18.544373,,,,,,,
1523694544.305783,0.660458,0.045512,0.363457,-0.237062,0.005960,-0.086170,0.612828,-0.045496,-0.788874,-0.091359,0.009180,-0.169484,23.405197,-3.115026,18.169067,,,,,,,
1523694544.335751,0.659247,0.039335,0.364085,-0.089799,-0.037796,-0.110528,0.612033,-0.039325,-0.789823,-0.030597,0.012469,-0.213793,24.382370,-2.669790,17.792786,,,,,,,
1523694544.365719,0.661074,0.039162,0.359835,0.180208,0.152929,-0.128634,0.613479,-0.039152,-0.788708,-0.079895,-0.029970,-0.125568,23.258652,-2.814291,18.242798,,,,,,,
1523694544.395688,0.666414,0.040202,0.353226,0.104653,0.167176,-0.163866,0.617656,-0.040192,-0.785389,-0.114665,-0.091873,-0.005184,23.490997,-2.664358,19.217285,,,,,,,
1523694544.425656,0.670530,0.036737,0.351050,-0.150228,0.097082,-0.077684,0.620966,-0.036729,-0.782944,-0.094873,-0.136733,-0.051910,24.320908,-2.442648,19.666809,,,,,,,
1523694544.455624,0.668967,0.032335,0.355205,-0.183969,-0.105848,0.079144,0.619836,-0.032329,-0.784033,-0.004648,-0.053684,-0.228525,23.789322,-2.516226,18.691833,,,,,,,
1523694544.485592,0.669167,0.033274,0.358500,0.059293,0.154583,0.131273,0.619974,-0.033268,-0.783885,-0.069895,0.021747,-0.229696,22.891907,-2.436895,18.991089,,,,,,,
1523694544.515561,0.675843,0.037590,0.358985,0.084292,0.182600,0.068389,0.625097,-0.037581,-0.779608,-0.117071,-0.008669,-0.090158,23.637085,-2.740545,18.692627,,,,,,,
1523694544.545529,0.680943,0.037949,0.359153,-0.051805,0.188968,-0.034008,0.629056,-0.037940,-0.776400,-0.134229,-0.030099,0.043322,22.814987,-3.035864,19.668457,,,,,,,
1523694544.575489,0.684560,0.033535,0.359909,-0.173765,0.056916,-0.101094,0.631960,-0.033528,-0.774241,-0.109865,-0.022777,-0.008657,23.636215,-3.414541,19.670410,,,,,,,
1523694544.605457,0.684110,0.027149,0.361127,-0.180747,-0.045236,-0.078620,0.631734,-0.027145,-0.774676,-0.069234,-0.005234,-0.095899,23.864014,-2.591482,18.767151,,,,,,,
1523694544.635426,0.682145,0.024874,0.363084,-0.041640,-0.070892,0.045113,0.630248,-0.024872,-0.775962,-0.044875,0.023926,-0.150903,23.193253,-2.438025,19.216248,,,,,,,
1523694544.665394,0.681588,0.027184,0.362219,0.099832,0.060430,0.056813,0.629778,-0.027180,-0.776266,-0.072710,-0.000697,-0.083033,23.113159,-2.812887,18.992737,,,,,,,
1523694544.695362,0.683402,0.029481,0.360574,0.031762,0.057815,0.001346,0.631144,-0.029477,-0.775072,-0.096292,-0.029300,-0.043471,23.943069,-2.591162,19.442200,,,,,,,
1523694544.725331,0.683840,0.028096,0.359813,-0.097475,0.038011,-0.007258,0.631508,-0.028093,-0.774826,-0.131462,-0.046477,-0.052398,24.540512,-2.893774,19.518738,,,,,,,
1523694544.755299,0.684704,0.025412,0.361215,-0.123284,0.011406,0.006607,0.632223,-0.025409,-0.774336,-0.115088,-0.026303,-0.050005,23.791733,-2.590719,19.217163,,,,,,,
1523694544.785267,0.682369,0.023564,0.362320,-0.099425,-0.099449,0.046167,0.630442,-0.023562,-0.775845,-0.089213,0.004718,-0.060870,24.314758,-2.743139,19.143005,,,,,,,
1523694544.815235,0.678675,0.022789,0.364404,-0.052194,-0.049550,0.037616,0.627583,-0.022787,-0.778183,-0.100377,0.033514,-0.082626,23.335907,-3.263494,19.369629,,,,,,,
1523694544.845204,0.680721,0.022755,0.363169,0.022804,0.129461,-0.060530,0.629174,-0.022753,-0.776898,-0.132195,-0.000548,-0.007175,23.488617,-3.263739,19.819641,,,,,,,
1523694544.875172,0.683112,0.020068,0.359238,-0.064631,0.056921,-0.142558,0.631066,-0.020067,-0.775436,-0.085274,-0.043883,-0.029602,24.915802,-3.045172,19.819519,,,,,,,
1523694544.905140,0.683323,0.015693,0.358091,-0.099520,0.000075,-0.054092,0.631279,-0.015692,-0.775363,-0.060631,-0.029505,-0.130643,23.643539,-2.814367,19.892944,,,,,,,
1523694544.935078,0.682935,0.015631,0.357237,0.053793,0.028703,0.052543,0.630979,-0.015631,-0.775609,-0.094984,0.000113,-0.081660,23.418701,-2.663580,19.667297,,,,,,,
1523694544.965046,0.682890,0.017941,0.355857,0.033641,-0.002761,0.000350,0.630920,-0.017940,-0.775607,-0.105850,-0.022572,-0.016065,23.716125,-2.964849,19.743652,,,,,,,
1523694544.995014,0.682927,0.015810,0.356085,-0.122849,0.038375,-0.052018,0.630971,-0.015810,-0.775612,-0.099828,-0.044081,-0.010963,23.569611,-3.113363,20.569092,,,,,,,
