timestamp(unix),attitude_roll(radians),attitude_pitch(radians),attitude_yaw(radians),rotation_rate_x(radians/s),rotation_rate_y(radians/s),rotation_rate_z(radians/s),gravity_x(G),gravity_y(G),gravity_z(G),user_acc_x(G),user_acc_y(G),user_acc_z(G),magnetic_field_x(microteslas),magnetic_field_y(microteslas),magnetic_field_z(microteslas),latitude(degree),longitude(degree),altitude(meter),speed(m/s),course(degree),timestamp(unix),User Mark
1523524102.227529,-0.652797,-0.081909,-2.635902,0.014561,-0.044789,-0.124095,-0.605374,0.081817,-0.791724,0.133801,0.099213,-0.026833,-29.301758,-16.896833,24.023926,,,,,,,
1523524102.257498,-0.649401,-0.081049,-2.638879,-0.085331,0.116598,-0.072110,-0.602724,0.080960,-0.793831,0.127383,0.075656,-0.104301,-29.827347,-17.044325,24.174255,,,,,,,
,,,,,,,,,,,,,,,,25.323078,51.484267,19.996987,12.120000,163.476562,1523524101.997789,
1523524102.287466,-0.644615,-0.084048,-2.642953,-0.149401,0.127337,-0.063655,-0.598770,0.083949,-0.796509,0.118804,0.062948,-0.137985,-29.758789,-17.420073,23.725830,,,,,,,
1523524102.317434,-0.642088,-0.083847,-2.645937,0.036457,0.082624,-0.117812,-0.596764,0.083749,-0.798033,0.134896,0.055716,-0.110902,-29.305222,-17.196898,23.950134,,,,,,,
1523524102.347402,-0.638432,-0.080083,-2.647890,0.073951,0.072160,-0.152944,-0.594027,0.079997,-0.800457,0.131273,0.102895,-0.151554,-30.054871,-17.567839,24.626221,,,,,,,
1523524102.377371,-0.636755,-0.076665,-2.652086,-0.020034,-0.017441,-0.223243,-0.592842,0.076590,-0.801668,0.120262,0.136499,-0.167891,-30.133926,-17.568159,23.951172,,,,,,,
1523524102.407339,-0.639565,-0.073757,-2.659033,-0.080158,-0.114922,-0.242365,-0.595224,0.073690,-0.800173,0.139596,0.121516,-0.123914,-29.157913,-17.647261,24.252014,,,,,,,
1523524102.437307,-0.642810,-0.072206,-2.666055,-0.096137,-0.055692,-0.197683,-0.597885,0.072143,-0.798328,0.140380,0.113251,-0.117275,-29.316727,-18.396757,24.029907,,,,,,,
1523524102.467275,-0.644676,-0.070650,-2.670806,-0.023845,-0.052052,-0.135835,-0.599440,0.070592,-0.797300,0.144377,0.125194,-0.093203,-29.613876,-18.469831,24.630066,,,,,,,
1523524102.497244,-0.644280,-0.069504,-2.673148,-0.017415,0.033519,-0.066658,-0.599172,0.069448,-0.797602,0.137136,0.115061,-0.135946,-29.313721,-18.321409,24.404602,,,,,,,
1523524102.527212,-0.643026,-0.070875,-2.675126,-0.089452,-0.027175,-0.022965,-0.598114,0.070816,-0.798276,0.107361,0.113495,-0.175189,-30.062637,-18.392729,24.704529,,,,,,,
1523524102.557180,-0.644976,-0.072290,-2.677983,-0.054275,-0.107599,-0.082530,-0.599609,0.072227,-0.797027,0.125473,0.100105,-0.148973,-29.463730,-18.320723,24.404541,,,,,,,
1523524102.587148,-0.648528,-0.071589,-2.680323,-0.008448,-0.124747,-0.079274,-0.602466,0.071527,-0.794932,0.139011,0.093481,-0.093740,-29.084702,-18.097136,24.703857,,,,,,,
1523524102.617117,-0.648278,-0.072724,-2.683118,-0.147568,0.087841,-0.039104,-0.602218,0.072659,-0.795017,0.098633,0.103595,-0.188930,-30.061447,-18.317656,24.779236,,,,,,,
1523524102.647085,-0.647598,-0.077606,-2.687766,-0.245445,-0.053344,-0.024120,-0.601457,0.077528,-0.795134,0.113481,0.102373,-0.221880,-29.915802,-18.618544,24.555481,,,,,,,
1523524102.677053,-0.654004,-0.081508,-2.692856,-0.156395,-0.273050,-0.092026,-0.606349,0.081418,-0.791019,0.169032,0.100619,-0.041654,-29.238434,-18.471449,24.705261,,,,,,,
1523524102.707021,-0.661291,-0.081659,-2.696580,-0.039697,-0.200026,-0.090949,-0.612089,0.081569,-0.786570,0.216459,0.081517,0.061976,-30.364105,-18.766005,25.080872,,,,,,,
1523524102.736990,-0.658867,-0.082227,-2.699646,-0.129397,0.308950,-0.057430,-0.610153,0.082134,-0.788014,0.148361,0.049397,0.028050,-29.991531,-18.917830,24.931641,,,,,,,
1523524102.766958,-0.647826,-0.086475,-2.704539,-0.255352,0.332534,-0.042628,-0.601199,0.086367,-0.794418,0.067355,0.055402,-0.223145,-29.391846,-18.995451,25.007263,,,,,,,
1523524102.796926,-0.643575,-0.090185,-2.711444,-0.183349,0.058009,-0.165903,-0.597620,0.090063,-0.796704,0.109812,0.090876,-0.244677,-30.520401,-19.215605,24.782593,,,,,,,
1523524102.826895,-0.646795,-0.087498,-2.717288,0.032662,-0.173755,-0.226243,-0.600326,0.087386,-0.794966,0.148589,0.119370,-0.124986,-30.372803,-19.366407,24.633240,,,,,,,
1523524102.856855,-0.651412,-0.083007,-2.721566,-0.004468,-0.065613,-0.178430,-0.604222,0.082911,-0.792490,0.166295,0.160451,-0.064627,-29.542297,-19.219481,25.308044,,,,,,,
1523524102.886823,-0.648296,-0.083183,-2.726629,-0.170225,0.193562,-0.106351,-0.601741,0.083087,-0.794357,0.148173,0.140775,-0.146057,-29.998718,-19.592863,24.859375,,,,,,,
1523524102.916791,-0.642706,-0.086332,-2.732855,-0.214022,0.200006,-0.098942,-0.597131,0.086225,-0.797495,0.128214,0.108767,-0.182715,-30.300827,-19.666731,24.634521,,,,,,,
1523524102.946760,-0.637568,-0.090018,-2.739975,-0.265012,0.205762,-0.143739,-0.592832,0.089896,-0.800292,0.060087,0.102883,-0.232118,-29.930481,-20.043547,24.486206,,,,,,,
1523524102.976728,-0.635826,-0.092774,-2.747542,-0.173363,-0.083433,-0.154027,-0.591288,0.092641,-0.801121,0.127818,0.125468,-0.225857,-30.004852,-20.117979,24.711487,,,,,,,
1523524103.006696,-0.641530,-0.092410,-2.753069,-0.044742,-0.181651,-0.132532,-0.595869,0.092279,-0.797762,0.209653,0.111502,-0.056013,-30.153198,-20.042173,24.861084,,,,,,,
1523524103.036664,-0.644902,-0.091552,-2.755044,-0.026356,-0.014498,-0.033593,-0.598602,0.091424,-0.795812,0.191314,0.114020,0.010838,-30.078644,-20.267195,25.162048,,,,,,,
,,,,,,,,,,,,,,,,25.322995,51.484303,19.543155,11.350000,169.101562,1523524102.997779,
1523524103.066633,-0.638397,-0.094178,-2.756964,-0.167207,0.301072,0.019264,-0.593268,0.094039,-0.799493,0.155920,0.088014,-0.164252,-30.152145,-20.116865,25.161377,,,,,,,
1523524103.096601,-0.629935,-0.100630,-2.762970,-0.334474,0.255475,-0.087362,-0.586112,0.100460,-0.803977,0.073981,0.090595,-0.313408,-29.930771,-20.343092,24.937378,,,,,,,
1523524103.126600,-0.630677,-0.105022,-2.772725,-0.266061,-0.147340,-0.248877,-0.586442,0.104829,-0.803178,0.112657,0.171996,-0.260955,-30.157242,-20.492079,24.937866,,,,,,,
1523524103.156568,-0.638505,-0.104223,-2.783486,-0.153043,-0.259815,-0.313666,-0.592761,0.104034,-0.798630,0.188022,0.189911,-0.140747,-30.536850,-21.090147,25.165100,,,,,,,
1523524103.186536,-0.645830,-0.102039,-2.792810,-0.117459,-0.133769,-0.270072,-0.598730,0.101862,-0.794446,0.190680,0.219640,-0.065570,-30.313065,-21.166227,25.090515,,,,,,,
1523524103.216504,-0.647616,-0.100396,-2.800822,-0.110501,0.035962,-0.230819,-0.600249,0.100227,-0.793508,0.180587,0.205467,-0.043605,-30.166046,-21.691511,25.467651,,,,,,,
1523524103.246473,-0.643897,-0.099188,-2.808584,-0.141662,0.225209,-0.234230,-0.597365,0.099025,-0.795831,0.142455,0.169118,-0.094855,-30.543121,-21.765028,25.242798,,,,,,,
1523524103.276441,-0.637645,-0.099657,-2.816990,-0.160154,0.167761,-0.218202,-0.592351,0.099492,-0.799513,0.165547,0.121578,-0.180178,-29.866821,-21.767851,25.468140,,,,,,,
1523524103.306409,-0.634760,-0.102108,-2.824666,-0.228011,0.086866,-0.174486,-0.589896,0.101931,-0.801019,0.116415,0.183988,-0.181937,-30.397186,-22.215620,25.319641,,,,,,,
1523524103.336378,-0.631366,-0.106589,-2.834240,-0.317490,0.126469,-0.182060,-0.586898,0.106388,-0.802640,0.132705,0.193371,-0.296817,-30.400925,-22.590605,25.321106,,,,,,,
1523524103.366346,-0.632529,-0.109497,-2.843322,-0.203146,-0.099038,-0.190266,-0.587645,0.109278,-0.801704,0.145049,0.218176,-0.240349,-29.800949,-22.593290,25.321411,,,,,,,
1523524103.396314,-0.636218,-0.110168,-2.851068,-0.157081,-0.063030,-0.189204,-0.590555,0.109945,-0.799472,0.180079,0.218607,-0.186612,-30.027725,-22.817198,25.397217,,,,,,,
1523524103.426282,-0.639635,-0.109854,-2.858187,-0.109179,-0.118263,-0.209357,-0.593304,0.109634,-0.797476,0.187772,0.214890,-0.121377,-30.334167,-23.415892,25.324463,,,,,,,
1523524103.456251,-0.641889,-0.108565,-2.866711,-0.172139,0.052363,-0.273510,-0.595185,0.108352,-0.796250,0.150345,0.180803,-0.099075,-31.010483,-23.413069,25.099121,,,,,,,
1523524103.486219,-0.640085,-0.109846,-2.877400,-0.281143,0.059858,-0.244818,-0.593663,0.109626,-0.797210,0.129934,0.144632,-0.220063,-30.786667,-23.713774,25.400452,,,,,,,
1523524103.516187,-0.643878,-0.111323,-2.886711,-0.173557,-0.173459,-0.195495,-0.596585,0.111093,-0.794822,0.156018,0.164145,-0.114312,-30.942200,-24.088377,25.101868,,,,,,,
1523524103.546155,-0.648655,-0.112111,-2.893669,-0.174270,-0.044124,-0.151940,-0.600322,0.111876,-0.791894,0.152293,0.192048,-0.114814,-30.113037,-23.941664,25.551697,,,,,,,
1523524103.576124,-0.648998,-0.113364,-2.900494,-0.140870,0.011100,-0.160488,-0.600509,0.113121,-0.791575,0.196792,0.139351,-0.149358,-30.940704,-23.938383,25.101257,,,,,,,
1523524103.606092,-0.650802,-0.113186,-2.906300,-0.114572,-0.067613,-0.156140,-0.601948,0.112945,-0.790506,0.207081,0.142671,-0.097952,-30.944611,-24.463148,25.328369,,,,,,,
1523524103.636060,-0.652730,-0.114877,-2.913086,-0.199866,-0.051416,-0.163672,-0.603354,0.114624,-0.789192,0.206274,0.157470,-0.063744,-30.194336,-24.616224,25.629395,,,,,,,
1523524103.666028,-0.651432,-0.117348,-2.920329,-0.164133,0.049515,-0.173341,-0.602156,0.117079,-0.789746,0.203627,0.149721,-0.074252,-30.872894,-25.063017,25.780823,,,,,,,
1523524103.695997,-0.647037,-0.119583,-2.927418,-0.182906,0.117745,-0.198993,-0.598519,0.119299,-0.792175,0.151238,0.148905,-0.121750,-31.177658,-25.586561,25.857727,,,,,,,
1523524103.725965,-0.642023,-0.121678,-2.937389,-0.237818,0.135570,-0.298139,-0.594389,0.121378,-0.794963,0.132734,0.161199,-0.215596,-30.352417,-25.515348,25.782837,,,,,,,
1523524103.755933,-0.641845,-0.122624,-2.948865,-0.229182,-0.093895,-0.309622,-0.594178,0.122317,-0.794977,0.166779,0.178144,-0.168173,-31.180664,-25.661924,25.483032,,,,,,,
1523524103.785901,-0.645189,-0.124248,-2.960636,-0.286664,-0.030127,-0.289492,-0.596713,0.123929,-0.792826,0.157184,0.219333,-0.065923,-31.184540,-26.186689,25.710144,,,,,,,
1523524103.815870,-0.643215,-0.126526,-2.972823,-0.274183,0.142974,-0.280062,-0.594976,0.126188,-0.793774,0.164282,0.191927,-0.095081,-30.739075,-26.414061,25.336243,,,,,,,
1523524103.845822,-0.640443,-0.127515,-2.983273,-0.211375,0.151044,-0.239541,-0.592698,0.127170,-0.795320,0.158250,0.141736,-0.082579,-30.895050,-27.013350,25.338562,,,,,,,
1523524103.875790,-0.636585,-0.128719,-2.992198,-0.199757,0.148720,-0.216084,-0.589534,0.128364,-0.797477,0.127788,0.132165,-0.116387,-31.346970,-27.161390,25.263977,,,,,,,
1523524103.905758,-0.634067,-0.129722,-3.001196,-0.141296,0.038372,-0.260678,-0.587448,0.129358,-0.798855,0.135513,0.152136,-0.123859,-31.044907,-26.862913,25.112915,,,,,,,
1523524103.935727,-0.633133,-0.128444,-3.009153,-0.079449,0.015945,-0.265941,-0.586799,0.128091,-0.799536,0.153617,0.178091,-0.100748,-31.649200,-27.385038,25.264709,,,,,,,
1523524103.965695,-0.632099,-0.127601,-3.017825,-0.179573,0.060869,-0.272453,-0.586035,0.127255,-0.800229,0.136145,0.204074,-0.119128,-31.128586,-27.687605,25.041138,,,,,,,
1523524103.995663,-0.632118,-0.128836,-3.028331,-0.238735,-0.021957,-0.259628,-0.585957,0.128480,-0.800091,0.148991,0.194259,-0.073780,-30.909271,-28.213667,24.968384,,,,,,,
1523524104.025632,-0.631945,-0.131533,-3.038898,-0.252346,0.053436,-0.246930,-0.585612,0.131154,-0.799910,0.137476,0.165202,-0.062258,-31.209412,-28.137465,24.817932,,,,,,,
1523524104.055600,-0.631011,-0.133992,-3.048770,-0.221510,0.028897,-0.243686,-0.584672,0.133591,-0.800193,0.117372,0.130905,-0.044411,-31.361786,-28.511549,25.044312,,,,,,,
,,,,,,,,,,,,,,,,25.322953,51.484294,19.308052,7.900000,184.218750,1523524103.997768,
1523524104.085568,-0.629464,-0.135929,-3.058139,-0.186006,0.080905,-0.249032,-0.583281,0.135511,-0.800886,0.100752,0.106204,-0.054995,-30.462570,-28.590605,25.045105,,,,,,,
1523524104.115567,-0.626672,-0.137172,-3.067948,-0.191124,0.079099,-0.292721,-0.580943,0.136742,-0.802374,0.078136,0.102500,-0.107889,-31.141006,-28.887617,24.970947,,,,,,,
1523524104.145535,-0.628247,-0.137180,-3.079007,-0.182035,-0.088493,-0.338365,-0.582205,0.136750,-0.801458,0.095358,0.122069,-0.051799,-31.146835,-29.562437,25.123657,,,,,,,
1523524104.175503,-0.630446,-0.137574,-3.090926,-0.247878,0.000902,-0.332124,-0.583935,0.137141,-0.800131,0.091045,0.146520,-0.023004,-30.470505,-29.565260,25.348999,,,,,,,
1523524104.205472,-0.630126,-0.139275,-3.103112,-0.264037,0.001788,-0.302296,-0.583540,0.138825,-0.800128,0.074858,0.155807,-0.056546,-31.379608,-30.161680,24.825928,,,,,,,
1523524104.235440,-0.631408,-0.141625,-3.115973,-0.307584,0.004289,-0.341748,-0.584371,0.141152,-0.799115,0.040212,0.167732,-0.014194,-30.860016,-30.614164,24.677979,,,,,,,
1523524104.265408,-0.630780,-0.144619,-3.130406,-0.344490,0.099009,-0.349332,-0.583617,0.144115,-0.799137,0.040069,0.125416,-0.062131,-30.637863,-30.990019,24.829651,,,,,,,
1523524104.295376,-0.630534,-0.148202,3.137951,-0.341582,0.004599,-0.373740,-0.583112,0.147660,-0.798858,0.000547,0.132140,-0.030961,-30.492676,-31.290983,24.530945,,,,,,,
1523524104.325345,-0.632652,-0.150785,3.122505,-0.357553,0.013134,-0.373756,-0.584576,0.150214,-0.797311,0.002438,0.106042,-0.025260,-29.972214,-31.294065,23.781189,,,,,,,
1523524104.355313,-0.634340,-0.154294,3.107045,-0.386632,-0.005067,-0.342866,-0.585605,0.153683,-0.795893,-0.008358,0.094166,0.002650,-29.901382,-31.894087,24.083618,,,,,,,
1523524104.385281,-0.636060,-0.158122,3.092758,-0.339724,0.025357,-0.303438,-0.586619,0.157464,-0.794406,-0.026265,0.069099,0.026584,-30.280411,-32.117676,23.784363,,,,,,,
1523524104.415249,-0.636399,-0.161243,3.080429,-0.287477,0.067416,-0.256569,-0.586593,0.160545,-0.793808,-0.029083,0.040276,0.000427,-30.062027,-32.643875,23.561523,,,,,,,
1523524104.445218,-0.636477,-0.163999,3.070490,-0.227046,0.032893,-0.204277,-0.586390,0.163265,-0.793403,-0.044759,0.056263,-0.010369,-29.688248,-32.496017,23.111084,,,,,,,
1523524104.475186,-0.637062,-0.166140,3.061553,-0.216263,0.053055,-0.205347,-0.586645,0.165377,-0.792777,-0.018320,0.066129,-0.033471,-29.913513,-32.794556,23.562195,,,,,,,
1523524104.505154,-0.637149,-0.167806,3.052003,-0.225695,0.054374,-0.238388,-0.586549,0.167020,-0.792504,-0.015426,0.104602,-0.062156,-29.992722,-32.944641,23.112732,,,,,,,
1523524104.535122,-0.639173,-0.169540,3.041308,-0.265548,-0.053727,-0.264947,-0.587978,0.168729,-0.791081,-0.007954,0.128695,-0.032512,-29.997192,-33.619247,23.490417,,,,,,,
1523524104.565091,-0.642246,-0.170773,3.029732,-0.243748,0.009129,-0.295894,-0.590282,0.169944,-0.789103,-0.002660,0.129022,0.010188,-30.225632,-33.918289,23.416565,,,,,,,
1523524104.595059,-0.642392,-0.171297,3.018079,-0.217794,0.063367,-0.311910,-0.590343,0.170461,-0.788945,-0.000660,0.109263,0.004415,-29.184357,-34.523422,22.969482,,,,,,,
1523524104.625027,-0.642756,-0.170858,3.006462,-0.191025,0.046510,-0.341709,-0.590675,0.170028,-0.788790,-0.002190,0.111588,0.035449,-30.083435,-34.519226,23.119019,,,,,,,
1523524104.654996,-0.642913,-0.169819,2.994313,-0.186400,0.091328,-0.370519,-0.590904,0.169004,-0.788839,0.010811,0.122896,0.043691,-30.016220,-35.119827,22.821472,,,,,,,
1523524104.684964,-0.642597,-0.168946,2.981722,-0.203607,0.060567,-0.372629,-0.590744,0.168143,-0.789143,0.022781,0.133447,0.026448,-29.194092,-35.273758,22.597473,,,,,,,
1523524104.714932,-0.643550,-0.169349,2.968612,-0.213254,0.054224,-0.372637,-0.591455,0.168540,-0.788526,0.031930,0.159081,0.029126,-29.574905,-35.946884,22.749939,,,,,,,
1523524104.744900,-0.643812,-0.170107,2.956023,-0.227285,0.068819,-0.328968,-0.591584,0.169288,-0.788268,0.026658,0.154046,0.006072,-29.728973,-36.171494,22.450806,,,,,,,
1523524104.774869,-0.643997,-0.172465,2.944545,-0.253272,0.063165,-0.268262,-0.591489,0.171611,-0.787837,0.012097,0.154011,-0.010091,-29.878357,-36.020966,22.300171,,,,,,,
1523524104.804837,-0.644315,-0.176286,2.933392,-0.281235,0.039694,-0.246938,-0.591341,0.175374,-0.787119,0.025591,0.133388,-0.033010,-29.811157,-36.621567,22.002563,,,,,,,
1523524104.834805,-0.645676,-0.180189,2.922353,-0.284646,0.002448,-0.238376,-0.591995,0.179215,-0.785761,0.025375,0.114898,-0.006247,-29.887329,-36.920929,22.303772,,,,,,,
1523524104.864791,-0.647158,-0.183626,2.910860,-0.282277,0.018598,-0.269291,-0.592784,0.182596,-0.784387,0.019862,0.093909,-0.009330,-29.139313,-36.849747,21.853821,,,,,,,
1523524104.894760,-0.647811,-0.186307,2.898604,-0.309717,0.054966,-0.295973,-0.592999,0.185232,-0.783606,0.008022,0.079112,-0.048425,-30.719498,-37.143005,21.479187,,,,,,,
1523524104.924728,-0.649232,-0.189304,2.885016,-0.338644,0.007430,-0.322604,-0.593774,0.188175,-0.782317,-0.012122,0.079418,-0.044969,-30.420868,-37.369202,21.630249,,,,,,,
1523524104.954696,-0.651736,-0.191784,2.870468,-0.345979,0.007611,-0.347108,-0.595445,0.190611,-0.780455,-0.021773,0.078921,-0.040209,-29.603531,-37.823410,21.107483,,,,,,,
1523524104.984664,-0.654256,-0.194003,2.855823,-0.326877,-0.005260,-0.336428,-0.597152,0.192789,-0.778614,-0.009629,0.061301,-0.029538,-30.202881,-38.120102,21.708374,,,,,,,
1523524105.014633,-0.656205,-0.195534,2.842772,-0.274497,0.046443,-0.303408,-0.598488,0.194290,-0.777214,-0.027504,0.067719,-0.001244,-29.836014,-38.796982,21.486267,,,,,,,
1523524105.044601,-0.656684,-0.196869,2.830872,-0.261852,0.044052,-0.271422,-0.598701,0.195599,-0.776721,-0.008584,0.068103,-0.037229,-29.613113,-38.873199,21.261658,,,,,,,
,,,,,,,,,,,,,,,,25.322904,51.484272,19.489546,6.050000,204.257812,1523524104.997758,
1523524105.074569,-0.657457,-0.198931,2.819636,-0.272563,0.068362,-0.246959,-0.599053,0.197622,-0.775937,-0.005637,0.076411,-0.045261,-30.065033,-39.245865,21.562988,,,,,,,
1523524105.104537,-0.657323,-0.201752,2.808609,-0.302554,0.067231,-0.227794,-0.598606,0.200386,-0.775573,-0.014553,0.078605,-0.067796,-30.071472,-39.845917,21.490356,,,,,,,
1523524105.134536,-0.658055,-0.204916,2.797308,-0.288745,0.036507,-0.243748,-0.598783,0.203485,-0.774629,-0.016986,0.081733,-0.041075,-29.474060,-39.699280,20.815063,,,,,,,
1523524105.164505,-0.658992,-0.206497,2.785965,-0.244738,0.047245,-0.276748,-0.599310,0.205032,-0.773813,0.016150,0.055084,-0.036216,-30.750778,-40.143082,21.266174,,,,,,,
1523524105.194473,-0.660027,-0.207618,2.774418,-0.260738,0.039916,-0.286344,-0.599970,0.206129,-0.773010,0.020044,0.051470,-0.028000,-30.305283,-40.595078,21.268188,,,,,,,
1523524105.224441,-0.660975,-0.208237,2.761977,-0.260406,0.059397,-0.335387,-0.600624,0.206736,-0.772340,0.012596,0.082968,-0.038421,-29.483322,-40.674164,20.893921,,,,,,,
1523524105.254409,-0.662555,-0.208673,2.747505,-0.315762,0.036478,-0.383341,-0.601788,0.207162,-0.771318,0.035397,0.090415,-0.053160,-29.712967,-41.272888,21.121216,,,,,,,
1523524105.284378,-0.664488,-0.209467,2.732481,-0.315723,0.050263,-0.379094,-0.603176,0.207939,-0.770024,0.018307,0.113243,-0.034038,-29.639893,-41.423294,21.046875,,,,,,,
1523524105.314346,-0.665185,-0.208986,2.717728,-0.239652,0.070504,-0.413156,-0.603774,0.207468,-0.769682,0.024795,0.132711,-0.067903,-28.971664,-42.101303,21.049927,,,,,,,
1523524105.344314,-0.667351,-0.206521,2.703441,-0.200351,-0.013299,-0.447141,-0.605755,0.205056,-0.768772,0.019298,0.141547,-0.018658,-29.047562,-42.325729,21.275757,,,,,,,
1523524105.374282,-0.670149,-0.203088,2.689270,-0.184281,0.006808,-0.440759,-0.608337,0.201694,-0.767622,0.046615,0.134197,0.010908,-28.755493,-43.077118,21.203918,,,,,,,
1523524105.404251,-0.671738,-0.200742,2.674903,-0.234353,0.033459,-0.436552,-0.609849,0.199397,-0.767022,0.026261,0.133214,0.016305,-27.405090,-42.858490,20.903687,,,,,,,
1523524105.434219,-0.673506,-0.199579,2.659818,-0.261146,0.019660,-0.429100,-0.611349,0.198257,-0.766123,0.014181,0.122193,0.007837,-27.937576,-43.830719,21.282288,,,,,,,
1523524105.464187,-0.675793,-0.199279,2.644781,-0.283759,0.005744,-0.405666,-0.613136,0.197963,-0.764769,0.012916,0.113622,0.010253,-27.794601,-44.132034,20.608582,,,,,,,
1523524105.494155,-0.678429,-0.200560,2.630357,-0.264773,-0.006231,-0.371543,-0.614990,0.199218,-0.762953,0.005279,0.084931,0.042249,-26.895111,-44.136169,20.534058,,,,,,,
1523524105.524124,-0.680119,-0.200936,2.616658,-0.255989,0.041591,-0.375844,-0.616231,0.199587,-0.761854,-0.008570,0.077085,0.023740,-27.573227,-44.358261,20.384644,,,,,,,
1523524105.554092,-0.682240,-0.201265,2.602328,-0.280683,-0.000776,-0.386476,-0.617805,0.199909,-0.760494,0.008949,0.055584,0.036037,-26.756638,-45.112076,20.238037,,,,,,,
1523524105.584060,-0.685704,-0.201666,2.587467,-0.295531,0.009940,-0.395017,-0.620385,0.200302,-0.758287,0.006920,0.061829,0.089723,-26.308884,-45.563721,20.615051,,,,,,,
1523524105.614028,-0.686753,-0.201817,2.572216,-0.303650,0.103483,-0.396187,-0.621161,0.200450,-0.757612,0.007666,0.048879,0.041563,-26.089462,-45.940002,20.316711,,,,,,,
1523524105.643997,-0.687165,-0.202421,2.556918,-0.330490,0.091760,-0.380221,-0.621395,0.201041,-0.757263,-0.018101,0.069894,0.007996,-26.321182,-46.164719,19.567505,,,,,,,
1523524105.673965,-0.688566,-0.204066,2.540819,-0.364670,0.071737,-0.393006,-0.622245,0.202653,-0.756135,-0.035516,0.075133,-0.033385,-25.204163,-46.695190,19.120178,,,,,,,
1523524105.703933,-0.691380,-0.205720,2.524255,-0.369312,-0.012180,-0.395059,-0.624156,0.204272,-0.754122,-0.048177,0.069013,-0.009581,-24.907181,-46.996521,19.121521,,,,,,,
1523524105.733901,-0.694536,-0.207138,2.507545,-0.363565,0.059097,-0.410036,-0.626347,0.205660,-0.751925,-0.065426,0.064223,0.042116,-24.756439,-46.922195,19.121277,,,,,,,
1523524105.763870,-0.695301,-0.208189,2.490460,-0.383701,0.088924,-0.413279,-0.626783,0.206688,-0.751279,-0.069750,0.030876,0.014173,-24.615601,-47.298737,18.222900,,,,,,,
1523524105.793838,-0.696527,-0.209414,2.472929,-0.383576,0.103874,-0.423948,-0.627541,0.207887,-0.750315,-0.081169,0.039992,0.045527,-24.095856,-47.826065,18.225281,,,,,,,
1523524105.823806,-0.695991,-0.209978,2.455497,-0.361741,0.195304,-0.437878,-0.627063,0.208438,-0.750562,-0.099377,0.075116,0.001981,-23.271347,-47.605225,17.774780,,,,,,,
1523524105.853750,-0.694315,-0.209627,2.437901,-0.349006,0.161362,-0.451683,-0.625851,0.208095,-0.751667,-0.083972,0.108540,-0.020107,-22.977051,-48.131622,17.702026,,,,,,,
1523524105.883718,-0.694177,-0.208876,2.421039,-0.317266,0.121818,-0.430310,-0.625847,0.207361,-0.751874,-0.092460,0.135581,-0.003924,-22.755798,-48.507629,17.703613,,,,,,,
1523524105.913686,-0.694228,-0.208029,2.405440,-0.295094,0.109800,-0.391918,-0.625997,0.206532,-0.751977,-0.079493,0.160183,0.012277,-21.715591,-48.813431,16.580383,,,,,,,
1523524105.943654,-0.693349,-0.207835,2.391109,-0.290957,0.133925,-0.347194,-0.625362,0.206342,-0.752558,-0.059224,0.158526,0.013498,-21.342102,-48.965103,16.581177,,,,,,,
1523524105.973623,-0.692907,-0.207896,2.377942,-0.267752,0.102868,-0.320511,-0.625021,0.206402,-0.752825,-0.043467,0.143956,0.023073,-21.798981,-49.338577,16.057434,,,,,,,
1523524106.003591,-0.692639,-0.207861,2.365286,-0.255091,0.065655,-0.322591,-0.624824,0.206368,-0.752997,-0.027275,0.135338,0.009390,-21.800934,-49.488647,15.983032,,,,,,,
1523524106.033559,-0.694162,-0.207721,2.351923,-0.294634,0.026638,-0.350291,-0.625989,0.206230,-0.752067,-0.021701,0.139717,0.027107,-21.129715,-49.417404,15.233093,,,,,,,
,,,,,,,,,,,,,,,,25.322854,51.484244,19.611085,5.810000,232.031250,1523524105.997747,
1523524106.063527,-0.697464,-0.208076,2.337740,-0.281911,-0.006289,-0.358760,-0.628421,0.206578,-0.749940,0.012927,0.109584,0.047272,-21.054871,-49.342896,15.082825,,,,,,,
1523524106.093496,-0.700002,-0.208695,2.323452,-0.310421,0.049140,-0.372693,-0.630240,0.207183,-0.748245,-0.021524,0.119370,0.065490,-20.014359,-49.798401,14.260132,,,,,,,
1523524106.123464,-0.702035,-0.210486,2.307742,-0.368176,0.026982,-0.373785,-0.631520,0.208935,-0.746677,-0.004528,0.079350,0.028476,-20.617783,-50.320389,14.561951,,,,,,,
1523524106.153432,-0.705988,-0.213673,2.291316,-0.400445,-0.018688,-0.366299,-0.634031,0.212050,-0.743665,-0.011279,0.082582,0.066068,-20.096573,-50.473099,14.187805,,,,,,,
1523524106.183431,-0.710610,-0.217066,2.275034,-0.396169,0.002436,-0.349270,-0.636989,0.215365,-0.740176,-0.002324,0.079404,0.087100,-19.346909,-50.102142,13.511719,,,,,,,
1523524106.213399,-0.713662,-0.220192,2.259019,-0.385461,0.018297,-0.341820,-0.638800,0.218417,-0.737717,0.008277,0.063642,0.078308,-19.501373,-50.776093,13.889343,,,,,,,
1523524106.243367,-0.716236,-0.223020,2.242751,-0.414820,0.094065,-0.378142,-0.640289,0.221176,-0.735601,-0.027710,0.084381,0.046270,-19.206940,-50.703461,12.839172,,,,,,,
1523524106.273336,-0.717966,-0.224815,2.224568,-0.402950,0.045620,-0.444148,-0.641299,0.222926,-0.734192,-0.023191,0.092092,0.012787,-18.311508,-50.708237,12.089661,,,,,,,
1523524106.303304,-0.722200,-0.225205,2.205528,-0.391040,0.031028,-0.488878,-0.644344,0.223306,-0.731405,-0.023930,0.122397,0.061635,-18.540817,-51.232056,12.241638,,,,,,,
1523524106.333272,-0.724632,-0.225019,2.186767,-0.361944,0.110533,-0.471889,-0.646149,0.223125,-0.729866,-0.049545,0.122135,0.039040,-18.768051,-51.231400,11.866516,,,,,,,
1523524106.363240,-0.724802,-0.224741,2.168567,-0.362904,0.134966,-0.470846,-0.646314,0.222853,-0.729803,-0.058322,0.125367,0.015737,-17.871414,-51.161118,11.191650,,,,,,,
1523524106.393209,-0.725131,-0.224531,2.150252,-0.375662,0.156212,-0.464490,-0.646584,0.222649,-0.729626,-0.072700,0.133690,-0.011402,-17.275604,-51.763489,11.494446,,,,,,,
1523524106.423177,-0.724767,-0.224758,2.131599,-0.400402,0.127482,-0.451683,-0.646286,0.222871,-0.729823,-0.070710,0.140273,-0.043600,-17.432205,-51.838760,10.519592,,,,,,,
1523524106.453145,-0.726341,-0.224051,2.113585,-0.339760,0.071064,-0.459040,-0.647538,0.222181,-0.728923,-0.073776,0.185762,-0.009359,-15.859528,-51.846222,10.145447,,,,,,,
1523524106.483114,-0.727168,-0.222159,2.097150,-0.292861,0.096212,-0.423875,-0.648419,0.220337,-0.728699,-0.055057,0.192887,-0.024353,-15.938568,-52.071152,9.846313,,,,,,,
1523524106.513082,-0.728216,-0.220027,2.082462,-0.245213,0.041686,-0.393946,-0.649494,0.218256,-0.728368,-0.036679,0.177114,-0.029383,-15.868668,-52.222076,9.246948,,,,,,,
1523524106.543050,-0.730040,-0.217337,2.068817,-0.226980,0.061813,-0.391819,-0.651210,0.215630,-0.727617,-0.016392,0.171943,0.012285,-14.742676,-52.077209,9.171936,,,,,,,
1523524106.573018,-0.731114,-0.214706,2.055134,-0.251578,0.054431,-0.390767,-0.652368,0.213060,-0.727337,0.006784,0.177870,0.015713,-15.197144,-52.525162,9.173462,,,,,,,
1523524106.602987,-0.732263,-0.213359,2.039728,-0.328277,0.075994,-0.406835,-0.653394,0.211744,-0.726800,0.007642,0.162753,-0.011848,-14.746552,-52.601974,9.398987,,,,,,,
1523524106.632955,-0.734189,-0.212891,2.023035,-0.357214,0.028378,-0.425984,-0.654859,0.211287,-0.725614,-0.023623,0.154665,-0.033816,-13.777771,-52.906845,8.875732,,,,,,,
1523524106.662923,-0.738856,-0.212040,2.006948,-0.291603,-0.084542,-0.409832,-0.658359,0.210455,-0.722682,-0.001568,0.153559,-0.009114,-13.704254,-53.057175,8.876404,,,,,,,
1523524106.692891,-0.744611,-0.210695,1.991974,-0.267132,-0.097380,-0.405543,-0.662698,0.209139,-0.719089,-0.009116,0.146330,0.014103,-13.637512,-53.433228,8.127930,,,,,,,
1523524106.722860,-0.750477,-0.208425,1.978384,-0.195647,-0.086016,-0.385252,-0.667227,0.206919,-0.715535,0.002158,0.121007,0.039357,-12.732162,-52.987167,8.276550,,,,,,,
1523524106.752828,-0.754657,-0.205289,1.966412,-0.160411,-0.063927,-0.366065,-0.670654,0.203850,-0.713208,0.001052,0.092307,0.027005,-13.261185,-53.434692,8.353088,,,,,,,
1523524106.782796,-0.760272,-0.202248,1.954616,-0.162726,-0.135985,-0.393698,-0.675072,0.200872,-0.709878,-0.002434,0.101725,0.061333,-12.663300,-53.512604,8.128723,,,,,,,
1523524106.812764,-0.766151,-0.199218,1.941889,-0.199897,-0.104954,-0.408690,-0.679652,0.197903,-0.706332,-0.006688,0.119312,0.054797,-12.359573,-53.138977,8.127380,,,,,,,
1523524106.842743,-0.770076,-0.197392,1.927333,-0.283659,0.020640,-0.409935,-0.682670,0.196113,-0.703917,-0.021370,0.092706,0.015532,-12.139221,-53.515121,7.978943,,,,,,,
1523524106.872711,-0.773101,-0.197030,1.912653,-0.288265,-0.012547,-0.373674,-0.684846,0.195758,-0.701900,-0.030639,0.089444,0.009868,-11.539703,-53.517883,7.904236,,,,,,,
1523524106.902679,-0.776861,-0.196059,1.899199,-0.217925,-0.031888,-0.367214,-0.687613,0.194805,-0.699455,-0.043298,0.116474,0.024238,-10.718338,-53.522186,7.304688,,,,,,,
1523524106.932647,-0.778603,-0.193598,1.886883,-0.197224,0.071065,-0.357712,-0.689165,0.192391,-0.698595,-0.060866,0.107704,-0.007658,-11.171921,-53.745377,7.080322,,,,,,,
1523524106.962616,-0.778723,-0.191190,1.875205,-0.188904,0.057012,-0.326789,-0.689572,0.190027,-0.698840,-0.056888,0.071738,-0.039502,-10.725845,-53.822906,6.555908,,,,,,,
1523524106.992584,-0.780996,-0.189421,1.864402,-0.192656,-0.033499,-0.298994,-0.691394,0.188290,-0.697509,-0.039959,0.065341,-0.008531,-9.378448,-53.904266,6.256897,,,,,,,
1523524107.022552,-0.784571,-0.187539,1.854027,-0.181132,-0.071839,-0.290425,-0.694133,0.186441,-0.695282,-0.032476,0.094885,0.011810,-10.053406,-54.125854,6.632446,,,,,,,
1523524107.052521,-0.787688,-0.185843,1.843517,-0.217061,0.013232,-0.287336,-0.696519,0.184775,-0.693337,-0.027281,0.070916,0.000420,-9.905670,-54.126892,6.257568,,,,,,,
,,,,,,,,,,,,,,,,25.322852,51.484202,20.144582,4.900000,261.562500,1523524106.997737,
1523524107.082489,-0.788198,-0.185207,1.832053,-0.240377,0.055775,-0.284202,-0.696956,0.184150,-0.693064,-0.015522,0.053872,-0.028234,-9.454041,-53.829147,6.031555,,,,,,,
1523524107.112457,-0.789556,-0.183904,1.821757,-0.184032,0.009912,-0.278792,-0.698067,0.182870,-0.692286,-0.032112,0.068809,-0.014868,-9.604645,-53.753693,5.806213,,,,,,,
1523524107.142425,-0.791379,-0.182550,1.811422,-0.218270,-0.010197,-0.279853,-0.699503,0.181538,-0.691186,-0.020559,0.048778,-0.023292,-8.713837,-54.133606,4.908142,,,,,,,
1523524107.172394,-0.794102,-0.181532,1.800882,-0.198171,-0.040053,-0.271290,-0.701514,0.180537,-0.689407,-0.022897,0.033590,-0.006927,-8.485992,-53.984406,5.132690,,,,,,,
1523524107.202392,-0.798186,-0.179310,1.791657,-0.130010,-0.087970,-0.280784,-0.704609,0.178350,-0.686815,-0.021434,0.016032,0.026354,-8.265503,-54.210770,4.758728,,,,,,,
1523524107.232361,-0.802308,-0.176652,1.783160,-0.133413,-0.104086,-0.255192,-0.707772,0.175735,-0.684232,-0.007453,0.005662,0.052884,-8.341843,-54.210648,4.533630,,,,,,,
1523524107.262329,-0.806291,-0.174548,1.775009,-0.137539,-0.058477,-0.242451,-0.710758,0.173663,-0.681662,-0.020428,0.007916,0.065878,-7.439651,-53.765091,4.157288,,,,,,,
1523524107.292297,-0.809603,-0.173412,1.765688,-0.232573,-0.055067,-0.239336,-0.713154,0.172544,-0.679440,-0.024944,-0.001035,0.035305,-8.491547,-53.910431,4.082336,,,,,,,
1523524107.322265,-0.814121,-0.174656,1.754645,-0.309700,-0.078441,-0.211670,-0.716060,0.173769,-0.676063,-0.029042,-0.011385,0.048698,-7.967926,-53.913010,3.857666,,,,,,,
1523524107.352234,-0.818566,-0.176380,1.744117,-0.260669,-0.060728,-0.179681,-0.718838,0.175466,-0.672668,-0.034473,-0.023931,0.058257,-8.045029,-53.987885,3.632935,,,,,,,
1523524107.382202,-0.821198,-0.178034,1.735572,-0.234012,0.007799,-0.112597,-0.720392,0.177095,-0.670575,-0.049032,-0.032396,0.031231,-7.520050,-53.765640,3.257324,,,,,,,
1523524107.412170,-0.822385,-0.181351,1.729057,-0.237575,0.027403,-0.027380,-0.720753,0.180358,-0.669316,-0.051921,-0.048736,0.032201,-7.371429,-53.541885,2.656433,,,,,,,
1523524107.442138,-0.822346,-0.185556,1.723958,-0.210828,0.083384,0.010944,-0.720165,0.184493,-0.668822,-0.061268,-0.074706,0.002608,-8.498627,-53.761826,2.656738,,,,,,,
1523524107.472107,-0.820893,-0.188451,1.720118,-0.120944,0.103513,-0.011391,-0.718799,0.187337,-0.669501,-0.049115,-0.109334,0.005042,-8.869568,-53.534851,2.955627,,,,,,,
1523524107.502075,-0.818008,-0.187459,1.717970,-0.001836,0.154716,-0.081679,-0.717000,0.186363,-0.671698,-0.045695,-0.081352,0.035910,-8.272430,-53.687775,2.731567,,,,,,,
1523524107.532043,-0.812847,-0.183610,1.716513,0.019853,0.191023,-0.114732,-0.714039,0.182580,-0.675878,-0.057582,-0.073831,-0.001902,-8.798904,-53.835403,2.731934,,,,,,,
1523524107.562011,-0.809447,-0.180299,1.712983,-0.058175,0.131912,-0.145617,-0.712171,0.179323,-0.678715,-0.038531,-0.044360,-0.010494,-8.268387,-53.462494,3.030701,,,,,,,
1523524107.591980,-0.808355,-0.178828,1.707147,-0.179274,0.027034,-0.148795,-0.711619,0.177877,-0.679674,-0.056691,-0.064626,-0.096098,-8.346985,-53.462738,2.430664,,,,,,,
