timestamp(unix),attitude_roll(radians),attitude_pitch(radians),attitude_yaw(radians),rotation_rate_x(radians/s),rotation_rate_y(radians/s),rotation_rate_z(radians/s),gravity_x(G),gravity_y(G),gravity_z(G),user_acc_x(G),user_acc_y(G),user_acc_z(G),magnetic_field_x(microteslas),magnetic_field_y(microteslas),magnetic_field_z(microteslas),latitude(degree),longitude(degree),altitude(meter),speed(m/s),course(degree),timestamp(unix),User Mark
,,,,,,,,,,,,,,,,25.315621,51.456868,13.346462,3.130000,292.148438,1523522508.999659,
1523522522.662508,-0.702646,0.007423,-1.898471,0.209815,0.007448,-0.151036,-0.646221,-0.007423,-0.763113,0.110317,0.097267,0.028784,-4.732544,7.927612,-5.601013,,,,,,,
,,,,,,,,,,,,,,,,25.315770,51.456464,13.346462,-1.000000,-1.000000,1523522520.741698,
1523522522.692476,-0.699379,0.012851,-1.897691,0.106400,0.114556,-0.085149,-0.643689,-0.012851,-0.765178,0.098828,0.102511,-0.045292,-4.732986,7.702911,-5.300110,,,,,,,
1523522522.722444,-0.695982,0.012669,-1.899811,-0.107467,0.053384,-0.074593,-0.641088,-0.012668,-0.767362,0.092153,0.115467,-0.096377,-4.960526,7.628632,-5.599976,,,,,,,
1523522522.752412,-0.695943,0.010316,-1.904174,-0.135501,-0.008155,-0.076689,-0.641075,-0.010316,-0.767408,0.076561,0.083742,-0.050891,-4.280167,8.075729,-5.451355,,,,,,,
,,,,,,,,,,,,,,,,25.315817,51.456337,13.346462,-1.000000,-1.000000,1523522522.746079,
1523522522.782381,-0.695385,0.008726,-1.907787,-0.077964,-0.022214,-0.063835,-0.640657,-0.008726,-0.767777,0.064393,0.093489,-0.075912,-5.178925,8.154846,-5.377136,,,,,,,
,,,,,,,,,,,,,,,,25.315817,51.456337,13.346462,-1.000000,-1.000000,1523522522.751606,
1523522522.812349,-0.694273,0.007184,-1.910237,-0.075737,0.027556,-0.039381,-0.639810,-0.007184,-0.768499,0.061364,0.108808,-0.044459,-4.955429,7.779221,-5.000488,,,,,,,
1523522522.842317,-0.690597,0.004291,-1.912959,-0.139477,0.124255,-0.017148,-0.636991,-0.004291,-0.770858,0.063047,0.099750,-0.101060,-4.356812,7.776291,-5.225220,,,,,,,
1523522522.872286,-0.687430,0.000623,-1.916481,-0.152508,0.053213,-0.035195,-0.634552,-0.000623,-0.772879,0.054565,0.093473,-0.133112,-5.031036,7.854324,-5.225891,,,,,,,
1523522522.902254,-0.686876,-0.001991,-1.920085,-0.106756,-0.009433,-0.058538,-0.634123,0.001991,-0.773229,0.071424,0.087517,-0.112941,-4.955872,7.779144,-5.075500,,,,,,,
1523522522.932222,-0.686065,-0.002313,-1.923570,-0.058318,0.011039,-0.116061,-0.633495,0.002313,-0.773742,0.055736,0.127921,-0.084565,-5.334442,7.330994,-4.923889,,,,,,,
1523522522.962190,-0.684894,-0.001412,-1.928518,-0.093065,0.047715,-0.180065,-0.632590,0.001412,-0.774484,0.056189,0.129692,-0.058203,-4.880417,7.554245,-4.624573,,,,,,,
1523522522.992159,-0.682174,-0.001163,-1.935571,-0.160081,0.082027,-0.199335,-0.630481,0.001163,-0.776203,0.074756,0.121624,-0.092984,-5.254364,7.705856,-4.700378,,,,,,,
1523522523.022127,-0.680406,-0.001218,-1.943534,-0.137761,0.021584,-0.228010,-0.629108,0.001218,-0.777316,0.060626,0.149249,-0.077237,-4.952728,7.779648,-4.550476,,,,,,,
1523522523.052095,-0.679511,0.000727,-1.950956,-0.059641,0.025870,-0.259927,-0.628412,-0.000727,-0.777879,0.065897,0.168834,-0.056349,-5.702698,7.783020,-4.550903,,,,,,,
1523522523.082063,-0.677785,0.004642,-1.958307,-0.026267,0.040949,-0.300409,-0.627062,-0.004642,-0.778954,0.062945,0.184299,-0.058601,-6.154617,7.410355,-4.249634,,,,,,,
1523522523.112032,-0.676140,0.009187,-1.966385,-0.030437,0.025253,-0.333429,-0.625760,-0.009187,-0.779960,0.085645,0.191331,-0.044304,-5.403595,7.556900,-4.324890,,,,,,,
1523522523.142000,-0.676953,0.013932,-1.974658,-0.020219,-0.070433,-0.329067,-0.626360,-0.013932,-0.779409,0.098634,0.197266,-0.008860,-6.530792,7.336975,-4.324524,,,,,,,
1523522523.171968,-0.677314,0.017798,-1.983299,-0.050938,-0.028853,-0.338717,-0.626602,-0.017797,-0.779135,0.100006,0.199300,0.017614,-6.531097,7.262054,-4.249207,,,,,,,
1523522523.201936,-0.675317,0.020394,-1.993467,-0.157143,0.083060,-0.349563,-0.625014,-0.020393,-0.780346,0.069731,0.202460,0.024319,-6.376297,7.561661,-3.950378,,,,,,,
1523522523.231905,-0.670798,0.019040,-2.006470,-0.321315,0.147174,-0.342291,-0.621498,-0.019039,-0.783183,0.052559,0.196071,-0.010305,-6.900970,7.414322,-3.650024,,,,,,,
1523522523.261873,-0.665534,0.015149,-2.020982,-0.406906,0.152433,-0.304002,-0.617408,-0.015149,-0.786496,0.044334,0.194714,0.000836,-7.128067,7.340118,-3.874817,,,,,,,
1523522523.291841,-0.660219,0.008320,-2.035932,-0.482791,0.184177,-0.259330,-0.613268,-0.008320,-0.789830,0.029283,0.191593,0.033742,-6.747086,7.713776,-3.501160,,,,,,,
1523522523.321809,-0.654260,0.001044,-2.049497,-0.395444,0.193217,-0.214529,-0.608571,-0.001044,-0.793497,0.018453,0.178733,-0.019430,-7.796280,7.568863,-3.126099,,,,,,,
1523522523.351778,-0.648221,-0.003700,-2.060372,-0.251228,0.190825,-0.229326,-0.603765,0.003700,-0.797153,0.013646,0.173913,-0.077023,-7.649277,7.268204,-3.124817,,,,,,,
1523522523.381746,-0.645895,-0.006174,-2.069984,-0.216846,-0.014249,-0.242945,-0.601901,0.006174,-0.798546,0.006152,0.191229,-0.095467,-7.198715,7.416031,-3.275208,,,,,,,
1523522523.411714,-0.648639,-0.006705,-2.079888,-0.168033,-0.121436,-0.279033,-0.604089,0.006705,-0.796888,0.009698,0.205850,-0.065920,-7.647629,7.118729,-2.599243,,,,,,,
1523522523.441675,-0.651289,-0.006535,-2.089565,-0.196685,-0.066243,-0.262049,-0.606199,0.006535,-0.795285,-0.011340,0.202251,-0.054950,-8.098206,6.970901,-2.448853,,,,,,,
1523522523.471643,-0.652015,-0.006800,-2.098642,-0.156217,-0.021022,-0.206672,-0.606775,0.006800,-0.794844,0.014566,0.196600,-0.041979,-7.870377,7.344727,-2.600281,,,,,,,
1523522523.501611,-0.652449,-0.006667,-2.105565,-0.140008,0.042553,-0.187539,-0.607120,0.006666,-0.794581,-0.011166,0.193086,-0.001333,-8.993668,7.200302,-2.075256,,,,,,,
1523522523.531579,-0.650538,-0.007586,-2.112419,-0.163576,0.045671,-0.169444,-0.605597,0.007585,-0.795734,0.028403,0.173323,-0.065609,-8.999634,6.375717,-1.696960,,,,,,,
1523522523.561548,-0.649748,-0.008960,-2.121004,-0.215740,-0.003655,-0.239752,-0.604961,0.008960,-0.796204,0.009578,0.177915,-0.067321,-8.545624,6.823593,-1.773499,,,,,,,
1523522523.591516,-0.650838,-0.009496,-2.131315,-0.188735,-0.012807,-0.307918,-0.605825,0.009496,-0.795540,0.015661,0.191661,-0.017982,-9.519821,6.678360,-1.398438,,,,,,,
1523522523.621485,-0.651509,-0.008757,-2.141633,-0.159014,-0.027886,-0.288706,-0.606364,0.008757,-0.795139,0.052759,0.197099,0.008029,-9.445282,6.677948,-1.473389,,,,,,,
1523522523.651453,-0.650793,-0.009423,-2.151549,-0.237770,0.059247,-0.261146,-0.605790,0.009423,-0.795568,0.014359,0.198234,-0.003458,-9.143646,6.751740,-1.323486,,,,,,,
1523522523.681422,-0.648372,-0.012745,-2.162779,-0.301885,0.063562,-0.247348,-0.603840,0.012745,-0.797003,0.019932,0.199765,-0.032602,-9.967392,6.605896,-0.873352,,,,,,,
1523522523.711390,-0.648605,-0.015489,-2.172659,-0.191667,-0.076169,-0.210897,-0.604002,0.015488,-0.796831,0.069670,0.202301,-0.015776,-9.740601,6.605179,-0.573242,,,,,,,
1523522523.741358,-0.649977,-0.017643,-2.181049,-0.191257,0.001484,-0.222697,-0.605074,0.017642,-0.795974,0.040605,0.214322,0.012358,-9.888046,6.681137,-0.273621,,,,,,,
1523522523.771326,-0.648951,-0.019669,-2.191039,-0.242037,0.050794,-0.267527,-0.604234,0.019667,-0.796564,0.019471,0.199052,-0.023413,-10.792511,6.459824,-0.648193,,,,,,,
1523522523.801295,-0.648618,-0.025678,-2.201720,-0.456841,-0.048575,-0.112028,-0.603886,0.025675,-0.796656,0.025609,0.159063,-0.110295,-11.240967,6.387222,-0.273132,,,,,,,
1523522523.831263,-0.649474,-0.040824,-2.215190,-0.743975,0.029328,-0.057976,-0.604263,0.040812,-0.795738,-0.055984,0.159932,-0.104896,-10.786346,6.535706,0.251526,,,,,,,
1523522523.861231,-0.649839,-0.054835,-2.228095,-0.447184,-0.020036,-0.094995,-0.604149,0.054808,-0.794984,-0.037026,0.143328,-0.051528,-11.687057,6.240128,0.627258,,,,,,,
1523522523.891199,-0.652359,-0.055848,-2.233198,0.081060,-0.120959,-0.133927,-0.606116,0.055819,-0.793415,0.041892,0.130262,0.013584,-12.354965,6.768433,0.924805,,,,,,,
1523522523.921168,-0.655015,-0.046172,-2.234374,0.330986,-0.064054,-0.306413,-0.608522,0.046156,-0.792193,0.031694,0.166552,0.071475,-12.357056,6.468597,1.076050,,,,,,,
1523522523.951136,-0.658087,-0.031546,-2.235447,0.363027,-0.114831,-0.351085,-0.611300,0.031541,-0.790770,0.109133,0.194045,0.081633,-12.734589,6.170364,1.151978,,,,,,,
1523522523.981103,-0.659519,-0.022487,-2.241042,-0.063439,0.001109,-0.367505,-0.612582,0.022485,-0.790087,0.066409,0.184485,0.057924,-12.738022,5.870316,1.078247,,,,,,,
1523522524.011071,-0.656622,-0.027518,-2.258695,-0.694525,0.171915,-0.407572,-0.610214,0.027514,-0.791758,-0.018860,0.216260,-0.075536,-12.738480,5.645615,1.379150,,,,,,,
1523522524.041040,-0.652579,-0.040045,-2.281767,-0.710188,0.088603,-0.341433,-0.606751,0.040035,-0.793883,0.009461,0.197224,-0.114076,-13.033051,5.872467,1.903015,,,,,,,
1523522524.071008,-0.654362,-0.048000,-2.296885,-0.327208,-0.073669,-0.217387,-0.607952,0.047982,-0.792523,-0.047627,0.274025,-0.025425,-13.261963,5.573349,1.754150,,,,,,,
1523522524.100976,-0.654535,-0.047821,-2.302700,0.068949,0.033145,-0.134087,-0.608094,0.047802,-0.792424,0.043336,0.237812,-0.026775,-13.109406,5.647964,2.053955,,,,,,,
1523522524.130945,-0.653555,-0.041865,-2.302358,0.181998,0.036916,-0.106300,-0.607480,0.041853,-0.793231,0.049283,0.147325,0.007770,-14.152008,6.028244,2.651855,,,,,,,
1523522524.160913,-0.655221,-0.038165,-2.302238,0.032933,-0.112517,-0.109458,-0.608891,0.038155,-0.792336,0.074589,0.138801,0.029640,-14.157867,5.578049,2.428711,,,,,,,
1523522524.190881,-0.655301,-0.039204,-2.311516,-0.364488,0.068449,-0.316654,-0.608930,0.039193,-0.792255,-0.017749,0.131613,-0.015728,-14.751984,5.806320,3.027466,,,,,,,
1523522524.220850,-0.654531,-0.047877,-2.330096,-0.696792,-0.002902,-0.328548,-0.608090,0.047858,-0.792424,0.004147,0.102151,-0.117106,-14.903320,5.582153,3.178284,,,,,,,
1523522524.250818,-0.659442,-0.059539,-2.350048,-0.639039,-0.193404,-0.307001,-0.611590,0.059504,-0.788934,-0.061048,0.121557,-0.038245,-14.076126,5.578812,3.553711,,,,,,,
1523522524.280787,-0.663659,-0.063699,-2.365225,-0.219746,-0.024422,-0.307926,-0.614754,0.063656,-0.786146,-0.056801,0.199543,0.056776,-14.752884,5.356934,3.629272,,,,,,,
1523522524.310755,-0.661929,-0.061722,-2.371567,-0.034153,0.121679,-0.145972,-0.613470,0.061683,-0.787306,-0.028529,0.191217,0.001264,-15.204025,4.834641,4.306152,,,,,,,
1523522524.340723,-0.657488,-0.065779,-2.375729,-0.363062,0.122027,0.072219,-0.609809,0.065732,-0.789818,0.009055,0.069812,-0.145256,-15.125610,5.134354,4.380005,,,,,,,
,,,,,,,,,,,,,,,,25.315219,51.456918,13.337668,-1.000000,-1.000000,1523522524.326667,
1523522524.370692,-0.655095,-0.084146,-2.385639,-0.865926,0.127495,0.076107,-0.607079,0.084046,-0.790184,-0.093925,0.106826,-0.153267,-15.803421,4.762558,4.531128,,,,,,,
1523522524.400660,-0.655168,-0.100458,-2.402737,-0.574391,-0.020598,-0.271972,-0.606221,0.100289,-0.788948,-0.080959,0.172858,-0.099663,-16.246643,4.990295,5.279968,,,,,,,
1523522524.430619,-0.659137,-0.095128,-2.416149,0.150689,-0.122229,-0.585646,-0.609666,0.094984,-0.786947,-0.054519,0.187670,-0.007807,-15.494431,5.211914,5.279480,,,,,,,
1523522524.460587,-0.663509,-0.073169,-2.423381,0.589843,-0.124955,-0.654582,-0.614238,0.073104,-0.785728,0.013575,0.196855,0.037513,-16.472809,4.691620,5.581116,,,,,,,
1523522524.490556,-0.669647,-0.046317,-2.426472,0.592220,-0.281331,-0.630981,-0.620044,0.046300,-0.783200,-0.002942,0.280574,0.090054,-16.546616,4.542404,6.031616,,,,,,,
1523522524.520524,-0.678645,-0.023601,-2.432086,0.389702,-0.198022,-0.621615,-0.627564,0.023599,-0.778207,-0.022613,0.253883,0.228570,-16.620255,4.542953,6.256592,,,,,,,
1523522524.550492,-0.679714,-0.003807,-2.441717,0.257923,0.115110,-0.676382,-0.628566,0.003807,-0.777747,0.059703,0.178413,0.211020,-17.524826,3.947266,6.483521,,,,,,,
1523522524.580460,-0.672149,0.012626,-2.454218,0.097535,0.303573,-0.673496,-0.622619,-0.012626,-0.782423,0.012328,0.240730,0.087950,-17.980804,3.349319,6.485657,,,,,,,
1523522524.610429,-0.665656,0.022091,-2.471848,-0.258105,0.087403,-0.634114,-0.617425,-0.022089,-0.786320,-0.014335,0.347162,-0.055737,-17.229492,3.346161,6.711121,,,,,,,
1523522524.640397,-0.667551,0.024870,-2.492502,-0.364134,-0.165578,-0.584924,-0.618873,-0.024868,-0.785097,0.019950,0.402752,0.002077,-18.284515,2.526428,7.238831,,,,,,,
1523522524.670365,-0.668409,0.027044,-2.511612,-0.342973,0.114361,-0.509531,-0.619512,-0.027041,-0.784521,-0.012065,0.321139,0.068365,-18.885834,2.304291,7.389404,,,,,,,
1523522524.700333,-0.659925,0.025170,-2.529901,-0.432742,0.358833,-0.487471,-0.612863,-0.025168,-0.789788,-0.080374,0.366064,-0.034339,-17.762680,2.074310,7.465942,,,,,,,
1523522524.730302,-0.650939,0.021168,-2.549835,-0.475870,0.112982,-0.415871,-0.605798,-0.021166,-0.795337,-0.032889,0.326296,-0.221188,-19.117538,1.405716,7.767883,,,,,,,
1523522524.760270,-0.652105,0.018937,-2.567724,-0.361260,-0.123776,-0.485870,-0.606752,-0.018936,-0.794666,-0.103881,0.368149,-0.168805,-19.566940,1.332962,7.992920,,,,,,,
1523522524.790238,-0.655862,0.021940,-2.583512,-0.185205,-0.111701,-0.452714,-0.609696,-0.021938,-0.792331,-0.018813,0.270061,-0.070294,-19.125183,0.730591,7.620605,,,,,,,
1523522524.820207,-0.659053,0.023919,-2.597994,-0.340681,-0.186137,-0.389889,-0.612193,-0.023917,-0.790347,-0.079946,0.202201,-0.099241,-19.649261,0.508484,8.146240,,,,,,,
1523522524.850175,-0.667294,0.017271,-2.614679,-0.612225,-0.323598,-0.237589,-0.618771,-0.017270,-0.785382,-0.071079,0.123318,-0.004429,-20.395172,0.512512,8.820801,,,,,,,
1523522524.880143,-0.675674,0.006387,-2.628967,-0.514309,-0.233434,-0.099083,-0.625410,-0.006387,-0.780270,-0.059710,0.098672,0.112423,-19.948944,0.360138,8.446655,,,,,,,
1523522524.910111,-0.677518,0.000139,-2.638120,-0.220484,0.029499,-0.118311,-0.626861,-0.000139,-0.779130,-0.044113,0.058732,0.105257,-20.774643,0.064224,8.822449,,,,,,,
1523522524.940080,-0.677584,0.000277,-2.641645,0.044070,-0.014764,-0.112743,-0.626913,-0.000277,-0.779089,0.027273,0.101244,0.066550,-20.995132,0.290588,9.196411,,,,,,,
1523522524.970048,-0.681349,0.005709,-2.642286,0.186888,-0.177074,-0.203036,-0.629831,-0.005709,-0.776711,0.051859,0.150927,0.085259,-21.143768,0.066864,9.797241,,,,,,,
1523522525.000016,-0.684542,0.015117,-2.650131,-0.040243,-0.035955,-0.546453,-0.632246,-0.015117,-0.774620,-0.075411,0.196620,0.133919,-21.147797,-0.383041,9.874023,,,,,,,
1523522525.029984,-0.682491,0.020894,-2.670230,-0.386621,0.180492,-0.681180,-0.630590,-0.020892,-0.775834,0.022039,0.185077,0.100862,-21.821869,-0.379868,10.023682,,,,,,,
1523522525.059953,-0.674680,0.022343,-2.692655,-0.430954,0.200981,-0.556567,-0.624492,-0.022341,-0.780711,-0.024159,0.221941,0.019222,-20.927597,-0.908966,9.951233,,,,,,,
1523522525.089921,-0.673277,0.020236,-2.711340,-0.395686,-0.054338,-0.375148,-0.623423,-0.020235,-0.781622,0.003077,0.271288,0.024634,-21.754349,-1.354782,10.402649,,,,,,,
1523522525.119889,-0.675970,0.016460,-2.726341,-0.396729,-0.015219,-0.346419,-0.625569,-0.016459,-0.779994,-0.072886,0.415919,0.095333,-22.282471,-1.802185,10.629150,,,,,,,
1523522525.149857,-0.668272,0.012163,-2.744581,-0.460236,0.447972,-0.460941,-0.619585,-0.012162,-0.784835,-0.045393,0.290284,-0.036088,-21.460648,-2.031036,10.480469,,,,,,,
1523522525.179826,-0.655482,0.008391,-2.762065,-0.417336,0.329473,-0.396863,-0.609520,-0.008391,-0.792726,-0.051842,0.235762,-0.186492,-22.445190,-2.851822,10.258240,,,,,,,
1523522525.209794,-0.651492,0.004950,-2.780803,-0.493507,-0.021874,-0.424265,-0.606366,-0.004950,-0.795170,-0.032641,0.208747,-0.147610,-22.444870,-3.001526,10.558838,,,,,,,
1523522525.239762,-0.652756,0.002377,-2.798818,-0.348168,-0.005177,-0.433755,-0.607377,-0.002377,-0.794410,-0.037185,0.340191,-0.036507,-23.126892,-3.748383,10.636475,,,,,,,
1523522525.269730,-0.653762,0.006017,-2.812367,-0.058077,-0.035881,-0.400481,-0.608166,-0.006017,-0.793787,0.018734,0.269674,0.013147,-22.978241,-3.973892,10.787476,,,,,,,
1523522525.299699,-0.654745,0.011179,-2.819411,-0.034599,-0.053211,-0.209721,-0.608919,-0.011178,-0.793154,0.036043,0.200067,-0.008543,-23.274460,-3.597565,10.785828,,,,,,,
1523522525.329667,-0.657851,0.010310,-2.826451,-0.265753,-0.120970,-0.164001,-0.611385,-0.010309,-0.791266,-0.015110,0.195490,0.047567,-23.203369,-4.122665,11.012939,,,,,,,
1523522525.359635,-0.660904,0.003815,-2.837392,-0.450179,-0.086332,-0.188683,-0.613826,-0.003815,-0.789432,0.014278,0.182526,0.059772,-23.950485,-3.969070,11.237000,,,,,,,
1523522525.389604,-0.660372,-0.006512,-2.851427,-0.549973,0.045681,-0.186772,-0.613397,0.006512,-0.789747,0.001581,0.100025,0.024138,-24.182678,-4.418472,10.788696,,,,,,,
1523522525.419572,-0.659585,-0.017739,-2.865954,-0.533994,0.019124,-0.197366,-0.612693,0.017739,-0.790122,-0.032968,0.085304,-0.017541,-23.807831,-4.569931,11.014465,,,,,,,
1523522525.449545,-0.659680,-0.027349,-2.880570,-0.498832,-0.014840,-0.214360,-0.612634,0.027345,-0.789893,-0.047491,0.116026,-0.050378,-24.785172,-4.940308,11.240479,,,,,,,
1523522525.479513,-0.661560,-0.035078,-2.895112,-0.458925,0.000384,-0.278277,-0.613970,0.035071,-0.788549,-0.059354,0.165583,0.004705,-24.633087,-4.865768,11.465210,,,,,,,
1523522525.509482,-0.660939,-0.037672,-2.909475,-0.261731,0.045233,-0.380460,-0.613423,0.037663,-0.788856,-0.008113,0.153148,0.015724,-25.011948,-5.388840,11.692078,,,,,,,
1523522525.539450,-0.660722,-0.033945,-2.923477,-0.128989,-0.020113,-0.503897,-0.613333,0.033938,-0.789095,-0.008203,0.171399,0.014253,-25.013000,-5.538757,11.767700,,,,,,,
1523522525.569418,-0.662787,-0.028262,-2.938359,-0.148079,-0.031492,-0.540134,-0.615071,0.028258,-0.787965,-0.044155,0.211931,0.061495,-24.718704,-6.065155,11.694946,,,,,,,
1523522525.599386,-0.663613,-0.024408,-2.954661,-0.270856,0.013171,-0.501909,-0.615783,0.024406,-0.787538,-0.053025,0.254556,0.055970,-25.466858,-6.286118,12.370544,,,,,,,
1523522525.629355,-0.662202,-0.026272,-2.972257,-0.462152,0.075713,-0.412608,-0.614643,0.026269,-0.788368,-0.073025,0.242331,0.030159,-25.548126,-6.960678,12.448120,,,,,,,
1523522525.659323,-0.660050,-0.032422,-2.990286,-0.486706,0.147611,-0.351968,-0.612834,0.032416,-0.789546,-0.070272,0.223870,0.033229,-25.179138,-7.337708,12.074829,,,,,,,
1523522525.689291,-0.655880,-0.037124,-3.005549,-0.336337,0.149136,-0.318832,-0.609437,0.037116,-0.791966,-0.059371,0.234918,0.005131,-26.232666,-8.007446,12.601990,,,,,,,
1523522525.719259,-0.652065,-0.038847,-3.018012,-0.249862,0.158428,-0.310256,-0.606371,0.038837,-0.794233,-0.050886,0.203335,-0.012606,-26.158432,-8.082779,12.602356,,,,,,,
1523522525.749228,-0.648906,-0.039951,-3.031857,-0.339361,0.094428,-0.397617,-0.603833,0.039941,-0.796110,-0.076313,0.226691,-0.015902,-26.239105,-8.607483,12.529358,,,,,,,
1523522525.779196,-0.647104,-0.039696,-3.048965,-0.294059,0.087545,-0.492411,-0.602403,0.039686,-0.797205,0.004900,0.186480,0.030969,-26.468307,-8.981522,12.455750,,,,,,,
1523522525.809164,-0.647262,-0.035046,-3.064252,-0.077715,-0.037085,-0.525159,-0.602635,0.035039,-0.797248,0.000462,0.233699,0.062415,-26.396744,-9.281921,12.382019,,,,,,,
1523522525.839132,-0.650252,-0.026576,-3.077632,-0.000882,-0.080662,-0.552751,-0.605173,0.026572,-0.795650,0.001032,0.273873,0.111110,-25.722519,-9.584579,12.758606,,,,,,,
1523522525.869101,-0.651789,-0.020336,-3.091321,-0.156755,-0.001021,-0.487961,-0.606485,0.020335,-0.794835,-0.024680,0.306432,0.119619,-26.402420,-10.256226,13.060913,,,,,,,
1523522525.899069,-0.650549,-0.023301,-3.106394,-0.393099,0.091959,-0.330520,-0.605459,0.023299,-0.795535,-0.035852,0.240937,0.051822,-26.629318,-10.629898,13.362305,,,,,,,
1523522525.929037,-0.649001,-0.031086,-3.121609,-0.504606,0.077903,-0.254946,-0.604099,0.031081,-0.796303,-0.060528,0.228242,0.037117,-25.960815,-11.008347,12.914124,,,,,,,
1523522525.959005,-0.648274,-0.041751,-3.136710,-0.464977,0.089564,-0.266640,-0.603285,0.041739,-0.796432,-0.045900,0.211541,0.019485,-27.387695,-11.152008,12.838989,,,,,,,
1523522525.988974,-0.646232,-0.046815,3.133075,-0.255397,0.115904,-0.307011,-0.601522,0.046798,-0.797484,-0.074473,0.130860,0.012770,-27.089508,-11.378265,12.915039,,,,,,,
1523522526.018942,-0.644755,-0.045572,3.121089,-0.144264,0.012244,-0.414441,-0.600379,0.045556,-0.798417,-0.092569,0.099738,-0.043471,-27.020187,-11.903656,12.842163,,,,,,,
1523522526.048910,-0.648914,-0.041015,3.108418,-0.110722,-0.169286,-0.451526,-0.603814,0.041004,-0.796070,-0.105217,0.145337,-0.004803,-27.999054,-12.424026,13.068787,,,,,,,
1523522526.078879,-0.654233,-0.034902,3.096584,-0.039249,-0.134714,-0.407813,-0.608180,0.034895,-0.793032,-0.083897,0.181063,0.053026,-27.620911,-12.425201,13.593933,,,,,,,
1523522526.108847,-0.656597,-0.028186,3.088340,0.062133,-0.044157,-0.323665,-0.610183,0.028182,-0.791759,-0.087709,0.196107,0.073803,-26.876175,-12.728928,13.220520,,,,,,,
1523522526.138815,-0.658193,-0.022270,3.083912,0.068908,-0.036674,-0.181946,-0.611537,0.022268,-0.790902,-0.069646,0.151789,0.077478,-27.700684,-12.949768,13.671021,,,,,,,
1523522526.168783,-0.659506,-0.020457,3.081337,-0.003273,-0.026791,-0.049887,-0.612598,0.020456,-0.790130,-0.075298,0.123038,0.092757,-27.630341,-13.549850,13.898499,,,,,,,
1523522526.198752,-0.660655,-0.023422,3.079525,-0.158497,-0.043867,0.015016,-0.613466,0.023420,-0.789374,-0.084486,0.107257,0.063406,-26.878723,-13.253464,13.672668,,,,,,,
1523522526.228720,-0.664157,-0.033171,3.074950,-0.435797,-0.093847,0.119279,-0.616056,0.033165,-0.787004,-0.083361,0.053947,0.003282,-28.003357,-13.622726,14.348572,,,,,,,
1523522526.258688,-0.667080,-0.050835,3.067734,-0.660050,-0.033158,0.180857,-0.617895,0.050813,-0.784617,-0.114939,0.012648,-0.014349,-28.080475,-13.472977,13.747925,,,,,,,
1523522526.288656,-0.669168,-0.070392,3.060332,-0.551939,-0.076720,0.293923,-0.618797,0.070334,-0.782396,-0.077034,0.016000,-0.048552,-28.077179,-12.873444,13.295532,,,,,,,
1523522526.318625,-0.673729,-0.085034,3.060786,-0.179243,-0.212058,0.367861,-0.621651,0.084931,-0.778677,-0.075478,0.020644,0.008642,-28.525345,-12.871124,13.595276,,,,,,,
1523522526.348593,-0.681395,-0.089345,3.066726,0.194900,-0.268366,0.232879,-0.627365,0.089227,-0.773597,-0.025360,-0.008813,0.122504,-28.747345,-12.794754,13.969849,,,,,,,
1523522526.378561,-0.686081,-0.083583,3.075034,0.419882,-0.124927,0.003811,-0.631298,0.083486,-0.771034,-0.020634,-0.014318,0.144920,-27.991241,-12.273010,14.118164,,,,,,,
1523522526.408529,-0.690281,-0.068274,3.078283,0.602666,-0.181753,-0.291149,-0.635271,0.068221,-0.769270,-0.004332,-0.051269,0.168425,-28.739395,-12.493973,14.793701,,,,,,,
1523522526.438478,-0.695662,-0.045659,3.081308,0.660061,-0.143857,-0.412612,-0.640225,0.045643,-0.766830,-0.051501,-0.093845,0.157150,-29.343704,-12.791473,14.569580,,,,,,,
1523522526.468445,-0.701683,-0.031213,3.080291,-0.020126,-0.255666,-0.289403,-0.645190,0.031208,-0.763385,-0.175596,-0.064106,0.060351,-28.291061,-12.795761,15.020142,,,,,,,
1523522526.498413,-0.708894,-0.040928,3.063481,-0.919086,-0.102401,-0.159158,-0.650449,0.040916,-0.758447,-0.078234,0.029351,0.145074,-28.747467,-13.618393,15.323181,,,,,,,
1523522526.528381,-0.703911,-0.061723,3.043098,-0.927202,0.426671,0.010785,-0.645971,0.061684,-0.760865,-0.117182,0.116477,0.044679,-28.524124,-13.694550,15.173584,,,,,,,
1523522526.558350,-0.692099,-0.080046,3.029798,-0.630885,0.406271,0.087741,-0.636111,0.079961,-0.767443,-0.113843,0.099925,-0.062437,-28.383743,-14.071167,14.200195,,,,,,,
1523522526.588318,-0.683129,-0.090237,3.024656,-0.176848,0.228762,0.086126,-0.628655,0.090115,-0.772446,-0.055915,0.090549,-0.124161,-29.584732,-13.991058,13.899292,,,,,,,
1523522526.618286,-0.680578,-0.091052,3.025171,0.122303,0.011375,0.066330,-0.626636,0.090926,-0.773989,-0.039044,-0.019087,-0.084287,-29.586075,-13.991272,13.674255,,,,,,,
1523522526.648255,-0.681675,-0.089153,3.025687,0.012515,-0.068350,-0.040235,-0.627592,0.089035,-0.773434,-0.152650,-0.079376,-0.074115,-28.757690,-13.694931,13.748474,,,,,,,
1523522526.678223,-0.685763,-0.088982,3.021017,-0.002665,-0.142563,-0.059349,-0.630758,0.088865,-0.770874,-0.144098,-0.128873,0.052612,-30.029617,-13.613831,14.122498,,,,,,,
1523522526.708191,-0.689324,-0.086796,3.019124,0.065689,-0.146935,-0.066750,-0.633621,0.086687,-0.768771,-0.134109,-0.092028,0.027377,-29.656265,-13.915283,14.348877,,,,,,,
1523522526.738159,-0.694949,-0.085291,3.015860,-0.048931,-0.210522,-0.049726,-0.638019,0.085188,-0.765294,-0.157315,-0.013060,0.039983,-29.654922,-13.915070,14.573914,,,,,,,
1523522526.768128,-0.701159,-0.088108,3.009834,-0.255570,-0.134355,-0.078729,-0.642601,0.087994,-0.761131,-0.051796,0.007983,0.079475,-29.579926,-13.915405,14.573975,,,,,,,
