timestamp(unix),attitude_roll(radians),attitude_pitch(radians),attitude_yaw(radians),rotation_rate_x(radians/s),rotation_rate_y(radians/s),rotation_rate_z(radians/s),gravity_x(G),gravity_y(G),gravity_z(G),user_acc_x(G),user_acc_y(G),user_acc_z(G),magnetic_field_x(microteslas),magnetic_field_y(microteslas),magnetic_field_z(microteslas),latitude(degree),longitude(degree),altitude(meter),speed(m/s),course(degree),timestamp(unix),User Mark
1522139347.569683,-0.047994,0.007224,0.567093,0.004344,-0.014652,0.029465,-0.047975,-0.007224,-0.998822,-0.019912,-0.006921,-0.026019,26.939453,-5.678509,-82.491028,,,,,,,
,,,,,,,,,,,,,,,,25.306101,51.445722,10.999999,-1.000000,-1.000000,1522139336.432519,
1522139347.599651,-0.048506,0.007292,0.567796,0.002241,-0.005082,0.030513,-0.048485,-0.007292,-0.998797,-0.019019,0.021758,0.008075,27.387329,-5.755749,-82.715454,,,,,,,
1522139347.629619,-0.048562,0.007400,0.568592,0.013018,0.012958,0.028381,-0.048542,-0.007400,-0.998794,-0.007458,0.024917,0.007537,27.917099,-5.457836,-82.416382,,,,,,,
1522139347.659588,-0.048470,0.007554,0.569419,-0.006277,0.001308,0.031566,-0.048450,-0.007554,-0.998797,-0.017590,-0.004256,-0.032911,27.013870,-6.053310,-81.964478,,,,,,,
1522139347.689556,-0.048283,0.007210,0.570172,0.001177,-0.000854,0.033707,-0.048263,-0.007210,-0.998809,-0.013352,0.007424,-0.009828,27.308609,-6.355007,-82.338074,,,,,,,
1522139347.719494,-0.048203,0.007343,0.571077,0.006457,-0.012562,0.034787,-0.048183,-0.007343,-0.998812,-0.011372,0.007022,-0.006758,28.213959,-5.908932,-82.189392,,,,,,,
1522139347.749462,-0.047968,0.007725,0.571871,0.022599,0.016109,0.033696,-0.047949,-0.007725,-0.998820,-0.003733,0.006062,0.009349,27.457397,-6.430752,-82.412720,,,,,,,
1522139347.779430,-0.047665,0.008427,0.572692,0.023732,0.024612,0.030503,-0.047646,-0.008427,-0.998829,0.002403,-0.017085,-0.010128,27.310547,-6.204937,-82.263672,,,,,,,
1522139347.809399,-0.047463,0.009077,0.573389,0.019389,0.007630,0.029451,-0.047443,-0.009077,-0.998833,0.012684,-0.012438,0.023048,27.533295,-6.430950,-82.262695,,,,,,,
1522139347.839367,-0.047245,0.009462,0.574210,0.006586,0.008735,0.028373,-0.047226,-0.009462,-0.998839,0.008697,-0.006178,0.022979,27.461136,-6.055767,-82.414246,,,,,,,
1522139347.869335,-0.046838,0.009508,0.574850,-0.007233,0.023640,0.029412,-0.046818,-0.009508,-0.998858,0.013158,-0.014464,-0.060560,28.215286,-5.459469,-82.716248,,,,,,,
1522139347.899303,-0.046722,0.009328,0.575531,-0.003012,0.007720,0.025169,-0.046703,-0.009328,-0.998865,-0.006215,-0.009303,-0.024664,27.610840,-6.131374,-82.338867,,,,,,,
1522139347.929272,-0.046633,0.009370,0.576079,0.001311,0.020453,0.026225,-0.046614,-0.009370,-0.998869,0.014708,-0.040053,-0.024629,27.384201,-6.205502,-82.488708,,,,,,,
1522139347.959240,-0.046537,0.009046,0.576759,-0.016867,0.015174,0.027285,-0.046518,-0.009046,-0.998876,-0.013601,0.009825,-0.027689,28.208710,-6.209286,-82.563232,,,,,,,
1522139347.989208,-0.046615,0.008883,0.577281,-0.002982,0.017271,0.027289,-0.046596,-0.008883,-0.998874,-0.028675,-0.024977,-0.001553,27.385544,-5.980663,-82.639526,,,,,,,
1522139348.019176,-0.046845,0.008554,0.577958,-0.019149,-0.018818,0.026253,-0.046826,-0.008554,-0.998866,-0.007892,-0.009528,0.038661,27.608734,-6.206585,-82.563538,,,,,,,
1522139348.049145,-0.047033,0.007962,0.578598,-0.016968,-0.013462,0.020914,-0.047014,-0.007962,-0.998863,-0.043181,-0.044727,-0.047860,27.759033,-6.132336,-82.638733,,,,,,,
1522139348.079113,-0.047175,0.007007,0.579135,-0.030918,-0.027279,0.024125,-0.047157,-0.007007,-0.998863,-0.037514,-0.017788,-0.003578,27.533295,-6.206326,-82.638550,,,,,,,
1522139348.109081,-0.047313,0.006234,0.579750,-0.025514,-0.010288,0.025170,-0.047295,-0.006234,-0.998862,-0.035103,-0.034522,-0.008478,27.606354,-6.581356,-82.337036,,,,,,,
1522139348.139049,-0.047446,0.005555,0.580217,-0.024431,-0.013444,0.019849,-0.047427,-0.005555,-0.998859,-0.033414,0.017747,0.040088,27.909470,-6.132946,-82.563660,,,,,,,
1522139348.168987,-0.047500,0.005082,0.580835,-0.007314,-0.001818,0.023044,-0.047482,-0.005082,-0.998859,-0.021076,-0.023726,-0.004894,27.306503,-6.430233,-82.562744,,,,,,,
1522139348.198955,-0.047641,0.004762,0.581292,-0.019053,0.001363,0.026239,-0.047622,-0.004762,-0.998854,-0.004715,0.019456,-0.048296,27.833420,-6.057903,-82.864075,,,,,,,
1522139348.228924,-0.047944,0.004446,0.581781,-0.000961,-0.012469,0.024126,-0.047926,-0.004446,-0.998841,-0.025851,-0.000101,-0.019714,28.137161,-5.908886,-82.489502,,,,,,,
1522139348.258892,-0.048193,0.003942,0.582185,-0.020255,-0.032602,0.022006,-0.048174,-0.003942,-0.998831,-0.003096,0.023305,0.019522,27.759628,-6.207119,-82.413452,,,,,,,
1522139348.288860,-0.048621,0.003714,0.582718,-0.001072,-0.035836,0.024143,-0.048601,-0.003714,-0.998811,0.034914,0.018805,0.019502,27.534042,-6.131329,-82.638855,,,,,,,
1522139348.318828,-0.049067,0.003469,0.583156,-0.008443,-0.015648,0.024131,-0.049047,-0.003469,-0.998790,-0.002741,0.017415,-0.023091,28.359909,-6.134899,-82.488464,,,,,,,
1522139348.348787,-0.049526,0.003406,0.583746,0.001108,-0.028406,0.023078,-0.049505,-0.003406,-0.998768,-0.003656,0.014789,-0.001385,27.683136,-6.356777,-82.412903,,,,,,,
1522139348.378755,-0.049881,0.003379,0.584355,0.004344,-0.017797,0.025197,-0.049860,-0.003379,-0.998750,0.011332,0.034950,-0.074919,27.758286,-6.207333,-82.638428,,,,,,,
1522139348.408723,-0.050256,0.003447,0.584879,0.007625,-0.001876,0.025190,-0.050234,-0.003447,-0.998731,-0.001722,0.013151,-0.025942,27.984467,-6.133282,-82.563599,,,,,,,
1522139348.438691,-0.050486,0.003556,0.585539,0.005465,-0.001896,0.029448,-0.050464,-0.003556,-0.998720,0.005420,0.006913,-0.061782,26.860260,-6.053219,-82.564514,,,,,,,
1522139348.468660,-0.050854,0.003736,0.586092,0.016136,-0.005093,0.027326,-0.050832,-0.003736,-0.998700,0.003850,0.019071,-0.000262,27.381805,-6.355648,-82.638062,,,,,,,
1522139348.498628,-0.051091,0.004453,0.586761,0.025815,0.005523,0.024132,-0.051069,-0.004453,-0.998685,-0.019519,-0.014117,-0.017062,28.508698,-6.210644,-82.563049,,,,,,,
1522139348.528596,-0.051257,0.004989,0.587336,0.020455,0.001274,0.025201,-0.051234,-0.004989,-0.998674,0.005885,0.016143,-0.015288,27.156967,-6.429485,-82.487915,,,,,,,
1522139348.558565,-0.051260,0.005728,0.587982,0.024756,0.007652,0.024128,-0.051236,-0.005728,-0.998670,-0.017077,-0.016871,-0.047091,27.528198,-6.581524,-82.862122,,,,,,,
1522139348.588533,-0.051155,0.006063,0.588509,0.007657,0.002387,0.023057,-0.051132,-0.006063,-0.998673,0.009048,0.008855,0.003144,27.306808,-6.355297,-82.638062,,,,,,,
1522139348.618501,-0.050743,0.006233,0.589160,0.004475,0.011944,0.026236,-0.050720,-0.006233,-0.998693,-0.002197,-0.020393,-0.044687,27.383453,-6.280499,-82.488403,,,,,,,
1522139348.648439,-0.050607,0.006010,0.589637,-0.008280,0.023693,0.024075,-0.050584,-0.006010,-0.998702,-0.004180,0.011167,-0.060487,28.285965,-6.209255,-82.188171,,,,,,,
1522139348.678407,-0.050496,0.006007,0.590252,0.000258,0.019394,0.024104,-0.050474,-0.006007,-0.998707,0.006651,-0.039998,-0.040523,27.903641,-6.583141,-82.786926,,,,,,,
1522139348.708375,-0.050461,0.005906,0.590805,0.000223,0.009851,0.021978,-0.050439,-0.005905,-0.998710,-0.006522,0.037552,-0.009606,26.933319,-6.203625,-82.638855,,,,,,,
1522139348.738344,-0.050376,0.006269,0.591140,0.012006,0.013053,0.016653,-0.050353,-0.006269,-0.998712,0.006042,-0.025485,-0.033850,27.455902,-6.580746,-82.412109,,,,,,,
1522139348.768312,-0.050408,0.005999,0.591531,-0.014668,0.015247,0.015568,-0.050386,-0.005999,-0.998712,-0.013976,0.013262,-0.069861,28.429367,-6.510509,-82.786926,,,,,,,
1522139348.798280,-0.050643,0.005886,0.591765,-0.000805,0.015206,0.017703,-0.050620,-0.005886,-0.998701,-0.039208,-0.044972,-0.008669,27.604706,-6.656490,-82.486755,,,,,,,
1522139348.828248,-0.050992,0.005658,0.592024,-0.012616,-0.002819,0.015586,-0.050969,-0.005658,-0.998684,0.007558,0.031506,-0.012256,27.010559,-6.203594,-82.263855,,,,,,,
1522139348.858217,-0.051433,0.005565,0.592118,-0.004096,-0.011302,0.011332,-0.051409,-0.005564,-0.998662,0.006915,-0.010396,-0.043422,27.455902,-6.580746,-82.412109,,,,,,,
1522139348.888185,-0.051859,0.005164,0.592348,-0.018033,-0.022982,0.013472,-0.051835,-0.005164,-0.998642,-0.004165,0.004828,-0.006271,26.782288,-6.577496,-82.187439,,,,,,,
1522139348.918153,-0.052142,0.004809,0.592621,-0.006217,-0.004982,0.016668,-0.052118,-0.004809,-0.998629,-0.029822,0.059787,-0.021878,27.686127,-6.056789,-82.414124,,,,,,,
1522139348.948121,-0.052193,0.004805,0.592997,0.002243,-0.021980,0.015614,-0.052169,-0.004805,-0.998627,-0.007035,-0.005709,0.020767,27.158005,-6.279568,-82.563477,,,,,,,
1522139348.978090,-0.052159,0.004594,0.593291,-0.007303,-0.004964,0.017717,-0.052135,-0.004594,-0.998630,-0.013615,-0.020446,0.020129,26.710419,-6.127392,-82.414307,,,,,,,
1522139349.008058,-0.051863,0.004330,0.593764,0.010937,0.011987,0.016657,-0.051839,-0.004330,-0.998646,-0.027888,-0.002384,-0.023128,28.137329,-6.208370,-81.963257,,,,,,,
1522139349.038026,-0.051512,0.004681,0.594312,0.010927,0.017289,0.020901,-0.051489,-0.004681,-0.998663,-0.006434,-0.010059,-0.001322,27.157562,-6.504253,-82.262573,,,,,,,
1522139349.067994,-0.051100,0.004739,0.594740,0.007770,0.025785,0.020899,-0.051077,-0.004739,-0.998683,-0.030344,0.013818,0.005641,26.702194,-6.952358,-82.411011,,,,,,,
1522139349.097932,-0.050643,0.005052,0.595217,0.013033,0.009839,0.020914,-0.050620,-0.005052,-0.998705,-0.000207,-0.016066,0.015215,27.080017,-6.579205,-82.562317,,,,,,,
1522139349.127900,-0.050094,0.005317,0.595641,0.014185,0.026841,0.019835,-0.050072,-0.005317,-0.998731,0.012352,0.032829,-0.007021,26.855789,-6.727825,-82.186829,,,,,,,
1522139349.157869,-0.049657,0.005623,0.596067,0.003478,0.016246,0.017714,-0.049636,-0.005623,-0.998752,-0.005723,-0.008293,-0.013974,27.230316,-6.729580,-82.261597,,,,,,,
1522139349.187837,-0.049378,0.005733,0.596433,0.004526,0.017297,0.020901,-0.049357,-0.005733,-0.998765,-0.011190,0.027690,-0.017761,27.755585,-6.432400,-82.712585,,,,,,,
1522139349.217805,-0.049469,0.006102,0.596839,0.016166,-0.012452,0.015615,-0.049448,-0.006102,-0.998758,-0.019461,-0.018694,-0.056204,27.079285,-6.878826,-82.186096,,,,,,,
1522139349.247774,-0.049623,0.006141,0.597217,-0.004037,0.009877,0.019844,-0.049602,-0.006141,-0.998750,0.009197,0.020209,0.007402,26.775253,-7.102764,-82.485413,,,,,,,
1522139349.277742,-0.049952,0.006323,0.597684,0.012882,-0.032633,0.014572,-0.049930,-0.006323,-0.998733,0.029956,-0.013972,0.016097,27.453064,-6.730953,-82.636536,,,,,,,
1522139349.307710,-0.050263,0.006341,0.597992,-0.006309,-0.018813,0.020935,-0.050241,-0.006341,-0.998717,-0.010047,-0.018943,-0.016984,26.926590,-6.878597,-82.636169,,,,,,,
,,,,,,,,,,,,,,,,25.306101,51.445722,10.999999,-1.000000,-1.000000,1522139349.291231,
1522139349.337678,-0.050639,0.006056,0.598474,-0.009523,-0.021998,0.020940,-0.050616,-0.006056,-0.998700,-0.013059,-0.000078,0.039990,26.404160,-6.800945,-82.336792,,,,,,,
1522139349.367642,-0.050919,0.005865,0.598977,-0.006286,-0.013499,0.020929,-0.050896,-0.005865,-0.998687,0.017052,0.001684,-0.014970,27.759048,-6.581585,-81.886963,,,,,,,
,,,,,,,,,,,,,,,,25.306101,51.445722,10.999999,-1.000000,-1.000000,1522139349.316672,
1522139349.397610,-0.051181,0.005806,0.599344,-0.004104,-0.008144,0.015591,-0.051157,-0.005806,-0.998674,0.021448,-0.022835,0.005540,26.925690,-7.103359,-82.410278,,,,,,,
,,,,,,,,,,,,,,,,25.306101,51.445722,10.999999,-1.000000,-1.000000,1522139349.363241,
1522139349.427578,-0.051261,0.005448,0.599787,-0.011463,0.021592,0.019821,-0.051238,-0.005448,-0.998672,0.036559,-0.022353,-0.062837,27.153671,-6.804394,-82.411377,,,,,,,
,,,,,,,,,,,,,,,,25.306101,51.445722,10.999999,-1.000000,-1.000000,1522139349.392216,
1522139349.457546,-0.051222,0.005320,0.600181,0.000212,0.005620,0.019849,-0.051199,-0.005320,-0.998674,0.017065,0.018030,-0.034193,27.303970,-6.730145,-82.486633,,,,,,,
,,,,,,,,,,,,,,,,25.306101,51.445722,10.999999,-1.000000,-1.000000,1522139349.433627,
1522139349.487515,-0.051126,0.005226,0.600597,-0.006223,-0.004955,0.015589,-0.051103,-0.005226,-0.998680,0.038469,-0.006600,0.003059,27.004425,-6.728725,-82.411743,,,,,,,
1522139349.517483,-0.050871,0.004952,0.600839,-0.008371,-0.009176,0.013454,-0.050848,-0.004952,-0.998694,-0.000406,0.000375,-0.073968,27.150375,-6.954678,-82.710754,,,,,,,
1522139349.547421,-0.051011,0.004909,0.601213,0.005514,-0.006076,0.017739,-0.050989,-0.004909,-0.998687,-0.008398,-0.020771,-0.001435,27.756790,-6.357327,-82.637878,,,,,,,
1522139349.577389,-0.051131,0.004926,0.601508,-0.000907,-0.009246,0.017737,-0.051108,-0.004926,-0.998681,-0.005105,0.037061,-0.049049,27.301575,-6.880276,-82.635986,,,,,,,
1522139349.607357,-0.051371,0.005010,0.601890,0.003402,-0.003901,0.013464,-0.051347,-0.005010,-0.998668,0.003328,-0.022074,0.082637,26.624359,-7.102230,-82.635437,,,,,,,
1522139349.637325,-0.051773,0.005239,0.602107,0.001097,-0.030529,0.023079,-0.051749,-0.005239,-0.998646,0.080939,0.037953,-0.095744,27.154266,-6.429928,-82.937866,,,,,,,
1522139349.667294,-0.052080,0.005395,0.602594,0.036353,-0.042231,0.010341,-0.052056,-0.005395,-0.998630,0.028252,0.078347,0.142627,26.929565,-6.353985,-83.013306,,,,,,,
1522139349.697262,-0.052195,0.007057,0.602849,0.026936,0.009849,0.015592,-0.052170,-0.007057,-0.998613,-0.001632,-0.086967,-0.058088,26.927780,-6.578899,-82.937378,,,,,,,
1522139349.727230,-0.051974,0.005982,0.603258,-0.030729,0.016267,0.026216,-0.051950,-0.005982,-0.998632,0.047799,0.121354,0.030858,27.453354,-6.431408,-83.087708,,,,,,,
1522139349.757198,-0.051559,0.006766,0.603671,0.054728,0.011900,0.013493,-0.051535,-0.006766,-0.998648,-0.040918,-0.036050,-0.016778,26.400269,-7.101070,-82.485596,,,,,,,
1522139349.787167,-0.051248,0.007309,0.604050,-0.020106,0.008801,0.028353,-0.051224,-0.007309,-0.998660,0.016556,0.029450,-0.016446,26.553101,-6.951534,-82.261047,,,,,,,
1522139349.817135,-0.050544,0.007231,0.604556,0.033405,0.022558,0.016662,-0.050521,-0.007231,-0.998697,0.006499,0.127455,0.077249,27.600204,-6.881847,-82.860840,,,,,,,
1522139349.847103,-0.049190,0.008427,0.604842,0.034850,0.122343,0.030414,-0.049169,-0.008427,-0.998755,-0.039378,-0.052990,-0.234033,26.551163,-7.101604,-82.335510,,,,,,,
1522139349.877072,-0.048278,0.009158,0.605453,0.007752,0.019390,0.020918,-0.048257,-0.009158,-0.998793,0.054772,-0.010526,0.117750,26.699203,-7.252346,-82.409851,,,,,,,
1522139349.907040,-0.047680,0.009371,0.605787,0.033147,-0.033754,0.016714,-0.047659,-0.009371,-0.998820,0.026297,-0.059919,0.255930,26.847092,-7.552853,-82.258545,,,,,,,
1522139349.937008,-0.046769,0.009520,0.606308,-0.014559,0.038635,0.014477,-0.046750,-0.009519,-0.998861,0.059140,-0.029131,-0.006800,26.622559,-7.327145,-82.559509,,,,,,,
1522139349.966976,-0.046308,0.009197,0.606663,0.011051,0.037473,0.017702,-0.046289,-0.009197,-0.998886,0.062647,0.034359,-0.014908,27.370728,-7.330807,-82.859192,,,,,,,
1522139349.996945,-0.045976,0.009483,0.607000,-0.000931,-0.015613,0.016677,-0.045957,-0.009483,-0.998898,-0.008410,-0.006783,-0.043429,26.921036,-7.478481,-82.558777,,,,,,,
1522139350.026882,-0.045845,0.009717,0.607401,0.011927,-0.007123,0.014543,-0.045827,-0.009717,-0.998902,0.027745,0.000577,-0.022979,26.845596,-7.478222,-82.633850,,,,,,,
1522139350.056851,-0.046335,0.009746,0.607610,0.002194,-0.037907,0.012440,-0.046316,-0.009746,-0.998879,0.040579,-0.018544,-0.015174,27.746170,-7.332424,-82.783997,,,,,,,
1522139350.086819,-0.047037,0.010118,0.608006,0.016064,-0.034781,0.016708,-0.047017,-0.010118,-0.998843,0.016484,0.003511,0.057345,27.369370,-7.555660,-82.708252,,,,,,,
1522139350.116787,-0.047668,0.010297,0.608147,0.001209,-0.020895,0.011357,-0.047648,-0.010296,-0.998811,-0.000311,0.000699,-0.071974,26.620010,-7.627056,-82.483398,,,,,,,
1522139350.146755,-0.048570,0.010453,0.608399,0.000117,-0.025152,0.012427,-0.048548,-0.010453,-0.998766,0.002360,-0.015670,-0.083036,26.921051,-7.703106,-82.182861,,,,,,,
1522139350.176724,-0.049311,0.010331,0.608640,0.001167,-0.025176,0.015623,-0.049288,-0.010331,-0.998731,0.001864,0.036180,-0.070895,27.295578,-7.480251,-82.633606,,,,,,,
1522139350.206692,-0.050162,0.010569,0.608912,0.007598,-0.024112,0.012434,-0.050138,-0.010569,-0.998686,0.023694,-0.009573,-0.075044,26.548920,-7.326595,-82.334595,,,,,,,
1522139350.236660,-0.050984,0.010431,0.609267,-0.005251,-0.019905,0.023076,-0.050959,-0.010431,-0.998646,0.011545,0.043176,-0.117229,27.744812,-7.332653,-83.008972,,,,,,,
1522139350.266628,-0.051741,0.010621,0.609733,0.015127,-0.003982,0.018810,-0.051715,-0.010620,-0.998605,-0.005826,-0.000641,-0.069754,26.471069,-7.701092,-82.183105,,,,,,,
1522139350.296597,-0.052420,0.011105,0.610157,0.015083,-0.007204,0.024139,-0.052393,-0.011104,-0.998565,0.002939,-0.007649,-0.053361,26.623459,-7.327007,-82.409546,,,,,,,
1522139350.326565,-0.052799,0.011740,0.610690,0.033227,-0.019936,0.014577,-0.052770,-0.011739,-0.998538,0.015280,-0.005198,-0.108304,27.145889,-7.180035,-83.084900,,,,,,,
1522139350.356519,-0.053178,0.012373,0.610984,0.012978,-0.007166,0.018812,-0.053149,-0.012372,-0.998510,-0.005338,0.031476,0.012991,26.395615,-7.476192,-82.634033,,,,,,,
1522139350.386487,-0.053255,0.013011,0.611472,0.044071,0.021462,0.017736,-0.053225,-0.013011,-0.998498,0.011325,-0.023732,-0.115195,26.845444,-7.628002,-82.408264,,,,,,,
1522139350.416456,-0.053480,0.014332,0.611947,0.028952,-0.012524,0.020954,-0.053449,-0.014332,-0.998468,0.016049,0.024967,-0.034644,27.000092,-7.253551,-82.259644,,,,,,,
1522139350.446424,-0.053387,0.015479,0.612239,0.052565,0.004457,0.013505,-0.053355,-0.015478,-0.998456,-0.007024,0.080664,-0.045871,26.395020,-7.626049,-82.483521,,,,,,,
1522139350.476362,-0.053145,0.016869,0.612672,0.042098,0.061794,0.023032,-0.053112,-0.016868,-0.998446,-0.006015,0.002143,-0.023237,26.243225,-7.850292,-82.407654,,,,,,,
1522139350.506330,-0.052911,0.018016,0.613142,0.039799,0.026726,0.024131,-0.052877,-0.018015,-0.998438,0.002859,0.025415,-0.036092,27.293930,-7.555386,-82.783325,,,,,,,
1522139350.536298,-0.052371,0.019040,0.613682,0.031175,0.005524,0.020945,-0.052337,-0.019039,-0.998448,0.033142,-0.036778,-0.041255,26.770447,-7.627666,-82.408264,,,,,,,
1522139350.566266,-0.051997,0.019745,0.614175,0.024707,-0.007238,0.023092,-0.051964,-0.019743,-0.998454,0.018593,-0.000261,0.079356,26.022873,-7.474148,-82.259277,,,,,,,
1522139350.596235,-0.051596,0.020419,0.614867,0.026972,0.022501,0.024130,-0.051562,-0.020417,-0.998461,0.065524,-0.005843,-0.057264,27.367432,-7.705715,-82.782654,,,,,,,
1522139350.626203,-0.051424,0.021440,0.615540,0.029140,0.039471,0.030495,-0.051389,-0.021439,-0.998449,0.011670,0.023850,-0.064021,26.694412,-7.777248,-82.332703,,,,,,,
1522139350.656171,-0.051476,0.022529,0.616238,0.036419,-0.011528,0.025233,-0.051440,-0.022527,-0.998422,0.006778,-0.007609,0.036096,26.393372,-7.925808,-82.257263,,,,,,,
1522139350.686140,-0.051245,0.023541,0.616759,0.031119,-0.010425,0.019907,-0.051208,-0.023539,-0.998411,0.001358,-0.022146,-0.027636,26.389175,-8.076244,-82.706665,,,,,,,
1522139350.716108,-0.051238,0.024127,0.617404,0.016179,-0.005080,0.022015,-0.051201,-0.024125,-0.998397,0.040291,-0.019470,-0.021913,26.241592,-8.150051,-82.181396,,,,,,,
1522139350.746076,-0.051364,0.024391,0.618009,0.013007,0.002353,0.023075,-0.051326,-0.024389,-0.998384,0.013622,-0.003687,-0.024321,26.313141,-8.225826,-82.631104,,,,,,,
1522139350.776044,-0.052023,0.025254,0.618361,0.032072,-0.036968,0.017797,-0.051983,-0.025252,-0.998329,-0.005298,-0.015703,-0.020424,27.065643,-7.929287,-82.706909,,,,,,,
1522139350.806013,-0.052726,0.026222,0.618777,0.026799,-0.027377,0.014593,-0.052683,-0.026219,-0.998267,0.020579,0.014530,-0.040216,26.616272,-8.002041,-82.481873,,,,,,,
1522139350.835981,-0.053199,0.026760,0.619048,0.021498,-0.014629,0.017768,-0.053154,-0.026757,-0.998228,0.011651,-0.020927,-0.013598,26.465225,-8.151287,-82.406372,,,,,,,
1522139350.865949,-0.053454,0.027371,0.619490,0.019431,0.001321,0.017747,-0.053408,-0.027368,-0.998198,0.018908,0.011011,-0.053774,27.292587,-7.780239,-82.632385,,,,,,,
1522139350.895917,-0.053844,0.028028,0.619701,0.016187,-0.009291,0.016691,-0.053797,-0.028024,-0.998159,0.020594,-0.002707,-0.058711,25.942062,-8.148632,-82.106628,,,,,,,
1522139350.925886,-0.054316,0.028646,0.620013,0.025761,-0.020984,0.013515,-0.054267,-0.028643,-0.998116,0.017631,0.016832,-0.036522,26.240845,-8.225048,-82.181152,,,,,,,
1522139350.955823,-0.054583,0.029610,0.620185,0.035393,-0.016748,0.012450,-0.054532,-0.029606,-0.998073,-0.002399,-0.010266,0.002040,26.540222,-8.151623,-82.406311,,,,,,,
1522139350.985792,-0.054723,0.030381,0.620516,0.017378,0.014087,0.014545,-0.054671,-0.030376,-0.998042,-0.005388,0.021389,-0.045766,26.539780,-8.151699,-82.481323,,,,,,,
1522139351.015760,-0.054482,0.030731,0.620724,0.008856,0.019412,0.015600,-0.054430,-0.030727,-0.998045,0.033022,0.015834,0.002195,27.141098,-7.929546,-82.631897,,,,,,,
1522139351.045728,-0.054276,0.030714,0.620977,-0.011545,-0.006022,0.014538,-0.054224,-0.030710,-0.998056,0.002253,-0.018653,-0.021048,26.241455,-8.299831,-81.955872,,,,,,,
1522139351.075696,-0.053981,0.030352,0.621451,0.003495,0.016234,0.016661,-0.053930,-0.030347,-0.998083,0.021017,0.066816,-0.026239,26.088745,-8.299587,-82.405945,,,,,,,
1522139351.105665,-0.053809,0.031088,0.621689,0.029034,-0.007158,0.011369,-0.053757,-0.031083,-0.998070,0.021316,0.003541,-0.044181,26.840805,-8.003124,-82.556702,,,,,,,
1522139351.135633,-0.054076,0.031402,0.622061,0.015117,-0.012480,0.015635,-0.054023,-0.031397,-0.998046,-0.004922,0.017832,-0.013566,26.764771,-8.152706,-82.481201,,,,,,,
1522139351.165601,-0.054281,0.032136,0.622295,0.035318,-0.032714,0.014606,-0.054226,-0.032130,-0.998012,0.010845,-0.019521,0.016139,26.390381,-8.225796,-82.256042,,,,,,,
1522139351.195569,-0.054591,0.033009,0.622564,0.022605,-0.015651,0.010317,-0.054535,-0.033003,-0.997966,0.009704,0.015150,0.048458,26.013611,-8.449032,-82.180359,,,,,,,
1522139351.225538,-0.054793,0.033229,0.622603,0.004520,-0.003905,0.008163,-0.054735,-0.033223,-0.997948,0.031923,-0.021907,-0.033668,25.789978,-8.447796,-81.955505,,,,,,,
1522139351.255506,-0.054979,0.033557,0.622746,0.013084,0.002443,0.009228,-0.054921,-0.033551,-0.997927,0.050541,0.031537,-0.046598,25.636383,-8.672329,-82.179626,,,,,,,
1522139351.285474,-0.055261,0.033934,0.622716,0.005535,-0.015579,0.007103,-0.055201,-0.033927,-0.997899,-0.003957,0.002036,-0.076213,26.610886,-8.452160,-82.630066,,,,,,,
1522139351.315443,-0.055674,0.033940,0.622934,-0.000860,-0.004976,0.013477,-0.055613,-0.033933,-0.997876,0.016658,0.051222,-0.007923,25.786514,-8.523235,-82.405212,,,,,,,
1522139351.345411,-0.055726,0.034423,0.622977,0.027912,-0.025214,0.008201,-0.055665,-0.034417,-0.997856,0.034638,0.038216,-0.037239,26.163147,-8.449780,-82.255249,,,,,,,
1522139351.375370,-0.056070,0.034960,0.623106,0.008724,-0.016667,0.009240,-0.056007,-0.034953,-0.997818,0.008354,-0.000966,0.021012,24.886703,-8.594036,-82.255310,,,,,,,
1522139351.405308,-0.056228,0.035165,0.623318,0.010977,0.013074,0.011337,-0.056163,-0.035158,-0.997802,0.020778,0.008775,-0.100190,25.711990,-8.522823,-82.330200,,,,,,,
1522139351.435276,-0.056766,0.035543,0.623404,0.015081,-0.023060,0.011372,-0.056700,-0.035535,-0.997759,0.037748,0.024091,-0.027983,25.486389,-8.671658,-82.179688,,,,,,,
1522139351.465244,-0.057165,0.035970,0.623604,0.011981,-0.007114,0.008174,-0.057097,-0.035962,-0.997721,-0.000383,0.007978,-0.032537,25.935760,-8.598904,-82.404846,,,,,,,
,,,,,,,,,,,,,,,,25.306101,51.445722,10.999999,-1.000000,-1.000000,1522139351.436552,
1522139351.495213,-0.057314,0.036268,0.623664,0.010962,0.013049,0.014535,-0.057245,-0.036260,-0.997701,-0.002814,0.044942,-0.021403,25.786514,-8.523235,-82.405212,,,,,,,
1522139351.525181,-0.057498,0.037020,0.623846,0.026917,-0.008203,0.008178,-0.057427,-0.037011,-0.997663,0.004158,0.016885,-0.027987,25.939362,-8.373699,-82.180664,,,,,,,
1522139351.555149,-0.057795,0.037666,0.623958,0.022646,-0.003977,0.012437,-0.057722,-0.037657,-0.997622,-0.007753,0.018583,-0.076123,26.538437,-8.376537,-82.330383,,,,,,,
1522139351.585117,-0.057879,0.038185,0.624192,0.031168,-0.013551,0.009264,-0.057805,-0.038176,-0.997598,0.023244,0.028547,0.007134,25.788483,-8.597790,-81.954895,,,,,,,
1522139351.615086,-0.057860,0.038875,0.624270,0.016356,0.024718,0.014531,-0.057784,-0.038866,-0.997572,-0.010194,-0.041152,-0.077364,25.334305,-8.746197,-82.404541,,,,,,,
1522139351.645054,-0.057587,0.039245,0.624498,0.018376,-0.007145,0.010310,-0.057511,-0.039234,-0.997574,0.038620,0.059803,0.012802,26.381699,-8.601589,-83.079590,,,,,,,
1522139351.675022,-0.057230,0.040051,0.624565,0.029273,0.037493,0.006007,-0.057153,-0.040040,-0.997562,0.006844,0.007249,-0.089230,25.933212,-8.674191,-82.704529,,,,,,,
1522139351.704990,-0.057178,0.040812,0.624726,0.025832,-0.017757,0.005001,-0.057099,-0.040800,-0.997534,0.011384,0.007674,0.023856,25.710037,-8.672894,-82.404663,,,,,,,
1522139351.734959,-0.056913,0.041387,0.624934,0.025943,0.011967,0.009232,-0.056833,-0.041375,-0.997526,0.008249,-0.020408,-0.056139,26.457748,-8.676617,-82.779236,,,,,,,
,,,,,,,,,,,,,,,,25.306121,51.445701,10.999999,-1.000000,-1.000000,1522139351.726912,
1522139351.764927,-0.056998,0.042021,0.624999,0.020542,-0.000762,0.009235,-0.056916,-0.042009,-0.997495,-0.016524,-0.006850,-0.014224,25.560776,-8.597210,-82.405029,,,,,,,
1522139351.794895,-0.057197,0.042596,0.625111,0.018410,-0.004995,0.004613,-0.057114,-0.042583,-0.997459,0.001740,-0.017246,-0.041008,25.857330,-8.898632,-82.478699,,,,,,,
1522139351.824862,-0.057617,0.043014,0.625024,0.010926,-0.007098,0.004053,-0.057531,-0.043000,-0.997417,0.016912,0.023637,0.036068,26.378998,-8.826641,-83.153687,,,,,,,
1522139351.854832,-0.057863,0.043377,0.625076,0.011921,-0.018790,0.006187,-0.057776,-0.043363,-0.997387,0.028113,0.017728,-0.010135,25.781433,-8.898434,-82.628662,,,,,,,
1522139351.884768,-0.058149,0.043786,0.625020,0.015144,-0.019869,0.004075,-0.058060,-0.043772,-0.997353,0.041565,0.019724,-0.015449,25.479187,-8.897442,-83.003845,,,,,,,
1522139351.914737,-0.058498,0.044237,0.625094,0.025745,-0.031579,0.006212,-0.058408,-0.044223,-0.997313,0.036252,0.013476,0.028334,25.631271,-8.598278,-83.154968,,,,,,,
1522139351.944705,-0.058950,0.044915,0.625020,0.018387,-0.002898,0.009378,-0.058856,-0.044900,-0.997256,0.034137,-0.009086,-0.034879,24.657822,-8.668530,-82.780151,,,,,,,
1522139351.974674,-0.059298,0.045344,0.625158,0.016220,-0.013512,0.007262,-0.059202,-0.045328,-0.997216,0.015410,0.045603,-0.012000,24.657516,-8.743450,-82.704895,,,,,,,
1522139352.004642,-0.059898,0.045857,0.625072,0.015263,0.005644,0.002982,-0.059800,-0.045841,-0.997157,0.024643,-0.005596,-0.084615,24.812775,-8.668392,-81.955078,,,,,,,
1522139352.034611,-0.060151,0.045888,0.625172,-0.007317,-0.020901,0.009379,-0.060051,-0.045871,-0.997141,0.032418,-0.000485,-0.018698,24.585999,-8.892300,-81.879272,,,,,,,
1522139352.064579,-0.060580,0.045892,0.625297,0.005565,-0.006061,0.009377,-0.060479,-0.045876,-0.997115,-0.008262,0.041832,-0.068346,24.660538,-9.117336,-81.578369,,,,,,,
1522139352.094547,-0.060851,0.046197,0.625356,0.014020,-0.020977,0.012592,-0.060748,-0.046181,-0.997084,0.026492,0.016472,-0.005479,25.261719,-9.044964,-81.503357,,,,,,,
1522139352.124516,-0.061326,0.046840,0.625525,0.031202,-0.003989,0.008327,-0.061221,-0.046822,-0.997025,0.009158,0.031487,-0.020705,24.732986,-9.192959,-81.877991,,,,,,,
1522139352.154484,-0.061589,0.047779,0.625462,0.034352,-0.018846,0.005143,-0.061480,-0.047760,-0.996965,0.003603,0.003785,-0.062132,24.655441,-9.267910,-82.177734,,,,,,,
1522139352.184452,-0.061742,0.048543,0.625475,0.020592,0.004593,0.001910,-0.061630,-0.048524,-0.996919,0.024735,-0.006957,0.027909,26.456711,-9.051159,-82.327759,,,,,,,
1522139352.214420,-0.061784,0.048772,0.625295,0.005530,-0.021944,0.001931,-0.061672,-0.048752,-0.996905,-0.010106,0.013169,-0.025220,25.853897,-9.423306,-82.176514,,,,,,,
1522139352.244389,-0.061930,0.048943,0.625105,0.009960,0.004662,-0.005550,-0.061817,-0.048923,-0.996888,0.022388,0.021091,0.069352,25.176376,-9.495556,-82.476624,,,,,,,
1522139352.274357,-0.061753,0.049153,0.624681,0.006742,-0.000624,-0.007681,-0.061639,-0.049133,-0.996888,0.006997,0.046890,0.014818,25.554504,-9.272106,-82.327332,,,,,,,
1522139352.304325,-0.061435,0.049276,0.624343,0.004686,0.018502,-0.006637,-0.061321,-0.049256,-0.996902,0.022320,0.028641,-0.078370,25.550461,-9.497387,-82.626404,,,,,,,
1522139352.334293,-0.061038,0.049189,0.623882,-0.000725,0.002544,-0.004482,-0.060927,-0.049169,-0.996930,0.034590,0.034734,-0.027300,26.523315,-9.576992,-82.850647,,,,,,,
1522139352.364225,-0.061021,0.049184,0.623529,-0.000729,-0.001664,-0.008749,-0.060909,-0.049164,-0.996932,0.047588,0.034805,-0.065004,25.925888,-9.499004,-82.551208,,,,,,,
1522139352.394193,-0.061681,0.048963,0.623028,-0.015805,-0.033497,-0.010854,-0.061568,-0.048944,-0.996902,0.090270,-0.016074,-0.038697,25.772308,-9.723537,-82.775391,,,,,,,
1522139352.424162,-0.062674,0.047697,0.622457,-0.053130,-0.014339,-0.002375,-0.062562,-0.047679,-0.996902,0.007020,0.025615,-0.083299,26.297867,-9.351421,-83.301575,,,,,,,
1522139352.454130,-0.063797,0.046712,0.622076,-0.021318,-0.065393,-0.005503,-0.063684,-0.046696,-0.996877,0.001978,0.038257,0.093770,25.025467,-9.270412,-83.002563,,,,,,,
1522139352.484097,-0.064162,0.046362,0.621567,-0.009061,0.044044,-0.008797,-0.064049,-0.046345,-0.996870,-0.012230,0.092182,-0.001970,24.498993,-9.418026,-83.002258,,,,,,,
1522139352.514066,-0.063871,0.046661,0.621055,0.028199,0.007882,-0.018318,-0.063759,-0.046644,-0.996875,0.043922,0.034925,-0.090039,23.905609,-8.890148,-82.779663,,,,,,,
1522139352.544034,-0.063954,0.047216,0.620486,0.003603,0.008962,-0.010885,-0.063839,-0.047199,-0.996843,0.056194,0.034916,0.053331,24.285706,-8.965878,-81.804138,,,,,,,
1522139352.574003,-0.063563,0.047287,0.620101,0.017332,-0.027189,-0.012967,-0.063450,-0.047269,-0.996865,-0.000103,0.033643,-0.115836,24.736435,-8.892910,-81.804199,,,,,,,
1522139352.603971,-0.063190,0.047344,0.619505,-0.011100,0.059998,-0.012003,-0.063077,-0.047326,-0.996886,0.000593,-0.053977,0.072600,26.163605,-8.449703,-82.180237,,,,,,,
1522139352.633939,-0.062529,0.046721,0.618903,-0.003928,-0.019628,-0.023642,-0.062420,-0.046704,-0.996957,-0.009403,0.060208,-0.013175,25.559280,-8.747204,-82.404419,,,,,,,
1522139352.663908,-0.062351,0.046995,0.618220,0.021961,0.050391,-0.015177,-0.062242,-0.046978,-0.996955,-0.004424,0.001171,-0.011315,25.258698,-8.895702,-82.253967,,,,,,,
1522139352.693876,-0.061126,0.047480,0.617855,0.017548,0.029076,-0.005564,-0.061019,-0.047462,-0.997008,0.012344,0.093681,0.051909,25.783676,-8.898067,-82.253662,,,,,,,
1522139352.723844,-0.061280,0.048224,0.617525,0.021642,-0.014484,-0.008711,-0.061170,-0.048205,-0.996963,-0.020663,-0.003080,-0.143525,25.480408,-9.271618,-82.177307,,,,,,,
1522139352.753813,-0.061417,0.048630,0.617156,0.007725,-0.017649,-0.005528,-0.061306,-0.048611,-0.996935,0.062557,0.070477,0.067735,25.178024,-9.420406,-82.326904,,,,,,,
1522139352.783781,-0.061882,0.048719,0.616848,0.001422,0.004677,-0.005552,-0.061769,-0.048699,-0.996902,0.048784,0.009011,-0.074494,25.632782,-8.897533,-82.403748,,,,,,,
1522139352.813719,-0.062504,0.048570,0.616366,-0.017935,-0.028198,-0.007667,-0.062389,-0.048551,-0.996870,0.070049,0.062482,-0.038820,25.104965,-9.045391,-82.628418,,,,,,,
1522139352.843687,-0.063753,0.048446,0.616013,0.024691,-0.050602,-0.010805,-0.063635,-0.048427,-0.996798,0.094641,0.031536,0.038256,25.630692,-9.197369,-82.252563,,,,,,,
1522139352.873655,-0.064629,0.049224,0.615417,0.007695,-0.031433,-0.010837,-0.064506,-0.049204,-0.996704,0.073082,0.019206,-0.103257,26.079025,-9.049923,-82.777954,,,,,,,
1522139352.903623,-0.065324,0.049563,0.615048,0.033541,0.018451,-0.010872,-0.065197,-0.049543,-0.996642,-0.002002,0.079282,-0.119462,24.880417,-9.044308,-82.553528,,,,,,,
1522139352.933592,-0.065961,0.051031,0.614443,0.042925,-0.032588,-0.010807,-0.065828,-0.051009,-0.996526,0.001893,-0.000337,0.037054,25.177719,-9.270718,-82.627502,,,,,,,
1522139352.963560,-0.066202,0.051471,0.614074,0.005617,-0.015515,-0.007655,-0.066066,-0.051448,-0.996488,-0.010609,0.060039,-0.042452,25.476349,-9.272274,-82.852356,,,,,,,
,,,,,,,,,,,,,,,,25.306158,51.445662,10.999999,-1.000000,-1.000000,1522139352.930785,
1522139352.993528,-0.066686,0.051537,0.613440,0.005649,-0.012273,-0.012998,-0.066548,-0.051514,-0.996453,0.002217,-0.026367,0.054283,24.728485,-9.418316,-82.252136,,,,,,,
1522139353.023496,-0.066596,0.051155,0.613062,-0.019839,0.022827,-0.008790,-0.066460,-0.051133,-0.996478,-0.023079,0.010392,-0.108411,24.579559,-9.267727,-82.327820,,,,,,,
1522139353.053465,-0.066490,0.050532,0.612471,-0.014610,-0.004806,-0.010884,-0.066357,-0.050511,-0.996517,-0.010029,-0.014339,-0.096592,24.730148,-9.343166,-82.102478,,,,,,,
1522139353.083433,-0.065799,0.049931,0.612130,-0.030434,0.045117,-0.003483,-0.065669,-0.049910,-0.996592,0.067485,0.040221,-0.013478,24.656326,-9.043148,-82.403687,,,,,,,
1522139353.113400,-0.064967,0.049474,0.611796,0.003544,0.000429,-0.006612,-0.064842,-0.049454,-0.996669,0.043617,0.060211,-0.000264,24.725937,-9.493603,-82.551819,,,,,,,
1522139353.143368,-0.064058,0.049566,0.611300,-0.007967,0.051475,-0.007740,-0.063936,-0.049546,-0.996723,0.012148,-0.040924,-0.048824,25.403168,-9.496273,-82.176453,,,,,,,
1522139353.173337,-0.063394,0.048970,0.610993,-0.018934,-0.009054,-0.006636,-0.063275,-0.048950,-0.996795,0.063901,0.047851,0.092162,25.104828,-9.419781,-82.026978,,,,,,,
1522139353.203305,-0.062956,0.048334,0.610424,-0.010304,0.007905,-0.006632,-0.062841,-0.048315,-0.996853,0.007910,-0.022745,-0.025058,24.879074,-9.269146,-82.402649,,,,,,,
1522139353.233274,-0.062950,0.047818,0.610002,-0.022192,-0.030300,-0.010858,-0.062836,-0.047800,-0.996879,0.069886,0.061915,0.057975,26.225723,-9.425503,-82.701355,,,,,,,
1522139353.263242,-0.063128,0.047402,0.609357,-0.006023,0.003695,-0.013022,-0.063016,-0.047384,-0.996887,0.036771,0.004721,-0.057984,25.325790,-9.646084,-82.325928,,,,,,,
1522139353.293180,-0.064173,0.047062,0.608847,-0.013785,-0.061128,-0.011887,-0.064058,-0.047045,-0.996837,0.019289,0.079150,0.013988,25.100616,-9.345592,-82.852234,,,,,,,
1522139353.323148,-0.065028,0.046891,0.608232,0.006675,-0.022912,-0.012979,-0.064911,-0.046874,-0.996790,0.034164,0.020217,-0.033850,24.950500,-9.494686,-82.626709,,,,,,,
1522139353.353114,-0.066239,0.046724,0.607746,-0.008485,-0.068590,-0.010808,-0.066119,-0.046707,-0.996718,0.024691,0.035019,0.024764,25.026825,-9.494808,-82.401672,,,,,,,
1522139353.383082,-0.067321,0.046444,0.607203,0.005577,-0.024013,-0.007649,-0.067198,-0.046427,-0.996659,0.017698,0.049509,-0.000366,25.774689,-9.348766,-83.001892,,,,,,,
1522139353.413050,-0.068336,0.046380,0.606788,-0.000848,-0.026140,-0.005518,-0.068209,-0.046364,-0.996593,0.061892,0.021156,0.040004,24.428345,-9.342113,-82.402588,,,,,,,
1522139353.443019,-0.068511,0.046183,0.606445,0.000257,-0.015516,-0.004468,-0.068384,-0.046167,-0.996590,0.052241,0.067102,0.021294,24.952438,-9.120007,-82.928162,,,,,,,
1522139353.472987,-0.068593,0.046402,0.606013,0.009943,-0.000647,-0.006608,-0.068465,-0.046385,-0.996575,0.038146,0.023589,-0.074058,25.327728,-9.271389,-82.627380,,,,,,,
1522139353.502955,-0.068357,0.046404,0.605732,-0.000629,0.023812,-0.005575,-0.068230,-0.046387,-0.996591,0.028587,0.055024,0.013177,25.254059,-9.270840,-82.402466,,,,,,,
1522139353.532923,-0.068295,0.046593,0.605399,0.008935,0.016336,-0.003430,-0.068168,-0.046576,-0.996586,0.012519,-0.001932,-0.043575,24.580597,-9.117809,-82.403442,,,,,,,
1522139353.562892,-0.067458,0.046563,0.605241,0.002538,0.019515,-0.001301,-0.067333,-0.046546,-0.996644,-0.011036,0.071891,0.013932,24.427750,-9.267345,-82.627869,,,,,,,
1522139353.592860,-0.066637,0.046935,0.604831,0.022889,0.028004,-0.006622,-0.066515,-0.046917,-0.996682,0.001253,0.008496,0.032998,25.250031,-9.720730,-82.325684,,,,,,,
1522139353.622828,-0.065328,0.047376,0.604500,0.015379,0.016323,-0.007669,-0.065208,-0.047358,-0.996747,0.008720,0.037120,0.054105,24.728195,-9.493237,-82.176819,,,,,,,
1522139353.652797,-0.064511,0.047493,0.604033,0.011189,0.033363,-0.009829,-0.064393,-0.047475,-0.996795,0.017808,-0.017085,-0.003129,25.175919,-9.495632,-82.551575,,,,,,,
1522139353.682765,-0.063866,0.047646,0.603589,0.004550,-0.021836,-0.014048,-0.063750,-0.047628,-0.996829,0.052001,0.018393,0.062167,24.502151,-9.417522,-82.477295,,,,,,,
1522139353.712734,-0.063752,0.047760,0.602955,0.007861,-0.003740,-0.019393,-0.063636,-0.047742,-0.996831,0.062705,-0.006838,0.086537,25.029831,-9.419445,-82.026978,,,,,,,
1522139353.742702,-0.063829,0.047674,0.602406,0.000286,-0.026052,-0.018305,-0.063713,-0.047656,-0.996830,0.090156,0.039263,0.025425,25.777084,-9.198635,-82.852539,,,,,,,
1522139353.772640,-0.063922,0.047613,0.601817,-0.003943,-0.015439,-0.016182,-0.063806,-0.047595,-0.996827,0.042612,0.008410,-0.057357,25.252563,-9.420818,-82.401855,,,,,,,
1522139353.802608,-0.064594,0.047157,0.601138,-0.020128,-0.047282,-0.012977,-0.064477,-0.047140,-0.996805,-0.006659,0.057882,0.038370,25.175919,-9.495632,-82.551575,,,,,,,
1522139353.832576,-0.065268,0.046673,0.600615,-0.008328,-0.034575,-0.011910,-0.065150,-0.046656,-0.996784,0.035502,-0.001165,-0.019100,24.050522,-9.490643,-82.627197,,,,,,,
1522139353.862545,-0.066123,0.046422,0.600055,-0.010566,-0.052666,-0.007630,-0.066004,-0.046406,-0.996740,0.052637,0.070804,0.010228,25.024734,-9.570019,-82.626343,,,,,,,
1522139353.892513,-0.066768,0.046143,0.599606,0.004537,-0.020811,-0.009782,-0.066647,-0.046126,-0.996710,0.014310,0.041686,-0.058313,24.651840,-9.493114,-82.401855,,,,,,,
1522139353.922480,-0.067339,0.046132,0.599096,-0.002015,-0.052670,-0.009756,-0.067217,-0.046115,-0.996672,0.070421,0.031513,0.054640,25.177719,-9.270718,-82.627502,,,,,,,
1522139353.952448,-0.067639,0.045861,0.598742,-0.000705,0.004668,-0.005544,-0.067516,-0.045845,-0.996664,0.012188,0.043510,-0.150491,24.503342,-9.342449,-82.402588,,,,,,,
1522139353.982417,-0.067947,0.045878,0.598318,0.003516,-0.004894,-0.005539,-0.067823,-0.045862,-0.996643,-0.008181,0.028177,-0.065720,24.501846,-9.492443,-82.401978,,,,,,,
1522139354.012385,-0.068460,0.046056,0.598061,0.011981,-0.020864,-0.004450,-0.068334,-0.046040,-0.996600,0.047795,0.044880,0.019366,25.549103,-9.497601,-82.851440,,,,,,,
1522139354.042353,-0.068677,0.046353,0.597686,0.014131,-0.017699,-0.003380,-0.068549,-0.046336,-0.996571,0.058341,0.027461,-0.005367,24.276703,-9.416576,-82.552368,,,,,,,
1522139354.072321,-0.068494,0.046755,0.597440,0.011079,0.009977,-0.008739,-0.068366,-0.046738,-0.996565,0.030585,0.027908,-0.046114,25.475906,-9.496975,-82.551392,,,,,,,
1522139354.102290,-0.068597,0.047005,0.597160,-0.005041,-0.010183,-0.006603,-0.068468,-0.046987,-0.996546,0.046693,0.023886,-0.031591,25.251068,-9.570812,-82.401245,,,,,,,
1522139354.132258,-0.068700,0.046902,0.596796,0.008863,-0.003852,-0.005531,-0.068570,-0.046884,-0.996544,0.076199,0.040537,-0.039467,24.650497,-9.493343,-82.626831,,,,,,,
1522139354.162226,-0.069283,0.047489,0.596501,0.031170,-0.035734,-0.011881,-0.069150,-0.047471,-0.996476,0.054974,0.045090,-0.050139,24.800339,-9.419155,-82.777100,,,,,,,
1522139354.192195,-0.069975,0.048617,0.596059,0.040694,-0.052798,-0.008649,-0.069835,-0.048597,-0.996374,-0.002003,0.105894,0.070394,24.875183,-9.344646,-82.927307,,,,,,,
1522139354.222163,-0.070490,0.050044,0.595408,0.059069,-0.005007,-0.010818,-0.070344,-0.050023,-0.996268,0.149827,-0.088191,0.071494,24.648239,-9.493710,-83.001831,,,,,,,
1522139354.252101,-0.070391,0.050246,0.595185,-0.003984,-0.018665,-0.010850,-0.070244,-0.050225,-0.996265,0.085594,0.147789,0.132648,24.350647,-9.342220,-82.852661,,,,,,,
1522139354.282069,-0.070225,0.051735,0.594623,0.062429,0.026875,-0.012976,-0.070073,-0.051711,-0.996201,0.018971,-0.135163,-0.113022,24.723236,-9.494045,-83.001831,,,,,,,
1522139354.312037,-0.069812,0.051241,0.594035,-0.068778,0.060097,-0.006713,-0.069664,-0.051218,-0.996255,0.022346,0.068736,-0.022666,23.899628,-9.714733,-82.401367,,,,,,,
1522139354.342005,-0.067602,0.050904,0.593766,0.014491,0.060941,-0.004524,-0.067463,-0.050882,-0.996423,-0.021007,0.071024,0.003534,23.824646,-9.939022,-82.025513,,,,,,,
1522139354.371976,-0.065940,0.050284,0.593391,-0.027285,0.027066,-0.007719,-0.065809,-0.050262,-0.996566,-0.055712,-0.013260,0.079467,24.648849,-10.017727,-82.024780,,,,,,,
1522139354.401944,-0.063327,0.048604,0.593196,-0.041523,0.202316,0.008080,-0.063210,-0.048585,-0.996817,0.028923,0.065934,-0.060816,25.022797,-10.169338,-81.948975,,,,,,,
1522139354.431912,-0.061794,0.049017,0.593103,0.015270,-0.001762,-0.003395,-0.061681,-0.048998,-0.996893,0.185063,-0.012251,0.167089,24.571625,-10.242382,-82.023926,,,,,,,
1522139354.461880,-0.060406,0.047775,0.592591,-0.047589,0.027097,-0.004539,-0.060300,-0.047756,-0.997037,-0.133746,0.033886,-0.304400,24.271606,-10.016415,-82.399963,,,,,,,
1522139354.491849,-0.060553,0.048372,0.592245,0.016657,0.053575,-0.016233,-0.060445,-0.048353,-0.997000,0.007909,-0.008517,0.184988,24.645096,-10.168087,-82.399170,,,,,,,
1522139354.521817,-0.060686,0.047910,0.591519,-0.030705,-0.022867,-0.008733,-0.060579,-0.047892,-0.997014,0.079942,-0.028661,0.103978,25.246719,-9.871014,-82.625061,,,,,,,
1522139354.551785,-0.061117,0.047058,0.590998,-0.027536,-0.038741,-0.017247,-0.061012,-0.047041,-0.997028,0.058463,0.037412,-0.005612,25.096436,-10.169888,-82.173889,,,,,,,
1522139354.581753,-0.062487,0.045864,0.590236,-0.030781,-0.047262,-0.015101,-0.062381,-0.045848,-0.996999,-0.002637,0.044749,-0.110515,24.426849,-9.492107,-82.401978,,,,,,,
1522139354.611722,-0.063419,0.044943,0.589606,-0.026426,-0.019678,-0.008740,-0.063313,-0.044927,-0.996982,0.010655,0.037786,-0.005871,24.125519,-9.490978,-82.627136,,,,,,,
1522139354.641690,-0.064108,0.044403,0.589023,-0.012573,-0.029271,-0.010845,-0.064001,-0.044389,-0.996962,0.022771,0.035508,0.018279,24.428787,-9.117413,-82.703491,,,,,,,
1522139354.671658,-0.064331,0.043894,0.588642,-0.021033,-0.008025,-0.007673,-0.064225,-0.043880,-0.996970,-0.009887,0.049373,-0.070290,24.654984,-9.267986,-82.252747,,,,,,,
1522139354.701626,-0.064349,0.043326,0.588224,-0.014619,0.000445,-0.003424,-0.064244,-0.043313,-0.996994,0.000981,0.015343,-0.031464,25.333862,-8.746273,-82.479553,,,,,,,
1522139354.731564,-0.064300,0.042691,0.587962,-0.011434,-0.004886,-0.003410,-0.064198,-0.042678,-0.997024,0.048100,0.035232,0.011322,24.886856,-8.668880,-82.105103,,,,,,,
1522139354.761532,-0.064261,0.042281,0.587700,-0.011415,-0.001690,-0.004479,-0.064159,-0.042268,-0.997044,0.002407,0.033937,-0.057186,24.885071,-8.893795,-82.029175,,,,,,,
1522139354.791501,-0.064183,0.042163,0.587403,0.002466,-0.000673,-0.003402,-0.064082,-0.042151,-0.997054,0.038966,0.047736,-0.086747,26.010010,-8.674236,-82.404480,,,,,,,
1522139354.821469,-0.064489,0.042434,0.587193,0.009869,-0.014508,-0.002321,-0.064386,-0.042421,-0.997023,0.041467,0.078402,-0.024019,24.881775,-9.044079,-82.328552,,,,,,,
1522139354.851437,-0.065038,0.043137,0.586801,0.028025,-0.020885,-0.008693,-0.064931,-0.043123,-0.996958,0.025426,0.008867,-0.008993,25.630386,-9.047680,-82.553162,,,,,,,
1522139354.881406,-0.065494,0.043700,0.586530,0.027002,-0.009197,-0.007643,-0.065385,-0.043686,-0.996903,0.032914,0.011261,0.028871,26.079620,-9.124691,-82.552612,,,,,,,
1522139354.911374,-0.065806,0.044152,0.586060,0.015225,-0.016607,-0.007643,-0.065694,-0.044138,-0.996863,-0.014857,-0.020178,-0.076165,25.476807,-9.272213,-82.777344,,,,,,,
1522139354.941342,-0.066020,0.044407,0.585751,0.014136,-0.021924,-0.007635,-0.065907,-0.044393,-0.996838,0.006154,0.034871,-0.015384,25.099731,-9.570354,-82.626343,,,,,,,
1522139354.971310,-0.065864,0.044636,0.585287,0.006757,-0.002757,-0.009794,-0.065751,-0.044621,-0.996838,0.017595,0.024647,-0.011066,25.995331,-9.874615,-82.849670,,,,,,,
1522139355.001279,-0.065524,0.044639,0.584984,0.001505,0.016348,-0.007673,-0.065412,-0.044624,-0.996860,0.005857,0.026298,-0.038601,25.775299,-9.648174,-82.400696,,,,,,,
1522139355.031247,-0.065103,0.044693,0.584571,0.006707,-0.010219,-0.006589,-0.064992,-0.044678,-0.996885,0.016240,0.002000,0.051069,25.399567,-9.721478,-82.400574,,,,,,,
1522139355.061215,-0.064616,0.044450,0.584255,-0.009128,0.029132,-0.006638,-0.064507,-0.044436,-0.996927,0.031517,0.007647,0.024790,25.696716,-9.873043,-82.624817,,,,,,,
1522139355.091183,-0.063840,0.044559,0.583990,0.015416,0.025897,-0.007686,-0.063734,-0.044544,-0.996972,0.037717,0.037632,0.055719,25.168732,-10.170666,-82.623901,,,,,,,
1522139355.121152,-0.063016,0.044734,0.583503,0.006883,0.023796,-0.009813,-0.062912,-0.044720,-0.997017,0.043563,0.027157,0.031440,25.771103,-9.798595,-82.850098,,,,,,,
1522139355.151120,-0.062059,0.044695,0.583088,-0.005945,0.021698,-0.008757,-0.061958,-0.044680,-0.997078,0.012382,0.029727,0.030312,25.922287,-9.499584,-83.151245,,,,,,,
1522139355.181088,-0.061349,0.044696,0.582561,0.006794,0.001496,-0.011922,-0.061249,-0.044681,-0.997122,0.008255,0.041965,0.066916,25.545212,-10.022366,-82.624268,,,,,,,
1522139355.211026,-0.060662,0.044627,0.582084,-0.002694,0.028100,-0.013026,-0.060564,-0.044613,-0.997167,0.001879,-0.005085,-0.022410,25.547165,-9.647671,-82.925781,,,,,,,
1522139355.240994,-0.060105,0.044325,0.581509,-0.011279,0.019613,-0.011958,-0.060010,-0.044311,-0.997214,0.025891,0.001388,0.052603,26.074829,-9.424969,-82.851440,,,,,,,
1522139355.270962,-0.059506,0.043765,0.581044,-0.016655,0.014285,-0.008757,-0.059414,-0.043751,-0.997274,0.008465,0.026860,0.020681,25.851334,-9.273968,-82.852173,,,,,,,
1522139355.300931,-0.058802,0.042902,0.580483,-0.035863,0.015421,-0.010910,-0.058714,-0.042889,-0.997353,0.033644,0.025448,0.082909,25.400452,-9.272091,-83.002380,,,,,,,
1522139355.330899,-0.057910,0.041777,0.580010,-0.031615,0.011149,-0.009835,-0.057827,-0.041765,-0.997453,0.012386,0.047151,0.056123,26.153397,-8.750851,-83.379089,,,,,,,
1522139355.360863,-0.057404,0.040892,0.579412,-0.029324,0.039841,-0.013048,-0.057325,-0.040881,-0.997518,-0.006228,0.013995,-0.064753,25.555527,-8.672939,-83.154724,,,,,,,
1522139355.390831,-0.057007,0.039928,0.578924,-0.027424,-0.007982,-0.010877,-0.056931,-0.039918,-0.997580,0.072922,0.028748,0.043524,24.883255,-8.444851,-83.080933,,,,,,,
1522139355.420800,-0.056933,0.039031,0.578313,-0.030522,0.008010,-0.017289,-0.056859,-0.039021,-0.997619,0.023351,0.017750,-0.083695,25.032043,-8.520596,-83.155579,,,,,,,
1522139355.450768,-0.057227,0.038150,0.577468,-0.029606,-0.034462,-0.023632,-0.057154,-0.038141,-0.997637,0.006708,0.033151,-0.006651,24.730713,-8.744076,-83.004822,,,,,,,
1522139355.480736,-0.057812,0.037121,0.576632,-0.030571,-0.008971,-0.021528,-0.057740,-0.037113,-0.997642,0.024675,0.046649,-0.029031,24.133743,-8.666012,-82.630432,,,,,,,
1522139355.510705,-0.058557,0.036294,0.575650,-0.017911,-0.048277,-0.026810,-0.058485,-0.036286,-0.997629,0.048552,0.052002,-0.005805,23.975372,-9.415447,-82.777527,,,,,,,
1522139355.540673,-0.059500,0.035784,0.574773,-0.013565,-0.029160,-0.025766,-0.059427,-0.035776,-0.997591,0.032297,0.050760,-0.032865,23.602325,-9.263699,-82.703308,,,,,,,
1522139355.570642,-0.060389,0.035195,0.573803,-0.011577,-0.062107,-0.025730,-0.060315,-0.035188,-0.997559,0.030179,0.071626,-0.014755,24.422958,-9.792233,-82.550781,,,,,,,
1522139355.600610,-0.061150,0.034912,0.572967,-0.008144,-0.009003,-0.023648,-0.061075,-0.034905,-0.997523,0.016199,0.075478,-0.059530,24.650208,-9.792889,-82.175659,,,,,,,
1522139355.630579,-0.061794,0.034791,0.572041,0.004562,-0.033466,-0.024681,-0.061717,-0.034784,-0.997487,0.059535,0.060159,-0.041514,23.679749,-9.787762,-81.426147,,,,,,,
1522139355.660547,-0.062101,0.034733,0.571208,0.000485,0.010100,-0.023659,-0.062023,-0.034726,-0.997470,0.017422,0.073285,-0.071332,23.224197,-9.936398,-82.100830,,,,,,,
1522139355.690485,-0.062331,0.035046,0.570317,0.019658,-0.000563,-0.024702,-0.062252,-0.035038,-0.997445,0.023678,0.075459,-0.032554,23.378708,-9.711712,-81.726685,,,,,,,
1522139355.720453,-0.061900,0.035430,0.569589,0.019747,0.023846,-0.020464,-0.061822,-0.035422,-0.997458,0.023827,0.075431,-0.036721,23.674042,-10.088192,-81.874939,,,,,,,
1522139355.750421,-0.060986,0.035954,0.568753,0.026202,0.031276,-0.022593,-0.060908,-0.035947,-0.997496,0.026607,0.104962,0.024077,24.507278,-9.716183,-81.126038,,,,,,,
1522139355.780388,-0.059743,0.036732,0.567921,0.036972,0.049327,-0.024733,-0.059667,-0.036724,-0.997543,0.017278,0.069927,0.012923,23.084152,-9.709484,-80.826782,,,,,,,
1522139355.810358,-0.058635,0.037362,0.567101,0.029384,0.020681,-0.027908,-0.058561,-0.037354,-0.997585,0.052778,0.072632,0.037395,23.610764,-9.636715,-80.676819,,,,,,,
1522139355.840325,-0.057351,0.038014,0.566192,0.035950,0.055744,-0.029008,-0.057278,-0.038005,-0.997635,0.000363,0.059505,0.040603,24.584686,-9.566387,-80.976624,,,,,,,
1522139355.870293,-0.056098,0.038820,0.565272,0.030436,0.014314,-0.030030,-0.056026,-0.038811,-0.997675,0.001522,0.077446,0.098718,24.217651,-9.488537,-79.777100,,,,,,,
1522139355.900261,-0.054686,0.039429,0.564167,0.022078,0.052588,-0.031135,-0.054616,-0.039419,-0.997729,0.016164,0.067007,0.037509,25.191391,-9.343380,-80.227234,,,,,,,
1522139355.930230,-0.053715,0.040042,0.563106,0.019774,0.015421,-0.032172,-0.053646,-0.040031,-0.997757,0.041454,0.052070,0.081894,25.867569,-9.271343,-80.152161,,,,,,,
1522139355.960198,-0.052774,0.040339,0.561899,0.012408,0.033544,-0.037526,-0.052707,-0.040328,-0.997795,0.042666,0.053985,-0.042061,26.388351,-9.648754,-80.225403,,,,,,,
1522139355.990166,-0.052209,0.040573,0.560740,0.004816,0.009120,-0.036444,-0.052143,-0.040562,-0.997816,0.037189,0.016010,0.042737,25.940750,-9.271969,-80.452087,,,,,,,
1522139356.020134,-0.051818,0.040376,0.559337,-0.011215,-0.000382,-0.040703,-0.051752,-0.040365,-0.997844,0.015299,0.057348,-0.015172,26.918091,-8.676968,-81.053955,,,,,,,
1522139356.050103,-0.052062,0.039588,0.558060,-0.033765,-0.025838,-0.038567,-0.051997,-0.039578,-0.997863,0.031459,0.028118,0.056289,26.088043,-9.273083,-80.902039,,,,,,,
1522139356.080071,-0.052400,0.038268,0.556596,-0.045468,-0.022600,-0.042835,-0.052338,-0.038259,-0.997896,0.042252,0.060827,-0.042814,25.793747,-8.746685,-80.829285,,,,,,,
1522139356.110039,-0.052967,0.036907,0.555220,-0.031672,-0.038571,-0.041750,-0.052906,-0.036898,-0.997918,0.019047,0.060717,0.007683,26.466003,-8.750164,-81.278931,,,,,,,
1522139356.140007,-0.053446,0.036016,0.553753,-0.026202,-0.013058,-0.044969,-0.053386,-0.036008,-0.997925,0.048397,0.072843,-0.044037,25.942093,-9.047131,-80.603027,,,,,,,
1522139356.169945,-0.054054,0.035137,0.552109,-0.018837,-0.039626,-0.047068,-0.053994,-0.035129,-0.997923,0.040688,0.072452,-0.082552,26.390274,-9.049450,-80.902771,,,,,,,
1522139356.199914,-0.054682,0.034378,0.550594,-0.020885,-0.019443,-0.046021,-0.054622,-0.034371,-0.997915,0.035747,0.082025,-0.087641,27.666870,-8.755413,-81.128296,,,,,,,
1522139356.229882,-0.055672,0.033812,0.548856,-0.020923,-0.035355,-0.051326,-0.055611,-0.033805,-0.997880,0.024026,0.029960,0.041200,26.765717,-9.051052,-80.827576,,,,,,,
1522139356.259851,-0.055768,0.032679,0.547251,-0.042095,0.014597,-0.043939,-0.055709,-0.032673,-0.997912,-0.019608,0.091236,-0.111341,26.238937,-9.048992,-81.127869,,,,,,,
1522139356.289819,-0.055509,0.031899,0.545562,-0.004686,0.013517,-0.053506,-0.055452,-0.031894,-0.997952,0.000902,0.104999,0.030804,27.363434,-9.054119,-81.202271,,,,,,,
1522139356.319788,-0.054661,0.031823,0.544031,-0.023796,0.049617,-0.042900,-0.054606,-0.031818,-0.998001,0.036525,0.074710,-0.130738,26.616760,-8.900463,-80.903259,,,,,,,
1522139356.349756,-0.053612,0.030734,0.542554,-0.012113,0.036825,-0.041810,-0.053561,-0.030729,-0.998092,0.050387,0.174696,-0.037049,27.361771,-8.904644,-81.727905,,,,,,,
1522139356.379708,-0.052198,0.030803,0.541105,0.014711,0.058067,-0.049273,-0.052149,-0.030798,-0.998164,0.003947,0.017675,-0.109975,27.739899,-8.681194,-81.578552,,,,,,,
1522139356.409676,-0.051522,0.030058,0.539611,-0.023069,-0.029025,-0.043876,-0.051476,-0.030054,-0.998222,0.046944,0.100733,0.143882,26.842773,-8.302303,-81.730591,,,,,,,
1522139356.439645,-0.050876,0.029435,0.538315,0.001740,0.033573,-0.038595,-0.050832,-0.029430,-0.998273,-0.003597,0.111446,-0.030291,26.766281,-8.227337,-82.105896,,,,,,,
1522139356.469613,-0.051180,0.029660,0.536923,0.002633,-0.012057,-0.046016,-0.051135,-0.029655,-0.998251,0.076617,0.086403,0.081610,26.918213,-8.077953,-82.031433,,,,,,,
1522139356.499581,-0.050584,0.029423,0.535465,0.011216,0.001703,-0.041759,-0.050540,-0.029419,-0.998289,0.098682,0.133225,0.048383,26.475113,-7.475811,-81.884033,,,,,,,
1522139356.529549,-0.050271,0.029715,0.533974,0.028367,0.013339,-0.042812,-0.050228,-0.029710,-0.998296,-0.000675,0.103227,-0.053584,26.477524,-7.325665,-81.734680,,,,,,,
1522139356.559518,-0.050443,0.030176,0.532325,0.025089,-0.013142,-0.052384,-0.050399,-0.030172,-0.998273,0.045134,0.072011,-0.025240,26.480225,-7.325237,-81.284668,,,,,,,
1522139356.589486,-0.050574,0.030498,0.530766,0.018660,-0.011063,-0.044925,-0.050529,-0.030493,-0.998257,0.029746,0.099219,-0.079273,27.147247,-7.853680,-81.732178,,,,,,,
1522139356.619454,-0.051166,0.031460,0.529011,0.040980,-0.042917,-0.054475,-0.051119,-0.031455,-0.998197,0.023455,0.097937,0.025724,27.522385,-7.705593,-81.957581,,,,,,,
1522139356.649392,-0.051644,0.032284,0.527305,0.022941,-0.019487,-0.055577,-0.051595,-0.032278,-0.998146,0.046361,0.078314,0.017891,27.450531,-7.480114,-81.808472,,,,,,,
1522139356.679360,-0.051489,0.032602,0.525538,0.017717,0.007066,-0.053470,-0.051439,-0.032597,-0.998144,0.059297,0.072880,0.027395,26.779755,-7.102032,-81.735413,,,,,,,
1522139356.709328,-0.051043,0.032667,0.523888,0.009142,0.003882,-0.050280,-0.050994,-0.032661,-0.998165,0.026244,0.089363,0.039882,26.470306,-7.551464,-82.558716,,,,,,,
1522139356.739297,-0.050102,0.032550,0.522164,-0.000430,0.013479,-0.050303,-0.050054,-0.032544,-0.998216,0.062262,0.083173,0.039537,25.799393,-7.098522,-82.635864,,,,,,,
1522139356.769265,-0.048691,0.032080,0.520637,-0.010914,0.060223,-0.046091,-0.048647,-0.032075,-0.998301,0.059862,0.107728,-0.031622,25.348373,-7.246410,-82.560486,,,,,,,
1522139356.799233,-0.047063,0.031550,0.519169,-0.005643,0.047441,-0.043941,-0.047023,-0.031545,-0.998396,0.031779,0.068441,-0.034228,25.201660,-7.095455,-82.261169,,,,,,,
1522139356.829201,-0.045293,0.030944,0.517582,-0.012051,0.043229,-0.047138,-0.045255,-0.030939,-0.998496,0.093580,0.080622,0.051185,24.909927,-6.718395,-81.512817,,,,,,,
1522139356.859170,-0.043792,0.030313,0.516070,-0.005632,0.046386,-0.046066,-0.043758,-0.030308,-0.998582,0.074764,0.082005,0.015397,24.689590,-6.566875,-80.988586,,,,,,,
1522139356.889138,-0.042673,0.029955,0.514382,-0.002497,0.029413,-0.049253,-0.042641,-0.029951,-0.998641,0.076866,0.066221,0.038177,26.492798,-6.200069,-81.064087,,,,,,,
1522139356.919106,-0.041785,0.029628,0.512754,-0.007942,0.004981,-0.049229,-0.041755,-0.029623,-0.998689,0.039466,0.068411,0.016358,26.643555,-6.350368,-80.688416,,,,,,,
1522139356.949075,-0.041534,0.029342,0.511015,-0.003685,0.000727,-0.050287,-0.041504,-0.029338,-0.998708,0.052078,0.077022,0.010030,27.616394,-6.205349,-81.288574,,,,,,,
1522139356.979043,-0.041275,0.029007,0.509283,-0.002645,-0.013030,-0.057736,-0.041246,-0.029003,-0.998728,0.079179,0.082408,0.017557,28.519943,-5.759563,-81.439819,,,,,,,
1522139357.009011,-0.041623,0.028738,0.507433,-0.005861,-0.010944,-0.052406,-0.041594,-0.028735,-0.998721,0.063170,0.078509,-0.075116,28.521301,-5.759350,-81.214844,,,,,,,
1522139357.038979,-0.042290,0.028508,0.505737,0.008928,-0.047101,-0.053425,-0.042260,-0.028504,-0.998700,0.060861,0.125932,0.040189,27.541687,-5.905468,-81.739807,,,,,,,
1522139357.068948,-0.042751,0.028603,0.503878,0.006902,-0.023706,-0.054519,-0.042721,-0.028599,-0.998678,0.059338,0.095494,-0.060496,29.114960,-5.763058,-82.264526,,,,,,,
1522139357.098916,-0.043283,0.028660,0.502219,0.011152,-0.026928,-0.052375,-0.043251,-0.028656,-0.998653,0.039879,0.122665,-0.025517,28.360504,-5.985043,-82.639038,,,,,,,
1522139357.128884,-0.043603,0.028912,0.500584,0.017587,-0.018445,-0.051317,-0.043571,-0.028908,-0.998632,0.082313,0.080696,0.007482,27.833435,-6.282528,-82.488159,,,,,,,
1522139357.158822,-0.043674,0.029000,0.498958,0.003742,-0.001439,-0.044961,-0.043642,-0.028996,-0.998626,0.066835,0.103108,-0.025116,28.280838,-5.910595,-83.539429,,,,,,,
1522139357.188790,-0.043464,0.028947,0.497508,0.009131,0.011259,-0.041762,-0.043432,-0.028943,-0.998637,0.048666,0.091489,-0.051274,27.305283,-6.056042,-83.389282,,,,,,,
1522139357.218758,-0.042943,0.028911,0.496049,-0.002618,0.012368,-0.041783,-0.042912,-0.028907,-0.998661,0.053624,0.119208,-0.023343,26.931046,-5.979366,-83.389771,,,,,,,
1522139357.248727,-0.042183,0.028659,0.494737,0.004932,0.030389,-0.039658,-0.042153,-0.028655,-0.998700,0.041604,0.066009,-0.019382,27.384171,-5.756252,-83.240479,,,,,,,
1522139357.278695,-0.041456,0.028447,0.493334,-0.000552,-0.001473,-0.039632,-0.041428,-0.028443,-0.998737,0.072784,0.092957,0.020023,26.111938,-5.974697,-82.415222,,,,,,,
1522139357.308663,-0.040570,0.028270,0.491981,0.009199,0.028259,-0.040717,-0.040542,-0.028266,-0.998778,0.066452,0.059989,-0.001344,25.813309,-5.973125,-82.190369,,,,,,,
1522139357.338631,-0.039947,0.028464,0.490439,0.014473,0.011275,-0.043899,-0.039920,-0.028460,-0.998797,0.072681,0.058733,0.021792,26.641876,-5.751644,-81.965820,,,,,,,
1522139357.368612,-0.039270,0.028620,0.488928,0.016619,0.005982,-0.049212,-0.039244,-0.028616,-0.998820,0.060637,0.058767,0.023066,26.642029,-5.826488,-81.815491,,,,,,,
1522139357.398580,-0.038765,0.028802,0.487253,0.008069,0.003893,-0.050286,-0.038739,-0.028798,-0.998834,0.087003,0.047444,0.025583,26.420624,-5.600262,-81.591553,,,,,,,
1522139357.428548,-0.038116,0.028721,0.485643,0.004884,0.008137,-0.049223,-0.038091,-0.028717,-0.998862,0.046239,0.069825,-0.025568,27.397537,-5.454586,-81.516663,,,,,,,
1522139357.458516,-0.037817,0.028505,0.483985,-0.010103,0.000729,-0.048161,-0.037793,-0.028501,-0.998879,0.052808,0.053541,-0.041740,27.171967,-5.828045,-80.990295,,,,,,,
1522139357.488485,-0.037609,0.027942,0.482309,-0.010142,-0.006717,-0.047088,-0.037586,-0.027938,-0.998903,0.053669,0.100295,0.030458,27.321060,-5.828869,-81.140198,,,,,,,
1522139357.518453,-0.037403,0.027557,0.480761,-0.009049,-0.001408,-0.047091,-0.037380,-0.027553,-0.998921,0.062709,0.062420,-0.034007,28.520706,-5.909191,-81.064270,,,,,,,
1522139357.548421,-0.037348,0.026861,0.479206,-0.018708,-0.009916,-0.043888,-0.037325,-0.026857,-0.998942,0.061999,0.062334,0.024012,28.594513,-5.984600,-81.138916,,,,,,,
1522139357.578389,-0.037080,0.025975,0.477807,-0.022958,-0.001409,-0.041775,-0.037059,-0.025972,-0.998976,0.072155,0.040269,0.010587,28.819931,-5.760921,-81.439697,,,,,,,
1522139357.608358,-0.036820,0.024950,0.476418,-0.021903,-0.001440,-0.038574,-0.036801,-0.024948,-0.999011,0.045025,0.075714,-0.013562,28.588638,-5.760921,-82.489868,,,,,,,
1522139357.638295,-0.036549,0.024278,0.475161,-0.013374,-0.001475,-0.036437,-0.036530,-0.024276,-0.999038,0.042588,0.063125,0.011626,28.739227,-5.611752,-82.640320,,,,,,,
1522139357.668264,-0.036154,0.023810,0.473851,-0.003714,0.011262,-0.036450,-0.036136,-0.023807,-0.999063,0.058200,0.081806,0.011698,28.663284,-5.162319,-83.542175,,,,,,,
1522139357.698232,-0.035672,0.023654,0.472648,0.006965,0.006983,-0.038557,-0.035655,-0.023652,-0.999084,0.042781,0.046113,0.026596,28.960892,-5.313808,-83.691406,,,,,,,
1522139357.728200,-0.034952,0.023675,0.471339,0.010195,0.011246,-0.040694,-0.034935,-0.023673,-0.999109,0.041023,0.037086,0.013376,27.617859,-4.932232,-83.168640,,,,,,,
1522139357.758169,-0.034133,0.023662,0.470133,0.004828,0.011241,-0.036443,-0.034116,-0.023660,-0.999138,0.034177,0.049813,0.005806,27.169067,-4.630520,-83.470093,,,,,,,
1522139357.788137,-0.033305,0.023598,0.468919,0.006920,0.001672,-0.036432,-0.033290,-0.023596,-0.999167,0.060618,0.063422,0.068137,27.995682,-4.559093,-83.319885,,,,,,,
