timestamp(unix),attitude_roll(radians),attitude_pitch(radians),attitude_yaw(radians),rotation_rate_x(radians/s),rotation_rate_y(radians/s),rotation_rate_z(radians/s),gravity_x(G),gravity_y(G),gravity_z(G),user_acc_x(G),user_acc_y(G),user_acc_z(G),magnetic_field_x(microteslas),magnetic_field_y(microteslas),magnetic_field_z(microteslas),latitude(degree),longitude(degree),altitude(meter),speed(m/s),course(degree),timestamp(unix),User Mark
,,,,,,,,,,,,,,,,25.313568,51.443295,10.007656,-1.000000,-1.000000,1522136841.103298,
1522136841.868816,-0.414760,0.008750,-3.007632,0.004936,0.064183,-0.127275,-0.402954,-0.008750,-0.915176,-0.045135,0.016883,0.056046,-24.448257,-12.750887,11.778137,,,,,,,
1522136841.898784,-0.414793,0.010496,-3.009462,-0.056946,-0.068002,-0.045143,-0.402977,-0.010496,-0.915148,-0.022560,0.011274,0.007311,-25.782974,-10.496096,10.568420,,,,,,,
1522136841.928752,-0.417135,0.006272,-3.012469,-0.212656,-0.014583,-0.031459,-0.405134,-0.006272,-0.914234,0.000807,-0.012374,0.101535,-26.899399,-9.815767,10.865112,,,,,,,
1522136841.958721,-0.412421,0.000630,-3.014351,-0.165905,0.291674,0.071622,-0.400828,-0.000630,-0.916151,0.022776,-0.052501,0.061751,-27.781250,-7.862032,10.631897,,,,,,,
1522136841.988689,-0.402510,-0.002462,-3.013659,-0.003264,0.328716,0.035476,-0.391727,0.002462,-0.920076,0.006580,-0.059439,-0.006025,-26.942810,-6.965059,11.378723,,,,,,,
1522136842.018657,-0.397883,-0.000122,-3.012842,0.108957,0.010301,-0.056820,-0.387467,0.000122,-0.921882,0.006440,-0.066925,-0.049767,-26.182495,-6.517504,12.352295,,,,,,,
1522136842.048625,-0.402048,0.003393,-3.016200,-0.004484,-0.217917,-0.202652,-0.391301,-0.003393,-0.920255,-0.001125,-0.062007,0.008328,-24.755905,-6.448778,12.502747,,,,,,,
1522136842.078594,-0.409454,0.006146,-3.024008,-0.010659,-0.295765,-0.313388,-0.398100,-0.006146,-0.917320,0.014830,-0.059054,0.072685,-21.914429,-6.987078,11.981323,,,,,,,
1522136842.108562,-0.416881,0.011115,-3.031637,0.060152,-0.161340,-0.263392,-0.404885,-0.011114,-0.914298,0.023965,-0.045175,0.033973,-20.951431,-7.742174,11.234802,,,,,,,
,,,,,,,,,,,,,,,,25.313519,51.443370,10.000393,-1.000000,-1.000000,1522136842.101914,
1522136842.138530,-0.419057,0.013554,-3.036960,-0.083868,0.008177,-0.140072,-0.406861,-0.013554,-0.913387,-0.017532,-0.016933,-0.029301,-19.837128,-8.048449,9.961609,,,,,,,
1522136842.168499,-0.415815,0.010286,-3.042208,-0.212397,0.166754,-0.129673,-0.403913,-0.010286,-0.914737,-0.019961,0.059236,-0.059292,-20.094391,-9.475298,6.967224,,,,,,,
1522136842.198467,-0.411884,0.006159,-3.048223,-0.220366,0.098509,-0.093381,-0.400328,-0.006159,-0.916349,-0.013353,0.044382,-0.062548,-21.542267,-10.595720,5.020935,,,,,,,
1522136842.228415,-0.409894,0.000062,-3.052680,-0.258272,0.056688,-0.026237,-0.398511,-0.000062,-0.917161,0.012266,0.005998,-0.047652,-25.612183,-11.554125,3.297729,,,,,,,
1522136842.258383,-0.408779,-0.006405,-3.054642,-0.185228,-0.004517,0.039936,-0.397481,0.006405,-0.917586,-0.008617,-0.018704,-0.057496,-27.111832,-11.472460,3.221680,,,,,,,
1522136842.288352,-0.411334,-0.010138,-3.055049,-0.072665,-0.141875,0.039097,-0.399811,0.010138,-0.916539,-0.016342,0.034662,-0.041972,-31.233902,-12.127337,4.797180,,,,,,,
1522136842.318320,-0.417220,-0.011263,-3.055255,-0.041848,-0.238245,-0.017261,-0.405194,0.011263,-0.914159,-0.027026,0.027068,-0.018687,-32.576508,-12.194933,6.146851,,,,,,,
1522136842.348288,-0.423767,-0.013016,-3.056734,-0.089752,-0.199902,-0.012013,-0.411162,0.013016,-0.911467,0.002287,-0.006058,0.027678,-34.804031,-11.657076,8.993530,,,,,,,
1522136842.378256,-0.427778,-0.016147,-3.056801,-0.091739,-0.074053,0.070987,-0.414795,0.016146,-0.909769,0.009308,-0.025454,0.065638,-35.090988,-11.204363,10.416565,,,,,,,
1522136842.408225,-0.425692,-0.019113,-3.055034,-0.033367,0.128553,0.104902,-0.412875,0.019111,-0.910585,0.019412,-0.020637,0.017778,-33.784088,-9.632540,13.110962,,,,,,,
1522136842.438193,-0.423519,-0.020030,-3.052190,0.019647,0.021225,0.084814,-0.410888,0.020028,-0.911464,-0.029038,-0.004678,-0.059529,-32.873947,-9.110811,13.934326,,,,,,,
1522136842.468161,-0.423877,-0.020622,-3.049848,-0.005245,-0.057346,0.082753,-0.411209,0.020621,-0.911306,-0.014770,-0.014029,-0.065776,-29.258774,-8.226030,14.982605,,,,,,,
1522136842.498129,-0.426528,-0.020866,-3.048223,0.032104,-0.112373,0.038078,-0.413621,0.020865,-0.910208,-0.007842,-0.051825,-0.057520,-27.457687,-7.709810,14.306458,,,,,,,
1522136842.528098,-0.430979,-0.019690,-3.046390,0.078776,-0.172019,0.043491,-0.417679,0.019689,-0.908379,0.012467,-0.053563,-0.038185,-25.213196,-7.945436,13.783508,,,,,,,
1522136842.558066,-0.436781,-0.017550,-3.044531,0.089622,-0.186627,-0.000165,-0.422959,0.017549,-0.905976,0.019059,-0.047350,0.005067,-24.031830,-8.328234,11.310608,,,,,,,
1522136842.588034,-0.440951,-0.015705,-3.045514,-0.004526,-0.111311,-0.101528,-0.426746,0.015705,-0.904233,-0.008465,-0.027088,0.035062,-23.819016,-8.780458,10.037537,,,,,,,
1522136842.618002,-0.442213,-0.013849,-3.049302,0.022743,-0.007087,-0.122928,-0.427898,0.013848,-0.903718,-0.004490,-0.044640,0.050310,-25.035156,-9.451555,8.464661,,,,,,,
1522136842.647971,-0.442690,-0.010812,-3.050077,0.095866,-0.025955,-0.034415,-0.428346,0.010811,-0.903548,0.011048,-0.014748,0.010939,-25.637833,-9.673922,8.390198,,,,,,,
1522136842.677939,-0.441483,-0.008132,-3.050667,0.027175,0.095574,-0.065491,-0.427265,0.008131,-0.904087,-0.002636,0.004808,-0.040325,-25.038757,-9.676775,8.240479,,,,,,,
1522136842.707907,-0.439114,-0.008838,-3.053355,-0.109646,0.075623,-0.051717,-0.425120,0.008838,-0.905091,0.007304,-0.006534,-0.043471,-25.941711,-9.972704,8.241211,,,,,,,
1522136842.737876,-0.439955,-0.010980,-3.055887,-0.074280,-0.109495,-0.032325,-0.425872,0.010980,-0.904714,0.007720,-0.011132,-0.030588,-25.866867,-9.898195,8.091003,,,,,,,
1522136842.767844,-0.445211,-0.012419,-3.056318,-0.046089,-0.182229,0.026371,-0.430614,0.012419,-0.902449,0.008067,-0.032927,0.026106,-24.066498,-9.681597,7.791016,,,,,,,
1522136842.797812,-0.448229,-0.013810,-3.055818,-0.033705,-0.034580,0.030489,-0.433328,0.013810,-0.901128,0.021631,-0.035889,0.064153,-23.467453,-9.459810,7.265442,,,,,,,
1522136842.827780,-0.446559,-0.014558,-3.055825,-0.017912,0.105928,-0.010130,-0.431818,0.014557,-0.901841,0.000406,-0.026078,0.029160,-23.097733,-9.312609,6.140015,,,,,,,
1522136842.857749,-0.441821,-0.013660,-3.056247,0.027314,0.145393,-0.048489,-0.427546,0.013660,-0.903888,-0.030951,-0.006198,-0.016690,-22.728912,-9.165529,4.864624,,,,,,,
1522136842.887717,-0.437538,-0.012133,-3.058772,-0.007678,0.132066,-0.106038,-0.423679,0.012132,-0.905729,0.010440,-0.007814,-0.040178,-23.573074,-9.464434,2.165344,,,,,,,
1522136842.917685,-0.435596,-0.011277,-3.061371,-0.012559,0.042579,-0.068673,-0.421923,0.011277,-0.906559,0.010210,-0.030595,-0.008434,-25.080231,-9.458864,0.964661,,,,,,,
1522136842.947653,-0.433422,-0.011348,-3.062522,-0.029524,0.123035,-0.020812,-0.419951,0.011348,-0.907474,0.012785,0.004979,-0.029446,-26.735123,-9.227617,-0.237122,,,,,,,
1522136842.977622,-0.429243,-0.011612,-3.064408,-0.028250,0.100041,-0.078315,-0.416153,0.011611,-0.909218,0.007981,-0.003951,-0.057914,-27.937790,-9.222643,-0.687744,,,,,,,
1522136843.007590,-0.429961,-0.010650,-3.067437,-0.009722,-0.099474,-0.119664,-0.416811,0.010649,-0.908929,-0.011519,-0.025786,-0.028861,-30.490814,-9.436312,-0.838196,,,,,,,
1522136843.037558,-0.434015,-0.009328,-3.069922,0.021737,-0.158408,-0.060976,-0.420498,0.009328,-0.907243,-0.004444,-0.049306,0.028001,-30.941711,-9.434435,-0.988403,,,,,,,
1522136843.067526,-0.435625,-0.007905,-3.070044,0.028616,0.023873,0.005974,-0.421963,0.007905,-0.906576,0.007702,-0.024903,0.006491,-34.021652,-10.245043,-0.461731,,,,,,,
1522136843.097495,-0.432641,-0.008085,-3.069782,-0.025489,0.105801,0.010112,-0.419255,0.008085,-0.907830,-0.013759,-0.000104,-0.067023,-35.523071,-10.837542,0.289856,,,,,,,
1522136843.127463,-0.433042,-0.009108,-3.069786,-0.040210,-0.085401,0.006031,-0.419616,0.009107,-0.907654,-0.002503,-0.028395,-0.064178,-37.323547,-12.102404,2.319092,,,,,,,
1522136843.157431,-0.437196,-0.009849,-3.069844,-0.001233,-0.185493,0.021081,-0.423379,0.009849,-0.905897,-0.011405,-0.052497,-0.036715,-37.172012,-12.626955,3.446228,,,,,,,
1522136843.187399,-0.444519,-0.009516,-3.068077,0.055819,-0.260364,0.071274,-0.430004,0.009516,-0.902775,-0.021641,-0.042169,0.035053,-37.022293,-13.376436,4.649353,,,,,,,
1522136843.217380,-0.449108,-0.008587,-3.065985,0.038785,-0.069755,0.020985,-0.434145,0.008587,-0.900800,-0.004026,-0.032864,0.011273,-35.005859,-15.183916,6.232605,,,,,,,
1522136843.247348,-0.451689,-0.007889,-3.065636,0.009642,-0.164136,0.001890,-0.436471,0.007889,-0.899681,0.006677,-0.032242,0.007317,-35.164703,-16.158052,6.386353,,,,,,,
1522136843.277316,-0.458352,-0.007232,-3.066062,0.009442,-0.245702,-0.032136,-0.442458,0.007232,-0.896758,0.000350,-0.046539,0.050932,-34.947464,-17.208574,6.840698,,,,,,,
1522136843.307284,-0.464505,-0.006489,-3.064897,0.031970,-0.125231,0.053011,-0.447970,0.006489,-0.894022,-0.000272,-0.018315,0.077036,-34.275620,-17.661379,7.067810,,,,,,,
1522136843.337253,-0.462513,-0.007714,-3.063603,-0.064746,0.213951,0.056861,-0.446185,0.007714,-0.894905,0.007784,-0.026680,0.049049,-34.350632,-17.661043,7.067749,,,,,,,
1522136843.367221,-0.451854,-0.011584,-3.063765,-0.169710,0.375770,0.053412,-0.436604,0.011584,-0.899577,0.016911,-0.046129,-0.053243,-34.496582,-16.985842,6.615051,,,,,,,
1522136843.397189,-0.443401,-0.017727,-3.072616,-0.224768,0.210309,0.027972,-0.428945,0.017726,-0.903154,0.003836,-0.060038,-0.072310,-34.106796,-15.412752,6.458923,,,,,,,
1522136843.427158,-0.441261,-0.022555,-3.077231,-0.102076,0.021510,0.086856,-0.426971,0.022554,-0.903982,0.027038,-0.085939,-0.051386,-33.870712,-14.663210,7.056030,,,,,,,
1522136843.457126,-0.440971,-0.025461,-3.082768,-0.064808,0.015996,0.101810,-0.426679,0.025458,-0.904043,0.022412,-0.067587,-0.052561,-34.001572,-12.787554,7.123474,,,,,,,
1522136843.487094,-0.439069,-0.028755,-3.086426,-0.127085,0.067809,0.009008,-0.424920,0.028751,-0.904772,-0.003104,-0.041218,-0.064421,-34.823227,-12.408937,7.046509,,,,,,,
1522136843.517062,-0.440647,-0.030104,-3.091617,-0.028362,-0.146575,-0.065281,-0.426331,0.030099,-0.904064,-0.014160,-0.055719,-0.026188,-36.013611,-11.578356,7.267639,,,,,,,
1522136843.547031,-0.446284,-0.028035,-3.096982,0.075785,-0.225621,-0.041690,-0.431446,0.028031,-0.901701,0.001972,-0.037827,0.016447,-38.089523,-10.292147,9.136475,,,,,,,
1522136843.576999,-0.450943,-0.026756,-3.097369,-0.030288,-0.049129,-0.020624,-0.435658,0.026753,-0.899712,-0.003658,-0.014912,0.025429,-39.418030,-9.309221,11.081909,,,,,,,
1522136843.606967,-0.448731,-0.029688,-3.099609,-0.171602,0.103229,-0.024100,-0.433630,0.029684,-0.900600,0.004355,-0.010351,-0.016377,-42.079941,-8.467287,16.027161,,,,,,,
1522136843.636935,-0.447469,-0.033801,-3.102251,-0.147617,-0.001133,-0.002655,-0.432437,0.033795,-0.901028,-0.013089,-0.025235,-0.008380,-41.834534,-7.865999,18.424866,,,,,,,
1522136843.666904,-0.449207,-0.037254,-3.102445,-0.091770,-0.065620,0.082689,-0.433949,0.037246,-0.900165,0.009876,-0.052733,0.024997,-38.637863,-6.524843,23.971130,,,,,,,
1522136843.696872,-0.447752,-0.040897,-3.101027,-0.105775,0.138484,0.077139,-0.432578,0.040886,-0.900667,-0.010110,-0.050758,0.000414,-36.746735,-6.306032,26.296204,,,,,,,
1522136843.726840,-0.442219,-0.044105,-3.101257,-0.116070,0.149570,0.014259,-0.427529,0.044090,-0.902924,0.000573,-0.052834,-0.058151,-30.875656,-5.505266,28.470947,,,,,,,
1522136843.756808,-0.440703,-0.046444,-3.102826,-0.063314,-0.010857,-0.005797,-0.426114,0.046428,-0.903475,0.002744,-0.075343,-0.025206,-27.795517,-5.668001,29.598083,,,,,,,
1522136843.786777,-0.442038,-0.046563,-3.102288,0.018724,-0.010260,0.029436,-0.427318,0.046546,-0.902900,-0.002217,-0.059104,-0.015038,-20.686569,-6.601107,28.480408,,,,,,,
1522136843.816745,-0.440153,-0.046365,-3.102635,-0.024311,0.067912,-0.043121,-0.425619,0.046349,-0.903712,0.044012,-0.036812,-0.053990,-16.503387,-7.296587,26.835327,,,,,,,
1522136843.846713,-0.440791,-0.046203,-3.104918,-0.026872,-0.055160,-0.068576,-0.426199,0.046187,-0.903447,-0.011148,-0.060438,-0.028239,-13.673004,-7.911562,24.589172,,,,,,,
1522136843.876651,-0.444856,-0.044753,-3.106000,0.052454,-0.203175,-0.052384,-0.429896,0.044738,-0.901767,0.005778,-0.024124,0.010379,-9.085327,-9.964174,17.624634,,,,,,,
1522136843.906619,-0.447135,-0.043096,-3.106500,0.009526,0.032541,-0.011097,-0.431982,0.043083,-0.900851,0.000784,-0.024467,0.013155,-7.995941,-10.873491,13.203857,,,,,,,
1522136843.936587,-0.444535,-0.044229,-3.107385,-0.104559,0.059433,-0.017601,-0.429616,0.044215,-0.901926,-0.014262,-0.020549,-0.054556,-9.939148,-12.747988,4.960327,,,,,,,
1522136843.966556,-0.445613,-0.047308,-3.109279,-0.105457,-0.112858,0.004943,-0.430528,0.047290,-0.901335,0.008409,-0.035663,-0.037782,-11.836884,-13.267382,2.036499,,,,,,,
1522136843.996524,-0.450815,-0.049021,-3.109040,-0.023655,-0.152683,0.048730,-0.435175,0.049001,-0.899009,-0.013479,-0.045873,0.061058,-17.499619,-14.296465,-2.537231,,,,,,,
1522136844.026492,-0.448154,-0.049569,-3.108072,-0.010838,0.273684,0.006755,-0.432770,0.049549,-0.900140,-0.000015,-0.028660,0.051705,-20.961319,-14.881868,-3.511597,,,,,,,
1522136844.056461,-0.434992,-0.049266,-3.109245,-0.012868,0.465349,-0.050968,-0.420891,0.049246,-0.905771,-0.006111,-0.034887,-0.072607,-25.098282,-15.539141,-4.411072,,,,,,,
1522136844.086429,-0.428261,-0.047774,-3.110179,0.047017,0.024147,-0.040890,-0.414815,0.047755,-0.908650,-0.023097,-0.041728,-0.056744,-26.077744,-15.984743,-4.409790,,,,,,,
1522136844.116397,-0.430268,-0.045487,-3.109302,0.101919,-0.045459,0.016757,-0.416682,0.045471,-0.907912,0.004588,-0.035095,0.009093,-28.631226,-16.198473,-4.635193,,,,,,,
1522136844.146365,-0.427335,-0.043064,-3.108047,0.059145,0.192579,0.030335,-0.414062,0.043051,-0.909228,0.023040,-0.030279,-0.030210,-29.382401,-16.045549,-5.086182,,,,,,,
1522136844.176334,-0.422233,-0.042762,-3.105602,0.033803,0.081735,0.085840,-0.409423,0.042749,-0.911341,-0.026719,-0.023141,-0.065268,-29.304413,-15.521273,-5.463257,,,,,,,
1522136844.206302,-0.422205,-0.043229,-3.104772,-0.037864,-0.047117,-0.000394,-0.409389,0.043215,-0.911334,0.010967,-0.044528,-0.036283,-32.740341,-14.380373,-5.019531,,,,,,,
1522136844.236252,-0.422987,-0.043893,-3.105579,0.003949,-0.022686,-0.013177,-0.410090,0.043879,-0.910987,0.015116,-0.064784,0.012031,-34.006012,-13.849001,-4.347290,,,,,,,
1522136844.266220,-0.426405,-0.041040,-3.105268,0.146396,-0.183367,-0.032085,-0.413251,0.041028,-0.909690,0.043668,-0.047223,0.068992,-35.241364,-11.815233,-1.131042,,,,,,,
1522136844.296189,-0.431606,-0.035236,-3.102865,0.226490,-0.124385,0.014796,-0.418070,0.035228,-0.907729,0.008326,-0.034282,0.116393,-36.865051,-10.306047,0.737122,,,,,,,
1522136844.326157,-0.431417,-0.030330,-3.100923,0.103939,0.116352,-0.026026,-0.417966,0.030325,-0.907955,-0.006946,0.005502,0.060069,-35.785126,-9.107912,3.732849,,,,,,,
1522136844.356125,-0.422752,-0.029937,-3.102268,-0.075325,0.360253,-0.041329,-0.410087,0.029933,-0.911553,-0.002892,0.012212,-0.049613,-34.423752,-8.513140,4.631165,,,,,,,
1522136844.386093,-0.413578,-0.033300,-3.103434,-0.141438,0.256632,0.058892,-0.401665,0.033294,-0.915179,0.028679,-0.038848,-0.091763,-32.616776,-8.445223,5.681824,,,,,,,
1522136844.416062,-0.407828,-0.039065,-3.102580,-0.157094,0.176516,0.125021,-0.396313,0.039055,-0.917282,0.017117,-0.080498,-0.081344,-31.498749,-8.825777,5.158875,,,,,,,
1522136844.446030,-0.403149,-0.043004,-3.099747,-0.032359,0.110484,0.102801,-0.391954,0.042991,-0.918978,0.021028,-0.061820,-0.062589,-30.320831,-9.957872,3.363953,,,,,,,
1522136844.475998,-0.402061,-0.041786,-3.099249,0.081854,-0.070463,-0.047165,-0.390974,0.041774,-0.919451,0.029234,-0.082347,-0.044752,-31.308670,-10.704332,2.466492,,,,,,,
1522136844.505966,-0.408581,-0.036781,-3.099713,0.201655,-0.292640,-0.076686,-0.397038,0.036773,-0.917063,0.003788,-0.077468,0.038325,-31.994278,-11.451769,1.944153,,,,,,,
1522136844.535935,-0.418695,-0.028863,-3.097217,0.299151,-0.340319,0.021458,-0.406399,0.028859,-0.913238,0.020794,-0.068227,0.115310,-36.052338,-12.258501,1.945312,,,,,,,
1522136844.565903,-0.421021,-0.022234,-3.093075,0.178568,0.154048,0.027267,-0.408591,0.022233,-0.912445,-0.026193,-0.007905,0.079391,-37.403748,-12.851671,2.697021,,,,,,,
1522136844.595871,-0.409151,-0.020595,-3.093251,-0.044750,0.488852,-0.058470,-0.397746,0.020594,-0.917263,0.003947,0.032171,-0.045414,-39.266037,-13.515062,5.923706,,,,,,,
1522136844.625839,-0.392809,-0.023110,-3.097434,-0.199062,0.574407,-0.081051,-0.382682,0.023108,-0.923589,-0.007348,-0.032432,-0.098536,-39.191467,-14.413973,7.352417,,,,,,,
1522136844.655808,-0.379120,-0.030747,-3.100298,-0.313934,0.382333,0.076744,-0.369927,0.030742,-0.928550,0.008721,-0.060299,-0.110161,-37.535019,-15.393724,10.057129,,,,,,,
1522136844.685776,-0.369941,-0.042051,-3.101587,-0.405135,0.311161,0.103399,-0.361240,0.042039,-0.931523,0.021717,-0.077881,-0.066921,-35.513702,-16.077288,10.585876,,,,,,,
1522136844.715744,-0.361202,-0.054507,-3.103570,-0.385904,0.271012,0.065088,-0.352873,0.054480,-0.934082,-0.012804,-0.078894,-0.083221,-32.370987,-16.991121,10.891113,,,,,,,
1522136844.745713,-0.357886,-0.060795,-3.104904,-0.066693,-0.042808,0.002771,-0.349648,0.060758,-0.934908,-0.014015,-0.073011,-0.032637,-30.949509,-17.072969,10.442139,,,,,,,
1522136844.775681,-0.362821,-0.058163,-3.104491,0.147456,-0.182320,-0.029955,-0.354312,0.058130,-0.933317,-0.024228,-0.025751,-0.003374,-27.279755,-17.240084,9.844666,,,,,,,
1522136844.805649,-0.364673,-0.054781,-3.105530,0.027993,0.017066,-0.084586,-0.356108,0.054753,-0.932838,-0.013032,-0.021093,-0.024041,-26.676041,-16.867800,9.843445,,,,,,,
1522136844.835617,-0.361231,-0.056134,-3.108236,-0.138049,0.180826,-0.042255,-0.352869,0.056104,-0.933988,0.018243,-0.031248,-0.068911,-25.936615,-16.348742,7.216736,,,,,,,
1522136844.865586,-0.358303,-0.059527,-3.110022,-0.103685,0.024307,-0.010102,-0.350064,0.059492,-0.934833,0.017774,-0.054349,-0.059430,-25.259857,-15.677629,6.389404,,,,,,,
1522136844.895554,-0.360086,-0.061040,-3.110796,-0.022042,-0.097052,-0.006727,-0.351698,0.061002,-0.934122,-0.005663,-0.042722,-0.029562,-26.008499,-15.224779,5.862244,,,,,,,
1522136844.925522,-0.365191,-0.059916,-3.110892,0.066094,-0.232035,-0.032104,-0.356486,0.059880,-0.932378,-0.027272,-0.015538,-0.010127,-26.379028,-14.099245,4.732544,,,,,,,
1522136844.955490,-0.373114,-0.056902,-3.111250,0.082115,-0.254248,-0.052314,-0.363926,0.056871,-0.929688,-0.005504,-0.028459,0.038590,-25.999573,-13.426332,4.355042,,,,,,,
1522136844.985459,-0.377500,-0.055320,-3.110995,0.030220,-0.085635,0.013546,-0.368033,0.055292,-0.928165,-0.007470,-0.012231,0.044666,-27.335892,-12.145174,4.499207,,,,,,,
1522136845.015427,-0.376257,-0.055016,-3.110767,-0.026104,0.190879,-0.001685,-0.366885,0.054989,-0.928638,-0.013348,0.008350,0.084003,-27.785873,-12.143145,4.498962,,,,,,,
1522136845.045395,-0.368569,-0.055759,-3.111926,-0.019645,0.196230,-0.008084,-0.359721,0.055731,-0.931393,-0.019003,-0.039282,0.008709,-25.979050,-11.551134,4.647522,,,,,,,
1522136845.075363,-0.364125,-0.055808,-3.111340,0.014479,0.204544,0.006848,-0.355576,0.055779,-0.932980,0.034150,-0.025674,-0.004200,-26.499695,-11.248568,4.871033,,,,,,,
1522136845.105332,-0.355740,-0.054270,-3.112271,-0.025522,0.495178,-0.056340,-0.347771,0.054243,-0.936008,0.078072,-0.066237,0.207477,-25.225357,-10.505648,3.518738,,,,,,,
1522136845.135300,-0.316146,-0.064198,-3.115358,-0.359061,1.383091,-0.027653,-0.310266,0.064154,-0.948482,-0.000083,-0.047216,-0.217870,-25.083511,-10.058382,1.416992,,,,,,,
1522136845.165268,-0.301236,-0.063101,-3.117939,0.197734,-0.030901,-0.122774,-0.296110,0.063060,-0.953069,0.033689,-0.025050,0.015477,-28.012009,-9.596560,0.063721,,,,,,,
1522136845.195236,-0.306738,-0.054680,-3.118636,0.257601,-0.221459,-0.095889,-0.301499,0.054652,-0.951898,-0.000275,-0.023021,0.020868,-29.740067,-10.038561,0.289551,,,,,,,
1522136845.225192,-0.313831,-0.049619,-3.119665,0.062944,-0.271039,-0.075752,-0.308325,0.049599,-0.949986,0.028357,0.011940,-0.009792,-30.940918,-10.257936,0.514893,,,,,,,
1522136845.255160,-0.319627,-0.049363,-3.121790,-0.076907,-0.007318,-0.054807,-0.313829,0.049343,-0.948195,-0.029509,-0.000072,0.080413,-34.544739,-12.039385,2.845215,,,,,,,
1522136845.285128,-0.313779,-0.054869,-3.121424,-0.219016,0.229476,0.170742,-0.308191,0.054841,-0.949741,0.039361,-0.051515,0.012897,-35.213989,-12.409792,4.421326,,,,,,,
1522136845.315097,-0.307753,-0.063901,-3.117168,-0.249440,0.197158,0.244273,-0.302300,0.063858,-0.951070,-0.041969,-0.042023,0.006109,-33.922211,-12.712313,7.723267,,,,,,,
1522136845.345065,-0.299282,-0.072806,-3.113768,-0.251856,0.278477,0.164279,-0.294053,0.072742,-0.953016,-0.027053,-0.016010,-0.053622,-32.793930,-13.240953,9.150879,,,,,,,
1522136845.375033,-0.292036,-0.079784,-3.112593,-0.201087,0.283364,0.055627,-0.286987,0.079699,-0.954612,-0.032655,-0.046389,-0.032265,-27.168701,-13.715441,9.980652,,,,,,,
1522136845.405001,-0.282910,-0.083044,-3.113560,-0.018554,0.202611,-0.008096,-0.278189,0.082949,-0.956937,0.037695,-0.077562,-0.112719,-23.425034,-13.583559,8.706970,,,,,,,
1522136845.434970,-0.285696,-0.078766,-3.112882,0.226339,-0.213324,-0.031992,-0.280951,0.078685,-0.956490,0.002997,-0.019679,-0.059440,-20.077789,-14.202227,5.111145,,,,,,,
1522136845.464938,-0.294306,-0.070011,-3.112421,0.309301,-0.352297,-0.092532,-0.289365,0.069954,-0.954658,0.021741,-0.023278,-0.014260,-18.596619,-14.511507,2.488098,,,,,,,
1522136845.494906,-0.306918,-0.059611,-3.112127,0.338617,-0.455590,-0.071098,-0.301585,0.059576,-0.951575,0.031871,-0.066152,0.026557,-20.114029,-13.234713,-2.542786,,,,,,,
1522136845.524873,-0.321072,-0.049971,-3.109560,0.321160,-0.445510,0.010934,-0.315189,0.049950,-0.947712,-0.003460,-0.038628,0.056538,-22.441971,-12.625734,-4.046387,,,,,,,
1522136845.554843,-0.326932,-0.043761,-3.106564,0.115776,-0.030736,0.033801,-0.320831,0.043747,-0.946124,0.003601,-0.000214,0.022098,-24.090881,-11.569902,-5.626465,,,,,,,
1522136845.584810,-0.323559,-0.045225,-3.106152,-0.150310,0.144259,0.024900,-0.317617,0.045210,-0.947139,-0.040552,-0.010465,-0.036519,-27.747055,-9.229204,-6.387634,,,,,,,
1522136845.614779,-0.319858,-0.051270,-3.107390,-0.225391,0.089065,0.043012,-0.314018,0.051247,-0.948032,-0.032021,-0.037209,-0.021420,-29.082932,-7.723360,-6.544312,,,,,,,
1522136845.644747,-0.319109,-0.057052,-3.107634,-0.150036,0.005900,0.057001,-0.313210,0.057021,-0.947969,0.007073,-0.063598,0.009981,-31.304398,-5.087984,-6.180969,,,,,,,
1522136845.674716,-0.316873,-0.060786,-3.108330,-0.133946,0.178485,-0.012417,-0.311021,0.060748,-0.948458,0.015947,-0.047931,-0.013273,-32.571548,-4.706621,-5.508118,,,,,,,
1522136845.704684,-0.311944,-0.062811,-3.111248,-0.050488,0.111971,-0.103921,-0.306303,0.062769,-0.949861,-0.013872,-0.009348,-0.060225,-35.637253,-4.541552,-4.235352,,,,,,,
1522136845.734652,-0.314474,-0.059584,-3.114162,0.142610,-0.178490,-0.120529,-0.308767,0.059548,-0.949271,-0.001871,-0.031335,0.011954,-36.991074,-5.284853,-3.633057,,,,,,,
1522136845.764620,-0.319349,-0.053675,-3.115138,0.160797,-0.113007,-0.070500,-0.313496,0.053649,-0.948071,0.026677,-0.045913,0.077466,-39.026413,-7.448809,-1.750366,,,,,,,
1522136845.794589,-0.317899,-0.049661,-3.116093,0.080861,0.156043,-0.070837,-0.312186,0.049641,-0.948722,0.031134,-0.015049,0.044669,-40.077530,-8.417650,-0.322021,,,,,,,
1522136845.824557,-0.310307,-0.048075,-3.117817,-0.003876,0.295511,-0.079561,-0.304998,0.048056,-0.951139,0.014806,0.001138,-0.045184,-41.507797,-10.433733,2.160278,,,,,,,
1522136845.854525,-0.304712,-0.047852,-3.119863,-0.012542,0.061568,-0.052692,-0.299675,0.047833,-0.952840,0.001274,-0.019727,-0.023676,-42.557571,-11.626986,4.189575,,,,,,,
1522136845.884493,-0.305197,-0.047815,-3.120843,-0.022621,-0.010844,-0.025993,-0.300137,0.047797,-0.952697,0.023068,-0.004187,-0.003358,-42.853897,-12.298922,5.917053,,,,,,,
1522136845.914462,-0.301985,-0.049647,-3.122589,-0.111246,0.206251,-0.041192,-0.297049,0.049627,-0.953571,0.013053,-0.016118,-0.034772,-41.881134,-14.100664,8.549744,,,,,,,
1522136845.944430,-0.294919,-0.052394,-3.124815,-0.086675,0.197785,-0.052896,-0.290263,0.052370,-0.955512,0.009089,-0.019746,-0.067773,-42.337662,-15.522326,9.830261,,,,,,,
1522136845.974398,-0.294058,-0.051733,-3.126541,0.059507,-0.070295,-0.062104,-0.289451,0.051710,-0.955794,-0.007211,-0.019316,-0.029100,-41.213089,-17.324465,12.763000,,,,,,,
1522136846.004367,-0.295631,-0.049007,-3.127701,0.057691,-0.000163,-0.062173,-0.290993,0.048987,-0.955469,-0.011222,-0.005576,-0.006750,-40.235397,-18.002275,14.341248,,,,,,,
1522136846.034335,-0.291570,-0.048293,-3.128983,-0.028890,0.225257,-0.052873,-0.287121,0.048274,-0.956676,0.045392,0.016835,-0.045994,-37.977036,-19.283907,17.872498,,,,,,,
1522136846.064303,-0.282773,-0.049987,-3.130868,-0.099268,0.297382,-0.008249,-0.278671,0.049967,-0.959085,0.013397,-0.012781,-0.102164,-35.495529,-19.443727,19.224365,,,,,,,
1522136846.094271,-0.280358,-0.051993,-3.129238,0.023348,-0.083074,0.105175,-0.276326,0.051970,-0.959657,-0.020839,-0.012282,-0.089324,-28.876907,-18.571856,20.874207,,,,,,,
1522136846.124240,-0.284158,-0.050573,-3.126898,0.042852,-0.126033,0.012527,-0.279991,0.050551,-0.958670,-0.008553,-0.000991,-0.081995,-25.650696,-18.586153,21.100830,,,,,,,
1522136846.154208,-0.284570,-0.051870,-3.128754,-0.129924,0.072517,-0.055992,-0.280367,0.051846,-0.958491,0.007143,-0.044644,-0.066396,-19.124542,-16.443895,17.720520,,,,,,,
1522136846.184176,-0.283664,-0.057843,-3.130186,-0.223763,-0.017221,0.047376,-0.279407,0.057811,-0.958430,0.005054,-0.060908,-0.082632,-15.531189,-15.487780,15.018494,,,,,,,
1522136846.214159,-0.287384,-0.063297,-3.129627,-0.123323,-0.217384,0.065776,-0.282876,0.063255,-0.957067,-0.014746,0.005639,-0.007502,-14.787720,-14.518816,12.315002,,,,,,,
1522136846.244128,-0.295818,-0.065436,-3.129037,-0.043364,-0.306448,0.010514,-0.290898,0.065389,-0.954516,-0.003810,0.006007,0.037112,-14.660324,-12.950777,5.933777,,,,,,,
1522136846.274096,-0.302680,-0.067256,-3.130208,-0.107557,-0.131830,-0.017411,-0.297405,0.067206,-0.952382,-0.003391,-0.047232,0.074437,-14.218658,-11.980776,2.930115,,,,,,,
1522136846.304064,-0.302644,-0.070941,-3.130320,-0.098718,0.050199,0.083644,-0.297295,0.070881,-0.952150,0.015023,-0.059895,0.047227,-18.804459,-10.763964,-0.901978,,,,,,,
1522136846.334032,-0.302444,-0.072568,-3.127088,0.024598,-0.024732,0.120030,-0.297070,0.072505,-0.952098,-0.032810,-0.018260,0.031245,-20.906982,-9.931307,-2.706421,,,,,,,
1522136846.364001,-0.300361,-0.073122,-3.125266,-0.041374,0.144031,0.018589,-0.295074,0.073057,-0.952676,-0.016602,0.007021,-0.000510,-25.033798,-8.939684,-4.662415,,,,,,,
1522136846.393969,-0.295667,-0.075480,-3.126499,-0.116979,0.139189,-0.023012,-0.290548,0.075409,-0.953883,0.014563,-0.026870,-0.034169,-28.556564,-8.848619,-4.439575,,,,,,,
1522136846.423937,-0.295010,-0.078154,-3.127889,-0.060291,-0.058675,-0.009993,-0.289861,0.078075,-0.953878,0.020345,-0.051769,0.001470,-33.283569,-9.950838,-2.937500,,,,,,,
1522136846.453905,-0.299238,-0.078406,-3.128037,0.017201,-0.149259,-0.001314,-0.293886,0.078326,-0.952625,0.044084,-0.041583,0.046375,-34.482712,-10.768938,-1.434875,,,,,,,
1522136846.483874,-0.302980,-0.076088,-3.128265,0.111500,-0.125794,-0.047086,-0.297502,0.076014,-0.951689,0.015230,-0.019984,0.049620,-36.797791,-12.479021,3.070862,,,,,,,
1522136846.513842,-0.307208,-0.071001,-3.127770,0.184999,-0.142039,-0.028904,-0.301636,0.070941,-0.950779,-0.025848,-0.010425,0.068913,-36.494461,-13.453203,5.249878,,,,,,,
1522136846.543810,-0.308701,-0.066018,-3.127512,0.115340,0.003899,-0.056802,-0.303159,0.065970,-0.950653,0.051542,-0.029914,0.053298,-35.065445,-14.132830,7.053284,,,,,,,
1522136846.573778,-0.307624,-0.063538,-3.128851,0.034705,0.097720,-0.072937,-0.302184,0.063495,-0.951132,-0.030656,0.007336,0.012609,-32.067017,-15.419451,8.934937,,,,,,,
1522136846.603747,-0.302880,-0.063694,-3.130872,-0.074904,0.182975,-0.068844,-0.297665,0.063651,-0.952545,0.024823,0.032892,-0.034867,-30.348831,-15.877550,8.562622,,,,,,,
1522136846.633715,-0.298664,-0.065393,-3.134328,-0.086804,0.132094,-0.082652,-0.293615,0.065347,-0.953687,0.040319,-0.017343,-0.040073,-27.668137,-16.641558,6.617065,,,,,,,
1522136846.663683,-0.296032,-0.067260,-3.135846,-0.057621,0.062458,-0.009054,-0.291067,0.067209,-0.954338,-0.000605,-0.049829,-0.037224,-26.100433,-16.649813,5.417908,,,,,,,
1522136846.693652,-0.294035,-0.068120,-3.135642,-0.007679,0.056706,0.033620,-0.289144,0.068067,-0.954861,0.009451,-0.004743,-0.048084,-26.339264,-16.052034,2.115356,,,,,,,
1522136846.723620,-0.293316,-0.068659,-3.135021,-0.028102,0.002704,0.013416,-0.288446,0.068605,-0.955034,-0.025595,-0.013139,-0.050810,-26.711700,-15.525820,1.663086,,,,,,,
1522136846.753588,-0.292765,-0.070483,-3.135318,-0.078132,0.030499,0.008020,-0.287884,0.070424,-0.955071,-0.019077,-0.010701,-0.049262,-29.331680,-14.614702,0.983154,,,,,,,
1522136846.783556,-0.291398,-0.072683,-3.135899,-0.081288,0.042170,0.010143,-0.286533,0.072619,-0.955313,-0.012601,-0.016101,-0.067789,-29.404266,-14.239611,0.756592,,,,,,,
1522136846.813525,-0.289914,-0.076363,-3.136354,-0.160158,0.077420,0.013240,-0.285037,0.076288,-0.955475,0.014758,-0.019190,-0.076370,-30.069824,-13.561174,1.203552,,,,,,,
1522136846.843493,-0.288396,-0.081382,-3.137341,-0.144419,0.024209,0.019695,-0.283473,0.081292,-0.955527,-0.024877,-0.022042,-0.053841,-29.987778,-13.036242,1.501465,,,,,,,
1522136846.873461,-0.288947,-0.083352,-3.136957,0.002362,-0.082542,0.035903,-0.283954,0.083256,-0.955216,0.011829,-0.031696,-0.036209,-30.509155,-12.584047,1.349426,,,,,,,
1522136846.903429,-0.293244,-0.080759,-3.135732,0.139970,-0.144275,0.004090,-0.288116,0.080672,-0.954190,-0.041306,-0.046751,0.007169,-28.933350,-12.366365,1.124329,,,,,,,
1522136846.933398,-0.295105,-0.077976,-3.134670,0.036918,-0.027188,0.009237,-0.289956,0.077897,-0.953864,0.022836,-0.044694,-0.026270,-28.781708,-12.067263,0.898193,,,,,,,
1522136846.963366,-0.295326,-0.078637,-3.134375,-0.046475,-0.030285,0.027285,-0.290152,0.078556,-0.953750,-0.029702,-0.020771,-0.026688,-27.665634,-11.699389,-1.202759,,,,,,,
1522136846.993334,-0.299339,-0.079799,-3.133125,-0.014357,-0.198560,0.070101,-0.293950,0.079714,-0.952490,-0.027294,-0.047015,0.010153,-28.563965,-10.946321,-2.181152,,,,,,,
1522136847.023302,-0.305136,-0.081229,-3.131615,-0.069625,-0.164296,0.051914,-0.299432,0.081139,-0.950660,0.027918,-0.064110,0.037193,-31.416138,-10.259996,-3.685364,,,,,,,
1522136847.053240,-0.306226,-0.085283,-3.132589,-0.188699,0.086335,-0.034744,-0.300366,0.085180,-0.950012,-0.006808,-0.065923,0.014328,-33.067566,-10.177935,-4.061523,,,,,,,
1522136847.083208,-0.302249,-0.088990,-3.136459,-0.101755,0.123707,-0.091191,-0.296490,0.088872,-0.950891,-0.028614,-0.043828,0.007394,-36.589111,-10.461046,-3.012146,,,,,,,
1522136847.113177,-0.303653,-0.085847,-3.138000,0.201130,-0.164118,-0.069355,-0.297907,0.085741,-0.950735,-0.005972,-0.042299,0.037024,-38.164307,-10.978121,-2.185852,,,,,,,
1522136847.143145,-0.308983,-0.076971,-3.137918,0.299537,-0.153558,-0.094865,-0.303190,0.076895,-0.949821,0.032422,-0.036154,0.066521,-39.135757,-12.470675,0.894653,,,,,,,
1522136847.173113,-0.311315,-0.068535,-3.139243,0.184063,-0.021109,-0.152618,-0.305591,0.068482,-0.949696,0.013233,0.016968,0.009434,-39.515350,-13.967241,2.625427,,,,,,,
1522136847.203081,-0.312256,-0.065370,3.140374,0.016992,-0.107991,-0.129213,-0.306549,0.065324,-0.949609,0.028794,0.011413,0.031671,-39.972748,-16.287539,5.259460,,,,,,,
1522136847.233044,-0.317118,-0.063255,3.138411,0.062190,-0.143911,-0.023655,-0.311205,0.063213,-0.948237,0.017687,-0.014217,0.081522,-38.175644,-17.119722,6.163757,,,,,,,
1522136847.263012,-0.317296,-0.061564,3.140018,0.072676,0.117079,0.032556,-0.311408,0.061526,-0.948281,0.002188,-0.007769,0.060418,-37.648529,-17.720751,7.516357,,,,,,,
1522136847.292980,-0.309054,-0.060834,3.140827,-0.008564,0.318211,0.019503,-0.303595,0.060797,-0.950858,0.015997,-0.002340,-0.034966,-34.190552,-17.959581,9.244080,,,,,,,
1522136847.322949,-0.300688,-0.063471,3.140843,-0.142380,0.252579,0.031191,-0.295581,0.063429,-0.953209,-0.006421,-0.018217,-0.087975,-31.638855,-17.746141,9.169495,,,,,,,
1522136847.352917,-0.295503,-0.067957,3.139833,-0.133249,0.101949,-0.008080,-0.290548,0.067904,-0.954447,-0.001154,-0.018222,-0.101446,-29.841797,-18.129076,9.321899,,,,,,,
1522136847.382885,-0.294291,-0.072105,3.137788,-0.192338,-0.005103,-0.028250,-0.289307,0.072043,-0.954520,0.039368,-0.029715,-0.092156,-28.492294,-17.910601,8.871765,,,,,,,
1522136847.412853,-0.295641,-0.077288,3.135170,-0.160470,-0.032849,-0.021809,-0.290483,0.077211,-0.953759,0.008882,-0.029436,-0.053382,-26.606781,-16.494692,8.266968,,,,,,,
1522136847.442822,-0.298952,-0.078596,3.135767,0.062655,-0.181672,0.058424,-0.293610,0.078515,-0.952694,-0.000580,-0.064400,-0.018466,-27.123062,-15.891909,8.714355,,,,,,,
1522136847.472790,-0.303473,-0.075806,3.139504,0.128874,-0.115269,0.111685,-0.297978,0.075734,-0.951563,-0.011882,-0.035634,-0.033957,-25.973572,-13.571871,8.930603,,,,,,,
1522136847.502759,-0.305556,-0.074109,-3.140323,0.040738,-0.062650,0.064681,-0.299997,0.074041,-0.951061,-0.036169,-0.000158,-0.042606,-24.014664,-12.680681,8.928040,,,,,,,
1522136847.532727,-0.306265,-0.075554,-3.139226,-0.093518,-0.014436,0.054946,-0.300640,0.075482,-0.950745,0.001888,-0.041073,-0.037506,-22.657425,-11.412706,8.023682,,,,,,,
1522136847.562696,-0.305209,-0.081219,-3.138557,-0.232230,0.078958,0.119751,-0.299502,0.081129,-0.950639,-0.015607,-0.049147,-0.045424,-20.783722,-10.822329,6.822205,,,,,,,
1522136847.592664,-0.301403,-0.090085,-3.136789,-0.284325,0.151237,0.137741,-0.295656,0.089963,-0.951048,-0.005812,-0.063367,-0.065798,-18.388947,-10.085207,4.720520,,,,,,,
1522136847.622632,-0.298550,-0.097483,-3.135061,-0.166302,0.011943,0.110259,-0.292738,0.097329,-0.951225,0.002043,-0.074273,-0.057289,-19.162994,-9.336977,-0.532898,,,,,,,
1522136847.652600,-0.299981,-0.100432,-3.133809,-0.048963,-0.094130,0.040137,-0.294013,0.100264,-0.950527,0.014167,-0.083097,-0.030751,-19.622757,-8.512911,-3.536438,,,,,,,
1522136847.682569,-0.303519,-0.101512,-3.133749,-0.037182,-0.133195,-0.000304,-0.297341,0.101337,-0.949377,-0.021858,-0.066929,0.006414,-24.060822,-7.971025,-6.615845,,,,,,,
1522136847.712537,-0.307223,-0.101538,-3.135088,-0.012300,-0.127540,-0.057829,-0.300855,0.101364,-0.948266,0.022184,-0.033661,0.053842,-26.691437,-7.810381,-7.817810,,,,,,,
1522136847.742505,-0.311439,-0.099403,-3.136996,0.063656,-0.113779,-0.075907,-0.304916,0.099240,-0.947193,0.051223,-0.041317,0.060002,-31.416397,-7.714281,-7.970581,,,,,,,
1522136847.772472,-0.312537,-0.097193,-3.138087,0.032022,0.017790,-0.037700,-0.306023,0.097040,-0.947064,0.039177,-0.032968,0.041760,-32.241074,-7.635637,-8.046265,,,,,,,
1522136847.802442,-0.310287,-0.096737,-3.138042,0.008629,0.092946,0.010163,-0.303904,0.096586,-0.947793,0.019327,-0.016416,0.016137,-36.356247,-7.915026,-5.947205,,,,,,,
1522136847.832409,-0.308548,-0.095741,-3.137604,0.053181,0.004810,-0.012102,-0.302284,0.095594,-0.948411,0.017982,-0.019239,0.009736,-37.710251,-8.808107,-5.119324,,,,,,,
1522136847.862377,-0.308435,-0.094150,-3.137953,0.009701,0.035931,-0.040931,-0.302223,0.094011,-0.948589,0.033409,-0.031434,-0.002034,-39.499008,-9.397203,-2.267883,,,,,,,
1522136847.892345,-0.305476,-0.095162,-3.139864,-0.084850,0.116029,-0.063465,-0.299386,0.095018,-0.949388,0.030907,-0.019701,-0.034331,-40.093704,-9.768023,-0.766663,,,,,,,
1522136847.922314,-0.304233,-0.096387,3.140015,-0.038372,-0.032653,-0.094169,-0.298170,0.096237,-0.949648,0.013579,-0.006378,-0.003401,-39.793991,-10.518175,0.436523,,,,,,,
1522136847.952282,-0.308244,-0.094502,3.138714,0.097266,-0.168478,-0.016155,-0.302032,0.094361,-0.948615,0.020111,-0.037019,0.057059,-40.379532,-10.737764,3.212097,,,,,,,
1522136847.982250,-0.310130,-0.091834,3.140751,0.076493,0.044639,0.057140,-0.303896,0.091705,-0.948280,0.017198,-0.036636,0.040230,-40.597900,-11.110048,4.938477,,,,,,,
1522136848.012219,-0.302874,-0.093163,-3.140778,-0.097359,0.322409,0.057795,-0.296971,0.093028,-0.950343,0.003056,-0.013957,-0.051244,-39.821960,-10.360476,8.010864,,,,,,,
1522136848.042187,-0.294030,-0.096606,-3.140730,-0.092249,0.231242,0.023800,-0.288460,0.096456,-0.952620,0.001793,-0.009969,-0.098634,-39.727158,-9.908358,10.559082,,,,,,,
1522136848.072155,-0.292435,-0.096472,-3.140808,0.057169,-0.056856,-0.009899,-0.286943,0.096322,-0.953091,0.039446,-0.040826,-0.085849,-37.595886,-9.388597,14.908081,,,,,,,
1522136848.102123,-0.295545,-0.093686,-3.140930,0.090171,-0.107766,-0.035395,-0.289984,0.093549,-0.952447,0.022803,-0.047086,-0.039862,-35.559845,-9.096407,16.257935,,,,,,,
1522136848.132092,-0.298008,-0.091670,-3.141377,0.037985,-0.066283,-0.023750,-0.292383,0.091542,-0.951909,0.030802,-0.024037,-0.017421,-30.668381,-8.666384,18.283630,,,,,,,
1522136848.162060,-0.300627,-0.090067,-3.141475,0.076144,-0.117423,-0.016220,-0.294919,0.089946,-0.951278,-0.006946,-0.023478,0.008621,-27.819565,-8.604509,17.984863,,,,,,,
1522136848.192029,-0.304700,-0.086346,-3.141043,0.140065,-0.158988,-0.023578,-0.298889,0.086238,-0.950382,0.044830,0.003056,0.012989,-22.575089,-7.805361,15.734253,,,,,,,
1522136848.222001,-0.309495,-0.082436,-3.141123,0.092448,-0.107588,-0.062029,-0.303543,0.082343,-0.949252,0.001038,-0.013526,0.040591,-21.456894,-7.811525,14.609863,,,,,,,
1522136848.251970,-0.307039,-0.081766,3.141192,-0.046239,0.219653,-0.005993,-0.301228,0.081675,-0.950047,0.049259,-0.007777,-0.002056,-20.496216,-7.668459,11.984741,,,,,,,
1522136848.281938,-0.297504,-0.084949,3.141330,-0.129201,0.379752,0.072640,-0.292078,0.084847,-0.952622,-0.001334,-0.035165,-0.077147,-20.451569,-7.598848,6.809509,,,,,,,
1522136848.311906,-0.285256,-0.090899,-3.140755,-0.208224,0.364086,0.061941,-0.280241,0.090774,-0.955627,0.048521,-0.026977,-0.164978,-22.638794,-7.740801,5.008972,,,,,,,
1522136848.341874,-0.279964,-0.095567,3.141205,-0.111231,0.019977,0.001628,-0.275060,0.095422,-0.956679,-0.020656,-0.027856,-0.184068,-25.801407,-8.103060,3.508850,,,,,,,
1522136848.371843,-0.288228,-0.095390,3.141233,0.091747,-0.459544,-0.027583,-0.282961,0.095245,-0.954389,0.021929,-0.058044,-0.064730,-25.721313,-7.728197,3.732361,,,,,,,
1522136848.401811,-0.302513,-0.090573,3.141121,0.162452,-0.422448,-0.040348,-0.296698,0.090449,-0.950677,0.043311,-0.076335,0.031076,-26.026093,-8.476381,4.185242,,,,,,,
1522136848.431779,-0.311280,-0.087118,3.141363,0.068416,-0.176917,-0.017221,-0.305116,0.087007,-0.948331,-0.029372,-0.051805,0.084561,-25.730591,-8.927706,4.187195,,,,,,,
1522136848.461747,-0.310830,-0.086841,3.140883,-0.033593,0.144389,-0.037866,-0.304696,0.086732,-0.948491,0.001504,0.016250,0.043752,-23.055145,-9.992067,1.867737,,,,,,,
1522136848.491716,-0.304736,-0.086903,3.139414,0.000952,0.227210,-0.040060,-0.298908,0.086793,-0.950325,0.006306,0.003783,-0.030174,-25.016891,-10.584215,0.894165,,,,,,,
1522136848.521684,-0.296515,-0.087794,3.139073,-0.081172,0.325764,0.027970,-0.291064,0.087681,-0.952676,0.047549,0.016994,-0.118567,-26.095245,-11.482576,-2.327820,,,,,,,
1522136848.551652,-0.290742,-0.091716,3.139196,-0.131730,0.044035,0.063389,-0.285458,0.091587,-0.954004,0.034787,-0.041126,-0.107871,-26.994446,-10.954287,-3.080383,,,,,,,
1522136848.581621,-0.293061,-0.095696,3.141041,-0.068732,-0.140239,0.106233,-0.287562,0.095550,-0.952983,0.008189,-0.062271,-0.008245,-29.996582,-11.165773,-3.081055,,,,,,,
1522136848.611589,-0.298607,-0.096607,-3.139031,0.025945,-0.227539,0.096800,-0.292817,0.096456,-0.951290,0.022111,-0.079595,0.041896,-32.318771,-11.154879,-2.632263,,,,,,,
1522136848.641557,-0.303948,-0.096801,-3.137247,-0.004418,-0.171748,0.030661,-0.297888,0.096650,-0.949694,0.017416,-0.063951,0.028979,-33.289230,-11.149767,-1.882751,,,,,,,
1522136848.671525,-0.310370,-0.095951,-3.138279,0.028832,-0.246638,-0.061932,-0.304006,0.095804,-0.947839,-0.033762,-0.048639,0.060693,-35.693405,-12.562288,-0.228271,,,,,,,
1522136848.701494,-0.316965,-0.093914,-3.139167,0.040801,-0.163956,-0.035379,-0.310311,0.093776,-0.945997,0.024605,-0.039165,0.104704,-36.372101,-13.608110,0.900574,,,,,,,
1522136848.731462,-0.316513,-0.094318,-3.140036,-0.083813,0.183520,0.004686,-0.309871,0.094178,-0.946101,0.045894,-0.057786,0.080470,-36.071487,-14.358110,2.253723,,,,,,,
1522136848.761430,-0.306396,-0.098580,-3.140289,-0.147205,0.384222,0.048113,-0.300160,0.098420,-0.948797,0.026204,-0.021852,-0.026255,-36.814835,-14.503405,3.603943,,,,,,,
1522136848.791398,-0.298460,-0.100998,-3.139457,0.001187,0.133125,0.039959,-0.292550,0.100826,-0.950919,-0.002281,-0.022091,-0.075113,-36.434860,-15.178164,5.556824,,,,,,,
1522136848.821367,-0.296989,-0.099566,-3.138565,0.064834,-0.003799,-0.001426,-0.291192,0.099402,-0.951485,0.038629,-0.040014,-0.066078,-34.933563,-15.409319,6.158508,,,,,,,
1522136848.851335,-0.297585,-0.097595,-3.138662,0.040331,-0.022711,-0.025920,-0.291817,0.097440,-0.951497,0.047142,-0.059888,-0.023113,-34.173080,-15.261248,7.658325,,,,,,,
1522136848.881303,-0.298667,-0.096192,-3.139667,0.037097,-0.070274,-0.061037,-0.292886,0.096044,-0.951310,0.048959,-0.030644,-0.026458,-33.864853,-14.662264,8.031067,,,,,,,
1522136848.911271,-0.304260,-0.092691,-3.140483,0.163247,-0.261913,-0.053290,-0.298301,0.092558,-0.949972,-0.031716,-0.034529,0.043173,-33.252762,-13.989122,8.928650,,,,,,,
1522136848.941240,-0.311199,-0.085583,-3.139227,0.248851,-0.185797,-0.025610,-0.305079,0.085479,-0.948482,0.026530,-0.026107,0.077403,-33.092712,-13.389162,9.601379,,,,,,,
1522136848.971208,-0.309629,-0.080248,-3.139710,0.082211,0.256723,-0.035762,-0.303724,0.080162,-0.949381,-0.011797,0.039329,0.012598,-32.776993,-12.489458,10.722900,,,,,,,
1522136849.001176,-0.292739,-0.081776,3.138697,-0.218177,0.704864,-0.192006,-0.287611,0.081685,-0.954256,0.044234,0.082377,-0.174711,-29.845825,-11.827730,10.646729,,,,,,,
1522136849.031144,-0.278072,-0.088616,3.128924,-0.298826,0.281436,-0.242783,-0.273425,0.088500,-0.957812,0.000491,-0.048995,-0.192105,-27.893967,-11.686434,10.722168,,,,,,,
1522136849.061113,-0.284633,-0.090618,3.126608,0.080329,-0.531305,0.054539,-0.279652,0.090495,-0.955826,0.046971,-0.062937,-0.030914,-23.622772,-10.807756,8.620728,,,,,,,
1522136849.091081,-0.302616,-0.083655,3.130091,0.337707,-0.542385,0.030224,-0.296976,0.083558,-0.951221,0.030939,-0.026246,0.108020,-22.355515,-10.365496,6.594666,,,,,,,
1522136849.121049,-0.310531,-0.075272,3.132516,0.216441,-0.056983,-0.047079,-0.304699,0.075201,-0.949474,0.001400,-0.007666,0.107509,-24.161057,-9.160295,3.663879,,,,,,,
1522136849.151017,-0.305106,-0.071931,3.132125,0.055686,0.297177,-0.034768,-0.299617,0.071869,-0.951347,-0.052327,0.021179,0.039787,-25.588257,-8.929628,2.912231,,,,,,,
1522136849.180986,-0.295920,-0.070744,3.132235,0.019170,0.300100,0.012104,-0.290890,0.070685,-0.954141,0.026135,0.004877,-0.024039,-26.559158,-8.475328,2.834961,,,,,,,
1522136849.210954,-0.284400,-0.072990,3.132222,-0.156215,0.481159,0.017109,-0.279834,0.072925,-0.957273,0.087650,0.024883,-0.167086,-26.034348,-8.402834,2.684937,,,,,,,
1522136849.240912,-0.272807,-0.080941,3.129081,-0.324634,0.225964,-0.050952,-0.268554,0.080853,-0.959864,0.085021,-0.031476,-0.150777,-24.460068,-7.212038,0.580994,,,,,,,
1522136849.270881,-0.277547,-0.085483,3.128863,0.030387,-0.414650,0.107650,-0.272997,0.085378,-0.958218,0.034929,-0.101705,0.009426,-26.260895,-6.979448,0.054138,,,,,,,
1522136849.300849,-0.292169,-0.080219,3.135768,0.327346,-0.489512,0.220899,-0.287104,0.080133,-0.954541,-0.020422,-0.092005,0.073254,-27.461914,-6.674730,-0.622681,,,,,,,
1522136849.330817,-0.300093,-0.072488,-3.139606,0.267850,-0.122754,0.070234,-0.294833,0.072424,-0.952799,-0.016370,0.013513,0.038111,-30.462845,-6.361895,-1.300415,,,,,,,
1522136849.360785,-0.300325,-0.066401,-3.140682,0.133995,-0.000764,-0.156939,-0.295179,0.066352,-0.953134,0.024839,-0.044257,-0.022391,-32.037170,-6.878832,-0.324158,,,,,,,
1522136849.390754,-0.302818,-0.062395,3.139437,0.046753,-0.106123,-0.102558,-0.297631,0.062354,-0.952641,0.002053,-0.053779,-0.016658,-33.384476,-8.369844,2.606079,,,,,,,
1522136849.420722,-0.305923,-0.062189,3.139344,-0.024473,-0.077387,0.067845,-0.300590,0.062149,-0.951725,0.031563,-0.009979,0.025761,-32.934341,-8.671343,3.132568,,,,,,,
1522136849.450690,-0.303311,-0.066089,3.140751,-0.193091,0.186491,0.077045,-0.298030,0.066041,-0.952268,0.076960,-0.011597,-0.005358,-30.548798,-10.481462,3.740967,,,,,,,
1522136849.480658,-0.296258,-0.073661,3.140428,-0.258074,0.226979,0.084416,-0.291152,0.073594,-0.953841,0.005309,-0.037431,-0.055498,-29.437347,-11.162600,2.619263,,,,,,,
1522136849.510627,-0.292453,-0.080334,-3.141113,-0.144971,0.027665,0.130519,-0.287372,0.080247,-0.954450,-0.002957,-0.049928,-0.061739,-28.036102,-12.146212,0.298889,,,,,,,
1522136849.540595,-0.293786,-0.081969,-3.139324,0.022755,-0.089863,0.010361,-0.288606,0.081877,-0.953940,0.011903,-0.043455,-0.034159,-29.622284,-12.590197,-0.825134,,,,,,,
1522136849.570563,-0.298035,-0.078765,-3.141056,0.109604,-0.180432,-0.137588,-0.292731,0.078684,-0.952951,0.058204,-0.079477,0.005166,-31.143066,-13.635088,-2.546692,,,,,,,
1522136849.600531,-0.302951,-0.073799,3.138991,0.125725,-0.126452,-0.112061,-0.297526,0.073732,-0.951861,0.023265,-0.068544,0.072528,-32.493469,-13.404467,-2.998352,,,,,,,
1522136849.630500,-0.305701,-0.068384,3.139448,0.203207,-0.094525,0.004111,-0.300258,0.068331,-0.951406,0.048579,-0.034380,0.072561,-35.339584,-13.465899,-2.249512,,,,,,,
1522136849.660468,-0.306268,-0.062405,3.141117,0.171060,0.087448,-0.021673,-0.300916,0.062365,-0.951608,0.000424,0.006025,0.037179,-37.049622,-13.904985,0.976440,,,,,,,
1522136849.690436,-0.298509,-0.059714,3.140641,0.007979,0.345246,-0.056151,-0.293571,0.059678,-0.954072,0.021812,0.048507,-0.048126,-36.368637,-13.981920,2.102112,,,,,,,
1522136849.720404,-0.287844,-0.060657,3.138958,-0.075595,0.344005,-0.000805,-0.283364,0.060620,-0.957094,0.080223,-0.046139,-0.101454,-34.271057,-15.264635,3.833252,,,,,,,
1522136849.750373,-0.277356,-0.065773,3.141484,-0.194069,0.355592,0.206874,-0.273222,0.065726,-0.959702,0.017790,-0.057959,-0.168746,-32.694473,-15.196581,3.983765,,,,,,,
1522136849.780341,-0.266402,-0.074546,-3.138188,-0.269807,0.295670,0.141879,-0.262531,0.074476,-0.962044,0.039493,0.000032,-0.235771,-30.752701,-14.982042,2.258850,,,,,,,
1522136849.810309,-0.265736,-0.081177,-3.138139,-0.143169,-0.163949,0.028419,-0.261754,0.081088,-0.961721,-0.012843,-0.073916,-0.164698,-30.674408,-14.832079,2.558289,,,,,,,
1522136849.840278,-0.275486,-0.081911,-3.136760,0.090352,-0.442022,0.050182,-0.271102,0.081819,-0.959066,0.050414,-0.075761,-0.063944,-28.350372,-15.291948,3.161316,,,,,,,
1522136849.870246,-0.290564,-0.075717,-3.135743,0.273424,-0.477734,-0.075372,-0.285671,0.075645,-0.955337,-0.025227,-0.042899,0.037932,-26.026077,-15.227633,2.937195,,,,,,,
1522136849.900214,-0.303732,-0.065522,-3.136707,0.336089,-0.430456,-0.174456,-0.298441,0.065475,-0.952178,0.015666,-0.025848,0.081832,-23.478165,-14.939913,2.112366,,,,,,,
1522136849.930182,-0.314449,-0.054580,-3.138849,0.299329,-0.270036,-0.154411,-0.308831,0.054553,-0.949550,-0.006232,-0.003604,0.127849,-22.810410,-14.719500,0.536804,,,,,,,
1522136849.960151,-0.320535,-0.045595,-3.138710,0.298154,-0.185650,-0.062873,-0.314746,0.045579,-0.948079,0.064609,0.033278,0.155279,-21.322372,-14.204042,-2.314575,,,,,,,
1522136849.990119,-0.322145,-0.037032,-3.138236,0.218263,0.070747,-0.080231,-0.316385,0.037023,-0.947907,0.004129,0.056116,0.099320,-23.895370,-14.795321,-5.163452,,,,,,,
1522136850.020087,-0.318803,-0.034385,-3.139630,-0.032715,0.073392,-0.064442,-0.313245,0.034379,-0.949049,0.046628,0.033416,0.084119,-26.150986,-14.860994,-5.989319,,,,,,,
1522136850.050055,-0.316048,-0.037969,3.141019,-0.198905,0.196800,-0.027390,-0.310588,0.037959,-0.949785,0.088130,-0.044795,0.127260,-28.481262,-15.300661,-6.138672,,,,,,,
1522136850.080024,-0.306431,-0.042811,3.139675,-0.103346,0.357828,0.008745,-0.301381,0.042798,-0.952542,0.084599,-0.048520,0.039807,-29.605026,-15.220522,-6.064636,,,,,,,
1522136850.109992,-0.298151,-0.042255,3.139039,0.091792,0.220748,-0.061291,-0.293491,0.042242,-0.955027,0.038791,-0.005240,0.020670,-31.917175,-14.608995,-4.943237,,,,,,,
1522136850.139960,-0.295210,-0.035734,3.138812,0.273556,0.018542,-0.081198,-0.290755,0.035727,-0.956129,0.025939,-0.008627,0.013578,-32.138870,-14.457705,-4.643921,,,,,,,
1522136850.169928,-0.293792,-0.026600,3.139538,0.295994,0.073459,-0.038626,-0.289481,0.026597,-0.956813,0.081611,-0.001420,-0.025929,-34.676010,-13.845171,-3.522644,,,,,,,
1522136850.199897,-0.290395,-0.018828,3.139989,0.202559,0.132447,-0.085626,-0.286280,0.018827,-0.957960,0.034144,0.026644,-0.095614,-35.355927,-14.292177,-3.596191,,,,,,,
1522136850.229845,-0.284689,-0.015474,3.138963,0.018972,0.217479,-0.022987,-0.280825,0.015473,-0.959633,0.033007,0.003310,-0.143287,-37.464203,-15.257463,-3.368408,,,,,,,
1522136850.259813,-0.277204,-0.018031,3.138530,-0.152966,0.264316,0.025854,-0.273623,0.018030,-0.961667,0.061633,-0.039988,-0.189578,-38.516708,-16.001894,-2.540955,,,,,,,
1522136850.289781,-0.271884,-0.024113,3.138924,-0.182007,0.064127,0.097418,-0.268468,0.024110,-0.962986,0.028463,-0.041704,-0.200756,-39.730087,-17.571062,-2.160278,,,,,,,
1522136850.319750,-0.275569,-0.026847,-3.141196,0.039571,-0.231084,0.142632,-0.271996,0.026844,-0.961923,-0.014183,-0.036121,-0.121222,-41.753799,-18.160753,-0.958923,,,,,,,
1522136850.349718,-0.282640,-0.024740,-3.137901,0.132533,-0.211167,0.146951,-0.278807,0.024738,-0.960028,-0.005709,-0.056186,-0.057062,-43.024231,-18.378908,0.166321,,,,,,,
1522136850.379686,-0.284851,-0.024840,-3.135271,-0.068138,0.042208,0.150807,-0.280928,0.024838,-0.959406,-0.021364,-0.041027,-0.090154,-44.954910,-18.516771,3.615967,,,,,,,
1522136850.409654,-0.280785,-0.032282,-3.133483,-0.301102,0.168571,0.095096,-0.276966,0.032276,-0.960337,-0.011364,-0.037174,-0.117315,-44.567749,-18.516481,5.641113,,,,,,,
1522136850.439623,-0.277969,-0.041599,-3.133895,-0.262175,0.010318,0.069715,-0.274166,0.041587,-0.960782,0.024303,-0.072989,-0.078647,-43.110977,-18.218248,10.440613,,,,,,,
1522136850.469591,-0.280534,-0.045943,-3.132418,-0.033323,-0.102079,0.106225,-0.276577,0.045926,-0.959893,0.028926,-0.053006,-0.045036,-41.144974,-17.924913,12.615479,,,,,,,
1522136850.499529,-0.281949,-0.046840,-3.129365,-0.012581,-0.017026,0.092304,-0.277922,0.046823,-0.959461,0.033400,-0.039835,-0.060238,-36.479263,-17.344255,14.265442,,,,,,,
1522136850.529497,-0.282061,-0.046987,-3.128218,0.059315,-0.049453,-0.005642,-0.278029,0.046970,-0.959423,0.005186,-0.030765,-0.021153,-33.322830,-16.608614,14.114136,,,,,,,
1522136850.559465,-0.287262,-0.042216,-3.127147,0.199282,-0.257064,0.001069,-0.283075,0.042204,-0.958168,0.008203,-0.048414,-0.008995,-30.236176,-14.449160,12.457031,,,,,,,
1522136850.589434,-0.293756,-0.038002,-3.126131,0.079146,-0.159970,-0.012969,-0.289340,0.037993,-0.956471,0.024981,-0.047972,0.027333,-30.308044,-13.999071,12.230225,,,,,,,
1522136850.619402,-0.293801,-0.038419,-3.127801,-0.114724,0.094943,-0.081555,-0.289378,0.038410,-0.956443,0.021174,-0.024784,0.016089,-29.247803,-11.980501,10.572632,,,,,,,
1522136850.649370,-0.287839,-0.042711,-3.132813,-0.213088,0.240115,-0.137198,-0.283622,0.042698,-0.957984,0.036109,0.011928,-0.030633,-30.451355,-11.751055,9.596130,,,,,,,
1522136850.679338,-0.284515,-0.045286,-3.137956,-0.072300,-0.011131,-0.120853,-0.280404,0.045270,-0.958813,0.037682,-0.015180,-0.051273,-29.028076,-11.832613,9.447144,,,,,,,
1522136850.709307,-0.289109,-0.044237,-3.141082,0.037703,-0.215575,-0.099256,-0.284819,0.044222,-0.957560,0.046889,0.004682,0.006266,-29.792725,-12.804995,8.625610,,,,,,,
1522136850.739275,-0.294924,-0.041601,3.140226,0.073046,-0.144753,-0.058810,-0.290415,0.041589,-0.955995,0.082255,-0.009362,0.043184,-30.544037,-12.801836,8.400269,,,,,,,
1522136850.769243,-0.296905,-0.040513,3.139036,-0.022300,0.014920,-0.064373,-0.292322,0.040502,-0.955461,0.014078,0.023951,0.018983,-29.783417,-12.503984,9.674438,,,,,,,
1522136850.799211,-0.295348,-0.039892,3.137178,0.065387,0.030695,-0.074965,-0.290841,0.039881,-0.955939,-0.000891,0.031423,0.020392,-29.400208,-11.905336,10.047241,,,,,,,
1522136850.829180,-0.295451,-0.036168,3.136287,0.093858,-0.027918,-0.058912,-0.290980,0.036160,-0.956044,0.065196,-0.025159,0.012471,-27.138763,-10.715593,9.968628,,,,,,,
1522136850.859148,-0.294187,-0.034750,3.135283,0.006770,0.102815,-0.033531,-0.289787,0.034743,-0.956459,0.050636,-0.022384,0.011498,-26.614838,-10.867876,10.044495,,,,,,,
1522136850.889116,-0.290182,-0.034865,3.134731,-0.006179,0.105833,-0.004774,-0.285952,0.034858,-0.957609,0.059481,0.020578,-0.032366,-26.258911,-11.696276,8.247986,,,,,,,
1522136850.919084,-0.289179,-0.034778,3.134432,-0.013103,-0.024769,-0.017430,-0.284992,0.034771,-0.957898,0.063709,0.016606,-0.047229,-25.972260,-12.448534,7.276123,,,,,,,
1522136850.949053,-0.288986,-0.037081,3.134359,-0.128441,0.056814,0.058052,-0.284784,0.037073,-0.957874,0.082086,-0.031366,-0.048810,-27.944778,-14.614794,7.133789,,,,,,,
1522136850.979021,-0.286421,-0.041162,3.134908,-0.079100,0.073893,0.029303,-0.282281,0.041151,-0.958448,-0.017020,-0.028593,-0.056918,-28.482330,-15.962221,7.288940,,,,,,,
1522136851.008989,-0.289007,-0.040149,3.136385,0.147796,-0.292102,0.015980,-0.284771,0.040139,-0.957754,0.055111,-0.041603,-0.015894,-27.964645,-17.238649,8.194275,,,,,,,
1522136851.038957,-0.301580,-0.031035,3.137779,0.361833,-0.480355,-0.036941,-0.296886,0.031030,-0.954408,0.054393,-0.050363,0.058472,-27.964462,-18.436617,10.224121,,,,,,,
1522136851.068926,-0.312810,-0.022699,-3.141578,0.227781,-0.229058,0.088436,-0.307654,0.022697,-0.951226,0.040687,-0.044975,0.109262,-27.584671,-18.362658,10.898987,,,,,,,
1522136851.098894,-0.309972,-0.021013,-3.137141,-0.011195,0.330195,0.127121,-0.304965,0.021011,-0.952131,0.002261,0.018036,0.067151,-24.650223,-16.876772,9.994507,,,,,,,
1522136851.128862,-0.293655,-0.026494,-3.137298,-0.278402,0.554080,-0.034201,-0.289350,0.026491,-0.956856,0.089109,0.029372,-0.087258,-24.796936,-16.501177,9.917969,,,,,,,
1522136851.158831,-0.281404,-0.036003,3.140270,-0.414826,0.319890,-0.077755,-0.277525,0.035995,-0.960043,0.079145,-0.080871,-0.132120,-23.079544,-16.135775,8.042358,,,,,,,
1522136851.188799,-0.279271,-0.045343,3.136287,-0.187678,-0.144401,-0.017444,-0.275371,0.045328,-0.960268,0.061443,-0.063577,-0.023924,-22.718811,-16.663897,6.544617,,,,,,,
1522136851.218761,-0.287649,-0.042869,3.135797,0.214225,-0.322580,-0.055332,-0.283438,0.042856,-0.958032,0.078726,-0.031106,0.085916,-24.682373,-17.031710,4.895081,,,,,,,
1522136851.248729,-0.293395,-0.032708,3.136812,0.370954,-0.111674,-0.034107,-0.289049,0.032702,-0.956755,0.088762,-0.048281,0.087477,-25.814072,-17.476992,4.521301,,,,,,,
1522136851.278698,-0.291894,-0.022811,3.138601,0.269741,0.144859,-0.060021,-0.287692,0.022809,-0.957450,0.024859,0.010242,0.014030,-26.562241,-17.248705,4.445007,,,,,,,
1522136851.308666,-0.286150,-0.017815,3.136753,0.052513,0.193695,-0.128425,-0.282215,0.017814,-0.959185,0.063618,0.037087,-0.038450,-27.160431,-16.796465,3.992981,,,,,,,
1522136851.338634,-0.281953,-0.017496,3.134153,-0.046315,0.132914,-0.064499,-0.278189,0.017495,-0.960366,0.060904,0.001136,-0.030555,-27.226151,-15.596621,3.538086,,,,,,,
1522136851.368602,-0.274398,-0.021135,3.132398,-0.211402,0.309220,0.008711,-0.270907,0.021134,-0.962373,0.113451,0.023040,-0.106109,-26.910629,-13.723574,3.005737,,,,,,,
1522136851.398571,-0.264966,-0.028788,3.129818,-0.263632,0.274582,-0.036034,-0.261768,0.028784,-0.964701,0.023380,-0.008429,-0.119131,-27.884399,-13.194872,2.328186,,,,,,,
1522136851.428539,-0.260762,-0.032262,3.129327,0.024877,-0.020178,0.073159,-0.257682,0.032256,-0.965690,0.020057,-0.001876,-0.124810,-30.119186,-11.759676,2.471313,,,,,,,
1522136851.458507,-0.269951,-0.025574,3.131621,0.353755,-0.426905,-0.079621,-0.266596,0.025571,-0.963468,0.138209,-0.043332,-0.022067,-29.883881,-11.085146,3.068726,,,,,,,
1522136851.488475,-0.280734,-0.014581,3.130330,0.285279,-0.291364,-0.139478,-0.277031,0.014581,-0.960749,0.057427,0.018043,0.023890,-30.317017,-10.930635,5.617859,,,,,,,
1522136851.518444,-0.287854,-0.007784,3.129204,0.168821,-0.236238,-0.077829,-0.283887,0.007783,-0.958825,0.031323,0.040816,0.045053,-29.418411,-11.384157,6.145142,,,,,,,
1522136851.548412,-0.294588,-0.003470,3.130804,0.145895,-0.212580,0.040411,-0.290343,0.003470,-0.956915,0.050750,-0.024726,0.118872,-27.324478,-11.993578,6.148621,,,,,,,
1522136851.578380,-0.291463,-0.001895,3.133894,-0.006040,0.290842,0.129301,-0.287353,0.001895,-0.957822,0.096466,-0.005618,-0.008746,-26.580658,-12.072817,5.249329,,,,,,,
1522136851.608348,-0.280209,-0.005899,3.134717,-0.172646,0.354943,-0.011541,-0.276552,0.005899,-0.960980,0.033418,0.008185,-0.134189,-26.224442,-12.377047,2.625732,,,,,,,
1522136851.638317,-0.274388,-0.012396,3.132137,-0.254374,0.032924,0.026008,-0.270937,0.012396,-0.962516,0.070040,-0.041922,-0.098626,-27.280685,-12.822588,2.326965,,,,,,,
1522136851.668285,-0.278983,-0.017771,3.133326,-0.084166,-0.226427,0.126562,-0.275334,0.017771,-0.961183,0.059560,-0.070246,-0.037932,-28.258804,-12.818712,1.801453,,,,,,,
1522136851.698253,-0.282192,-0.021457,3.136604,-0.133341,-0.025334,0.107142,-0.278397,0.021455,-0.960225,0.119873,-0.028688,-0.039576,-27.884720,-12.820543,1.651672,,,,,,,
1522136851.728221,-0.280410,-0.027300,3.136481,-0.225311,0.091239,0.032372,-0.276646,0.027296,-0.960583,0.017308,-0.020262,-0.079746,-27.809708,-13.045504,2.027588,,,,,,,
1522136851.758190,-0.279317,-0.034271,3.135384,-0.210699,-0.031756,-0.010118,-0.275537,0.034264,-0.960679,0.054529,-0.009636,-0.065948,-27.817642,-14.020174,2.331482,,,,,,,
1522136851.788158,-0.282178,-0.036096,3.133009,0.012196,-0.152006,-0.065233,-0.278266,0.036088,-0.959825,0.077827,-0.046083,-0.031249,-28.043686,-14.169085,2.406982,,,,,,,
1522136851.818126,-0.288650,-0.031691,3.133077,0.231447,-0.246394,-0.015969,-0.284515,0.031685,-0.958147,0.034118,-0.062722,0.026888,-27.138641,-13.573305,2.255005,,,,,,,
1522136851.848095,-0.294574,-0.022693,3.136238,0.346896,-0.173617,0.020272,-0.290257,0.022691,-0.956679,0.064488,-0.021851,0.047423,-26.904510,-12.524584,2.026001,,,,,,,
1522136851.878063,-0.295435,-0.015198,3.138923,0.147465,0.091614,0.000672,-0.291122,0.015197,-0.956564,0.000992,0.024811,0.002356,-26.818466,-11.100496,1.495300,,,,,,,
1522136851.908031,-0.286122,-0.015096,3.137218,-0.117729,0.387105,-0.072264,-0.282202,0.015096,-0.959235,0.088064,0.042369,-0.096261,-28.240097,-10.943804,1.793945,,,,,,,
1522136851.937999,-0.276329,-0.020885,3.133493,-0.297632,0.302362,-0.044617,-0.272766,0.020884,-0.961853,0.072602,-0.035959,-0.146134,-29.356506,-10.263491,2.090698,,,,,,,
1522136851.967968,-0.268007,-0.032580,3.130513,-0.437265,0.210741,0.037423,-0.264669,0.032574,-0.963788,0.073568,-0.009152,-0.181842,-28.753403,-10.041048,2.240112,,,,,,,
1522136851.997936,-0.269241,-0.041636,3.128902,-0.146528,-0.221225,0.011441,-0.265769,0.041624,-0.963137,0.077735,-0.018141,-0.060820,-29.716049,-9.435671,3.287170,,,,,,,
1522136852.027904,-0.280636,-0.039673,3.128881,0.164636,-0.436134,-0.060572,-0.276748,0.039662,-0.960123,0.048446,-0.086949,0.044137,-29.482086,-8.761354,3.659607,,,,,,,
1522136852.057872,-0.290138,-0.033611,3.129009,0.201586,-0.251594,-0.024496,-0.285922,0.033605,-0.957662,0.047473,-0.037557,0.056921,-30.524261,-7.931749,3.580811,,,,,,,
1522136852.087841,-0.297472,-0.026863,3.130180,0.224164,-0.225012,-0.033039,-0.292999,0.026860,-0.955734,-0.021821,0.016765,0.058411,-31.423462,-8.077318,3.955933,,,,,,,
