timestamp(unix),attitude_roll(radians),attitude_pitch(radians),attitude_yaw(radians),rotation_rate_x(radians/s),rotation_rate_y(radians/s),rotation_rate_z(radians/s),gravity_x(G),gravity_y(G),gravity_z(G),user_acc_x(G),user_acc_y(G),user_acc_z(G),magnetic_field_x(microteslas),magnetic_field_y(microteslas),magnetic_field_z(microteslas),latitude(degree),longitude(degree),altitude(meter),speed(m/s),course(degree),timestamp(unix),User Mark
1523695938.236068,-0.681560,-0.033858,-1.276411,-0.098336,0.438902,0.017337,-0.629642,0.033852,-0.776144,-0.036496,-0.014504,-0.257075,12.373154,28.537693,4.455139,,,,,,,
,,,,,,,,,,,,,,,,25.319374,51.435682,14.016445,16.010000,72.421875,1523695937.995507,
1523695938.266036,-0.678333,-0.036250,-1.277182,-0.059386,-0.166836,0.010520,-0.627082,0.036243,-0.778106,0.015235,0.050946,-0.130707,12.304611,28.688816,5.279541,,,,,,,
1523695938.296005,-0.692094,-0.036215,-1.278243,-0.032107,-0.598851,-0.065742,-0.637730,0.036207,-0.769404,0.049473,0.045733,0.038020,12.457443,28.838352,5.503967,,,,,,,
1523695938.325973,-0.710475,-0.036328,-1.282336,-0.094569,-0.555745,-0.129762,-0.651762,0.036320,-0.757549,0.021635,0.009883,0.242870,13.353210,28.683872,5.055115,,,,,,,
1523695938.355941,-0.710696,-0.031395,-1.283260,0.216120,0.419843,-0.104940,-0.652037,0.031390,-0.757532,-0.013505,0.000150,0.212168,12.528259,28.687595,5.054688,,,,,,,
1523695938.385910,-0.686392,-0.025349,-1.282739,0.085948,0.900535,-0.115109,-0.633545,0.025347,-0.773287,-0.063522,-0.056566,-0.112440,11.934570,28.915928,5.728455,,,,,,,
1523695938.415878,-0.671488,-0.026381,-1.283977,-0.129766,0.136954,0.051718,-0.621933,0.026378,-0.782622,-0.033187,-0.030406,-0.217424,12.233810,29.064213,5.353027,,,,,,,
1523695938.445846,-0.675813,-0.030572,-1.285357,-0.092078,-0.244745,0.070244,-0.625237,0.030567,-0.779832,-0.003562,0.005932,-0.062118,12.222717,28.313663,4.755981,,,,,,,
1523695938.475814,-0.685499,-0.029239,-1.282063,0.189458,-0.375760,0.017298,-0.632787,0.029235,-0.773770,0.033940,-0.044478,0.062817,12.228271,28.688938,5.054504,,,,,,,
1523695938.505783,-0.693058,-0.024330,-1.279610,0.164408,-0.112643,-0.068221,-0.638702,0.024327,-0.769065,0.025497,-0.055471,0.157158,13.355469,28.908863,5.054199,,,,,,,
1523695938.535751,-0.691154,-0.020883,-1.279689,0.012141,0.223444,-0.059074,-0.637286,0.020881,-0.770340,0.016146,-0.043708,0.121979,12.299652,28.688023,4.454529,,,,,,,
1523695938.565719,-0.678469,-0.022175,-1.282279,-0.164026,0.499914,-0.024319,-0.627445,0.022173,-0.778341,-0.014660,0.016859,-0.094203,12.372864,28.462757,4.530457,,,,,,,
1523695938.595687,-0.666604,-0.027131,-1.286389,-0.216280,0.303343,-0.004995,-0.618091,0.027128,-0.785635,-0.035977,0.019366,-0.146662,12.607437,29.062305,5.128174,,,,,,,
1523695938.625656,-0.664073,-0.030995,-1.289745,-0.122039,-0.117644,-0.011952,-0.616031,0.030990,-0.787108,0.021213,0.011002,-0.119768,12.460129,29.063419,5.578064,,,,,,,
1523695938.655624,-0.671674,-0.030932,-1.291336,0.028236,-0.245124,-0.070313,-0.621997,0.030927,-0.782404,-0.012890,0.031710,0.032633,11.848785,28.465275,4.680237,,,,,,,
1523695938.685592,-0.675667,-0.028854,-1.291369,0.050211,-0.046849,-0.017216,-0.625155,0.028850,-0.779963,-0.015561,0.029042,0.062388,12.753235,28.686573,5.054810,,,,,,,
1523695938.715560,-0.673462,-0.029121,-1.291791,-0.060329,0.085066,0.000681,-0.623430,0.029117,-0.781333,0.028840,-0.038059,-0.006814,11.861984,29.291035,5.501892,,,,,,,
1523695938.745529,-0.674619,-0.031116,-1.293124,-0.083544,-0.118711,-0.024710,-0.624296,0.031111,-0.780564,-0.019549,0.023317,-0.000564,11.255402,28.768543,5.278687,,,,,,,
1523695938.775469,-0.677383,-0.031466,-1.295315,-0.011397,-0.028278,-0.065242,-0.626444,0.031461,-0.778827,0.020579,0.037676,0.014285,12.080048,28.914539,4.978516,,,,,,,
1523695938.805437,-0.678663,-0.028107,-1.295154,0.139208,-0.026467,-0.074718,-0.627503,0.028103,-0.778103,-0.011215,0.042636,0.083233,11.556274,28.991962,5.052979,,,,,,,
1523695938.835405,-0.675756,-0.023898,-1.294525,0.079162,0.170173,-0.061111,-0.625307,0.023895,-0.780009,-0.026869,-0.003769,0.021769,11.562439,29.292454,5.576721,,,,,,,
1523695938.865374,-0.668226,-0.025694,-1.296525,-0.167034,0.339301,0.001402,-0.619388,0.025691,-0.784661,-0.065335,0.012548,-0.103645,11.255402,28.768543,5.278687,,,,,,,
1523695938.895342,-0.659193,-0.030197,-1.299532,-0.140869,0.251933,0.026014,-0.612198,0.030192,-0.790124,-0.047058,-0.004512,-0.152869,11.628754,28.467091,5.505066,,,,,,,
1523695938.925310,-0.657069,-0.031882,-1.300180,0.012661,-0.056468,0.006195,-0.610486,0.031877,-0.791381,0.022077,0.029906,-0.016313,11.860474,28.916416,5.878357,,,,,,,
1523695938.955278,-0.663742,-0.029510,-1.298394,0.141980,-0.271393,0.000114,-0.615799,0.029506,-0.787347,0.040924,0.021825,0.118997,12.087250,29.140324,5.802612,,,,,,,
1523695938.985247,-0.667035,-0.026036,-1.295242,0.141152,0.030290,0.012606,-0.618447,0.026033,-0.785391,-0.022681,0.019194,0.112875,11.629196,28.691792,5.204163,,,,,,,
1523695939.015215,-0.658757,-0.025063,-1.293562,-0.008926,0.395018,0.031297,-0.611940,0.025060,-0.790503,-0.028380,-0.017492,-0.054315,11.479950,28.767460,5.203796,,,,,,,
1523695939.045183,-0.648473,-0.026573,-1.294598,-0.064742,0.277484,-0.010170,-0.603755,0.026570,-0.796723,-0.009008,-0.036641,-0.105712,11.936371,28.916233,6.028442,,,,,,,
,,,,,,,,,,,,,,,,25.319405,51.435839,13.801418,16.049999,75.234375,1523695938.995496,
1523695939.075152,-0.648315,-0.027168,-1.295671,0.010331,-0.135932,-0.025694,-0.603620,0.027165,-0.796805,-0.014560,-0.005635,-0.006265,11.408096,28.992924,5.352844,,,,,,,
1523695939.105120,-0.650643,-0.026671,-1.296049,-0.023257,0.004317,-0.013066,-0.605481,0.026668,-0.795409,-0.003391,-0.024456,-0.017869,12.079300,28.839542,4.978821,,,,,,,
1523695939.135088,-0.648570,-0.027219,-1.296420,-0.028500,0.047776,0.004996,-0.603822,0.027216,-0.796650,-0.020919,-0.025568,-0.049297,11.782776,28.916325,5.428406,,,,,,,
1523695939.165056,-0.648748,-0.028223,-1.297758,-0.065136,-0.053981,-0.018369,-0.603947,0.028219,-0.796521,-0.003139,0.014307,-0.051456,11.485184,29.067814,5.577576,,,,,,,
1523695939.195025,-0.650232,-0.028232,-1.298080,0.038314,-0.051224,0.006213,-0.605128,0.028228,-0.795624,0.011592,0.021836,-0.009506,12.075256,28.614246,4.679749,,,,,,,
1523695939.224993,-0.652698,-0.027291,-1.297009,0.030616,-0.092700,0.013709,-0.607104,0.027287,-0.794150,0.017901,0.030894,0.029593,12.524658,28.462376,4.830505,,,,,,,
1523695939.254961,-0.655209,-0.027085,-1.296704,0.017977,-0.087165,-0.014007,-0.609100,0.027082,-0.792627,0.017913,0.008196,0.049936,12.009720,29.065372,5.502869,,,,,,,
1523695939.284929,-0.656635,-0.025074,-1.296613,0.081503,-0.007410,-0.046000,-0.610261,0.025072,-0.791800,0.021073,-0.014024,0.034765,11.109146,29.144199,5.277100,,,,,,,
1523695939.314898,-0.653897,-0.023340,-1.296573,0.018091,0.153135,-0.034499,-0.608117,0.023338,-0.793501,-0.018501,-0.065208,-0.035159,11.926331,28.540226,4.979919,,,,,,,
1523695939.344866,-0.650300,-0.024316,-1.297255,-0.058420,0.052041,0.013494,-0.605244,0.024313,-0.795665,-0.036022,-0.040945,-0.037175,11.773788,28.465611,4.680176,,,,,,,
1523695939.374834,-0.651439,-0.026153,-1.298238,-0.066570,-0.066084,0.041311,-0.606122,0.026150,-0.794938,0.013456,-0.034405,-0.015365,12.081848,28.914829,5.278503,,,,,,,
1523695939.404802,-0.652515,-0.027752,-1.298052,-0.038480,0.017710,0.051909,-0.606951,0.027749,-0.794251,-0.033140,-0.021676,-0.032485,11.324539,28.542637,4.679626,,,,,,,
1523695939.434771,-0.650233,-0.028708,-1.296927,0.019419,0.078136,0.054010,-0.605120,0.028704,-0.795613,-0.007581,-0.056033,-0.078746,11.026825,28.544346,5.054504,,,,,,,
1523695939.464739,-0.649597,-0.028068,-1.294771,0.055410,-0.024843,0.026444,-0.604626,0.028064,-0.796012,-0.003437,-0.051395,-0.029382,12.230209,28.839008,5.128845,,,,,,,
1523695939.494738,-0.651792,-0.027019,-1.293816,0.031653,-0.126542,-0.009698,-0.606389,0.027016,-0.794706,0.043370,-0.054726,0.000821,11.560333,28.992619,5.727966,,,,,,,
1523695939.524706,-0.655674,-0.025903,-1.293306,0.013637,-0.094635,-0.007611,-0.609487,0.025900,-0.792369,0.016210,-0.029303,0.062618,11.699692,28.241474,5.205994,,,,,,,
1523695939.554674,-0.653940,-0.026786,-1.294502,-0.096486,0.108600,-0.007899,-0.608098,0.026783,-0.793406,0.012120,-0.020207,0.011637,12.680649,28.612431,5.580017,,,,,,,
1523695939.584643,-0.650350,-0.027451,-1.297035,-0.066290,0.109996,-0.065420,-0.605235,0.027448,-0.795570,-0.010503,-0.020917,-0.016671,11.863174,29.141483,5.952454,,,,,,,
1523695939.614611,-0.648473,-0.027385,-1.299750,-0.061247,0.064184,-0.049392,-0.603741,0.027382,-0.796706,-0.019275,-0.010612,-0.057893,11.408691,28.918156,5.578125,,,,,,,
1523695939.644579,-0.648458,-0.027805,-1.301826,-0.026579,-0.037003,-0.027951,-0.603723,0.027801,-0.796706,-0.007499,-0.023529,-0.045656,12.228424,28.389469,5.580688,,,,,,,
1523695939.674547,-0.650212,-0.027067,-1.301576,0.044722,-0.068125,-0.009752,-0.605131,0.027063,-0.795662,-0.006121,0.002447,0.024834,11.402267,28.318104,5.505554,,,,,,,
1523695939.704516,-0.650448,-0.024857,-1.300827,0.066588,0.047617,-0.006650,-0.605354,0.024854,-0.795565,0.011131,0.007617,0.029879,11.556442,28.692493,5.579102,,,,,,,
1523695939.734484,-0.646886,-0.024801,-1.300912,-0.067455,0.167942,0.004851,-0.602517,0.024798,-0.797717,-0.027671,-0.005298,-0.066739,12.079315,28.390278,5.730591,,,,,,,
1523695939.764452,-0.640203,-0.028344,-1.302330,-0.138962,0.224144,0.047360,-0.597117,0.028340,-0.801650,-0.028387,-0.005452,-0.176637,11.778458,28.166859,5.956360,,,,,,,
1523695939.794438,-0.639333,-0.029830,-1.303273,0.028623,-0.108339,-0.027835,-0.596393,0.029825,-0.802135,0.037601,0.009100,-0.054478,11.188660,28.919971,6.403015,,,,,,,
1523695939.824407,-0.646639,-0.025958,-1.301898,0.161339,-0.275498,-0.028630,-0.602303,0.025955,-0.797842,0.039726,0.018738,0.123526,12.085449,28.915409,5.878479,,,,,,,
1523695939.854375,-0.649996,-0.023436,-1.300321,0.038732,0.040180,0.003987,-0.605015,0.023434,-0.795865,0.034352,-0.018581,0.100263,11.476059,28.242695,5.430908,,,,,,,
1523695939.884343,-0.645220,-0.023997,-1.300006,-0.040832,0.172030,0.019777,-0.601199,0.023994,-0.798735,0.012775,-0.042854,0.003493,11.405258,28.393467,5.880249,,,,,,,
1523695939.914311,-0.641468,-0.025854,-1.301263,-0.095531,0.086282,-0.006815,-0.598171,0.025851,-0.800948,0.028606,-0.046862,-0.043901,11.638794,29.067722,6.177673,,,,,,,
1523695939.944280,-0.639843,-0.028064,-1.303033,-0.083990,0.043721,-0.003563,-0.596833,0.028061,-0.801871,0.011780,-0.010345,-0.056924,11.780243,28.391773,5.880432,,,,,,,
1523695939.974248,-0.638003,-0.029464,-1.304745,-0.066663,0.079909,-0.018502,-0.595332,0.029459,-0.802936,0.027049,-0.004252,-0.065671,11.632065,28.392750,6.180420,,,,,,,
1523695940.004216,-0.636812,-0.029325,-1.307076,-0.052898,-0.006873,-0.072751,-0.594378,0.029321,-0.803647,-0.004850,-0.010568,-0.054721,12.013626,28.916264,6.403442,,,,,,,
1523695940.034184,-0.636054,-0.030841,-1.309707,-0.129890,0.042785,-0.005726,-0.593742,0.030836,-0.804061,-0.016396,-0.001692,-0.092179,11.180435,28.095005,6.406311,,,,,,,
1523695940.064153,-0.637128,-0.034153,-1.311684,-0.093421,-0.126426,0.018973,-0.594541,0.034146,-0.803336,0.012586,0.013935,-0.058556,10.880295,28.171207,6.255859,,,,,,,
1523695940.094121,-0.641989,-0.034044,-1.311734,0.050894,-0.141335,-0.027787,-0.598441,0.034037,-0.800440,0.015875,0.021551,0.099619,11.565445,28.918568,6.703247,,,,,,,
1523695940.124089,-0.642230,-0.030955,-1.311433,0.107510,0.065937,-0.057783,-0.598694,0.030950,-0.800376,0.034653,-0.004919,0.023276,11.411865,28.694035,6.479065,,,,,,,
1523695940.154057,-0.639137,-0.029186,-1.311872,-0.031143,0.106609,-0.050468,-0.596247,0.029182,-0.802267,-0.002096,0.009057,-0.045985,11.104248,28.020283,6.331604,,,,,,,
1523695940.184026,-0.636880,-0.032195,-1.315733,-0.204452,0.030511,-0.048384,-0.594380,0.032189,-0.803536,0.006352,0.041358,-0.094154,11.414108,28.919025,6.478149,,,,,,,
1523695940.213994,-0.639522,-0.034457,-1.320480,-0.087476,-0.138352,-0.103530,-0.596456,0.034450,-0.801902,0.012120,0.041431,-0.006463,11.414276,28.394932,7.380249,,,,,,,
1523695940.243962,-0.641901,-0.033580,-1.322888,-0.017841,-0.012487,-0.042881,-0.598380,0.033574,-0.800505,-0.017175,0.035075,-0.010149,11.032089,28.170826,6.555969,,,,,,,
1523695940.273931,-0.640126,-0.034775,-1.324070,-0.055080,0.057457,-0.004610,-0.596933,0.034768,-0.801533,-0.029715,0.003349,-0.057827,11.784454,28.317585,6.705750,,,,,,,
1523695940.303899,-0.639185,-0.035732,-1.324254,0.012700,-0.032139,0.021093,-0.596159,0.035725,-0.802067,0.018125,-0.021427,-0.058269,11.568314,28.844166,7.303589,,,,,,,
1523695940.333867,-0.643299,-0.034653,-1.323450,0.050634,-0.175492,-0.006438,-0.599476,0.034646,-0.799638,0.062611,0.013266,0.056413,10.666992,28.847996,7.078064,,,,,,,
1523695940.363835,-0.646038,-0.034260,-1.322638,0.010591,-0.026823,0.021088,-0.601672,0.034253,-0.798004,0.044681,0.042041,0.099289,11.036438,28.471027,6.779785,,,,,,,
1523695940.393804,-0.641820,-0.035121,-1.323072,-0.070406,0.225312,0.006926,-0.598283,0.035113,-0.800511,0.027009,0.016278,0.015675,11.264725,28.620304,7.079285,,,,,,,
1523695940.423772,-0.635122,-0.035954,-1.325165,-0.026476,0.171562,-0.070777,-0.592891,0.035946,-0.804476,-0.007848,-0.017773,-0.088178,11.565598,28.843723,6.853577,,,,,,,
1523695940.453740,-0.634818,-0.035145,-1.326838,-0.004113,-0.032820,-0.028989,-0.592662,0.035138,-0.804680,0.025707,-0.031430,-0.059364,10.960526,28.471226,6.629700,,,,,,,
1523695940.483708,-0.635841,-0.036434,-1.327495,-0.057877,-0.053226,0.023190,-0.593458,0.036426,-0.804036,0.053770,0.010129,-0.011928,11.339996,28.694889,7.003967,,,,,,,
1523695940.513677,-0.637265,-0.036771,-1.327359,0.016008,-0.036247,-0.001271,-0.594595,0.036763,-0.803180,0.029944,0.006374,0.038013,11.865295,28.767445,6.929016,,,,,,,
1523695940.543645,-0.635820,-0.035697,-1.327272,0.010166,0.078588,-0.009914,-0.593457,0.035689,-0.804070,0.015027,0.020539,-0.052574,11.495850,29.144413,7.227295,,,,,,,
1523695940.573613,-0.633766,-0.036900,-1.327829,-0.078750,0.038274,0.012436,-0.591778,0.036891,-0.805252,0.020901,0.007802,-0.083923,10.884796,28.171940,7.005859,,,,,,,
1523695940.603581,-0.634633,-0.038825,-1.328829,-0.047171,-0.087059,-0.007653,-0.592434,0.038815,-0.804680,0.029323,0.019214,-0.025704,11.335358,28.319752,6.855530,,,,,,,
1523695940.633550,-0.637478,-0.038219,-1.329949,0.024759,-0.065556,-0.067300,-0.594734,0.038209,-0.803010,0.023536,-0.009141,0.026292,10.447250,29.149357,7.451721,,,,,,,
1523695940.663518,-0.636499,-0.036588,-1.330312,0.010142,0.057433,-0.023745,-0.593984,0.036580,-0.803641,-0.034937,-0.018483,-0.048792,10.587509,28.398350,7.079834,,,,,,,
1523695940.693486,-0.633146,-0.038301,-1.331823,-0.111421,0.122359,0.003805,-0.591248,0.038292,-0.805576,0.004792,-0.023064,-0.147488,11.864090,28.692371,6.854309,,,,,,,
1523695940.723454,-0.635438,-0.039969,-1.333653,-0.034774,-0.217536,-0.042682,-0.593054,0.039958,-0.804167,0.006171,0.017125,-0.039095,11.125214,29.221684,7.826782,,,,,,,
1523695940.753423,-0.641328,-0.038783,-1.334903,0.022184,-0.134805,-0.041654,-0.597809,0.038773,-0.800697,0.046097,0.037521,0.040122,10.513260,28.473682,7.079468,,,,,,,
1523695940.783383,-0.643138,-0.037506,-1.334590,0.024518,-0.053211,-0.009771,-0.599286,0.037497,-0.799652,0.004712,0.030008,0.045227,11.416809,28.919468,6.928162,,,,,,,
1523695940.813351,-0.642140,-0.038138,-1.334952,-0.046484,0.056456,-0.016324,-0.598473,0.038129,-0.800231,0.004022,0.012255,0.018874,10.896332,28.922550,7.677917,,,,,,,
1523695940.843320,-0.641391,-0.037768,-1.336653,0.008114,0.015327,-0.080175,-0.597882,0.037759,-0.800690,0.013074,-0.030298,-0.002075,10.447693,29.149418,7.526733,,,,,,,
1523695940.873288,-0.637740,-0.037905,-1.338258,-0.079001,0.179829,-0.020734,-0.594952,0.037896,-0.802864,-0.058124,-0.015023,-0.102776,11.191360,28.920399,6.853027,,,,,,,
1523695940.903256,-0.634214,-0.039586,-1.340740,-0.056002,0.056586,-0.032310,-0.592078,0.039575,-0.804904,-0.000985,0.010580,-0.109356,10.668655,28.698505,7.603699,,,,,,,
1523695940.933224,-0.634740,-0.038858,-1.341735,0.006551,-0.052931,-0.043879,-0.592519,0.038848,-0.804616,-0.010204,0.012620,-0.045833,10.748138,29.148151,7.601929,,,,,,,
1523695940.963223,-0.635459,-0.038610,-1.341717,-0.005356,-0.000309,0.032778,-0.593103,0.038600,-0.804197,0.011697,0.018346,-0.076922,10.896942,29.297031,7.151367,,,,,,,
1523695940.993191,-0.635230,-0.040074,-1.340802,-0.039579,-0.005606,0.041290,-0.592885,0.040063,-0.804286,-0.002635,0.017386,-0.082112,10.445450,28.924442,7.527649,,,,,,,
1523695941.023160,-0.637362,-0.040838,-1.340753,0.016675,-0.139230,-0.013955,-0.594579,0.040826,-0.802996,0.023778,0.028983,-0.017866,11.132126,29.821796,7.974426,,,,,,,
1523695941.053128,-0.642015,-0.037508,-1.340598,0.118363,-0.155022,-0.073519,-0.598387,0.037499,-0.800325,0.068114,0.011192,0.067735,11.502304,29.744450,7.299927,,,,,,,
1523695941.083096,-0.643655,-0.035316,-1.340622,-0.005020,0.008586,-0.023703,-0.599747,0.035309,-0.799407,0.004318,-0.001358,0.058898,10.448761,29.299351,7.451172,,,,,,,
1523695941.113064,-0.641941,-0.036924,-1.342344,-0.070098,0.032064,-0.014189,-0.598341,0.036916,-0.800387,0.025282,-0.036305,0.008013,10.901581,29.447529,7.675842,,,,,,,
1523695941.143033,-0.641473,-0.037510,-1.344040,-0.037906,0.027957,-0.047187,-0.597953,0.037501,-0.800649,-0.012795,-0.025950,0.028417,10.531235,29.824345,7.824097,,,,,,,
1523695941.173001,-0.638329,-0.038025,-1.345381,-0.046167,0.145567,0.002777,-0.595421,0.038016,-0.802510,-0.008430,-0.018043,-0.077297,11.047516,29.221577,7.376770,,,,,,,
1523695941.202969,-0.635812,-0.038985,-1.345885,-0.029669,0.027535,0.010356,-0.593378,0.038975,-0.803976,-0.011984,-0.002339,-0.094706,10.821487,29.072666,7.452209,,,,,,,
1523695941.232937,-0.637498,-0.039013,-1.345590,0.022191,-0.090451,-0.003335,-0.594732,0.039003,-0.802973,0.017889,0.021651,0.005854,11.581039,29.894474,7.674377,,,,,,,
1523695941.262906,-0.639336,-0.037573,-1.345069,0.054559,-0.014029,-0.002323,-0.596240,0.037564,-0.801923,0.050753,0.033359,0.011655,10.677643,29.598469,7.600098,,,,,,,
1523695941.292874,-0.638199,-0.036620,-1.344423,-0.000644,0.028751,-0.023709,-0.595349,0.036612,-0.802629,0.015469,0.012216,-0.006895,10.749649,29.298145,7.601318,,,,,,,
1523695941.322842,-0.637485,-0.037169,-1.345669,-0.042336,0.015059,-0.025859,-0.594763,0.037160,-0.803038,0.014945,-0.012762,-0.016786,11.651703,29.593937,7.450562,,,,,,,
1523695941.352810,-0.638031,-0.037873,-1.347214,-0.057353,-0.018796,-0.041819,-0.595186,0.037864,-0.802692,0.012941,-0.017356,-0.013379,10.529892,29.824131,7.599121,,,,,,,
1523695941.382779,-0.637154,-0.039447,-1.348577,-0.059553,0.014910,0.000770,-0.594446,0.039437,-0.803164,-0.031287,0.002159,-0.056150,11.121323,29.146168,7.302124,,,,,,,
1523695941.412747,-0.639144,-0.039272,-1.349015,0.041448,-0.095718,-0.016105,-0.596047,0.039262,-0.801985,0.058846,0.004821,0.006346,10.977768,29.522266,7.750488,,,,,,,
1523695941.442715,-0.640865,-0.037592,-1.347875,0.073579,-0.069267,-0.011842,-0.597465,0.037583,-0.801010,0.023048,0.008422,0.059509,10.682144,29.823811,7.974182,,,,,,,
1523695941.472684,-0.640315,-0.036713,-1.348396,-0.048218,0.133031,-0.025988,-0.597044,0.036705,-0.801365,0.012678,0.003380,0.004002,11.652756,29.519230,7.750854,,,,,,,
1523695941.502652,-0.634486,-0.039100,-1.351440,-0.138758,0.142015,-0.061236,-0.592309,0.039090,-0.804759,-0.043601,-0.000577,-0.136449,11.727432,29.443974,7.826233,,,,,,,
1523695941.532620,-0.634271,-0.039271,-1.354352,-0.014725,-0.060178,-0.064129,-0.592132,0.039261,-0.804881,0.016372,-0.001510,-0.095174,10.686630,30.273792,7.972412,,,,,,,
1523695941.562588,-0.638135,-0.038824,-1.354692,0.001563,-0.153177,0.008434,-0.595248,0.038815,-0.802600,0.002902,0.041462,0.019062,10.377945,29.899357,7.148743,,,,,,,
1523695941.592557,-0.640286,-0.040317,-1.353887,-0.047197,-0.003686,0.072188,-0.596938,0.040306,-0.801271,0.018477,0.022789,0.044664,11.428650,29.745014,7.524841,,,,,,,
1523695941.622525,-0.638081,-0.042077,-1.353128,-0.022136,0.055015,0.026331,-0.595126,0.042065,-0.802527,-0.011594,-0.040691,-0.021707,11.055634,29.672138,7.974976,,,,,,,
1523695941.652493,-0.635674,-0.042892,-1.353566,-0.028168,0.087240,-0.019531,-0.593172,0.042879,-0.803929,0.012301,-0.044100,-0.091182,10.912674,30.198078,8.272766,,,,,,,
1523695941.682461,-0.637550,-0.042216,-1.354203,0.019980,-0.144440,-0.033108,-0.594697,0.042204,-0.802838,0.020524,0.017244,0.027493,10.905334,29.597889,8.050232,,,,,,,
1523695941.712430,-0.639045,-0.042054,-1.355484,-0.058299,0.033139,-0.021632,-0.595900,0.042041,-0.801954,0.040816,0.022198,0.017927,10.756973,29.898335,7.823914,,,,,,,
1523695941.742398,-0.637342,-0.041608,-1.357115,0.028415,0.022669,-0.074833,-0.594544,0.041596,-0.802983,0.023530,0.008193,0.017933,11.511276,30.419788,7.672241,,,,,,,
1523695941.772353,-0.635394,-0.039017,-1.358114,0.037300,0.123446,-0.053617,-0.593041,0.039007,-0.804223,-0.004142,0.036067,-0.062445,10.682281,29.973591,7.748535,,,,,,,
1523695941.802321,-0.632398,-0.039761,-1.360057,-0.090206,0.053417,-0.024862,-0.590612,0.039750,-0.805973,0.016546,0.027632,-0.123822,10.451752,29.374699,7.825867,,,,,,,
1523695941.832290,-0.633589,-0.041312,-1.360521,-0.000488,-0.101344,0.040360,-0.591534,0.041301,-0.805218,0.019970,0.024434,-0.029545,11.062057,30.272175,8.047607,,,,,,,
1523695941.862258,-0.636400,-0.041470,-1.359237,0.032753,-0.076942,0.033967,-0.593791,0.041458,-0.803547,0.026729,0.010544,0.022220,10.760727,30.048679,8.198303,,,,,,,
1523695941.892226,-0.637381,-0.041238,-1.356855,0.075393,-0.065489,0.054222,-0.594585,0.041226,-0.802972,0.019802,-0.023312,0.032052,11.356186,29.820637,7.824524,,,,,,,
1523695941.922194,-0.639050,-0.039708,-1.354672,0.083123,-0.051444,0.017989,-0.595961,0.039698,-0.802028,0.066954,-0.045099,0.072734,11.208450,30.046299,7.823547,,,,,,,
1523695941.952163,-0.639366,-0.039279,-1.353820,-0.012413,0.053030,0.002899,-0.596225,0.039269,-0.801853,0.004474,-0.040550,0.091709,11.363083,30.420750,7.972168,,,,,,,
1523695941.982131,-0.633586,-0.040941,-1.355411,-0.132026,0.280746,0.000447,-0.591541,0.040929,-0.805232,-0.020520,-0.047170,-0.128896,11.431641,30.044987,7.523682,,,,,,,
1523695942.012099,-0.627898,-0.043154,-1.358010,-0.064581,0.024833,-0.049320,-0.586896,0.043141,-0.808508,-0.011630,-0.038563,-0.176187,11.580750,29.819553,7.749634,,,,,,,
1523695942.042067,-0.632667,-0.042033,-1.358854,0.030421,-0.185977,-0.023468,-0.590774,0.042021,-0.805739,0.027236,0.012285,0.052870,11.514435,30.420292,8.197205,,,,,,,
,,,,,,,,,,,,,,,,25.319541,51.436315,15.373989,16.719999,78.398438,1523695941.995461,
1523695942.072036,-0.635968,-0.040819,-1.358059,0.031898,-0.032283,0.030721,-0.593460,0.040808,-0.803825,0.039505,0.015070,0.043967,11.206207,29.821308,7.824463,,,,,,,
1523695942.102004,-0.632312,-0.041937,-1.357157,-0.063237,0.192093,0.041078,-0.590490,0.041925,-0.805952,-0.040522,-0.012964,-0.086627,11.878036,29.817768,7.299805,,,,,,,
1523695942.131972,-0.627396,-0.044222,-1.358622,-0.065617,0.066080,-0.020596,-0.586463,0.044208,-0.808765,0.022621,-0.021243,-0.184750,11.213409,30.271732,8.272644,,,,,,,
1523695942.161941,-0.632304,-0.042524,-1.358529,0.128238,-0.296602,-0.041401,-0.590469,0.042512,-0.805937,0.072235,0.010925,0.024992,10.911621,30.272785,7.972534,,,,,,,
1523695942.191909,-0.641023,-0.039585,-1.357306,0.014245,-0.209402,-0.011731,-0.597545,0.039575,-0.800854,0.028713,0.061072,0.155942,11.804977,29.968159,7.374146,,,,,,,
1523695942.221877,-0.641272,-0.040333,-1.359020,-0.039897,0.064007,-0.038681,-0.597727,0.040322,-0.800682,0.054743,-0.002312,0.067054,10.983612,29.972462,7.973755,,,,,,,
1523695942.251845,-0.638274,-0.039097,-1.359884,0.016135,0.171240,-0.045143,-0.595353,0.039087,-0.802509,-0.016647,-0.060755,0.020390,11.063110,30.197483,8.347900,,,,,,,
1523695942.281814,-0.631830,-0.041101,-1.362416,-0.170754,0.204375,-0.006954,-0.590122,0.041090,-0.806264,-0.036297,-0.038694,-0.138972,12.101959,29.666828,7.375488,,,,,,,
1523695942.311782,-0.630352,-0.043585,-1.364534,-0.049115,-0.043520,-0.004493,-0.588868,0.043571,-0.807051,-0.012436,-0.054634,-0.135698,11.130035,29.521961,8.125610,,,,,,,
1523695942.341750,-0.633044,-0.044141,-1.365013,-0.017387,-0.116908,-0.007583,-0.591024,0.044126,-0.805443,-0.006464,-0.002867,-0.047844,10.763870,30.273823,8.347412,,,,,,,
1523695942.371718,-0.635422,-0.043278,-1.364565,0.046856,-0.058715,0.006252,-0.592959,0.043265,-0.804066,-0.018765,0.023660,0.013249,11.877136,29.592991,7.525696,,,,,,,
1523695942.401717,-0.633901,-0.043297,-1.364935,-0.054700,0.136078,-0.005739,-0.591736,0.043284,-0.804966,0.008789,0.015036,-0.105206,11.211014,29.896961,8.499146,,,,,,,
1523695942.431685,-0.630553,-0.044338,-1.365984,-0.018755,0.044691,-0.017345,-0.589011,0.044323,-0.806906,0.003836,0.010898,-0.132517,11.136322,29.747593,8.799744,,,,,,,
1523695942.461654,-0.633511,-0.042932,-1.367038,0.042502,-0.166542,-0.071428,-0.591431,0.042918,-0.805209,0.033402,0.026417,-0.022885,11.135559,30.121845,8.048218,,,,,,,
1523695942.491622,-0.637485,-0.042420,-1.367698,-0.045026,-0.082856,-0.003384,-0.594639,0.042407,-0.802870,-0.017727,0.017362,0.027235,10.910278,29.823322,8.499268,,,,,,,
1523695942.521590,-0.638413,-0.044162,-1.368813,-0.057579,-0.025456,-0.002381,-0.595339,0.044148,-0.802257,0.018068,-0.015598,0.021923,11.512955,30.045673,8.573669,,,,,,,
1523695942.551558,-0.638410,-0.044115,-1.368903,0.030209,-0.006324,-0.033241,-0.595338,0.044100,-0.802261,-0.019270,-0.035662,0.029571,11.817429,30.494297,8.572021,,,,,,,
1523695942.581527,-0.638097,-0.042176,-1.369087,0.049728,0.056343,-0.036486,-0.595136,0.042164,-0.802515,0.021314,-0.033711,-0.000082,10.911179,29.823460,8.649292,,,,,,,
1523695942.611495,-0.636243,-0.041438,-1.369222,-0.014627,0.026520,-0.004533,-0.593666,0.041427,-0.803641,0.046089,-0.006499,-0.019754,10.919876,30.423862,9.096924,,,,,,,
1523695942.641463,-0.638049,-0.041631,-1.369531,0.000873,-0.072429,0.008363,-0.595111,0.041619,-0.802561,0.082813,-0.006462,0.070597,12.129089,31.168720,9.394531,,,,,,,
1523695942.671432,-0.637489,-0.041765,-1.370029,-0.054639,0.141420,-0.011065,-0.594659,0.041753,-0.802890,0.004587,0.023402,0.074130,11.664291,30.269840,8.422913,,,,,,,
1523695942.701400,-0.628860,-0.043895,-1.371928,-0.090150,0.310527,-0.018730,-0.587655,0.043881,-0.807917,-0.041037,-0.010784,-0.157232,12.334167,29.891605,8.199707,,,,,,,
1523695942.731368,-0.624270,-0.044538,-1.373486,-0.036975,0.001317,-0.039684,-0.583924,0.044523,-0.810583,-0.009917,-0.022764,-0.181192,11.593765,30.944782,8.045166,,,,,,,
1523695942.761336,-0.628879,-0.044955,-1.374822,-0.027449,-0.211494,-0.002167,-0.587643,0.044940,-0.807868,0.048748,0.020963,0.011008,11.284195,30.120960,7.823303,,,,,,,
1523695942.791298,-0.633906,-0.045685,-1.373970,-0.000658,-0.126922,0.051042,-0.591677,0.045669,-0.804877,0.010073,0.025986,0.038688,11.501862,29.519764,7.600830,,,,,,,
1523695942.821266,-0.634665,-0.046420,-1.373372,0.004458,0.016752,0.015748,-0.592268,0.046403,-0.804401,0.047636,0.009627,0.002521,11.811584,30.044102,8.348877,,,,,,,
1523695942.851234,-0.634630,-0.044529,-1.372997,0.088979,-0.024376,-0.056616,-0.592290,0.044514,-0.804491,0.051504,-0.009449,0.025804,10.765961,30.573658,8.196228,,,,,,,
1523695942.881202,-0.634739,-0.043265,-1.373608,-0.036819,0.047996,-0.029075,-0.592411,0.043252,-0.804471,-0.012753,-0.015664,0.006085,10.830032,29.747929,7.749512,,,,,,,
1523695942.911171,-0.632320,-0.045005,-1.376166,-0.109254,0.074800,-0.037679,-0.590418,0.044990,-0.805839,0.001337,-0.042015,-0.059547,10.769867,30.649174,8.720947,,,,,,,
1523695942.941139,-0.632498,-0.045140,-1.377380,0.030899,-0.088189,-0.028886,-0.590557,0.045125,-0.805730,-0.006504,-0.040288,-0.010020,10.620316,30.874531,8.419983,,,,,,,
1523695942.971107,-0.634009,-0.044292,-1.377348,-0.022086,0.048705,0.014630,-0.591797,0.044278,-0.804867,0.001846,0.000766,-0.016544,10.912064,30.272861,8.047546,,,,,,,
1523695943.001076,-0.630729,-0.045791,-1.377677,-0.043327,0.081645,0.022042,-0.589114,0.045775,-0.806749,0.002398,-0.007994,-0.106810,10.689774,30.274311,8.497375,,,,,,,
1523695943.031044,-0.631523,-0.045559,-1.376983,0.042382,-0.102315,0.010567,-0.589761,0.045543,-0.806289,0.028802,0.000432,-0.051163,11.596619,30.870380,8.645447,,,,,,,
1523695943.061013,-0.634661,-0.044455,-1.376263,0.039391,-0.067140,-0.002267,-0.592317,0.044441,-0.804475,0.043321,0.012978,0.023530,11.663971,30.644169,7.746338,,,,,,,
,,,,,,,,,,,,,,,,25.319580,51.436520,13.323879,18.040001,80.507812,1523695942.995450,
1523695943.090980,-0.633616,-0.044310,-1.375328,0.008871,0.057094,0.021030,-0.591480,0.044295,-0.805099,-0.009152,-0.006270,-0.022767,11.590775,30.644794,8.046387,,,,,,,
1523695943.120948,-0.632142,-0.045063,-1.375425,-0.027458,0.012774,-0.010915,-0.590273,0.045048,-0.805942,-0.003523,-0.062290,-0.042874,11.746155,30.869617,8.570496,,,,,,,
1523695943.150917,-0.632678,-0.045144,-1.376015,0.000097,-0.038274,-0.015102,-0.590703,0.045129,-0.805623,0.004902,-0.078728,-0.029963,11.965744,30.867741,7.670654,,,,,,,
1523695943.180885,-0.633285,-0.045258,-1.376011,-0.027591,0.013662,0.014654,-0.591188,0.045243,-0.805260,-0.025679,-0.052841,-0.049720,11.437927,30.495258,7.821838,,,,,,,
1523695943.210853,-0.632858,-0.045748,-1.376299,0.001092,-0.039415,-0.003384,-0.590831,0.045732,-0.805495,0.020274,-0.044435,-0.047853,11.440033,30.570469,8.046570,,,,,,,
1523695943.240821,-0.635430,-0.043761,-1.375799,0.075678,-0.088394,-0.016064,-0.592954,0.043747,-0.804044,0.052274,-0.035690,0.038770,12.259598,30.341267,7.522888,,,,,,,
1523695943.270790,-0.635579,-0.043493,-1.375072,-0.055407,0.040042,0.049775,-0.593080,0.043480,-0.803965,-0.012617,-0.006447,-0.028249,11.888519,30.418461,8.047424,,,,,,,
1523695943.300758,-0.632718,-0.046425,-1.376377,-0.099810,0.089337,0.007067,-0.590700,0.046408,-0.805552,-0.003187,-0.036658,-0.119451,11.440643,30.495701,8.271851,,,,,,,
1523695943.330726,-0.632805,-0.046245,-1.377001,0.064012,-0.085097,-0.027794,-0.590775,0.046229,-0.805507,0.002396,-0.040858,-0.072010,12.266800,30.791676,7.971130,,,,,,,
1523695943.360695,-0.637481,-0.043617,-1.375509,0.084752,-0.170477,0.017063,-0.594606,0.043604,-0.802831,0.038606,-0.025064,0.048238,11.663528,30.419468,8.047302,,,,,,,
1523695943.390663,-0.639393,-0.043715,-1.373896,-0.023641,-0.015305,0.051984,-0.596137,0.043701,-0.801689,0.015006,-0.035568,0.060310,11.513824,30.719700,7.596008,,,,,,,
1523695943.420631,-0.637924,-0.044208,-1.373566,-0.000605,0.058327,-0.001347,-0.594945,0.044194,-0.802547,0.009740,-0.055134,0.027843,12.565125,30.715199,7.821533,,,,,,,
1523695943.450599,-0.635945,-0.043196,-1.374255,0.010232,0.040581,-0.049276,-0.593382,0.043182,-0.803758,-0.001436,-0.042480,-0.032499,11.361115,30.495304,7.521851,,,,,,,
1523695943.480568,-0.636168,-0.042261,-1.374881,0.001249,-0.009671,-0.004466,-0.593585,0.042249,-0.803658,0.032382,-0.034467,-0.015052,11.431793,30.194767,7.298096,,,,,,,
1523695943.510536,-0.637831,-0.041403,-1.374413,0.045706,-0.083153,0.004158,-0.594943,0.041391,-0.802698,0.035830,-0.020716,0.103541,12.713776,30.714298,7.596619,,,,,,,
1523695943.540504,-0.637717,-0.039610,-1.373215,0.059288,0.091059,0.007189,-0.594894,0.039599,-0.802825,-0.003922,-0.051593,0.036895,11.440323,30.870029,7.595398,,,,,,,
1523695943.570472,-0.632498,-0.040486,-1.372617,-0.063264,0.193046,0.052820,-0.590675,0.040475,-0.805891,-0.024361,-0.049004,-0.088030,11.728928,29.818577,7.449707,,,,,,,
1523695943.600441,-0.629851,-0.042432,-1.373338,-0.050957,0.012792,-0.006661,-0.588493,0.042419,-0.807386,0.042091,-0.049911,-0.037234,12.703125,30.188450,6.698730,,,,,,,
1523695943.630409,-0.632145,-0.040311,-1.373345,0.112137,-0.095684,-0.051185,-0.590395,0.040300,-0.806105,0.025927,-0.025651,0.066359,11.886703,30.642796,7.371460,,,,,,,
1523695943.660378,-0.631417,-0.037946,-1.372775,0.002866,0.136843,0.014558,-0.589863,0.037937,-0.806609,-0.008465,-0.011218,-0.030687,11.650330,29.818333,6.849670,,,,,,,
1523695943.690346,-0.626507,-0.040650,-1.374029,-0.140362,0.104194,0.020893,-0.585833,0.040639,-0.809410,-0.020216,-0.029516,-0.124794,12.254791,30.265614,6.848206,,,,,,,
1523695943.720315,-0.626809,-0.042989,-1.375657,-0.045100,-0.112589,-0.009727,-0.586020,0.042976,-0.809153,0.003425,-0.045585,-0.075872,11.662613,30.643955,7.521362,,,,,,,
1523695943.750312,-0.631165,-0.042050,-1.375275,0.047711,-0.100223,0.013763,-0.589563,0.042037,-0.806625,0.010995,-0.020614,-0.007645,12.029968,30.191776,6.998352,,,,,,,
1523695943.780275,-0.631840,-0.042486,-1.374122,-0.011867,-0.034341,0.032843,-0.590096,0.042473,-0.806212,-0.014365,-0.010811,-0.031465,12.780243,30.038700,7.299377,,,,,,,
1523695943.810243,-0.634829,-0.041369,-1.373238,0.086177,-0.143616,-0.026643,-0.592531,0.041357,-0.804482,0.032351,-0.031210,0.060784,11.959900,30.642170,7.071533,,,,,,,
1523695943.840211,-0.638012,-0.037926,-1.372291,0.096075,-0.077764,-0.025639,-0.595170,0.037917,-0.802702,0.053132,-0.028365,0.098234,11.651367,30.192875,6.398193,,,,,,,
1523695943.870179,-0.636112,-0.038017,-1.372301,-0.083447,0.161559,0.004884,-0.593641,0.038008,-0.803829,-0.030306,-0.018492,0.023876,12.850708,30.037632,6.549438,,,,,,,
1523695943.900148,-0.629769,-0.040954,-1.374994,-0.139672,0.218171,-0.016528,-0.588463,0.040942,-0.807484,-0.060448,-0.045916,-0.173397,11.360672,30.495228,7.446838,,,,,,,
1523695943.930116,-0.626557,-0.041686,-1.377364,-0.015545,-0.006075,-0.056693,-0.585849,0.041674,-0.809345,-0.050977,-0.028643,-0.167553,11.434479,30.644459,6.996216,,,,,,,
1523695943.960084,-0.630719,-0.041402,-1.377907,0.007812,-0.194688,0.010643,-0.589219,0.041391,-0.806910,-0.013884,0.004630,-0.045782,12.252090,30.265171,6.398193,,,,,,,
1523695943.990053,-0.636803,-0.040881,-1.375489,0.119503,-0.219796,0.067219,-0.594130,0.040870,-0.803328,0.053099,0.007683,0.096693,11.583267,30.568714,6.921692,,,,,,,
1523695944.020021,-0.641843,-0.037908,-1.370782,0.173492,-0.097654,0.056481,-0.598241,0.037899,-0.800416,0.057073,-0.012065,0.151323,11.659149,30.793140,6.695801,,,,,,,
1523695944.049989,-0.639883,-0.036205,-1.368056,0.030837,0.183514,0.015602,-0.596709,0.036198,-0.801638,-0.008958,-0.049061,0.045107,11.349121,29.969242,6.398926,,,,,,,
1523695944.079957,-0.632434,-0.037044,-1.368674,-0.064745,0.258344,-0.015437,-0.590703,0.037035,-0.806036,-0.017024,-0.095965,-0.095804,11.651672,30.043171,6.698792,,,,,,,
,,,,,,,,,,,,,,,,25.319624,51.436695,13.441433,18.360001,80.156250,1523695943.995439,
1523695944.109926,-0.630792,-0.037284,-1.370382,-0.003144,-0.101684,-0.062991,-0.589373,0.037275,-0.806998,0.025073,-0.076567,-0.008463,12.555969,30.563953,6.547180,,,,,,,
1523695944.139894,-0.634670,-0.036199,-1.370736,0.008409,-0.060806,0.011573,-0.592522,0.036191,-0.804738,0.019433,-0.029340,0.099538,12.925720,30.037296,6.549438,,,,,,,
1523695944.169862,-0.631022,-0.038788,-1.370673,-0.139061,0.223869,0.078307,-0.589525,0.038778,-0.806816,-0.028242,-0.050939,-0.028695,11.806778,30.193073,7.298279,,,,,,,
1523695944.199830,-0.625209,-0.041003,-1.370752,0.002882,0.125191,0.006063,-0.584773,0.040991,-0.810158,-0.021001,-0.056540,-0.119133,12.107635,30.416492,7.072510,,,,,,,
1523695944.229799,-0.624839,-0.039581,-1.370537,0.015192,0.007309,-0.004483,-0.584508,0.039571,-0.810420,0.024556,-0.021825,-0.096074,12.023514,29.816364,6.549927,,,,,,,
1523695944.259767,-0.625437,-0.041130,-1.370569,-0.077242,-0.070380,0.045604,-0.584955,0.041119,-0.810020,0.013895,0.025272,-0.070794,11.952560,30.041965,6.848938,,,,,,,
1523695944.289735,-0.628988,-0.041909,-1.370423,0.036847,-0.145893,0.012746,-0.587809,0.041897,-0.807911,0.047449,0.018116,0.055058,12.784424,30.638386,6.996948,,,,,,,
1523695944.319703,-0.633106,-0.038625,-1.369154,0.144907,-0.161695,-0.044699,-0.591209,0.038615,-0.805591,0.066352,-0.006724,0.126788,12.104477,30.415989,6.547546,,,,,,,
1523695944.349672,-0.633905,-0.036425,-1.368395,-0.000462,0.073285,-0.014141,-0.591901,0.036417,-0.805185,-0.006320,-0.033121,0.062219,11.800476,29.967442,6.624146,,,,,,,
1523695944.379640,-0.629774,-0.037935,-1.369992,-0.087668,0.141553,-0.020667,-0.588537,0.037925,-0.807578,-0.014414,-0.079277,-0.023569,12.779922,30.413029,6.622864,,,,,,,
1523695944.409608,-0.628471,-0.037961,-1.371619,0.030170,-0.045540,-0.052353,-0.587484,0.037952,-0.808343,0.023290,-0.071872,-0.008231,11.657806,30.792927,6.470825,,,,,,,
1523695944.439576,-0.630936,-0.036177,-1.370942,0.041518,-0.053480,0.015853,-0.589513,0.036169,-0.806946,0.005376,-0.029394,0.066360,12.173065,29.815617,6.474976,,,,,,,
1523695944.469545,-0.628761,-0.037452,-1.370728,-0.085749,0.160272,0.036854,-0.587730,0.037443,-0.808188,-0.020028,-0.039885,-0.020639,12.776474,30.112965,6.549072,,,,,,,
1523695944.499513,-0.623267,-0.038959,-1.371399,-0.034298,0.167830,0.002781,-0.583247,0.038949,-0.811358,-0.013067,-0.059274,-0.124265,12.103134,30.191151,6.698425,,,,,,,
1523695944.529481,-0.621619,-0.038246,-1.371343,0.032021,-0.052241,-0.005469,-0.581925,0.038236,-0.812341,0.018357,-0.016096,-0.133613,12.247604,29.815205,6.399963,,,,,,,
1523695944.559450,-0.625487,-0.038247,-1.370119,-0.004972,-0.124902,0.064903,-0.585063,0.038238,-0.810083,0.029154,0.018036,-0.015646,12.994568,29.736469,6.025696,,,,,,,
1523695944.589418,-0.627471,-0.040050,-1.368916,-0.018490,-0.071597,0.043536,-0.586627,0.040039,-0.808864,-0.005094,0.009842,-0.004368,11.879959,30.417072,6.622375,,,,,,,
1523695944.619386,-0.628371,-0.039831,-1.368097,0.014010,-0.007647,0.006192,-0.587360,0.039820,-0.808343,-0.012829,-0.022761,-0.018226,12.021423,29.741138,6.325134,,,,,,,
1523695944.649354,-0.627860,-0.040237,-1.368956,-0.047677,-0.006140,-0.036469,-0.586938,0.040226,-0.808629,-0.003242,-0.091313,-0.071833,13.069275,29.661198,6.101013,,,,,,,
1523695944.679323,-0.629368,-0.039892,-1.369817,0.025697,-0.057421,-0.023575,-0.588164,0.039881,-0.807755,-0.025651,-0.097468,-0.037033,12.257492,30.490681,6.922302,,,,,,,
1523695944.709291,-0.631637,-0.038620,-1.370061,0.014939,-0.086003,-0.034215,-0.590025,0.038610,-0.806458,-0.014284,-0.033010,-0.028884,12.019318,29.665928,6.100464,,,,,,,
1523695944.739259,-0.633263,-0.038627,-1.370369,-0.037347,-0.026688,0.011505,-0.591335,0.038617,-0.805498,-0.000782,-0.019742,-0.015974,11.798965,30.042057,6.248840,,,,,,,
1523695944.769227,-0.634033,-0.038289,-1.370597,0.032048,-0.054324,-0.011858,-0.591963,0.038280,-0.805053,0.049910,-0.006572,0.039565,11.656311,30.642933,6.471375,,,,,,,
1523695944.799205,-0.635013,-0.035627,-1.369578,0.108141,-0.007666,-0.025696,-0.592810,0.035619,-0.804551,0.016181,0.002436,0.046571,11.725296,30.267246,6.097961,,,,,,,
1523695944.829173,-0.632470,-0.034561,-1.369070,-0.037529,0.172006,0.013436,-0.590785,0.034554,-0.806086,-0.040807,-0.044122,-0.045598,12.994873,29.811390,5.950378,,,,,,,
1523695944.859141,-0.625907,-0.037429,-1.370225,-0.114410,0.182724,0.026162,-0.585421,0.037420,-0.809863,-0.051649,-0.055609,-0.173932,12.028458,30.266407,6.623047,,,,,,,
1523695944.889109,-0.625256,-0.038386,-1.370575,0.032834,-0.094865,0.009503,-0.584873,0.038376,-0.810214,-0.002118,-0.063660,-0.112561,12.246094,29.889835,6.024719,,,,,,,
1523695944.919078,-0.629388,-0.037983,-1.368455,0.028991,-0.134769,0.095841,-0.588225,0.037974,-0.807803,0.017561,-0.018946,-0.032010,12.845016,29.737217,6.100586,,,,,,,
1523695944.949046,-0.632239,-0.039517,-1.365986,0.027036,-0.123958,0.070255,-0.590490,0.039507,-0.806075,0.048177,-0.022463,0.015486,12.031296,30.641239,6.471619,,,,,,,
1523695944.979014,-0.637580,-0.035075,-1.362701,0.263192,-0.208770,-0.041365,-0.594885,0.035068,-0.803043,0.089178,-0.019352,0.156375,12.251785,30.414875,6.097595,,,,,,,
1523695945.008982,-0.639506,-0.028884,-1.359860,0.127878,0.096489,-0.035377,-0.596549,0.028880,-0.802055,0.056540,-0.028758,0.142219,12.999496,30.411137,5.723022,,,,,,,
1523695945.038951,-0.629796,-0.029770,-1.360754,-0.129120,0.433769,-0.007133,-0.588718,0.029766,-0.807788,-0.066388,-0.085628,-0.126035,11.955841,30.641514,6.396545,,,,,,,
,,,,,,,,,,,,,,,,25.319652,51.436868,13.522762,18.540001,80.507812,1523695944.995428,
1523695945.068949,-0.618308,-0.033031,-1.364762,-0.175482,0.272770,-0.062424,-0.579340,0.033025,-0.814414,-0.049505,-0.124440,-0.255105,11.732193,30.642735,6.621399,,,,,,,
1523695945.098918,-0.619886,-0.034380,-1.366586,0.016932,-0.297812,0.015015,-0.580598,0.034373,-0.813462,0.020967,-0.050959,-0.082687,12.778580,30.188175,6.773743,,,,,,,
1523695945.128886,-0.632641,-0.032498,-1.363339,0.177264,-0.433528,0.067480,-0.590963,0.032492,-0.806041,0.049383,0.012628,0.099162,12.479462,30.638920,6.171814,,,,,,,
1523695945.158854,-0.639660,-0.029420,-1.358114,0.168145,-0.075478,0.077767,-0.596663,0.029416,-0.801950,0.072844,0.016727,0.178003,12.172150,30.040089,5.949036,,,,,,,
1523695945.188823,-0.635032,-0.026726,-1.354574,0.099708,0.307611,0.021932,-0.592991,0.026723,-0.804763,0.022770,-0.030751,-0.012711,12.699814,30.487415,5.647522,,,,,,,
1523695945.218791,-0.623298,-0.028778,-1.355925,-0.200910,0.374482,-0.011397,-0.583473,0.028774,-0.811620,-0.036736,-0.041836,-0.228617,11.653015,30.492649,6.171997,,,,,,,
1523695945.248759,-0.621992,-0.031643,-1.359774,-0.033477,-0.215238,-0.074610,-0.582363,0.031638,-0.812311,0.045192,-0.048835,-0.073447,11.804962,30.417408,6.622314,,,,,,,
1523695945.278727,-0.633056,-0.027739,-1.358744,0.195000,-0.378847,-0.009275,-0.591383,0.027736,-0.805911,0.056562,-0.028071,0.150226,12.173935,30.265003,5.873108,,,,,,,
1523695945.308696,-0.639720,-0.024781,-1.355190,0.081783,-0.064563,0.065978,-0.596786,0.024778,-0.802015,-0.002258,-0.036039,0.193235,11.955841,30.641514,6.396545,,,,,,,
1523695945.338664,-0.632313,-0.026316,-1.353195,-0.051657,0.440361,0.087741,-0.590806,0.026313,-0.806382,-0.049178,-0.114235,0.016816,12.257614,31.089695,5.944885,,,,,,,
1523695945.368632,-0.621642,-0.029172,-1.353763,-0.075829,0.210301,0.020830,-0.582121,0.029168,-0.812576,0.018233,-0.139214,-0.165985,12.176025,30.564838,5.721985,,,,,,,
1523695945.398600,-0.622156,-0.029944,-1.353432,-0.004927,-0.158659,0.028715,-0.582527,0.029939,-0.812258,0.050529,-0.016939,-0.006483,12.030823,30.865788,6.020691,,,,,,,
1523695945.428569,-0.627189,-0.030594,-1.352846,0.015455,-0.144838,0.021254,-0.586595,0.030589,-0.809300,0.064149,0.038808,0.088078,13.082123,31.085911,5.870300,,,,,,,
1523695945.458537,-0.631416,-0.027645,-1.351594,0.154574,-0.153224,-0.045755,-0.590062,0.027641,-0.806882,0.063420,0.039940,0.169813,13.082428,31.160831,5.795044,,,,,,,
1523695945.488505,-0.631470,-0.023686,-1.350294,0.063953,0.143309,-0.021622,-0.590165,0.023684,-0.806933,-0.011184,-0.019076,0.071764,12.329605,31.013996,5.570251,,,,,,,
1523695945.518473,-0.620434,-0.027513,-1.352623,-0.305253,0.498701,0.040612,-0.581167,0.027509,-0.813317,-0.072992,-0.099241,-0.205451,12.561050,31.163792,6.394775,,,,,,,
1523695945.548442,-0.610442,-0.035416,-1.358112,-0.212864,0.078126,-0.022829,-0.572869,0.035409,-0.818879,-0.022819,-0.080041,-0.285537,12.477356,30.563709,5.947083,,,,,,,
1523695945.578410,-0.618448,-0.033852,-1.358855,0.157703,-0.415635,-0.054015,-0.579438,0.033845,-0.814311,0.019502,-0.016008,0.011393,11.955841,30.866123,6.020630,,,,,,,
1523695945.608378,-0.628312,-0.029883,-1.355682,0.106908,-0.163526,0.076753,-0.587517,0.029879,-0.808658,0.018425,0.020826,0.137653,12.561798,31.238789,6.394470,,,,,,,
1523695945.638346,-0.623978,-0.031946,-1.354283,-0.092833,0.284344,0.072966,-0.583969,0.031941,-0.811145,-0.043091,-0.057255,-0.084821,11.961670,31.316334,6.243835,,,,,,,
1523695945.668315,-0.614860,-0.035802,-1.355954,-0.135089,0.293518,-0.006995,-0.576473,0.035795,-0.816329,-0.106159,-0.068555,-0.288895,11.881592,30.716846,6.396179,,,,,,,
1523695945.698283,-0.614124,-0.037536,-1.358372,-0.030432,-0.200691,-0.029864,-0.575836,0.037527,-0.816701,0.001724,-0.059012,-0.233531,12.261673,31.090351,6.619873,,,,,,,
1523695945.728251,-0.624497,-0.035456,-1.357983,0.106591,-0.365660,-0.039194,-0.584321,0.035449,-0.810746,-0.020324,0.006940,0.046204,11.516937,31.618702,6.617371,,,,,,,
1523695945.758219,-0.632022,-0.032635,-1.356998,0.093466,-0.168208,-0.009554,-0.590462,0.032629,-0.806403,0.010719,0.023737,0.089378,11.433411,30.943775,6.320068,,,,,,,
1523695945.788193,-0.633256,-0.031381,-1.355110,0.029126,0.068582,0.040226,-0.591480,0.031376,-0.805707,-0.019864,-0.059101,0.061215,12.187866,31.390385,6.318665,,,,,,,
1523695945.818161,-0.628777,-0.032798,-1.355164,-0.081235,0.179584,0.008073,-0.587839,0.032792,-0.808311,-0.010352,-0.062653,-0.022225,11.217560,31.769901,6.466675,,,,,,,
1523695945.848130,-0.624764,-0.033650,-1.355994,0.012441,0.080739,-0.022654,-0.584573,0.033644,-0.810641,0.005777,-0.043089,-0.061018,11.587891,31.393085,6.318359,,,,,,,
1523695945.878098,-0.625158,-0.031791,-1.355638,0.057693,-0.055436,-0.015028,-0.584929,0.031785,-0.810459,0.031309,0.015227,0.033436,12.633057,31.088093,6.020081,,,,,,,
1523695945.908067,-0.627593,-0.028251,-1.354826,0.129350,-0.067075,-0.047992,-0.586963,0.028247,-0.809119,0.086429,0.012433,0.134802,11.294357,31.769855,6.766724,,,,,,,
1523695945.938035,-0.625276,-0.025069,-1.353583,0.054533,0.209062,-0.000383,-0.585136,0.025067,-0.810545,0.013023,0.007724,0.037886,11.435806,31.093922,6.469482,,,,,,,
1523695945.968003,-0.615648,-0.028375,-1.355593,-0.241750,0.331961,0.004603,-0.577255,0.028371,-0.816069,-0.014405,0.004420,-0.180940,12.557312,31.013432,6.020325,,,,,,,
1523695945.997972,-0.611425,-0.031781,-1.359721,-0.077480,-0.031292,-0.075891,-0.573744,0.031776,-0.818416,-0.010209,0.011864,-0.174107,10.546188,31.773518,7.066284,,,,,,,
1523695946.027940,-0.617904,-0.029640,-1.361281,0.099797,-0.241199,-0.058491,-0.579073,0.029636,-0.814735,0.062822,0.048642,0.000221,10.612488,31.172779,6.618713,,,,,,,
1523695946.057908,-0.623657,-0.026582,-1.359121,0.108121,-0.162267,0.049045,-0.583801,0.026579,-0.811460,0.038314,0.022310,0.069990,10.538376,31.397892,6.392822,,,,,,,
,,,,,,,,,,,,,,,,25.319687,51.437046,13.684628,18.570000,80.507812,1523695945.995416,
1523695946.087876,-0.624552,-0.027211,-1.357225,-0.039372,0.043159,0.051928,-0.584516,0.027208,-0.810923,-0.023455,-0.033861,0.019160,10.920273,31.771687,6.916504,,,,,,,
1523695946.117845,-0.624289,-0.027778,-1.356014,0.071462,-0.014424,0.041413,-0.584294,0.027775,-0.811064,0.046910,-0.097202,0.012694,11.140747,31.545322,6.542542,,,,,,,
1523695946.147813,-0.626258,-0.025886,-1.354685,0.038705,-0.048745,-0.053407,-0.585919,0.025883,-0.809954,0.002118,-0.049900,0.055620,12.030823,30.865788,6.020691,,,,,,,
1523695946.177781,-0.622027,-0.025379,-1.356337,-0.059380,0.237242,-0.038854,-0.582495,0.025377,-0.812436,-0.018396,-0.069368,-0.099124,10.920425,31.696842,7.066772,,,,,,,
1523695946.207749,-0.617801,-0.025789,-1.358549,-0.089000,0.044024,-0.053598,-0.579051,0.025786,-0.814881,-0.037801,-0.016768,-0.094451,10.687485,31.172443,6.618774,,,,,,,
1523695946.237718,-0.618132,-0.027441,-1.361495,-0.111879,-0.019910,-0.020517,-0.579295,0.027438,-0.814654,-0.007787,0.017255,-0.092084,11.507660,30.868443,6.320374,,,,,,,
1523695946.267686,-0.619467,-0.028814,-1.362572,-0.021506,-0.074508,0.005178,-0.580359,0.028810,-0.813848,0.010184,0.019423,-0.034708,10.543335,31.398685,7.217834,,,,,,,
1523695946.297653,-0.621706,-0.028014,-1.361828,0.059679,-0.065108,0.002019,-0.582193,0.028010,-0.812566,0.023752,0.048162,0.013020,10.391541,31.399067,6.917725,,,,,,,
1523695946.327652,-0.623095,-0.026156,-1.361208,0.053471,-0.052219,-0.019287,-0.583350,0.026153,-0.811797,0.058723,0.033539,0.024062,10.542435,31.398548,7.067810,,,,,,,
1523695946.357620,-0.622316,-0.026936,-1.361619,-0.092380,0.081801,0.014561,-0.582706,0.026933,-0.812234,0.005192,0.001189,-0.004035,10.390961,31.024601,7.444214,,,,,,,
1523695946.387589,-0.621160,-0.030185,-1.364136,-0.096797,-0.007103,-0.034368,-0.581713,0.030181,-0.812832,0.013033,-0.005126,-0.002125,10.319839,31.549686,7.217102,,,,,,,
1523695946.417557,-0.622506,-0.029115,-1.364592,0.083369,-0.068100,-0.036308,-0.582825,0.029111,-0.812074,0.005874,-0.017407,0.061860,11.217270,31.245731,7.293762,,,,,,,
1523695946.447526,-0.622391,-0.028171,-1.364389,-0.032617,0.061567,0.000768,-0.582747,0.028167,-0.812163,0.016402,-0.025390,0.050047,10.542450,31.173923,7.443665,,,,,,,
1523695946.477494,-0.620317,-0.028842,-1.365118,-0.017629,0.025654,-0.036472,-0.581050,0.028838,-0.813355,-0.005147,-0.025741,0.034317,10.315048,31.249409,6.918335,,,,,,,
1523695946.507463,-0.617527,-0.029238,-1.366858,-0.088503,0.186219,-0.026037,-0.578772,0.029234,-0.814963,0.000449,-0.008955,-0.050119,11.510513,30.794041,6.920715,,,,,,,
1523695946.537431,-0.613487,-0.030836,-1.368930,-0.063490,0.036381,-0.035446,-0.575447,0.030831,-0.817255,0.046242,0.025855,-0.068136,9.869278,31.177250,7.743347,,,,,,,
1523695946.567399,-0.616483,-0.029738,-1.370282,0.041569,-0.142148,-0.069295,-0.577913,0.029733,-0.815555,0.052980,0.066794,0.059878,10.091415,31.026020,7.519043,,,,,,,
1523695946.597367,-0.618232,-0.027336,-1.370359,0.060056,-0.015042,-0.020381,-0.579377,0.027333,-0.814599,0.028230,0.056056,0.027184,10.088272,30.800877,7.369934,,,,,,,
1523695946.627336,-0.616561,-0.027567,-1.371071,-0.086664,0.105545,-0.038741,-0.578012,0.027563,-0.815561,-0.031561,0.006403,-0.039923,10.459229,30.349293,7.446960,,,,,,,
1523695946.657304,-0.613276,-0.030077,-1.375700,-0.138732,0.060549,-0.121832,-0.575288,0.030073,-0.817396,-0.010466,-0.032209,-0.083529,11.137939,30.721241,7.445801,,,,,,,
1523695946.687272,-0.614115,-0.031187,-1.379743,-0.070026,-0.020799,-0.060970,-0.575954,0.031182,-0.816885,-0.001057,-0.010903,-0.032266,9.786499,30.577320,7.445679,,,,,,,
1523695946.717240,-0.614896,-0.033726,-1.381003,-0.104803,-0.027838,0.047685,-0.576545,0.033719,-0.816368,-0.021874,0.025134,-0.035454,10.391876,30.800114,7.970154,,,,,,,
1523695946.747209,-0.615761,-0.035232,-1.379574,0.045476,-0.085630,0.051062,-0.577220,0.035224,-0.815826,-0.018284,0.011544,-0.022842,10.766983,31.172840,7.368774,,,,,,,
1523695946.777153,-0.619004,-0.032470,-1.376353,0.137464,-0.064497,0.036188,-0.579917,0.032465,-0.814026,0.031684,-0.049921,0.050171,10.841690,30.872944,7.820068,,,,,,,
1523695946.807121,-0.617470,-0.033712,-1.375415,-0.126396,0.111650,0.012378,-0.578644,0.033706,-0.814882,-0.066772,0.000276,-0.033980,9.568100,30.878895,8.044434,,,,,,,
1523695946.837089,-0.614495,-0.036284,-1.379349,-0.087699,0.048529,-0.091952,-0.576166,0.036276,-0.816525,0.024149,-0.016150,-0.109363,9.640701,30.728428,7.895020,,,,,,,
1523695946.867058,-0.615571,-0.033762,-1.382494,0.014557,-0.084051,-0.162074,-0.577095,0.033756,-0.815977,-0.052239,0.042325,-0.061617,10.083649,30.201130,7.597351,,,,,,,
1523695946.897026,-0.617261,-0.032527,-1.385551,-0.052754,0.035398,-0.049296,-0.578497,0.032522,-0.815034,-0.008280,0.057703,-0.045592,10.231995,29.900700,7.823608,,,,,,,
1523695946.926994,-0.616822,-0.033892,-1.387163,-0.061786,-0.045488,-0.026851,-0.578113,0.033886,-0.815251,-0.014111,0.033329,-0.050548,10.090393,30.651478,7.970581,,,,,,,
1523695946.956962,-0.619020,-0.033402,-1.386987,0.069055,-0.117266,0.007429,-0.579913,0.033396,-0.813992,0.014270,0.019781,0.020657,9.260635,30.130283,8.047241,,,,,,,
1523695946.986931,-0.624137,-0.031255,-1.385137,0.088086,-0.173516,-0.007426,-0.584111,0.031250,-0.811071,0.032750,0.033112,0.107930,9.486679,30.279194,7.971741,,,,,,,
1523695947.016899,-0.624526,-0.031172,-1.385230,-0.038771,0.099915,-0.012052,-0.584428,0.031167,-0.810845,0.029801,-0.002710,0.056588,10.461929,30.349735,7.896973,,,,,,,
1523695947.046866,-0.621357,-0.031697,-1.386727,-0.014127,0.080969,-0.046115,-0.581845,0.031691,-0.812680,0.026807,-0.030608,0.000332,10.082458,29.901447,7.898560,,,,,,,
,,,,,,,,,,,,,,,,25.319732,51.437231,13.963650,19.330000,81.210938,1523695946.995405,
1523695947.076836,-0.619111,-0.032569,-1.387704,-0.078562,0.044704,-0.004567,-0.580003,0.032563,-0.813961,-0.008117,-0.020112,-0.010395,9.785004,30.202702,7.822205,,,,,,,
1523695947.106803,-0.618981,-0.034546,-1.389021,-0.052041,0.019086,0.003995,-0.579858,0.034539,-0.813983,0.036676,-0.017190,0.030612,10.688416,30.498707,7.896484,,,,,,,
1523695947.136771,-0.616869,-0.034714,-1.388735,0.027385,0.100739,-0.002409,-0.578135,0.034707,-0.815201,-0.016653,-0.017907,-0.029831,10.082443,30.126057,7.522644,,,,,,,
1523695947.166739,-0.614553,-0.034082,-1.387976,-0.001913,0.042130,0.033843,-0.576257,0.034076,-0.816556,0.018976,-0.002719,-0.097202,9.777679,29.602512,7.599609,,,,,,,
1523695947.196708,-0.615353,-0.035385,-1.388005,-0.036616,-0.116951,0.000952,-0.576885,0.035378,-0.816057,0.060924,0.017661,-0.024351,10.315384,30.650455,7.970703,,,,,,,
1523695947.226676,-0.621067,-0.033991,-1.387426,0.100800,-0.194823,-0.005257,-0.581566,0.033985,-0.812787,0.110589,0.033612,0.134274,9.563004,30.503696,7.820862,,,,,,,
1523695947.256644,-0.621452,-0.032793,-1.386527,-0.035512,0.149614,0.020935,-0.581903,0.032788,-0.812596,0.017480,0.005680,0.091374,10.083374,29.676960,8.424500,,,,,,,
1523695947.286613,-0.610528,-0.037788,-1.388831,-0.245506,0.460456,0.017259,-0.572890,0.037779,-0.818760,-0.053407,-0.052214,-0.263134,11.134216,29.897007,8.199097,,,,,,,
1523695947.316581,-0.604908,-0.039826,-1.391598,0.056455,-0.161298,-0.072455,-0.568235,0.039816,-0.821901,0.107328,-0.014547,-0.102354,9.409119,30.204243,7.672058,,,,,,,
1523695947.346550,-0.617404,-0.033750,-1.389800,0.212998,-0.449864,-0.041155,-0.578589,0.033744,-0.814919,0.083198,0.038873,0.197930,9.858078,29.827671,8.123718,,,,,,,
1523695947.376518,-0.620312,-0.034470,-1.389962,-0.179331,0.242273,0.040983,-0.580943,0.034464,-0.813212,0.001643,0.047857,-0.003255,9.345215,30.730503,8.644897,,,,,,,
1523695947.406486,-0.611348,-0.038908,-1.392811,-0.104147,0.226842,-0.058040,-0.573536,0.038898,-0.818254,-0.065426,0.012173,-0.166243,9.788162,30.427830,7.971313,,,,,,,
1523695947.436455,-0.607210,-0.037812,-1.396451,-0.034020,0.066767,-0.134558,-0.570170,0.037803,-0.820655,0.038005,0.010415,-0.197991,9.781586,29.678013,8.124268,,,,,,,
1523695947.466423,-0.611253,-0.035795,-1.398907,0.042356,-0.232337,-0.090503,-0.573526,0.035788,-0.818404,0.049387,0.052805,-0.048158,10.227814,29.525639,7.750122,,,,,,,
1523695947.496391,-0.617453,-0.033686,-1.399716,0.052164,-0.140205,-0.049033,-0.578631,0.033680,-0.814892,0.039431,0.072613,0.051449,9.184280,30.130405,7.822205,,,,,,,
1523695947.526359,-0.619043,-0.031336,-1.397425,0.146182,-0.017834,0.044680,-0.579970,0.031331,-0.814033,0.047194,0.026530,0.033806,9.330536,29.754749,7.823792,,,,,,,
1523695947.556328,-0.618470,-0.030214,-1.395147,-0.000752,0.047503,0.023193,-0.579524,0.030209,-0.814393,0.016002,0.010120,0.039201,10.301910,29.525150,7.600220,,,,,,,
1523695947.586326,-0.613986,-0.031381,-1.395528,-0.012701,0.216647,0.001696,-0.575845,0.031375,-0.816955,0.040018,-0.028019,-0.091508,9.407028,29.904408,7.823181,,,,,,,
1523695947.616295,-0.610566,-0.029891,-1.394266,0.121918,-0.014223,-0.007549,-0.573074,0.029886,-0.818957,0.039581,-0.051584,-0.131864,9.633682,29.978535,7.973022,,,,,,,
1523695947.646263,-0.613792,-0.029127,-1.394261,-0.086541,-0.076350,-0.012978,-0.575726,0.029123,-0.817122,0.024869,-0.006555,0.005004,9.704941,29.603214,7.974609,,,,,,,
1523695947.676230,-0.611510,-0.032457,-1.396270,-0.113984,0.058295,0.041203,-0.573802,0.032451,-0.818349,0.022715,-0.036159,-0.090128,9.488022,30.279408,8.196716,,,,,,,
1523695947.706200,-0.611852,-0.032794,-1.395139,0.054207,-0.046334,0.049969,-0.574075,0.032788,-0.818144,0.052468,-0.010938,-0.034761,10.681229,29.823673,7.824158,,,,,,,
1523695947.736167,-0.613590,-0.032168,-1.393736,0.035065,-0.082092,0.004172,-0.575507,0.032163,-0.817162,0.093467,0.009601,0.021600,10.603699,29.524097,7.900330,,,,,,,
1523695947.766135,-0.614564,-0.029427,-1.392539,0.132574,-0.038545,-0.026704,-0.576352,0.029423,-0.816670,0.081418,0.018749,0.045888,9.782776,29.753086,8.198975,,,,,,,
1523695947.796123,-0.613777,-0.026870,-1.392013,0.009171,0.065833,-0.019432,-0.575750,0.026867,-0.817182,0.044470,0.027530,0.001539,9.845474,29.151752,7.151428,,,,,,,
1523695947.826092,-0.609200,-0.030371,-1.394463,-0.222318,0.149094,0.011198,-0.571947,0.030367,-0.819727,0.017030,-0.005098,-0.110586,10.527496,29.673985,7.449707,,,,,,,
1523695947.856060,-0.606350,-0.034622,-1.397557,-0.083948,0.004518,-0.030103,-0.569530,0.034615,-0.821240,0.020808,-0.007134,-0.118900,9.254944,29.829868,7.598450,,,,,,,
1523695947.886028,-0.609730,-0.032818,-1.398319,0.105709,-0.106293,-0.053300,-0.572337,0.032812,-0.819360,0.059336,0.017740,0.018289,10.443649,28.924152,7.227661,,,,,,,
1523695947.915996,-0.610027,-0.030440,-1.397084,0.028068,0.021026,0.000862,-0.572624,0.030436,-0.819252,0.032203,0.039602,0.021476,9.480103,29.529377,8.124756,,,,,,,
1523695947.945965,-0.606258,-0.031912,-1.397024,-0.079488,0.141020,0.050740,-0.569505,0.031906,-0.821367,0.057557,0.013916,-0.089781,9.557785,29.754108,8.198853,,,,,,,
1523695947.975933,-0.602972,-0.034784,-1.397970,-0.099970,0.044694,0.005004,-0.566749,0.034777,-0.823155,0.028999,0.014951,-0.189419,10.450409,28.925236,8.352661,,,,,,,
1523695948.005901,-0.606077,-0.035476,-1.399215,0.034630,-0.242155,-0.051077,-0.569289,0.035468,-0.821371,0.066039,0.032403,-0.083720,9.399994,29.154514,7.901184,,,,,,,
1523695948.035869,-0.612432,-0.032730,-1.399489,0.061779,-0.142318,-0.053291,-0.574550,0.032724,-0.817813,0.086635,0.043310,0.084643,9.183105,29.830708,8.123352,,,,,,,
1523695948.065838,-0.612980,-0.031464,-1.399908,0.025189,0.047865,-0.037524,-0.575022,0.031459,-0.817531,0.047754,-0.029857,0.021389,10.153854,29.900517,7.298645,,,,,,,
,,,,,,,,,,,,,,,,25.319766,51.437415,14.313992,19.690001,81.914062,1523695947.995393,
1523695948.095806,-0.610557,-0.030930,-1.400634,-0.054581,0.137199,-0.019561,-0.573049,0.030925,-0.818936,-0.007548,-0.040202,-0.072666,10.151474,29.301136,7.901001,,,,,,,
1523695948.125774,-0.604322,-0.033489,-1.403476,-0.145031,0.163173,-0.054816,-0.567885,0.033483,-0.822425,0.022215,-0.019811,-0.205331,9.781891,29.528324,8.424927,,,,,,,
1523695948.155742,-0.604763,-0.032987,-1.405297,0.066259,-0.098749,-0.055462,-0.568257,0.032981,-0.822188,0.047108,0.024194,-0.102327,9.325302,29.454395,7.449951,,,,,,,
1523695948.185711,-0.608563,-0.031275,-1.405210,-0.008875,-0.125502,-0.002212,-0.571408,0.031270,-0.820068,0.062314,0.066844,-0.031799,9.324997,29.154850,7.901184,,,,,,,
1523695948.215679,-0.609093,-0.032835,-1.404992,-0.029970,-0.008932,0.049869,-0.571815,0.032829,-0.819724,0.044837,0.021691,-0.061074,9.327255,29.155216,8.276184,,,,,,,
1523695948.245647,-0.611164,-0.031600,-1.403513,0.128971,-0.104563,-0.006394,-0.573534,0.031594,-0.818570,0.073733,0.000480,-0.003085,10.301453,29.525089,7.525208,,,,,,,
1523695948.275616,-0.613414,-0.027895,-1.401291,0.125900,-0.093817,-0.022390,-0.575438,0.027892,-0.817368,0.067457,0.001039,0.039887,9.550278,29.228764,7.825989,,,,,,,
1523695948.305584,-0.613576,-0.026584,-1.401017,0.003765,0.052025,-0.018356,-0.575591,0.026581,-0.817304,0.087813,-0.048295,0.045270,9.557785,29.754108,8.198853,,,,,,,
1523695948.335552,-0.609265,-0.027124,-1.402168,-0.060824,0.151151,-0.037690,-0.572053,0.027121,-0.819766,0.025194,-0.062628,-0.019513,10.525101,29.523853,7.300293,,,,,,,
1523695948.365520,-0.604530,-0.029234,-1.405739,-0.177053,0.167488,-0.052713,-0.568132,0.029230,-0.822417,0.011415,-0.032098,-0.118516,9.400604,29.079731,8.126465,,,,,,,
1523695948.395489,-0.600691,-0.032046,-1.409938,-0.128409,0.043146,-0.068529,-0.564922,0.032040,-0.824520,-0.011448,0.004535,-0.166614,9.549698,29.078922,7.976624,,,,,,,
1523695948.425457,-0.602338,-0.032588,-1.412264,-0.028851,-0.092294,-0.033162,-0.566269,0.032583,-0.823574,0.051697,0.045603,-0.095630,10.452347,29.524555,7.675293,,,,,,,
1523695948.455425,-0.606185,-0.031189,-1.411660,0.083773,-0.179919,-0.003154,-0.569459,0.031183,-0.821427,0.131242,0.067022,0.048462,10.003281,29.302097,8.200928,,,,,,,
1523695948.485393,-0.609983,-0.029944,-1.409648,0.033905,-0.065298,0.035049,-0.572596,0.029939,-0.819289,0.072718,0.044753,0.076095,10.077377,29.301609,8.050964,,,,,,,
