timestamp(unix),attitude_roll(radians),attitude_pitch(radians),attitude_yaw(radians),rotation_rate_x(radians/s),rotation_rate_y(radians/s),rotation_rate_z(radians/s),gravity_x(G),gravity_y(G),gravity_z(G),user_acc_x(G),user_acc_y(G),user_acc_z(G),magnetic_field_x(microteslas),magnetic_field_y(microteslas),magnetic_field_z(microteslas),latitude(degree),longitude(degree),altitude(meter),speed(m/s),course(degree),timestamp(unix),User Mark
1523521311.847537,-0.648516,-0.078845,-0.870640,-0.020955,-0.012970,-0.002055,-0.602128,0.078763,-0.794505,-0.028991,-0.100751,-0.065587,17.049728,19.114155,-28.805115,,,,,,,
,,,,,,,,,,,,,,,,25.304662,51.448513,10.617641,11.950000,78.750000,1523521200.999323,
1523521311.877505,-0.649618,-0.080527,-0.870106,-0.039295,-0.020610,0.030983,-0.602922,0.080440,-0.793734,-0.009489,-0.093944,0.031222,16.368927,18.666996,-29.028625,,,,,,,
1523521311.907473,-0.650356,-0.079137,-0.868182,0.113496,-0.026092,0.002325,-0.603575,0.079055,-0.793377,0.000517,-0.067061,0.075818,16.296768,18.817539,-28.804321,,,,,,,
,,,,,,,,,,,,,,,,25.304662,51.448513,10.617641,11.950000,78.750000,1523521208.999323,
1523521311.937442,-0.649265,-0.076905,-0.864839,0.061384,0.056700,0.034166,-0.602814,0.076829,-0.794174,-0.003830,-0.082963,0.059906,16.291687,18.442341,-29.027771,,,,,,,
1523521311.967410,-0.647187,-0.077426,-0.863688,-0.060195,0.085664,0.036191,-0.601138,0.077349,-0.795393,-0.028821,-0.120959,0.011686,16.743912,18.665302,-29.028442,,,,,,,
1523521311.997378,-0.645353,-0.079762,-0.863732,-0.091242,0.041307,0.010625,-0.599568,0.079677,-0.796348,-0.048137,-0.123333,-0.027413,17.497162,19.036839,-29.104553,,,,,,,
,,,,,,,,,,,,,,,,25.305169,51.451314,10.617641,-1.000000,-1.000000,1523521311.989549,
1523521312.027347,-0.646200,-0.080986,-0.864219,-0.045721,-0.050174,0.007560,-0.600183,0.080897,-0.795761,-0.042013,-0.097285,-0.014587,16.895248,18.664845,-28.803406,,,,,,,
,,,,,,,,,,,,,,,,25.305169,51.451314,10.617641,-1.000000,-1.000000,1523521312.005640,
1523521312.057315,-0.647232,-0.081278,-0.862937,0.007673,-0.020719,0.031011,-0.600990,0.081189,-0.795123,-0.029076,-0.067838,0.025179,16.518921,18.666325,-29.028564,,,,,,,
1523521312.087283,-0.647432,-0.080889,-0.860954,0.026933,0.009923,0.049108,-0.601168,0.080801,-0.795027,-0.017881,-0.061026,0.052901,17.341003,18.737019,-29.628479,,,,,,,
1523521312.117221,-0.646890,-0.080735,-0.857913,0.037577,0.009876,0.053370,-0.600745,0.080648,-0.795363,0.004752,-0.061223,0.026991,16.666199,18.665211,-29.478516,,,,,,,
1523521312.147189,-0.646958,-0.080210,-0.855918,0.034478,-0.012190,0.017173,-0.600824,0.080124,-0.795355,-0.010580,-0.042801,0.011496,17.044037,18.813725,-29.253967,,,,,,,
1523521312.177157,-0.647713,-0.079654,-0.855396,-0.004858,-0.009721,-0.015902,-0.601451,0.079570,-0.794937,-0.033330,-0.034099,-0.045975,16.968582,18.589375,-28.953003,,,,,,,
1523521312.207126,-0.648325,-0.079135,-0.855084,-0.010356,-0.042689,-0.011602,-0.601962,0.079053,-0.794602,-0.037946,-0.049603,-0.024795,16.743011,18.665165,-29.178467,,,,,,,
1523521312.237094,-0.650506,-0.079922,-0.855127,-0.039343,-0.047052,0.015018,-0.603656,0.079837,-0.793237,-0.028927,-0.043246,0.078409,16.664566,18.365437,-29.252319,,,,,,,
1523521312.267062,-0.649700,-0.079562,-0.853364,0.065648,0.035557,0.017142,-0.603034,0.079479,-0.793746,-0.051110,-0.059047,0.023925,17.270676,18.887852,-29.104126,,,,,,,
1523521312.297030,-0.649470,-0.077884,-0.850756,0.078167,-0.021912,0.024672,-0.602931,0.077805,-0.793990,-0.035726,-0.064988,0.002960,16.441818,18.591434,-29.253357,,,,,,,
1523521312.326999,-0.650423,-0.077119,-0.848482,0.013096,-0.013228,0.021419,-0.603723,0.077043,-0.793463,-0.033377,-0.049241,-0.039805,16.666962,18.515568,-29.102905,,,,,,,
1523521312.356969,-0.650613,-0.077268,-0.847387,-0.007236,-0.017465,0.026736,-0.603867,0.077191,-0.793338,-0.033202,-0.047268,-0.022976,17.418884,18.662266,-29.028137,,,,,,,
1523521312.386937,-0.651813,-0.078085,-0.846078,-0.010446,-0.013246,0.032059,-0.604780,0.078005,-0.792563,-0.014116,-0.057635,0.059943,16.437637,18.216389,-29.326782,,,,,,,
1523521312.416875,-0.651252,-0.076955,-0.843993,0.097568,0.008902,0.017201,-0.604388,0.076879,-0.792972,-0.034833,-0.091619,0.022586,16.891953,18.514561,-29.102783,,,,,,,
1523521312.446843,-0.651501,-0.075176,-0.841014,0.053634,-0.021835,0.021462,-0.604668,0.075105,-0.792929,-0.022774,-0.075013,-0.003778,16.971436,18.739582,-28.728638,,,,,,,
1523521312.476811,-0.652203,-0.075166,-0.839906,-0.017836,-0.009939,0.018195,-0.605225,0.075095,-0.792504,-0.012161,-0.057227,0.002984,16.663513,18.440144,-29.552612,,,,,,,
1523521312.506780,-0.652688,-0.075665,-0.839442,-0.018856,-0.005663,0.013933,-0.605586,0.075593,-0.792181,-0.020955,-0.060243,0.021734,17.113800,18.288410,-29.251831,,,,,,,
1523521312.536748,-0.652259,-0.075488,-0.838119,0.030357,0.020760,0.017138,-0.605254,0.075417,-0.792452,-0.032761,-0.083351,0.010957,17.413635,18.361912,-29.401917,,,,,,,
1523521312.566716,-0.651918,-0.074712,-0.836182,0.032305,0.002523,0.039543,-0.605019,0.074642,-0.792704,-0.031410,-0.093853,0.007945,16.888062,18.214436,-29.251648,,,,,,,
1523521312.596684,-0.651914,-0.074365,-0.833586,0.049335,-0.017643,0.031047,-0.605032,0.074297,-0.792727,-0.016337,-0.062898,0.029223,16.588654,18.365635,-29.402344,,,,,,,
1523521312.626653,-0.652082,-0.073560,-0.832116,0.014328,0.019734,0.018189,-0.605202,0.073494,-0.792672,-0.012657,-0.070183,0.025354,17.189102,18.362995,-29.327026,,,,,,,
1523521312.656621,-0.651830,-0.073689,-0.830678,-0.023192,-0.011002,0.020322,-0.604996,0.073622,-0.792818,-0.038208,-0.056120,-0.022185,16.888657,18.364277,-29.402161,,,,,,,
1523521312.686589,-0.651644,-0.074837,-0.830227,-0.014552,0.029243,0.036271,-0.604797,0.074767,-0.792862,-0.036316,-0.084319,-0.020263,16.739120,18.140400,-28.951355,,,,,,,
1523521312.716527,-0.651896,-0.074413,-0.827643,0.049230,-0.024112,0.044902,-0.605016,0.074344,-0.792735,-0.030192,-0.068897,0.020656,17.412598,18.211994,-29.326294,,,,,,,
1523521312.746495,-0.652109,-0.074019,-0.825616,0.023760,-0.013293,0.025696,-0.605203,0.073951,-0.792629,-0.042991,-0.059867,-0.019230,16.736725,17.990269,-29.100769,,,,,,,
1523521312.776464,-0.653040,-0.073908,-0.823993,0.008751,-0.030246,0.023574,-0.605945,0.073841,-0.792072,-0.014829,-0.082523,-0.017361,16.884766,18.064152,-29.551025,,,,,,,
1523521312.806432,-0.654116,-0.073841,-0.822726,0.003390,-0.032372,0.025703,-0.606800,0.073774,-0.791423,-0.026134,-0.061567,0.020031,17.339081,18.362324,-29.326965,,,,,,,
1523521312.836400,-0.653641,-0.074649,-0.821762,-0.015605,0.033475,0.038402,-0.606387,0.074580,-0.791664,-0.043454,-0.057871,-0.052681,16.890442,18.589191,-29.478088,,,,,,,
1523521312.866368,-0.654006,-0.074722,-0.819697,0.034237,-0.051612,0.031071,-0.606673,0.074653,-0.791438,-0.047608,-0.064414,-0.030660,16.883865,18.063999,-29.700989,,,,,,,
1523521312.896337,-0.655332,-0.074337,-0.818357,0.009948,-0.024794,0.003325,-0.607740,0.074269,-0.790656,-0.048648,-0.067952,0.003592,17.264847,18.437656,-29.327271,,,,,,,
1523521312.926305,-0.656120,-0.074377,-0.817421,-0.005131,-0.043930,0.010786,-0.608361,0.074309,-0.790174,-0.042625,-0.100844,-0.022799,16.211426,18.142323,-29.401611,,,,,,,
1523521312.956273,-0.657902,-0.074943,-0.816546,-0.012745,-0.052583,0.033178,-0.609741,0.074873,-0.789056,-0.029678,-0.063795,0.053445,16.808701,17.914570,-29.475464,,,,,,,
1523521312.986241,-0.657852,-0.075145,-0.814913,0.019740,0.036674,0.022454,-0.609693,0.075075,-0.789074,-0.040529,-0.046388,-0.006580,16.514877,18.441029,-29.327637,,,,,,,
1523521313.016179,-0.657310,-0.074706,-0.813429,0.025877,-0.017576,0.027844,-0.609286,0.074637,-0.789430,-0.059004,-0.062460,-0.082518,16.512939,18.066349,-29.026184,,,,,,,
1523521313.046147,-0.658701,-0.074891,-0.811591,-0.000960,-0.047263,0.028914,-0.610374,0.074821,-0.788571,-0.048698,-0.068245,0.003507,17.412888,18.286915,-29.401611,,,,,,,
1523521313.076116,-0.659300,-0.075260,-0.810372,0.013132,-0.004763,0.024619,-0.610830,0.075189,-0.788184,-0.034007,-0.065729,0.048636,17.411102,18.062000,-29.325684,,,,,,,
1523521313.106084,-0.658918,-0.074891,-0.808376,0.024935,0.020623,0.036327,-0.610546,0.074821,-0.788439,-0.023106,-0.068062,0.043673,16.659164,18.139942,-29.776428,,,,,,,
1523521313.136052,-0.658400,-0.075432,-0.806992,-0.022013,0.027091,0.038425,-0.610112,0.075360,-0.788723,-0.037563,-0.070111,-0.010898,16.886108,18.288990,-29.701843,,,,,,,
1523521313.166020,-0.657987,-0.076512,-0.806074,-0.012567,-0.003752,0.040584,-0.609736,0.076438,-0.788910,-0.032766,-0.072425,-0.007141,16.962296,18.139103,-29.251282,,,,,,,
1523521313.195989,-0.658275,-0.076947,-0.804059,0.005615,0.013145,0.049105,-0.609943,0.076871,-0.788708,-0.019787,-0.071302,0.049664,16.507370,17.915699,-29.700562,,,,,,,
1523521313.225957,-0.657578,-0.076887,-0.802348,0.028066,0.003635,0.034210,-0.609396,0.076811,-0.789137,-0.028284,-0.081984,0.016157,16.811874,18.139698,-29.326294,,,,,,,
1523521313.255925,-0.657802,-0.076766,-0.800158,0.018354,-0.012340,0.041684,-0.609578,0.076690,-0.789008,0.005132,-0.076065,0.071570,16.887756,18.364140,-29.552185,,,,,,,
1523521313.285893,-0.657906,-0.077052,-0.798482,0.007794,0.008944,0.039531,-0.609647,0.076976,-0.788927,0.014585,-0.055797,0.063509,16.738205,18.364887,-29.477295,,,,,,,
1523521313.315862,-0.657230,-0.077494,-0.797048,-0.012284,0.033573,0.020309,-0.609093,0.077417,-0.789312,-0.028420,-0.064569,-0.022273,17.491913,18.736485,-29.478394,,,,,,,
1523521313.345799,-0.657156,-0.077747,-0.796005,0.014042,-0.030368,0.036381,-0.609023,0.077668,-0.789341,-0.026536,-0.065492,-0.047955,16.885956,18.139210,-29.476318,,,,,,,
1523521313.375748,-0.657937,-0.077985,-0.794062,-0.000767,0.000498,0.035268,-0.609627,0.077906,-0.788850,-0.009834,-0.050455,0.024278,16.660522,18.140156,-29.551453,,,,,,,
1523521313.405716,-0.657332,-0.077777,-0.792991,0.020758,0.009126,0.009702,-0.609160,0.077698,-0.789232,-0.016557,-0.061615,0.008531,17.638168,18.360828,-29.476807,,,,,,,
1523521313.435684,-0.657420,-0.077828,-0.791546,-0.013545,0.002684,0.030995,-0.609227,0.077749,-0.789176,-0.003078,-0.059240,0.027655,17.406586,17.836643,-29.699829,,,,,,,
1523521313.465653,-0.657017,-0.078653,-0.790591,-0.006040,0.019595,0.040578,-0.608869,0.078572,-0.789370,-0.025271,-0.069279,-0.014234,17.486679,18.211506,-29.476257,,,,,,,
1523521313.495621,-0.656944,-0.078731,-0.788399,0.035453,-0.011344,0.042775,-0.608808,0.078650,-0.789409,-0.026446,-0.055289,0.001628,18.009109,18.133854,-29.775696,,,,,,,
1523521313.525589,-0.657373,-0.078021,-0.786458,0.034470,-0.018611,0.019336,-0.609181,0.077942,-0.789192,-0.033764,-0.051911,-0.001030,17.105392,17.762928,-29.774658,,,,,,,
1523521313.555557,-0.657700,-0.077825,-0.785799,-0.022012,-0.010932,0.005432,-0.609448,0.077747,-0.789005,-0.048206,-0.071384,-0.051235,17.257050,17.612782,-29.249023,,,,,,,
1523521313.585526,-0.658584,-0.079062,-0.785118,-0.043584,-0.024915,0.036336,-0.610086,0.078980,-0.788389,-0.032141,-0.052445,0.018476,17.933212,17.909428,-29.549866,,,,,,,
1523521313.615494,-0.658413,-0.079982,-0.783908,0.027074,0.026916,0.044861,-0.609906,0.079896,-0.788436,-0.038394,-0.054948,-0.004548,17.331421,17.687214,-29.474243,,,,,,,
1523521313.645432,-0.657472,-0.078916,-0.780420,0.088823,0.001162,0.057726,-0.609216,0.078834,-0.789076,-0.028175,-0.069771,-0.014863,17.551941,17.236225,-29.472351,,,,,,,
1523521313.675400,-0.658228,-0.078458,-0.777623,0.027863,-0.031516,0.044910,-0.609834,0.078377,-0.788644,-0.007139,-0.055275,0.019799,17.481293,17.536762,-29.248596,,,,,,,
1523521313.705368,-0.658273,-0.079101,-0.776384,-0.028421,0.002794,0.019272,-0.609839,0.079018,-0.788576,-0.026956,-0.079598,-0.035947,17.330673,17.612217,-29.473938,,,,,,,
1523521313.735336,-0.658954,-0.079742,-0.776010,-0.024244,-0.021647,0.017172,-0.610344,0.079658,-0.788121,-0.026634,-0.070411,0.036366,17.254044,17.537418,-29.623718,,,,,,,
1523521313.765305,-0.658138,-0.080352,-0.775025,-0.015396,0.056895,0.026692,-0.609671,0.080266,-0.788580,-0.037515,-0.076436,0.003134,17.553589,17.535984,-29.698547,,,,,,,
1523521313.795273,-0.657309,-0.081215,-0.773574,-0.003055,-0.002910,0.065119,-0.608975,0.081126,-0.789030,-0.038119,-0.081599,-0.031130,17.408539,17.762089,-29.249573,,,,,,,
1523521313.825241,-0.657785,-0.081566,-0.770918,0.042919,-0.003974,0.050230,-0.609333,0.081475,-0.788717,-0.017773,-0.056558,0.039663,17.181305,17.538120,-29.248779,,,,,,,
1523521313.855209,-0.657258,-0.080461,-0.768754,0.048517,0.022764,0.023569,-0.608972,0.080374,-0.789109,-0.013282,-0.070227,0.012406,18.076309,17.308643,-29.697327,,,,,,,
1523521313.885178,-0.656522,-0.080788,-0.767844,-0.044363,0.031425,0.032025,-0.608375,0.080700,-0.789536,0.005500,-0.064724,0.037964,17.482040,17.611759,-29.248901,,,,,,,
1523521313.915146,-0.655216,-0.082315,-0.767232,-0.043197,0.049521,0.027742,-0.607268,0.082222,-0.790231,-0.015520,-0.039802,-0.005377,17.481277,17.761387,-29.624512,,,,,,,
1523521313.945114,-0.654681,-0.082835,-0.766520,0.003556,-0.001581,0.025693,-0.606819,0.082740,-0.790522,-0.048378,-0.056510,-0.058263,17.857010,17.834690,-29.624634,,,,,,,
1523521313.975052,-0.655203,-0.082458,-0.764790,0.024815,-0.030281,0.019346,-0.607250,0.082364,-0.790230,-0.057621,-0.076886,-0.050804,17.402100,17.386677,-29.697998,,,,,,,
1523521314.005020,-0.656373,-0.082896,-0.763481,-0.003129,-0.042082,0.044911,-0.608152,0.082801,-0.789490,0.001279,-0.061103,0.046067,17.404800,17.387104,-29.248047,,,,,,,
1523521314.034988,-0.656695,-0.083222,-0.761887,0.029142,0.001452,0.037437,-0.608389,0.083126,-0.789273,0.024283,-0.032375,0.087003,16.730423,17.539997,-29.398987,,,,,,,
1523521314.064957,-0.656077,-0.081632,-0.759942,0.092282,0.012069,0.017223,-0.607982,0.081541,-0.789753,-0.017430,-0.038878,-0.063717,16.948654,17.088642,-29.772034,,,,,,,
1523521314.094925,-0.656915,-0.081063,-0.758559,-0.014832,-0.045178,0.035320,-0.608672,0.080975,-0.789279,-0.031236,-0.061871,-0.045788,18.302200,17.532398,-29.923157,,,,,,,
1523521314.124893,-0.657517,-0.082274,-0.758787,-0.030566,-0.015231,0.010785,-0.609086,0.082181,-0.788835,-0.035491,-0.064832,0.001726,18.227219,17.308109,-29.547302,,,,,,,
1523521314.154861,-0.658376,-0.082435,-0.758700,0.005719,-0.023792,0.006559,-0.609755,0.082342,-0.788301,-0.016939,-0.042760,0.064149,17.628143,17.310963,-29.397583,,,,,,,
1523521314.184830,-0.657916,-0.081554,-0.758267,0.038023,0.033570,0.000118,-0.609437,0.081464,-0.788639,-0.025527,-0.063565,0.046009,17.399261,17.011845,-29.546570,,,,,,,
1523521314.214798,-0.657289,-0.081195,-0.757148,0.012014,0.001423,0.047018,-0.608960,0.081106,-0.789043,-0.041980,-0.081625,-0.048496,18.296967,17.007420,-29.921082,,,,,,,
1523521314.244766,-0.657676,-0.081959,-0.755267,0.023685,-0.007163,0.054497,-0.609227,0.081868,-0.788759,-0.034175,-0.062947,-0.024962,18.076904,17.233860,-29.472107,,,,,,,
1523521314.274704,-0.657927,-0.080819,-0.752574,0.083605,-0.003954,0.031092,-0.609482,0.080731,-0.788679,-0.006989,-0.042768,0.030912,17.324249,17.012180,-29.546570,,,,,,,
1523521314.304672,-0.657190,-0.080021,-0.750355,0.000519,0.031338,0.026741,-0.608939,0.079936,-0.789179,0.002738,-0.057445,0.015787,17.999680,17.009205,-29.471191,,,,,,,
1523521314.334641,-0.656388,-0.081068,-0.749944,-0.033673,0.031398,0.030974,-0.608255,0.080979,-0.789600,-0.002005,-0.086625,0.026905,17.925873,17.309238,-29.772461,,,,,,,
1523521314.364607,-0.656144,-0.080811,-0.748130,0.063399,-0.001705,0.019361,-0.608075,0.080723,-0.789765,-0.004581,-0.064396,0.073502,18.523895,17.381092,-30.222473,,,,,,,
1523521314.394575,-0.654901,-0.080118,-0.746577,-0.007903,0.064277,0.030958,-0.607127,0.080032,-0.790564,-0.034047,-0.053223,-0.040201,18.147430,17.008167,-29.846130,,,,,,,
1523521314.424543,-0.653446,-0.081473,-0.745486,-0.035966,0.020626,0.052296,-0.605910,0.081383,-0.791360,-0.026369,-0.070152,-0.078605,18.221085,16.782993,-29.695190,,,,,,,
1523521314.454512,-0.654452,-0.082220,-0.743858,0.022509,-0.048511,0.040691,-0.606668,0.082127,-0.790702,0.010538,-0.033665,0.081610,18.223465,17.157749,-29.921692,,,,,,,
1523521314.484480,-0.654379,-0.080769,-0.741604,0.082873,0.032383,0.000162,-0.606682,0.080682,-0.790840,0.017281,-0.057015,0.023170,17.623947,17.160526,-29.846985,,,,,,,
1523521314.514448,-0.653366,-0.079628,-0.740012,-0.004991,-0.005823,0.025701,-0.605937,0.079544,-0.791526,-0.016744,-0.049622,-0.044549,17.917496,16.559132,-29.919495,,,,,,,
1523521314.544416,-0.653969,-0.081517,-0.740149,-0.063635,0.003893,0.022465,-0.606322,0.081426,-0.791040,-0.028551,-0.036916,-0.050925,18.296082,16.782658,-29.695129,,,,,,,
1523521314.574385,-0.654624,-0.081666,-0.738984,0.052524,-0.057934,0.009823,-0.606832,0.081575,-0.790633,-0.034922,-0.052660,-0.077867,17.773346,17.009998,-29.696289,,,,,,,
1523521314.604322,-0.656982,-0.079812,-0.737000,0.059947,-0.073861,0.005582,-0.608786,0.079727,-0.789319,-0.013941,-0.035766,0.066739,17.992798,16.409092,-29.618835,,,,,,,
1523521314.634291,-0.657302,-0.079377,-0.735721,0.002666,0.013372,0.010785,-0.609060,0.079294,-0.789151,0.024373,-0.042841,0.086407,18.514633,16.406223,-30.143555,,,,,,,
1523521314.664259,-0.656718,-0.079155,-0.735121,0.003784,0.013436,0.001196,-0.608609,0.079073,-0.789520,-0.031268,-0.023042,-0.042114,17.472000,17.011127,-29.921509,,,,,,,
1523521314.694227,-0.657699,-0.078639,-0.733876,0.025824,-0.058939,0.010871,-0.609408,0.078558,-0.788955,-0.048978,-0.027701,-0.068467,17.994156,16.409306,-29.393799,,,,,,,
1523521314.724195,-0.659453,-0.079133,-0.733415,-0.030691,-0.038640,0.015073,-0.610768,0.079051,-0.787854,-0.040828,-0.044017,0.017102,18.296082,16.782658,-29.695129,,,,,,,
1523521314.754164,-0.659475,-0.079696,-0.733077,-0.005907,0.013360,0.016103,-0.610757,0.079612,-0.787806,-0.060477,-0.060050,-0.026831,17.316910,16.411976,-29.769165,,,,,,,
1523521314.784132,-0.659055,-0.079684,-0.731919,0.048386,0.004555,0.039597,-0.610427,0.079599,-0.788063,-0.018785,-0.041300,0.008033,17.617661,16.485630,-29.769287,,,,,,,
1523521314.814100,-0.659072,-0.078599,-0.729623,0.074973,-0.010441,0.047092,-0.610493,0.078518,-0.788120,-0.012493,-0.046581,-0.004635,18.365082,16.406971,-30.068604,,,,,,,
1523521314.844068,-0.659497,-0.078536,-0.727712,0.005537,-0.016661,0.049180,-0.610831,0.078455,-0.787865,-0.005670,-0.027887,-0.002251,17.392380,16.411716,-29.694092,,,,,,,
1523521314.874037,-0.659457,-0.079223,-0.727065,0.010070,0.006914,0.019324,-0.610766,0.079140,-0.787846,0.008700,-0.037072,0.005193,16.793747,16.414646,-29.469421,,,,,,,
1523521314.904005,-0.659466,-0.078355,-0.726341,0.030412,-0.002564,0.000169,-0.610815,0.078275,-0.787894,0.005255,-0.047284,0.036842,17.616623,16.335712,-29.693665,,,,,,,
1523521314.933943,-0.659112,-0.078082,-0.726307,-0.023829,0.016863,-0.023333,-0.610550,0.078003,-0.788127,-0.023941,-0.044525,0.016719,17.692200,16.260593,-29.468384,,,,,,,
1523521314.963911,-0.658902,-0.078825,-0.726948,-0.065615,-0.000122,-0.010563,-0.610348,0.078743,-0.788210,-0.048847,-0.049294,-0.029707,17.091034,16.412846,-29.919312,,,,,,,
1523521314.993879,-0.659220,-0.080073,-0.727244,-0.022077,-0.006895,0.029971,-0.610538,0.079987,-0.787938,-0.022931,-0.044343,-0.017879,18.219727,16.782780,-29.920227,,,,,,,
1523521315.023848,-0.659045,-0.080012,-0.724847,0.061180,0.007653,0.047068,-0.610403,0.079926,-0.788048,0.003805,-0.026017,0.040307,17.246719,16.712605,-29.470398,,,,,,,
1523521315.053816,-0.658217,-0.079041,-0.722470,0.047525,0.031194,0.026799,-0.609798,0.078959,-0.788614,-0.002110,-0.025965,-0.011267,17.316467,16.187290,-29.468262,,,,,,,
1523521315.083784,-0.657935,-0.079037,-0.721585,-0.032547,-0.007659,-0.009458,-0.609575,0.078954,-0.788787,-0.018675,-0.024175,-0.023057,17.916748,16.484135,-29.919189,,,,,,,
1523521315.113752,-0.658728,-0.079927,-0.722339,-0.043274,-0.024608,-0.013708,-0.610157,0.079842,-0.788247,-0.003612,-0.011955,-0.001532,17.244171,16.637302,-29.770081,,,,,,,
1523521315.143721,-0.659355,-0.080519,-0.722734,-0.040007,-0.006560,-0.011598,-0.610622,0.080432,-0.787827,-0.041859,-0.019214,-0.064895,17.619156,16.635624,-29.769897,,,,,,,
1523521315.173689,-0.660252,-0.080247,-0.722191,0.037593,-0.055816,0.013025,-0.611342,0.080161,-0.787296,-0.018282,-0.009574,-0.019055,18.519714,16.781422,-29.920044,,,,,,,
1523521315.203657,-0.661619,-0.079687,-0.720104,0.047217,-0.036837,0.029006,-0.612445,0.079603,-0.786495,0.002582,0.005953,0.037761,16.642410,16.415089,-29.694519,,,,,,,
1523521315.233625,-0.662172,-0.078869,-0.718468,0.033484,-0.022838,0.009789,-0.612920,0.078788,-0.786207,-0.036967,-0.028373,-0.022615,17.469620,16.636372,-29.694946,,,,,,,
1523521315.263563,-0.662380,-0.079258,-0.717806,-0.031578,-0.006756,0.011860,-0.613064,0.079175,-0.786056,-0.042713,-0.048321,-0.070390,17.769745,16.784794,-29.920471,,,,,,,
1523521315.293531,-0.663417,-0.080629,-0.717027,-0.033010,-0.055816,0.038543,-0.613812,0.080541,-0.785333,-0.055515,-0.036856,-0.128317,17.389374,16.336353,-30.068787,,,,,,,
1523521315.323500,-0.665379,-0.081795,-0.716535,-0.003076,-0.071693,0.018340,-0.615293,0.081704,-0.784053,-0.058291,-0.042794,-0.112981,17.766907,16.409962,-29.768921,,,,,,,
1523521315.353468,-0.667844,-0.079252,-0.714407,0.153004,-0.085545,-0.031609,-0.617351,0.079169,-0.782694,-0.033696,-0.038382,-0.017553,16.866943,16.414005,-29.769409,,,,,,,
1523521315.383423,-0.669683,-0.076131,-0.711690,0.092070,-0.039017,0.022639,-0.618939,0.076058,-0.781748,0.056424,0.006767,0.119837,16.864700,16.189014,-29.768494,,,,,,,
1523521315.413391,-0.669584,-0.074624,-0.710331,0.029640,0.029517,-0.028632,-0.618932,0.074555,-0.781898,0.057592,0.044463,0.011436,17.840408,16.484257,-30.144165,,,,,,,
1523521315.443360,-0.669216,-0.073800,-0.709293,0.029168,-0.034536,0.010873,-0.618682,0.073733,-0.782174,0.004180,0.051511,-0.093772,17.992935,16.783497,-30.220337,,,,,,,
1523521315.473328,-0.669865,-0.074417,-0.709122,-0.031375,0.023085,-0.000956,-0.619162,0.074348,-0.781736,-0.002497,-0.066688,0.079939,16.942230,16.263966,-29.468750,,,,,,,
1523521315.503296,-0.669170,-0.074291,-0.709218,-0.007727,0.013730,-0.039287,-0.618624,0.074223,-0.782173,-0.027494,-0.055042,0.243004,16.941025,16.413532,-29.919373,,,,,,,
1523521315.533264,-0.667234,-0.074742,-0.710802,-0.086121,0.162593,-0.026701,-0.617088,0.074672,-0.783343,0.009681,-0.094616,0.160769,16.864258,16.188953,-29.843506,,,,,,,
1523521315.563202,-0.661328,-0.075603,-0.710428,0.055434,0.156354,0.054395,-0.612411,0.075531,-0.786923,-0.026474,-0.066848,-0.005069,16.792557,16.339573,-29.544128,,,,,,,
1523521315.593170,-0.658100,-0.074652,-0.705394,0.159407,0.109834,0.137618,-0.609911,0.074582,-0.788952,0.026171,-0.053159,-0.016559,17.393417,16.786274,-30.145630,,,,,,,
1523521315.623139,-0.654609,-0.072935,-0.698079,0.165626,0.068365,0.138734,-0.607230,0.072870,-0.791177,0.080771,-0.040033,0.070566,17.390289,16.111881,-29.542969,,,,,,,
1523521315.653107,-0.651664,-0.072510,-0.692404,0.090080,0.103742,0.120532,-0.604917,0.072446,-0.792986,0.131665,-0.040861,0.062746,17.538040,15.886219,-29.541992,,,,,,,
1523521315.683075,-0.649793,-0.071626,-0.688020,0.101822,0.011804,0.042855,-0.603470,0.071565,-0.794168,0.122070,-0.027330,-0.037925,17.613037,15.885883,-29.541931,,,,,,,
1523521315.713044,-0.649573,-0.069904,-0.686287,0.033729,0.003850,-0.010467,-0.603369,0.069848,-0.794397,0.086829,-0.069756,-0.176230,17.912140,15.659763,-29.315857,,,,,,,
1523521315.743012,-0.652462,-0.071225,-0.687491,-0.181471,-0.165406,-0.042424,-0.605605,0.071165,-0.792577,0.046294,-0.034117,0.000188,17.462143,15.886402,-29.691956,,,,,,,
1523521315.772980,-0.655019,-0.076333,-0.694344,-0.295574,0.022375,-0.110890,-0.607400,0.076259,-0.790727,0.015405,-0.055095,0.032487,17.468414,16.561298,-29.769653,,,,,,,
1523521315.802948,-0.655276,-0.079325,-0.700434,-0.167858,-0.058730,-0.105394,-0.607462,0.079242,-0.790386,-0.097098,-0.068225,-0.126026,17.390579,16.186802,-29.618286,,,,,,,
1523521315.832917,-0.657814,-0.080608,-0.703552,-0.057221,-0.072262,-0.036022,-0.609403,0.080520,-0.788761,-0.146151,-0.073913,-0.138928,17.240433,16.262333,-29.768616,,,,,,,
1523521315.862885,-0.659545,-0.080692,-0.703220,0.014204,-0.046145,0.004483,-0.610763,0.080605,-0.787700,-0.100357,-0.017799,-0.046987,17.914795,16.558689,-30.369507,,,,,,,
1523521315.892823,-0.660440,-0.080232,-0.701930,0.037590,-0.033683,0.036460,-0.611491,0.080146,-0.787182,-0.041280,0.026864,-0.054112,17.616913,16.635258,-30.144897,,,,,,,
1523521315.922791,-0.661508,-0.081278,-0.699736,-0.004256,-0.011675,0.095010,-0.612279,0.081189,-0.786462,0.029805,0.027179,0.023400,17.394012,16.711491,-29.920349,,,,,,,
1523521315.952759,-0.660519,-0.080984,-0.695902,0.137098,0.019171,0.040742,-0.611516,0.080895,-0.787086,-0.027568,0.076118,-0.019387,17.612579,16.110432,-29.992859,,,,,,,
1523521315.982727,-0.660113,-0.077367,-0.692842,0.130928,0.013160,-0.009336,-0.611372,0.077290,-0.787560,-0.038439,0.009792,-0.114280,17.163788,16.187519,-29.918335,,,,,,,
1523521316.012696,-0.660119,-0.076070,-0.691129,-0.006023,-0.033344,0.004456,-0.611438,0.075997,-0.787635,-0.033826,-0.006447,-0.056848,17.014252,16.188267,-29.843445,,,,,,,
1523521316.042664,-0.661745,-0.077712,-0.691070,-0.041439,-0.044098,0.033222,-0.612640,0.077634,-0.786540,0.029037,-0.022290,0.067378,17.837860,16.184345,-30.067993,,,,,,,
1523521316.072632,-0.661121,-0.076999,-0.689381,0.103234,0.040761,0.003408,-0.612183,0.076923,-0.786966,-0.006393,-0.038181,0.050744,17.016647,16.338413,-29.694031,,,,,,,
1523521316.102600,-0.659912,-0.073141,-0.686020,0.184297,0.014056,-0.005032,-0.611408,0.073076,-0.787934,-0.038555,-0.041536,-0.052322,16.865158,16.189091,-29.693481,,,,,,,
1523521316.132569,-0.660814,-0.070966,-0.682817,0.046028,-0.039146,0.053528,-0.612215,0.070906,-0.787506,0.019884,-0.043654,-0.020173,17.762421,16.184605,-30.143005,,,,,,,
1523521316.162537,-0.660778,-0.071606,-0.681653,-0.013307,0.022875,0.019322,-0.612158,0.071544,-0.787492,0.025702,-0.044277,-0.005996,16.785522,15.814304,-29.842041,,,,,,,
1523521316.192505,-0.660889,-0.071397,-0.680638,0.014305,-0.029140,0.002345,-0.612255,0.071337,-0.787436,0.031551,-0.058199,0.007376,17.012009,15.963276,-29.842529,,,,,,,
1523521316.222443,-0.661022,-0.071506,-0.680464,-0.019687,0.010239,0.004417,-0.612355,0.071445,-0.787348,0.017568,-0.061832,0.002359,17.609283,15.735523,-29.916321,,,,,,,
1523521316.252411,-0.660768,-0.071444,-0.679908,-0.012216,-0.000372,-0.001951,-0.612157,0.071383,-0.787507,-0.043696,-0.073214,-0.049056,17.160812,15.662922,-29.541260,,,,,,,
1523521316.282379,-0.660825,-0.072636,-0.680483,-0.073174,0.007079,0.020358,-0.612150,0.072573,-0.787404,-0.009478,-0.096987,-0.052333,17.165146,16.187748,-29.693298,,,,,,,
1523521316.312348,-0.660757,-0.074603,-0.680583,-0.065980,-0.025022,0.048108,-0.612008,0.074534,-0.787332,-0.001350,-0.078303,0.017648,17.989212,16.183887,-29.842896,,,,,,,
1523521316.342316,-0.661141,-0.076855,-0.679941,-0.058281,0.028103,0.048049,-0.612205,0.076779,-0.786962,0.019539,-0.033887,0.036382,17.165146,16.187748,-29.693298,,,,,,,
1523521316.372272,-0.659897,-0.077394,-0.679138,0.018663,0.012129,0.023627,-0.611200,0.077317,-0.787691,-0.005865,-0.034592,-0.092574,17.166183,16.337666,-29.768921,,,,,,,
1523521316.402241,-0.660766,-0.076943,-0.677715,0.000255,-0.056817,0.013026,-0.611906,0.076867,-0.787186,-0.023149,-0.046700,-0.056396,17.760773,15.884846,-29.916870,,,,,,,
1523521316.432209,-0.662057,-0.078656,-0.678345,-0.102025,-0.009812,0.012906,-0.612840,0.078575,-0.786291,-0.000121,-0.042412,0.037283,16.711563,16.189182,-30.293579,,,,,,,
1523521316.462178,-0.661702,-0.080221,-0.678725,-0.026140,0.003820,0.010824,-0.612484,0.080135,-0.786410,-0.006305,-0.035381,0.013507,17.090591,16.188160,-29.618408,,,,,,,
1523521316.492146,-0.661886,-0.079882,-0.677438,0.054821,-0.015622,0.027947,-0.612646,0.079797,-0.786319,0.005804,-0.022241,0.042682,18.289642,16.407230,-30.143677,,,,,,,
1523521316.522115,-0.661114,-0.078745,-0.675182,0.051898,0.042864,0.023620,-0.612094,0.078663,-0.786863,-0.011167,-0.046971,0.018415,17.389679,16.186665,-29.768250,,,,,,,
1523521316.552052,-0.660438,-0.078477,-0.673882,0.004708,-0.006948,0.021505,-0.611575,0.078396,-0.787293,-0.019117,-0.053357,-0.013595,16.862762,16.038960,-29.842896,,,,,,,
1523521316.582021,-0.660122,-0.079268,-0.673006,-0.023977,0.031318,0.028910,-0.611287,0.079185,-0.787437,-0.001200,-0.038383,0.022102,17.163040,16.112522,-29.918091,,,,,,,
1523521316.611989,-0.659282,-0.080141,-0.671858,-0.001638,0.029052,0.041711,-0.610583,0.080055,-0.787895,-0.000897,-0.023445,0.007881,17.012604,16.113132,-29.993164,,,,,,,
1523521316.641957,-0.657534,-0.079652,-0.669743,0.090235,0.046863,0.046020,-0.609229,0.079568,-0.788992,0.000769,-0.073907,-0.052530,17.161850,16.037464,-29.992798,,,,,,,
1523521316.671924,-0.658068,-0.078493,-0.666342,0.064045,-0.037275,0.082315,-0.609706,0.078413,-0.788739,0.090053,-0.026304,0.160504,17.316177,16.112370,-29.392944,,,,,,,
1523521316.701894,-0.655712,-0.078373,-0.664634,0.042875,0.153494,0.008592,-0.607852,0.078293,-0.790181,0.029269,-0.032135,-0.021175,17.466629,16.336384,-29.693787,,,,,,,
1523521316.731861,-0.653395,-0.077403,-0.664166,-0.004826,-0.019494,-0.004064,-0.606066,0.077325,-0.791647,-0.007979,-0.047693,-0.128031,17.986374,15.809055,-29.691406,,,,,,,
1523521316.761829,-0.654619,-0.078787,-0.664573,-0.047595,-0.004745,0.025745,-0.606969,0.078706,-0.790819,0.031529,-0.056703,-0.012205,17.763763,16.184834,-29.918030,,,,,,,
1523521316.791797,-0.655004,-0.079485,-0.664411,-0.001826,-0.040908,0.017274,-0.607239,0.079402,-0.790542,-0.006439,-0.062251,0.002791,17.393127,16.486713,-29.694397,,,,,,,
1523521316.821766,-0.655512,-0.079562,-0.663809,0.009039,0.000506,0.017242,-0.607637,0.079478,-0.790228,0.031954,-0.049251,0.096914,17.164246,16.187595,-29.843323,,,,,,,
1523521316.851734,-0.655004,-0.079458,-0.663032,-0.004561,0.041031,0.000148,-0.607241,0.079374,-0.790543,0.034472,-0.048505,0.074021,17.388184,16.036671,-29.767639,,,,,,,
1523521316.881702,-0.653055,-0.079864,-0.663017,-0.033375,0.051686,0.006508,-0.605679,0.079779,-0.791700,-0.070301,-0.050284,-0.197848,17.162003,15.962605,-29.842468,,,,,,,
1523521316.911640,-0.654613,-0.080932,-0.662268,-0.007703,-0.127180,0.047196,-0.606859,0.080844,-0.790687,-0.046126,-0.078219,-0.175499,18.211945,16.182514,-30.217834,,,,,,,
1523521316.941608,-0.657624,-0.082234,-0.660935,-0.034237,-0.102628,0.039699,-0.609172,0.082141,-0.788772,0.012721,0.001446,0.131271,17.389832,16.336430,-29.993835,,,,,,,
1523521316.971576,-0.657813,-0.082780,-0.660900,0.019177,0.082521,-0.013736,-0.609294,0.082686,-0.788622,0.048396,-0.021727,0.103960,17.466629,16.336384,-29.693787,,,,,,,
1523521317.001545,-0.655917,-0.081763,-0.659685,0.034710,-0.005891,0.007698,-0.607849,0.081672,-0.789842,-0.029694,-0.032248,-0.109908,16.862152,16.113728,-30.068176,,,,,,,
1523521317.031513,-0.656954,-0.081663,-0.658761,0.023879,-0.027150,0.015155,-0.608673,0.081572,-0.789217,-0.049042,-0.029692,-0.101164,18.439026,16.032093,-29.617126,,,,,,,
1523521317.061481,-0.658183,-0.081093,-0.657059,0.029057,-0.064348,0.014131,-0.609670,0.081004,-0.788505,-0.031962,-0.041697,-0.013115,17.463333,16.186100,-29.993225,,,,,,,
1523521317.091449,-0.659196,-0.081831,-0.656881,-0.059283,-0.012010,0.006556,-0.610432,0.081740,-0.787840,-0.023373,-0.053068,0.014784,17.983658,16.033237,-30.517334,,,,,,,
1523521317.121418,-0.659903,-0.083257,-0.657288,-0.034819,-0.026987,0.011919,-0.610916,0.083160,-0.787315,0.015549,-0.063309,0.037361,17.389236,16.186588,-29.843262,,,,,,,
1523521317.151386,-0.659976,-0.082169,-0.655236,0.116888,0.008658,0.025855,-0.611029,0.082076,-0.787342,-0.015863,-0.026031,-0.003705,17.610184,15.960300,-30.142212,,,,,,,
1523521317.181355,-0.659830,-0.079830,-0.652453,0.070042,0.008970,-0.000825,-0.611030,0.079745,-0.787580,-0.051079,-0.032488,-0.102160,18.358948,15.881840,-30.216553,,,,,,,
1523521317.211323,-0.659885,-0.079418,-0.651546,-0.012463,-0.025052,0.028994,-0.611094,0.079335,-0.787572,0.009410,-0.054066,-0.032328,17.159454,15.887318,-30.142151,,,,,,,
1523521317.241261,-0.661321,-0.080579,-0.650397,-0.022089,-0.029241,0.025783,-0.612168,0.080491,-0.786621,0.042359,0.000182,0.097000,17.382202,15.661320,-30.141113,,,,,,,
1523521317.271230,-0.659074,-0.080644,-0.650418,-0.013724,0.119780,-0.014845,-0.610395,0.080556,-0.787991,-0.060229,-0.060704,-0.085743,18.358948,15.881840,-30.216553,,,,,,,
1523521317.301198,-0.658458,-0.080606,-0.649919,0.032155,-0.069809,0.032264,-0.609911,0.080519,-0.788368,-0.048933,-0.105345,-0.155388,17.607941,15.735310,-30.141296,,,,,,,
1523521317.331166,-0.661312,-0.080558,-0.647546,0.018064,-0.084846,0.059974,-0.612161,0.080471,-0.786628,0.023278,-0.069714,0.122214,17.380844,15.436481,-29.990234,,,,,,,
1523521317.361140,-0.660769,-0.080768,-0.645755,0.055327,0.073704,0.014030,-0.611724,0.080680,-0.786947,0.065444,-0.023261,0.118154,17.831573,15.734074,-30.366211,,,,,,,
1523521317.391109,-0.659367,-0.079187,-0.644759,0.017964,0.015725,-0.038154,-0.610697,0.079104,-0.787903,-0.021093,-0.002948,-0.059173,17.764679,15.960346,-29.392151,,,,,,,
1523521317.421077,-0.659357,-0.079429,-0.645760,-0.046514,-0.032188,-0.000866,-0.610677,0.079345,-0.787895,-0.020839,-0.037841,-0.148018,17.610779,15.885517,-29.916931,,,,,,,
1523521317.451045,-0.661289,-0.081025,-0.645610,-0.056242,-0.042900,0.014060,-0.612120,0.080937,-0.786612,-0.021349,-0.004536,0.071143,17.983521,15.658833,-29.915833,,,,,,,
1523521317.481013,-0.660155,-0.080765,-0.645532,0.059633,0.062126,-0.003004,-0.611240,0.080677,-0.787322,-0.004238,-0.067188,0.022201,17.383392,15.736393,-30.066406,,,,,,,
1523521317.510982,-0.660111,-0.079204,-0.643004,0.068635,-0.025302,0.036510,-0.611282,0.079121,-0.787448,0.034607,-0.048024,0.139758,17.758224,15.809559,-30.216553,,,,,,,
1523521317.540950,-0.658588,-0.077853,-0.639958,0.132102,0.077618,0.035391,-0.610147,0.077775,-0.788462,0.003534,-0.012269,-0.041510,18.358795,15.956699,-30.366882,,,,,,,
1523521317.570888,-0.657791,-0.074760,-0.636892,0.094473,-0.015581,0.004555,-0.609663,0.074690,-0.789134,-0.031298,-0.050673,-0.103261,18.205353,15.432697,-30.064758,,,,,,,
1523521317.600856,-0.658584,-0.074566,-0.635641,-0.025248,-0.027103,0.022596,-0.610297,0.074497,-0.788662,0.022483,-0.018711,0.048214,17.830521,15.359531,-29.914734,,,,,,,
1523521317.630824,-0.658845,-0.076393,-0.635686,-0.067691,0.032489,0.024640,-0.610419,0.076318,-0.788394,0.058264,-0.050500,0.136477,18.278549,15.432056,-30.364807,,,,,,,
1523521317.660792,-0.656358,-0.076542,-0.634917,0.063890,0.071617,0.006574,-0.608449,0.076468,-0.789901,0.001454,-0.047094,0.084151,18.279297,15.507053,-30.365112,,,,,,,
1523521317.690761,-0.653991,-0.073841,-0.632448,0.137624,0.082056,0.005562,-0.606701,0.073774,-0.791499,-0.051380,-0.094663,-0.176610,18.207916,15.732609,-30.140991,,,,,,,
1523521317.720729,-0.654927,-0.072577,-0.629593,-0.000285,-0.123119,0.067467,-0.607498,0.072514,-0.791005,-0.036835,-0.098942,-0.089412,18.954269,15.504017,-30.364746,,,,,,,
1523521317.750697,-0.656696,-0.075610,-0.628874,-0.073256,0.016365,0.053419,-0.608759,0.075538,-0.789750,0.073313,-0.048485,0.132417,17.973312,15.133060,-30.738770,,,,,,,
1523521317.780665,-0.655646,-0.075277,-0.627598,0.082904,0.014251,-0.002940,-0.607945,0.075206,-0.790410,0.039112,-0.049343,0.082356,17.829025,15.434162,-30.290039,,,,,,,
1523521317.810634,-0.654568,-0.073693,-0.625670,0.063633,0.040633,0.030051,-0.607164,0.073627,-0.791158,0.014726,-0.075885,-0.034312,18.802155,15.429478,-30.589478,,,,,,,
1523521317.840602,-0.654577,-0.074092,-0.624072,-0.048742,-0.017549,0.032159,-0.607153,0.074024,-0.791129,-0.054697,-0.079350,-0.063867,18.654434,15.430515,-30.214600,,,,,,,
1523521317.870570,-0.655665,-0.076572,-0.625563,-0.108410,-0.036252,-0.007290,-0.607900,0.076498,-0.790320,-0.052959,-0.111105,-0.111367,18.498459,14.831226,-30.212280,,,,,,,
1523521317.900539,-0.656861,-0.077869,-0.626265,-0.045674,-0.068461,0.016239,-0.608784,0.077791,-0.789513,-0.039349,-0.087114,-0.001991,17.974533,14.983509,-30.288147,,,,,,,
1523521317.930476,-0.658438,-0.079320,-0.625550,-0.013572,0.004449,0.064133,-0.609958,0.079236,-0.788462,0.014102,-0.067380,0.065989,17.976181,15.058659,-30.138428,,,,,,,
1523521317.960445,-0.656588,-0.079249,-0.622559,0.077322,0.044563,0.070549,-0.608502,0.079166,-0.789594,-0.001423,-0.045535,-0.035403,19.173553,15.202579,-30.813354,,,,,,,
1523521317.990413,-0.656255,-0.078238,-0.619571,0.055781,-0.038035,0.036525,-0.608288,0.078159,-0.789859,-0.063328,-0.051578,-0.183102,18.050552,15.133091,-30.363708,,,,,,,
1523521318.020381,-0.658480,-0.078858,-0.618715,-0.041549,-0.093996,0.020524,-0.610013,0.078777,-0.788466,-0.030932,-0.071483,-0.126802,17.600449,14.985340,-30.138306,,,,,,,
1523521318.050349,-0.661490,-0.080343,-0.619392,-0.073342,-0.077776,-0.009345,-0.612312,0.080256,-0.786533,-0.032876,-0.059810,-0.005109,17.149704,15.136997,-30.514160,,,,,,,
1523521318.080318,-0.662784,-0.081331,-0.620127,-0.020833,-0.031174,-0.006156,-0.613280,0.081241,-0.785677,-0.040132,-0.036564,-0.039091,18.273605,15.206638,-30.813843,,,,,,,
1523521318.110286,-0.664149,-0.080952,-0.618938,0.056873,-0.049621,0.021619,-0.614370,0.080864,-0.784863,-0.045786,-0.036979,-0.032489,17.978561,15.433414,-30.364929,,,,,,,
1523521318.140254,-0.665255,-0.079652,-0.616311,0.080288,-0.038165,0.046134,-0.615302,0.079568,-0.784265,-0.039178,-0.047052,-0.065634,17.527832,15.360447,-30.364868,,,,,,,
1523521318.170222,-0.666566,-0.078652,-0.613640,0.071702,-0.077266,0.019523,-0.616379,0.078571,-0.783520,-0.059707,-0.048038,-0.117237,17.222610,14.836811,-30.362915,,,,,,,
1523521318.200191,-0.669270,-0.077454,-0.612353,0.032357,-0.074890,-0.005000,-0.618553,0.077376,-0.781924,-0.027275,-0.040572,0.000964,17.369324,14.461231,-30.286377,,,,,,,
1523521318.230159,-0.670122,-0.076509,-0.611575,0.032705,-0.002578,-0.011474,-0.619264,0.076434,-0.781453,-0.021605,-0.065722,0.010351,18.046356,14.982655,-30.813049,,,,,,,
1523521318.260097,-0.670285,-0.075246,-0.610340,0.064494,-0.025183,0.017349,-0.619452,0.075175,-0.781427,-0.039835,-0.082896,0.006280,17.897720,14.983555,-30.588196,,,,,,,
1523521318.290065,-0.670302,-0.074528,-0.608099,0.048580,0.022539,0.037528,-0.619498,0.074459,-0.781459,-0.063119,-0.101726,-0.094045,17.597595,14.835133,-30.362732,,,,,,,
1523521318.320033,-0.670408,-0.072937,-0.604508,0.162285,-0.050276,0.077109,-0.619654,0.072872,-0.781485,-0.010443,-0.096508,0.018561,17.894882,14.833347,-30.812561,,,,,,,
1523521318.350001,-0.672003,-0.070777,-0.599088,0.121682,-0.031229,0.101575,-0.620996,0.070718,-0.780617,0.092233,-0.062631,0.237404,18.274353,15.057011,-30.438232,,,,,,,
1523521318.379950,-0.668208,-0.069639,-0.594853,0.112339,0.205078,0.048046,-0.618078,0.069583,-0.783031,0.071539,-0.090899,0.091396,17.446701,14.835651,-30.512817,,,,,,,
1523521318.409918,-0.663757,-0.068495,-0.591892,0.057250,0.065958,0.053486,-0.614636,0.068442,-0.785836,0.004971,-0.112708,-0.083183,17.595200,14.684986,-30.512085,,,,,,,
1523521318.439886,-0.662593,-0.069201,-0.589810,0.001626,0.045921,0.053454,-0.613691,0.069146,-0.786513,0.011884,-0.112145,-0.056077,17.513016,14.010288,-30.584473,,,,,,,
1523521318.469854,-0.661373,-0.069950,-0.588725,-0.005833,0.022716,0.031098,-0.612699,0.069893,-0.787220,0.007185,-0.118660,0.015354,17.965546,14.308170,-30.660461,,,,,,,
1523521318.499823,-0.660213,-0.070263,-0.586754,0.059274,0.044690,0.055637,-0.611772,0.070205,-0.787913,0.057923,-0.145690,0.054835,18.415207,14.231236,-30.584900,,,,,,,
1523521318.529791,-0.658928,-0.068847,-0.582614,0.126284,0.029388,0.091934,-0.610819,0.068793,-0.788776,0.103571,-0.129752,0.142444,17.922699,13.778820,-30.551453,,,,,,,
1523521318.559759,-0.656394,-0.067466,-0.577980,0.076548,0.105127,0.069434,-0.608876,0.067414,-0.790396,0.069646,-0.122193,-0.006067,18.600052,13.925930,-30.401672,,,,,,,
1523521318.589728,-0.653986,-0.068881,-0.576875,-0.085965,0.037617,0.055533,-0.606912,0.068827,-0.791783,-0.016760,-0.150598,-0.211711,18.900208,14.074352,-30.627136,,,,,,,
1523521318.619665,-0.655091,-0.072128,-0.577373,-0.099145,-0.077963,0.025803,-0.607647,0.072065,-0.790931,0.025555,-0.122664,0.029090,18.222366,13.927166,-30.851868,,,,,,,
1523521318.649634,-0.657383,-0.073965,-0.578110,-0.040152,-0.041842,0.005567,-0.609377,0.073897,-0.789430,0.031053,-0.135528,0.093675,18.224014,14.002316,-30.702148,,,,,,,
1523521318.679602,-0.656260,-0.074783,-0.577867,-0.020618,0.062046,0.034245,-0.608452,0.074713,-0.790066,-0.009864,-0.140829,0.017284,18.827301,14.374523,-30.778381,,,,,,,
1523521318.709570,-0.654614,-0.076487,-0.576169,-0.015561,0.050037,0.077948,-0.607073,0.076412,-0.790964,-0.021513,-0.118008,-0.074820,18.077942,14.078503,-30.177612,,,,,,,
1523521318.739538,-0.653558,-0.076959,-0.573441,0.075010,0.005175,0.077007,-0.606215,0.076884,-0.791576,-0.010652,-0.107111,-0.078450,18.450974,13.926739,-30.251770,,,,,,,
1523521318.769507,-0.654200,-0.075302,-0.569587,0.090965,-0.027685,0.060003,-0.606800,0.075231,-0.791286,0.024464,-0.100897,0.056575,18.745575,13.699902,-30.775696,,,,,,,
1523521318.799475,-0.653479,-0.074259,-0.566926,0.043254,0.034152,0.048180,-0.606277,0.074191,-0.791785,0.050110,-0.095126,0.031714,18.375229,13.852093,-30.251465,,,,,,,
1523521318.829443,-0.652005,-0.074799,-0.565394,-0.027136,0.040787,0.037459,-0.605085,0.074729,-0.792646,0.015683,-0.069175,-0.037737,18.225677,13.852840,-30.176636,,,,,,,
1523521318.859411,-0.651193,-0.074820,-0.564348,0.041081,0.009828,0.033281,-0.604440,0.074750,-0.793136,-0.022025,-0.093961,-0.163651,19.423981,13.996914,-30.701538,,,,,,,
1523521318.889380,-0.652191,-0.073909,-0.561549,0.068351,-0.074337,0.054697,-0.605272,0.073842,-0.792586,-0.006804,-0.090092,-0.060197,18.448883,13.851528,-30.476501,,,,,,,
1523521318.919348,-0.653121,-0.072996,-0.558836,0.068734,-0.002032,0.046111,-0.606050,0.072931,-0.792076,0.016008,-0.097025,0.022194,18.220139,13.477566,-30.475098,,,,,,,
1523521318.949286,-0.652682,-0.072290,-0.556229,0.029201,-0.003050,0.052482,-0.605733,0.072228,-0.792383,0.018697,-0.116280,-0.045431,18.373734,13.926708,-30.626770,,,,,,,
1523521318.979254,-0.653379,-0.072428,-0.554527,0.034324,-0.062466,0.039749,-0.606279,0.072365,-0.791953,-0.015471,-0.114891,-0.123269,18.219986,13.552410,-30.625366,,,,,,,
1523521319.009222,-0.655784,-0.072523,-0.552521,0.010726,-0.077346,0.048272,-0.608178,0.072459,-0.790487,-0.024634,-0.107524,-0.107707,19.048843,14.073452,-30.852051,,,,,,,
1523521319.039190,-0.657700,-0.073091,-0.551387,-0.009434,-0.071836,0.028002,-0.609666,0.073026,-0.789287,-0.018996,-0.094388,-0.020863,19.345062,13.921749,-31.226318,,,,,,,
1523521319.069159,-0.659245,-0.073166,-0.550438,0.022816,-0.033618,0.020536,-0.610881,0.073101,-0.788340,-0.000661,-0.087902,-0.004812,18.519531,13.775616,-31.076111,,,,,,,
1523521319.099127,-0.659598,-0.072152,-0.548390,0.068771,-0.016765,0.025878,-0.611205,0.072089,-0.788182,-0.012712,-0.092597,-0.029872,18.750336,14.449413,-31.228699,,,,,,,
1523521319.129095,-0.660198,-0.070728,-0.545967,0.093220,-0.031767,0.034440,-0.611740,0.070669,-0.787896,-0.007233,-0.092840,-0.049567,19.119934,14.222240,-31.752563,,,,,,,
1523521319.159063,-0.661399,-0.069530,-0.543414,0.036596,-0.036963,0.037602,-0.612737,0.069474,-0.787227,-0.024286,-0.088136,-0.011464,18.744354,14.074078,-31.602234,,,,,,,
1523521319.189032,-0.661371,-0.069580,-0.542711,-0.009999,0.010154,0.003416,-0.612713,0.069524,-0.787241,-0.037372,-0.118977,-0.051321,19.046585,14.073086,-31.227051,,,,,,,
1523521319.219000,-0.661046,-0.069660,-0.542030,0.015462,-0.004925,0.022634,-0.612454,0.069603,-0.787436,-0.014148,-0.122414,0.005011,18.824722,14.748486,-31.829834,,,,,,,
1523521319.248968,-0.661125,-0.068616,-0.539949,0.099791,0.012804,0.040791,-0.612561,0.068562,-0.787444,0.008831,-0.115864,0.025710,18.678772,14.974438,-31.530823,,,,,,,
1523521319.278936,-0.660322,-0.065867,-0.535933,0.129597,0.009422,0.056807,-0.612041,0.065819,-0.788082,-0.003269,-0.107598,-0.042454,19.359863,15.945766,-32.134338,,,,,,,
1523521319.308874,-0.659771,-0.065985,-0.533240,-0.033770,0.015102,0.063068,-0.611602,0.065937,-0.788413,-0.035508,-0.079960,-0.208642,18.607803,15.424679,-31.607666,,,,,,,
1523521319.338842,-0.662285,-0.067627,-0.532892,0.004319,-0.109024,0.021663,-0.613515,0.067575,-0.786786,-0.112300,-0.145212,-0.378237,17.189789,15.806591,-31.084900,,,,,,,
1523521319.368809,-0.666743,-0.066428,-0.530544,0.076149,-0.242300,0.058093,-0.617066,0.066379,-0.784107,0.048050,-0.082172,-0.012555,17.341125,15.806133,-30.859863,,,,,,,
1523521319.398777,-0.671236,-0.067791,-0.528168,-0.018074,-0.047661,0.068465,-0.620526,0.067739,-0.781255,0.155010,-0.021749,0.354024,17.113113,15.507153,-30.858765,,,,,,,
1523521319.428745,-0.668363,-0.064723,-0.525937,0.186120,0.119433,-0.042363,-0.618404,0.064678,-0.783194,0.018902,-0.079952,0.005484,15.756927,14.389080,-30.029968,,,,,,,
1523521319.458714,-0.666056,-0.063995,-0.524492,-0.088150,0.048086,0.076842,-0.616625,0.063952,-0.784655,-0.103056,-0.129091,-0.266096,15.757233,14.239391,-29.729370,,,,,,,
1523521319.488682,-0.666226,-0.069925,-0.527242,-0.290933,-0.042192,-0.011641,-0.616513,0.069868,-0.784239,-0.231708,-0.103895,-0.332079,16.119049,12.738064,-29.423218,,,,,,,
1523521319.518650,-0.670044,-0.074310,-0.534368,-0.183953,-0.154107,-0.151040,-0.619307,0.074242,-0.781631,-0.145067,-0.271599,-0.125077,15.890915,12.513943,-29.572388,,,,,,,
1523521319.548618,-0.673814,-0.075387,-0.535941,-0.014308,-0.130762,0.096266,-0.622198,0.075316,-0.779228,0.026510,-0.195906,0.254662,17.452942,11.980648,-30.844482,,,,,,,
1523521319.578587,-0.673909,-0.079874,-0.531120,0.004139,0.144174,0.279284,-0.622056,0.079789,-0.778897,0.169801,-0.115998,0.509716,17.000137,11.832455,-31.069092,,,,,,,
1523521319.608555,-0.662262,-0.079101,-0.521254,0.457336,0.359562,0.164327,-0.612979,0.079018,-0.786138,0.208026,-0.040383,0.322255,18.347092,11.526394,-31.067200,,,,,,,
1523521319.638523,-0.655810,-0.064427,-0.507170,0.645900,0.157885,0.067700,-0.608536,0.064382,-0.790910,0.035095,-0.056905,-0.202941,19.096161,11.298244,-30.840942,,,,,,,
1523521319.668461,-0.650194,-0.060887,-0.499164,-0.047777,0.095225,0.157814,-0.604219,0.060849,-0.794491,-0.064894,-0.113614,-0.503986,19.244202,11.147518,-30.915283,,,,,,,
1523521319.698429,-0.654021,-0.069822,-0.502625,-0.443408,-0.201395,0.016108,-0.606900,0.069766,-0.791710,-0.006946,-0.182253,-0.037452,19.170242,11.747021,-31.742676,,,,,,,
1523521319.728397,-0.659067,-0.079588,-0.511195,-0.364692,-0.099128,-0.046813,-0.610441,0.079504,-0.788061,0.045592,-0.211797,0.225942,19.094925,12.121670,-32.419250,,,,,,,
1523521319.758366,-0.660454,-0.083399,-0.514489,-0.030361,-0.004726,0.008758,-0.611343,0.083303,-0.786969,0.039139,-0.172902,0.271740,19.480972,13.095165,-32.197937,,,,,,,
1523521319.788334,-0.657362,-0.081782,-0.509931,0.210075,0.186121,0.134482,-0.608989,0.081691,-0.788961,0.003489,-0.126293,0.007985,19.107803,13.321774,-32.274048,,,,,,,
1523521319.818302,-0.650521,-0.079283,-0.501197,0.229948,0.152793,0.183539,-0.603699,0.079200,-0.793268,-0.042755,-0.110313,-0.216024,19.710922,13.319576,-31.748657,,,,,,,
1523521319.848270,-0.649731,-0.077981,-0.493185,0.142486,-0.080693,0.171997,-0.603134,0.077902,-0.793827,0.024429,-0.070700,-0.101300,18.808868,13.023785,-31.597961,,,,,,,
1523521319.878239,-0.652369,-0.080005,-0.489312,-0.071680,-0.080603,0.085519,-0.605129,0.079919,-0.792106,0.052700,-0.025629,0.076316,18.130325,12.352367,-31.070618,,,,,,,
1523521319.908207,-0.654266,-0.081864,-0.490816,-0.055810,-0.056200,-0.067921,-0.606539,0.081773,-0.790837,0.029482,-0.025025,0.036626,17.980179,12.203274,-30.845093,,,,,,,
1523521319.938175,-0.655212,-0.081403,-0.492913,-0.033178,0.006378,-0.057324,-0.607309,0.081313,-0.790293,-0.021139,-0.049178,0.025919,17.900848,11.903408,-31.068909,,,,,,,
1523521319.968143,-0.654291,-0.080930,-0.493051,0.041373,0.047118,0.015153,-0.606605,0.080842,-0.790882,-0.012444,-0.072587,0.113972,17.674805,11.754498,-30.993469,,,,,,,
1523521319.998112,-0.651755,-0.079379,-0.489251,0.154462,0.099532,0.076986,-0.604672,0.079296,-0.792517,0.013608,-0.066769,0.138541,18.872955,11.748806,-31.292847,,,,,,,
1523521320.028049,-0.648077,-0.075573,-0.483924,0.214496,0.118717,0.047179,-0.601931,0.075501,-0.794971,-0.018949,-0.059861,-0.042966,18.418045,11.076153,-30.990356,,,,,,,
1523521320.058018,-0.646006,-0.071820,-0.479173,0.142397,-0.002236,0.048301,-0.600450,0.071758,-0.796436,-0.046111,-0.049282,-0.147519,19.008133,10.173351,-31.136475,,,,,,,
1523521320.087986,-0.647138,-0.071587,-0.477232,-0.027338,-0.035613,0.017319,-0.601361,0.071526,-0.795769,-0.033969,-0.043816,-0.038017,19.759888,10.619518,-31.587891,,,,,,,
1523521320.117954,-0.647261,-0.072767,-0.477454,-0.032508,0.004767,0.019403,-0.601408,0.072703,-0.795627,0.003934,-0.067408,0.013065,19.537903,10.920513,-31.589233,,,,,,,
1523521320.147923,-0.646528,-0.073199,-0.475748,0.061376,0.038224,0.063131,-0.600805,0.073134,-0.796043,0.012106,-0.076918,0.019798,19.541183,11.520046,-32.041626,,,,,,,
1523521320.177891,-0.644984,-0.071152,-0.471029,0.174311,0.021790,0.094129,-0.599664,0.071092,-0.797087,-0.020285,-0.109102,-0.074662,20.362976,11.291195,-32.190247,,,,,,,
1523521320.207859,-0.645642,-0.069284,-0.465651,0.114091,-0.077913,0.089921,-0.600268,0.069228,-0.796797,-0.012434,-0.130721,-0.096574,19.391632,11.520794,-31.966675,,,,,,,
1523521320.237827,-0.647971,-0.068987,-0.462758,0.003235,-0.080563,0.052547,-0.602134,0.068933,-0.795414,-0.011956,-0.136407,-0.078961,19.315872,11.446133,-31.966431,,,,,,,
1523521320.267796,-0.650921,-0.070164,-0.462624,-0.056402,-0.109800,-0.000739,-0.604428,0.070107,-0.793569,0.009854,-0.143196,-0.018016,19.322754,12.046246,-31.818787,,,,,,,
1523521320.297764,-0.653373,-0.070382,-0.463823,-0.032521,-0.066018,-0.039129,-0.606363,0.070324,-0.792072,-0.023245,-0.139400,-0.009945,18.875641,12.198498,-31.594666,,,,,,,
1523521320.327732,-0.654950,-0.070131,-0.464645,-0.017598,-0.052389,-0.019941,-0.607622,0.070074,-0.791129,-0.073698,-0.165899,-0.105920,18.575027,12.274624,-31.820068,,,,,,,
1523521320.357700,-0.656518,-0.071481,-0.465147,-0.080786,-0.031329,0.032188,-0.608804,0.071420,-0.790099,-0.081534,-0.184488,-0.064683,18.870544,11.823284,-31.818115,,,,,,,
1523521320.387639,-0.657503,-0.074676,-0.465285,-0.088392,-0.033625,0.057766,-0.609439,0.074607,-0.789315,-0.056394,-0.173194,0.017815,17.894547,11.453136,-31.367126,,,,,,,
1523521320.417607,-0.658023,-0.076288,-0.464593,-0.003895,-0.011454,0.048217,-0.609775,0.076215,-0.788902,-0.037076,-0.151501,0.032035,17.666870,11.229092,-31.441345,,,,,,,
1523521320.447576,-0.658694,-0.076414,-0.462739,0.024803,-0.030714,0.056784,-0.610298,0.076339,-0.788485,-0.015724,-0.111907,-0.001036,18.417877,11.600246,-31.892456,,,,,,,
1523521320.477544,-0.659047,-0.077572,-0.460928,-0.042351,0.009723,0.071615,-0.610522,0.077494,-0.788199,-0.041791,-0.088588,-0.039102,18.413849,10.925716,-31.439758,,,,,,,
1523521320.507512,-0.658375,-0.079934,-0.460268,-0.056192,0.017243,0.067321,-0.609878,0.079849,-0.788462,-0.048554,-0.079559,-0.041448,18.412201,10.850582,-31.589478,,,,,,,
1523521320.537480,-0.657702,-0.081591,-0.458268,0.003555,0.033888,0.094004,-0.609266,0.081501,-0.788767,-0.013415,-0.090488,0.057764,19.004517,10.397396,-32.112366,,,,,,,
1523521320.567449,-0.655870,-0.081727,-0.454763,0.089048,0.057026,0.098304,-0.607813,0.081636,-0.789873,0.024241,-0.097398,0.050020,19.231277,10.621288,-32.188171,,,,,,,
1523521320.597417,-0.654417,-0.079960,-0.449239,0.162519,0.022766,0.107988,-0.606752,0.079875,-0.790868,0.046037,-0.062663,0.042562,20.503845,10.914669,-33.088684,,,,,,,
1523521320.627385,-0.653425,-0.077245,-0.444110,0.152150,0.030608,0.054692,-0.606097,0.077168,-0.791639,0.029452,-0.047276,-0.032657,20.356094,10.915707,-32.713806,,,,,,,
1523521320.657353,-0.652573,-0.074998,-0.441133,0.059338,-0.000721,0.010958,-0.605526,0.074928,-0.792291,0.013622,-0.063224,-0.060172,19.759415,11.293316,-32.790588,,,,,,,
1523521320.687322,-0.653418,-0.074885,-0.441144,-0.029314,-0.035414,-0.011445,-0.606200,0.074815,-0.791785,0.012267,-0.079149,0.018577,19.388016,11.744839,-32.942566,,,,,,,
1523521320.717290,-0.654112,-0.074341,-0.440822,0.047545,-0.034578,-0.007123,-0.606774,0.074273,-0.791397,0.019173,-0.077538,0.062774,18.722015,12.647823,-32.946533,,,,,,,
1523521320.747228,-0.654990,-0.071935,-0.439106,0.114883,-0.015646,-0.003891,-0.607576,0.071873,-0.791003,0.003938,-0.061055,0.043780,18.795227,12.197948,-32.494629,,,,,,,
1523521320.777196,-0.654343,-0.069234,-0.436809,0.096754,0.010827,0.015251,-0.607180,0.069179,-0.791547,-0.038481,-0.062801,-0.084643,18.268753,12.274944,-32.870239,,,,,,,
1523521320.807164,-0.655040,-0.067572,-0.434501,0.059040,-0.047598,0.028055,-0.607801,0.067520,-0.791214,-0.048556,-0.068344,-0.073029,18.419800,11.974941,-32.193970,,,,,,,
1523521320.837133,-0.656424,-0.066867,-0.433005,0.042010,-0.046461,0.021660,-0.608924,0.066818,-0.790410,-0.026498,-0.071182,-0.016033,18.492859,11.824535,-32.268311,,,,,,,
1523521320.867101,-0.656897,-0.065864,-0.431088,0.063532,-0.004052,0.026965,-0.609338,0.065817,-0.790174,-0.004034,-0.068411,0.024610,18.794479,12.122952,-32.494385,,,,,,,
1523521320.897069,-0.656439,-0.064018,-0.428563,0.125504,0.013801,0.034456,-0.609050,0.063975,-0.790548,-0.009618,-0.065577,-0.034358,18.118011,11.975994,-32.494080,,,,,,,
1523521320.927037,-0.656329,-0.061334,-0.424607,0.123115,-0.019252,0.052593,-0.609065,0.061296,-0.790748,-0.019689,-0.087907,-0.045083,17.361328,11.079784,-32.115906,,,,,,,
1523521320.957006,-0.656555,-0.060500,-0.422384,0.022992,0.006665,0.029051,-0.609275,0.060463,-0.790650,-0.045617,-0.121895,-0.067550,18.561111,11.149242,-32.265625,,,,,,,
1523521320.986974,-0.657055,-0.060390,-0.421428,0.006755,-0.061177,0.012054,-0.609674,0.060354,-0.790351,-0.022223,-0.127691,-0.049935,17.884064,10.627804,-31.738831,,,,,,,
1523521321.016942,-0.658869,-0.060151,-0.421057,0.010122,-0.039857,0.000320,-0.611116,0.060115,-0.789255,-0.019637,-0.111446,-0.023398,17.507278,10.629208,-32.039062,,,,,,,
1523521321.046910,-0.660034,-0.059461,-0.420104,0.030309,-0.046371,0.013126,-0.612060,0.059426,-0.788576,-0.036927,-0.116936,-0.077498,18.181168,10.700863,-32.338989,,,,,,,
1523521321.076879,-0.661222,-0.059573,-0.419306,-0.001751,-0.033660,0.030138,-0.612993,0.059538,-0.787842,-0.039611,-0.135466,-0.047714,17.655014,10.403545,-32.038086,,,,,,,
1523521321.106816,-0.661968,-0.060132,-0.418261,-0.006081,-0.027408,0.048249,-0.613559,0.060096,-0.787358,-0.033963,-0.158195,0.015676,17.947372,9.727077,-32.185242,,,,,,,
1523521321.136785,-0.662168,-0.060961,-0.416367,0.015316,0.000090,0.061012,-0.613686,0.060924,-0.787196,0.001305,-0.138362,0.050044,18.248703,10.175198,-32.711853,,,,,,,
1523521321.166753,-0.662145,-0.060904,-0.414666,0.018638,0.003413,0.040765,-0.613670,0.060866,-0.787213,0.005882,-0.117217,0.059368,17.944382,9.651714,-32.559937,,,,,,,
1523521321.196721,-0.661669,-0.060466,-0.412936,0.021924,0.022497,0.043955,-0.613312,0.060429,-0.787526,0.004791,-0.093999,0.051259,17.946182,9.652004,-32.259949,,,,,,,
1523521321.226689,-0.660475,-0.060638,-0.411629,-0.002490,0.058668,0.047094,-0.612365,0.060601,-0.788249,-0.027345,-0.096505,0.013820,18.396912,9.724987,-32.260010,,,,,,,
1523521321.256658,-0.658730,-0.060994,-0.409794,0.014491,0.051086,0.060971,-0.610974,0.060956,-0.789300,-0.042193,-0.121961,-0.012427,18.092728,9.351269,-32.333679,,,,,,,
1523521321.286626,-0.657479,-0.061600,-0.407761,0.015458,0.036150,0.068449,-0.609965,0.061561,-0.790034,0.005137,-0.112342,0.043940,17.869232,9.502285,-32.334351,,,,,,,
1523521321.316594,-0.656314,-0.061600,-0.404861,0.067727,0.034907,0.075946,-0.609043,0.061561,-0.790744,0.039555,-0.089500,0.077808,18.846130,9.872585,-32.635376,,,,,,,
1523521321.346562,-0.654723,-0.060644,-0.400984,0.103020,0.066597,0.090854,-0.607820,0.060607,-0.791759,0.070573,-0.049224,0.065974,18.321320,9.575466,-32.109436,,,,,,,
1523521321.376505,-0.652663,-0.058847,-0.396712,0.130862,0.040205,0.054683,-0.606253,0.058813,-0.793094,0.038107,-0.034582,-0.032773,18.545547,9.499462,-32.109009,,,,,,,
1523521321.406473,-0.651816,-0.056931,-0.394065,0.053022,0.018380,0.014147,-0.605649,0.056900,-0.793695,-0.013523,-0.043854,-0.109198,19.067093,9.421658,-32.558411,,,,,,,
1523521321.436441,-0.652531,-0.057298,-0.394095,-0.064612,-0.049214,-0.005040,-0.606203,0.057266,-0.793246,-0.021315,-0.067581,-0.045621,18.246460,9.725582,-32.335083,,,,,,,
1523521321.466379,-0.653465,-0.058196,-0.395110,-0.021730,-0.021613,-0.015695,-0.606912,0.058164,-0.792638,-0.014777,-0.062360,0.028768,18.241821,9.350460,-32.483521,,,,,,,
1523521321.496347,-0.653719,-0.057270,-0.394345,0.067828,-0.010401,0.019528,-0.607146,0.057239,-0.792526,0.001464,-0.060062,0.044204,18.774002,9.798504,-32.035095,,,,,,,
1523521321.526315,-0.653947,-0.055085,-0.391240,0.128524,-0.024477,0.036629,-0.607401,0.055058,-0.792485,-0.033560,-0.049961,-0.027385,18.164719,9.050945,-32.332397,,,,,,,
1523521321.556284,-0.654879,-0.052567,-0.387934,0.111453,-0.031813,0.028099,-0.608222,0.052543,-0.792026,-0.066095,-0.064811,-0.136746,18.312347,8.675518,-32.105835,,,,,,,
1523521321.586252,-0.657033,-0.051525,-0.386163,0.009786,-0.103707,0.012115,-0.609959,0.051502,-0.790757,-0.066310,-0.075642,-0.099913,18.911697,8.747585,-32.330811,,,,,,,
1523521321.616220,-0.659787,-0.051521,-0.386076,0.006817,-0.080138,-0.013488,-0.612135,0.051499,-0.789074,-0.051805,-0.065644,-0.039341,18.313843,8.825512,-32.106384,,,,,,,
1523521321.646189,-0.661436,-0.050295,-0.385002,0.066676,-0.043259,0.007841,-0.613474,0.050274,-0.788113,-0.036489,-0.076168,-0.020038,18.536102,9.048672,-32.932190,,,,,,,
1523521321.676157,-0.662202,-0.048870,-0.382946,0.084816,-0.017951,0.030199,-0.614121,0.048850,-0.787699,-0.014312,-0.066551,0.026621,19.061249,8.971478,-32.781677,,,,,,,
1523521321.706125,-0.661911,-0.046852,-0.379757,0.117014,0.017039,0.029126,-0.613951,0.046835,-0.787954,-0.015749,-0.063512,0.000829,18.314438,8.975353,-32.257019,,,,,,,
1523521321.736093,-0.661939,-0.045046,-0.377477,0.069943,-0.017818,0.016337,-0.614024,0.045031,-0.788002,-0.081426,-0.088549,-0.152199,18.612625,8.973721,-32.556885,,,,,,,
1523521321.766062,-0.663168,-0.045109,-0.376584,-0.058383,-0.053688,0.024803,-0.614990,0.045094,-0.787244,-0.069702,-0.107899,-0.070635,18.761261,8.972820,-32.781799,,,,,,,
1523521321.796030,-0.664242,-0.048558,-0.377684,-0.119100,-0.001570,0.040679,-0.615736,0.048539,-0.786456,-0.035082,-0.096620,0.051364,18.234787,8.825191,-32.781494,,,,,,,
1523521321.825968,-0.662852,-0.049726,-0.377116,0.055151,0.052133,0.047157,-0.614607,0.049705,-0.787266,-0.043322,-0.134788,0.001911,17.633316,8.677898,-32.781189,,,,,,,
1523521321.855936,-0.662242,-0.048441,-0.372836,0.106950,0.005917,0.104774,-0.614165,0.048422,-0.787691,-0.010759,-0.122946,0.040666,17.861160,8.827099,-32.556641,,,,,,,
1523521321.885904,-0.660889,-0.048379,-0.368592,0.079428,0.049590,0.098322,-0.613101,0.048360,-0.788523,0.007693,-0.105154,-0.006567,17.933304,8.676540,-32.781067,,,,,,,
1523521321.915872,-0.660719,-0.047384,-0.365428,0.052572,-0.036128,0.056837,-0.612996,0.047366,-0.788665,0.008794,-0.091677,-0.039765,18.982513,8.596828,-32.780212,,,,,,,
1523521321.945841,-0.661409,-0.048080,-0.364616,-0.042154,0.012042,0.040732,-0.613519,0.048061,-0.788216,0.040384,-0.087261,0.015679,19.057053,8.371792,-32.479248,,,,,,,
1523521321.975809,-0.661065,-0.048657,-0.364412,-0.011193,-0.004918,0.024783,-0.613231,0.048638,-0.788405,0.026439,-0.106926,0.072828,18.314285,9.050198,-32.407349,,,,,,,
1523521322.005777,-0.660514,-0.048942,-0.363840,0.005037,0.039671,0.023691,-0.612788,0.048923,-0.788731,0.025096,-0.104190,0.134404,18.313690,8.900356,-32.256714,,,,,,,
1523521322.035745,-0.658108,-0.048482,-0.362754,0.044804,0.095907,0.021532,-0.610902,0.048463,-0.790221,0.018831,-0.090806,0.095275,18.092728,9.351269,-32.333679,,,,,,,
