timestamp(unix),attitude_roll(radians),attitude_pitch(radians),attitude_yaw(radians),rotation_rate_x(radians/s),rotation_rate_y(radians/s),rotation_rate_z(radians/s),gravity_x(G),gravity_y(G),gravity_z(G),user_acc_x(G),user_acc_y(G),user_acc_z(G),magnetic_field_x(microteslas),magnetic_field_y(microteslas),magnetic_field_z(microteslas),latitude(degree),longitude(degree),altitude(meter),speed(m/s),course(degree),timestamp(unix),User Mark
,,,,,,,,,,,,,,,,25.318966,51.445535,-19.493656,0.000000,70.312500,1522137260.096980,
1522137261.044913,-0.263404,0.006952,-1.794255,0.069201,-0.203615,0.008346,-0.260362,-0.006952,-0.965486,-0.089705,-0.020011,0.042482,-6.857590,-6.995363,-3.536133,,,,,,,
1522137261.074881,-0.269527,0.007552,-1.794524,0.015224,-0.133156,-0.020528,-0.266268,-0.007552,-0.963869,-0.101102,0.061949,0.122988,-6.546524,-6.470781,-2.563049,,,,,,,
1522137261.104819,-0.268015,0.008250,-1.794889,-0.024233,0.136700,-0.000581,-0.264809,-0.008249,-0.964266,-0.077095,-0.004751,-0.101408,-4.717072,-4.602221,-0.769653,,,,,,,
1522137261.134787,-0.265200,0.006080,-1.794749,-0.079288,0.033593,0.025049,-0.262098,-0.006080,-0.965022,-0.039431,-0.039834,-0.183553,-4.781876,-3.851488,-0.322693,,,,,,,
,,,,,,,,,,,,,,,,25.318966,51.445535,-19.492741,0.000000,70.312500,1522137261.137311,
1522137261.164755,-0.269731,0.004753,-1.794525,-0.020797,-0.268257,0.013678,-0.266469,-0.004753,-0.963832,-0.078487,-0.049416,-0.121831,-3.629974,-1.381304,0.043030,,,,,,,
1522137261.194724,-0.278858,0.000753,-1.795415,-0.243142,-0.328275,0.013575,-0.275257,-0.000753,-0.961370,-0.079113,-0.008006,0.042928,-3.243927,-0.407824,0.264282,,,,,,,
1522137261.224692,-0.288184,-0.006735,-1.796569,-0.201240,-0.230859,0.047606,-0.284206,0.006735,-0.958740,-0.061787,0.004236,0.230697,-3.394516,-0.107744,-0.336975,,,,,,,
1522137261.254660,-0.287138,-0.010674,-1.796302,-0.072178,0.210890,0.044060,-0.283192,0.010673,-0.959004,-0.025691,-0.021538,0.129231,-3.982849,1.469221,-1.018555,,,,,,,
1522137261.284628,-0.278554,-0.010991,-1.794928,0.053818,0.233839,0.061175,-0.274949,0.010991,-0.961396,-0.011016,-0.114431,-0.082671,-4.495239,2.596754,-0.798340,,,,,,,
1522137261.314597,-0.281154,-0.006934,-1.791763,0.218444,-0.219130,0.042588,-0.277457,0.006934,-0.960713,-0.055261,-0.078055,0.007283,-6.814316,3.057402,-0.576294,,,,,,,
1522137261.344565,-0.285253,-0.000751,-1.790444,0.160680,-0.113114,-0.051339,-0.281400,0.000751,-0.959590,-0.089908,-0.049351,-0.023061,-7.631180,3.511686,0.021484,,,,,,,
1522137261.374533,-0.289957,0.002047,-1.791153,0.032267,-0.161770,-0.037535,-0.285910,-0.002047,-0.958254,-0.080972,0.020236,0.050265,-8.586487,4.268003,2.042969,,,,,,,
1522137261.404502,-0.292223,0.002887,-1.791931,-0.015153,-0.002388,-0.019616,-0.288080,-0.002887,-0.957602,-0.055608,0.052111,-0.064691,-9.328354,4.497313,3.016663,,,,,,,
1522137261.434470,-0.293041,-0.000755,-1.792613,-0.222001,-0.101181,0.047468,-0.288865,0.000755,-0.957369,-0.054168,0.036523,-0.060224,-8.631790,5.396269,5.113403,,,,,,,
1522137261.464438,-0.299273,-0.009029,-1.792712,-0.245176,-0.227805,0.081670,-0.294814,0.009029,-0.955512,-0.052201,0.064442,0.116050,-8.629837,5.097090,5.939636,,,,,,,
1522137261.494406,-0.304518,-0.012437,-1.792166,0.031184,-0.095251,0.023134,-0.299810,0.012436,-0.953918,-0.056910,0.026199,0.148788,-8.776199,5.098356,6.539551,,,,,,,
1522137261.524375,-0.306358,-0.009308,-1.790470,0.143270,-0.104015,0.020034,-0.301575,0.009308,-0.953397,-0.036391,-0.033142,0.086987,-8.855087,4.573927,6.766602,,,,,,,
1522137261.554343,-0.308703,-0.006592,-1.789936,0.065373,0.061364,-0.049446,-0.303817,0.006592,-0.952707,-0.005418,-0.013199,-0.031545,-9.680496,4.352949,7.067078,,,,,,,
1522137261.584311,-0.305583,-0.004274,-1.792070,0.052638,0.021391,-0.100571,-0.300846,0.004274,-0.953663,-0.008251,-0.061342,-0.267071,-10.585220,3.607466,7.519592,,,,,,,
1522137261.614268,-0.316956,-0.003372,-1.795673,-0.097746,-0.725886,-0.161728,-0.311673,0.003372,-0.950183,0.005582,-0.031052,-0.231274,-11.036697,3.234877,7.895874,,,,,,,
1522137261.644237,-0.345687,-0.007522,-1.804228,-0.293546,-0.935085,-0.262889,-0.338833,0.007522,-0.940816,-0.054019,0.066315,0.066350,-12.228683,2.867201,9.846741,,,,,,,
1522137261.674205,-0.364918,-0.012566,-1.814307,-0.241721,-0.513715,-0.213189,-0.356844,0.012566,-0.934079,-0.107222,0.009544,0.102841,-12.443909,2.944670,11.346313,,,,,,,
1522137261.704173,-0.378412,-0.016414,-1.818742,-0.133222,-0.346600,0.009424,-0.369396,0.016413,-0.929127,-0.106785,0.058889,0.138798,-10.926239,2.865904,14.422424,,,,,,,
1522137261.734141,-0.382183,-0.018470,-1.816200,0.065294,0.012311,0.127478,-0.372884,0.018468,-0.927694,-0.035014,0.048716,0.060964,-10.392700,2.864943,15.847717,,,,,,,
1522137261.764110,-0.380916,-0.014121,-1.811361,0.269717,0.065289,0.077494,-0.371733,0.014120,-0.928232,-0.030259,-0.024527,0.010706,-6.334915,2.922880,17.049500,,,,,,,
1522137261.794078,-0.378869,-0.004323,-1.805159,0.471454,0.027751,0.055306,-0.369866,0.004323,-0.929075,-0.018119,-0.072346,-0.044299,-3.034897,2.833174,17.201477,,,,,,,
1522137261.824046,-0.384291,0.006984,-1.799494,0.355024,-0.274488,0.009709,-0.374892,-0.006984,-0.927042,-0.023042,-0.032125,0.113809,1.830002,2.585020,15.929932,,,,,,,
1522137261.854014,-0.386649,0.015892,-1.797567,0.287206,0.180214,-0.104808,-0.377039,-0.015891,-0.926061,-0.063894,0.022239,0.086720,3.923157,2.574476,14.806030,,,,,,,
1522137261.883983,-0.370204,0.024103,-1.798185,0.161228,0.672447,-0.092624,-0.361701,-0.024101,-0.931982,-0.097818,-0.047372,-0.306329,8.409729,2.626951,12.483032,,,,,,,
1522137261.913951,-0.361018,0.022991,-1.798400,-0.152406,-0.033449,0.065549,-0.353134,-0.022989,-0.935290,-0.080903,-0.045904,-0.130521,8.994263,2.247374,10.534851,,,,,,,
1522137261.943919,-0.366093,0.018614,-1.798711,-0.089391,-0.096974,0.008131,-0.357908,-0.018613,-0.933571,-0.076266,0.023053,0.200630,9.732819,2.092405,8.885803,,,,,,,
1522137261.973888,-0.361767,0.016470,-1.799451,-0.131546,0.276029,0.019443,-0.353880,-0.016469,-0.935146,-0.084933,-0.036098,0.178325,10.908768,1.259489,6.264709,,,,,,,
1522137262.003856,-0.352508,0.009272,-1.800488,-0.261713,0.338768,0.057650,-0.345238,-0.009272,-0.938469,-0.012184,-0.065252,0.141426,9.777664,1.188688,5.364502,,,,,,,
1522137262.033824,-0.338797,0.004975,-1.801469,-0.031091,0.493852,-0.014797,-0.332349,-0.004975,-0.943143,0.040402,-0.072189,-0.135318,9.766266,0.812468,4.090942,,,,,,,
1522137262.063792,-0.329573,0.008803,-1.801060,0.199921,0.089577,-0.029129,-0.323626,-0.008803,-0.946144,0.018069,-0.066697,-0.299614,9.396652,1.713514,3.487183,,,,,,,
1522137262.093761,-0.337465,0.013791,-1.800227,0.099161,-0.464884,-0.023324,-0.331065,-0.013791,-0.943507,-0.018133,-0.014285,-0.084874,9.019104,1.864546,2.811401,,,,,,,
,,,,,,,,,,,,,,,,25.318966,51.445535,-19.493168,0.000000,70.312500,1522137262.104008,
1522137262.123729,-0.352710,0.013489,-1.801446,-0.118174,-0.423566,-0.078941,-0.345410,-0.013489,-0.938355,-0.063357,0.061920,0.131348,8.343796,2.017286,2.510376,,,,,,,
1522137262.153697,-0.354287,0.007844,-1.807117,-0.331000,0.197562,-0.086108,-0.346911,-0.007844,-0.937865,-0.094938,0.026856,0.054641,7.912384,4.193693,1.976501,,,,,,,
1522137262.183665,-0.346013,-0.001715,-1.809895,-0.297555,0.249337,0.096066,-0.339150,0.001715,-0.940731,-0.029838,-0.009375,-0.061284,6.785156,4.423018,1.225037,,,,,,,
1522137262.213634,-0.345153,-0.008709,-1.807753,-0.118050,-0.126609,0.154112,-0.338328,0.008709,-0.940988,0.038203,-0.002743,0.116128,4.985809,5.030210,0.321655,,,,,,,
1522137262.243602,-0.346457,-0.008537,-1.804753,0.154812,0.109420,0.037938,-0.339555,0.008537,-0.940547,0.030427,-0.005760,0.118053,4.391968,5.558027,0.469299,,,,,,,
1522137262.273570,-0.341785,-0.002231,-1.803189,0.210794,0.114117,-0.046199,-0.335169,0.002231,-0.942155,0.023203,-0.063098,-0.026488,3.114639,5.188993,0.695129,,,,,,,
1522137262.303538,-0.340180,0.002725,-1.803444,0.114431,0.018928,-0.076008,-0.333656,-0.002725,-0.942691,-0.010781,-0.026740,-0.102109,1.612152,5.345091,0.018738,,,,,,,
1522137262.333507,-0.342922,0.005984,-1.804602,0.079283,-0.182996,-0.060905,-0.336234,-0.005984,-0.941759,-0.038430,0.028216,-0.134962,1.457214,4.671080,0.321350,,,,,,,
1522137262.363475,-0.349520,0.008055,-1.805411,0.012855,-0.208454,-0.040699,-0.342436,-0.008055,-0.939506,-0.071642,0.060637,-0.041985,-0.497650,4.454435,-0.128784,,,,,,,
1522137262.393443,-0.354014,0.006521,-1.806858,-0.107243,-0.070125,-0.026006,-0.346658,-0.006520,-0.937969,-0.090003,0.073888,0.059047,-1.027878,4.156446,-0.502869,,,,,,,
1522137262.423411,-0.348760,0.002048,-1.809114,-0.193293,0.286962,-0.004048,-0.341732,-0.002048,-0.939795,-0.078175,0.016955,-0.033670,-0.966660,2.955870,-0.797974,,,,,,,
1522137262.453380,-0.340890,-0.002977,-1.809648,-0.133162,0.204512,0.064275,-0.334324,0.002977,-0.942453,0.016987,-0.056215,-0.104147,-2.405670,1.687132,-1.018616,,,,,,,
1522137262.483348,-0.338860,-0.005427,-1.808244,0.017387,-0.029616,0.063546,-0.332407,0.005427,-0.943120,0.056971,-0.058421,0.044835,-3.398712,-0.258181,-0.786377,,,,,,,
1522137262.513316,-0.339943,-0.002528,-1.806444,0.147139,0.022553,0.001796,-0.333433,0.002528,-0.942770,0.066297,-0.046107,0.119604,-3.998260,-0.255404,-0.711670,,,,,,,
1522137262.543284,-0.336654,0.002355,-1.805952,0.129905,0.154814,-0.061225,-0.330330,-0.002355,-0.943862,0.038887,-0.057566,0.013381,-5.879883,-1.820421,0.793640,,,,,,,
1522137262.573253,-0.331919,0.005035,-1.806726,0.042179,0.141042,-0.037826,-0.325853,-0.005035,-0.945407,-0.014372,-0.044144,-0.082044,-6.479538,-2.192049,1.469849,,,,,,,
1522137262.603196,-0.329203,0.005573,-1.807051,-0.030267,-0.005721,0.008073,-0.323284,-0.005573,-0.946285,-0.039371,-0.026944,-0.139271,-7.663116,-2.258883,4.319580,,,,,,,
1522137262.633164,-0.331021,0.001551,-1.807061,-0.202738,-0.070509,0.063423,-0.325008,-0.001551,-0.945710,-0.018192,0.002268,-0.039764,-7.127151,-2.334337,6.270081,,,,,,,
1522137262.663133,-0.333078,-0.006177,-1.807413,-0.267718,-0.026848,0.072922,-0.326947,0.006177,-0.945022,0.033948,0.047046,0.093154,-6.300491,-2.936785,7.547913,,,,,,,
1522137262.693101,-0.329346,-0.011525,-1.807661,-0.090221,0.220576,0.032319,-0.323402,0.011525,-0.946191,0.096428,0.001872,0.040414,-3.373154,-4.372164,10.330139,,,,,,,
1522137262.723069,-0.322917,-0.012077,-1.807389,0.040984,0.163052,0.005838,-0.317311,0.012077,-0.948244,0.123127,-0.049278,-0.089826,-1.795090,-4.378740,10.855957,,,,,,,
1522137262.753037,-0.321204,-0.009691,-1.806801,0.091475,-0.035613,-0.019490,-0.315694,0.009691,-0.948811,0.106710,-0.079912,-0.091960,1.876953,-5.219362,11.761169,,,,,,,
1522137262.783006,-0.324994,-0.007266,-1.806847,0.087919,-0.146960,-0.049222,-0.319295,0.007266,-0.947627,0.036778,0.001233,0.092037,4.425354,-5.380831,11.763062,,,,,,,
1522137262.812974,-0.325462,-0.002921,-1.808251,0.137244,0.065861,-0.110132,-0.319745,0.002921,-0.947499,-0.021472,0.065118,0.072880,7.640167,-5.995974,11.092163,,,,,,,
1522137262.842942,-0.321198,0.000205,-1.809744,0.016404,0.114509,-0.032495,-0.315703,-0.000205,-0.948858,-0.026322,-0.008843,-0.068110,9.736176,-5.856310,10.192627,,,,,,,
1522137262.872910,-0.320653,0.000056,-1.808847,0.042951,-0.050891,0.057196,-0.315186,-0.000056,-0.949030,0.017197,0.000071,-0.041800,11.991867,-4.068483,8.161560,,,,,,,
1522137262.902879,-0.322596,0.000720,-1.806778,0.026098,-0.020986,0.040112,-0.317029,-0.000720,-0.948415,0.039716,0.018848,-0.038661,11.841537,-3.244234,6.733215,,,,,,,
1522137262.932847,-0.323573,0.000584,-1.806540,-0.002491,-0.032198,-0.016378,-0.317956,-0.000584,-0.948105,0.058450,0.049793,0.006409,12.234268,-0.248034,4.696472,,,,,,,
1522137262.962815,-0.323183,0.003038,-1.807761,0.116694,0.025436,-0.095194,-0.317585,-0.003038,-0.948225,0.042591,0.033922,-0.024874,11.342377,0.880445,4.166504,,,,,,,
1522137262.992783,-0.323761,0.007446,-1.808844,0.126789,-0.070428,-0.066320,-0.318125,-0.007446,-0.948019,0.027811,0.017456,-0.030695,11.281586,2.530333,3.784851,,,,,,,
1522137263.022752,-0.324820,0.009214,-1.809499,0.022334,0.005066,-0.035576,-0.319125,-0.009213,-0.947668,0.019411,0.021954,-0.021464,12.048599,4.551359,3.252136,,,,,,,
1522137263.052720,-0.323172,0.009925,-1.810522,0.033260,0.053921,-0.038800,-0.317561,-0.009925,-0.948186,0.017329,-0.023004,-0.086955,12.132431,5.301191,3.474182,,,,,,,
1522137263.082688,-0.322995,0.010676,-1.810520,0.029402,-0.037755,0.006033,-0.317390,-0.010675,-0.948235,0.031638,-0.033270,-0.078666,11.543991,6.279142,3.769958,,,,,,,
,,,,,,,,,,,,,,,,25.318966,51.445535,-19.492802,0.000000,70.312500,1522137263.090785,
1522137263.112656,-0.325686,0.010692,-1.809752,-0.008526,-0.127111,0.034857,-0.319940,-0.010692,-0.947377,0.038248,-0.004048,-0.034862,11.167953,6.355528,3.469482,,,,,,,
1522137263.142625,-0.329424,0.009079,-1.809047,-0.065974,-0.083399,0.033708,-0.323485,-0.009079,-0.946190,0.047743,0.048203,0.091423,12.663818,6.572752,2.419373,,,,,,,
1522137263.172593,-0.327254,0.008757,-1.809188,0.034492,0.118615,-0.017572,-0.321431,-0.008757,-0.946892,0.046956,0.025618,0.002663,13.183380,6.569517,1.519653,,,,,,,
1522137263.202561,-0.324516,0.010947,-1.809058,0.076751,0.024958,-0.012116,-0.318831,-0.010947,-0.947748,0.045134,-0.029337,-0.116980,14.440887,6.935331,-2.006226,,,,,,,
1522137263.232529,-0.327274,0.011397,-1.808519,0.010692,-0.150411,0.015721,-0.321442,-0.011396,-0.946860,0.035614,0.020582,0.023307,13.379517,6.788450,-3.656128,,,,,,,
1522137263.262498,-0.329031,0.012370,-1.808939,0.027791,0.006260,-0.056881,-0.323102,-0.012370,-0.946283,0.008740,0.034068,-0.023337,10.883011,6.571470,-6.881531,,,,,,,
1522137263.292466,-0.326660,0.011592,-1.811323,-0.113925,0.067200,-0.059181,-0.320860,-0.011592,-0.947055,0.003752,-0.006566,-0.127850,10.347961,6.422453,-8.306213,,,,,,,
1522137263.322434,-0.325634,0.009096,-1.813529,-0.054688,-0.026644,-0.033465,-0.319896,-0.009096,-0.947409,0.019389,-0.026655,-0.078241,7.270386,6.435850,-8.757812,,,,,,,
1522137263.352403,-0.329504,0.008459,-1.814027,-0.026597,-0.143857,0.005024,-0.323562,-0.008458,-0.946169,-0.001984,0.007635,0.029497,3.428467,5.551786,-10.106201,,,,,,,
1522137263.382371,-0.330222,0.005550,-1.814427,-0.135923,0.024130,0.028225,-0.324248,-0.005550,-0.945956,0.028410,-0.000538,0.042406,1.703690,5.260069,-9.580872,,,,,,,
1522137263.412339,-0.327087,0.002771,-1.814897,-0.026256,0.169605,0.005775,-0.321284,-0.002771,-0.946978,0.055537,-0.021308,0.030597,-3.777496,4.460035,-9.280396,,,,,,,
1522137263.442307,-0.323111,0.005585,-1.814289,0.138717,0.030120,-0.014198,-0.317513,-0.005585,-0.948237,0.062706,-0.050186,-0.087575,-5.570816,4.544081,-8.306641,,,,,,,
1522137263.472276,-0.326058,0.007809,-1.813334,0.024703,-0.118562,0.016756,-0.320301,-0.007809,-0.947283,0.038547,0.022992,0.028567,-7.522186,3.504362,-6.803467,,,,,,,
1522137263.502244,-0.325568,0.008328,-1.813561,0.029172,0.101736,-0.034601,-0.319836,-0.008327,-0.947436,0.016232,0.061535,0.012011,-8.937958,2.988142,-4.402100,,,,,,,
1522137263.532212,-0.321331,0.009390,-1.814189,0.006562,0.083605,-0.015428,-0.315816,-0.009390,-0.948774,-0.000133,0.050100,-0.100573,-9.222916,2.917051,-1.776978,,,,,,,
1522137263.562180,-0.320555,0.008625,-1.814770,-0.048465,-0.035356,-0.005747,-0.315081,-0.008625,-0.949025,0.019458,0.025791,-0.097942,-7.487473,3.285368,-0.652527,,,,,,,
1522137263.592149,-0.324265,0.007096,-1.815129,-0.026507,-0.136346,-0.005637,-0.318604,-0.007095,-0.947861,0.018463,0.023102,0.094834,-5.895889,3.730223,1.371399,,,,,,,
1522137263.622135,-0.324915,0.006355,-1.815833,-0.012778,0.044397,-0.024988,-0.319222,-0.006355,-0.947658,0.025688,0.001000,0.094433,-4.770493,3.725233,1.447021,,,,,,,
1522137263.652103,-0.322103,0.007006,-1.817017,0.028291,0.124180,-0.051677,-0.316554,-0.007006,-0.948548,0.030116,-0.053434,-0.034057,-2.447083,3.564772,1.448853,,,,,,,
1522137263.682071,-0.319722,0.009208,-1.817475,0.114117,0.006920,-0.028058,-0.314289,-0.009208,-0.949282,0.044971,-0.064126,-0.101545,-0.813034,2.281904,0.929810,,,,,,,
1522137263.712040,-0.322582,0.013689,-1.816011,0.166580,-0.150780,0.013703,-0.316987,-0.013689,-0.948331,0.013139,0.008272,-0.054218,0.520752,0.925459,0.485901,,,,,,,
1522137263.742008,-0.326021,0.014644,-1.815140,-0.093682,-0.082210,0.025164,-0.320242,-0.014644,-0.947222,-0.015558,0.044627,0.011706,1.833237,-1.931932,-1.002014,,,,,,,
1522137263.771976,-0.325377,0.010647,-1.816428,-0.128028,0.068008,-0.016577,-0.319648,-0.010647,-0.947476,-0.026604,0.075557,0.018811,1.512909,-3.880632,-1.144409,,,,,,,
1522137263.801944,-0.323203,0.009423,-1.817597,-0.001221,0.014535,-0.014290,-0.317591,-0.009423,-0.948181,-0.015417,0.037438,-0.030839,0.875351,-7.103655,-2.031799,,,,,,,
1522137263.831913,-0.325597,0.010045,-1.816892,0.055893,-0.066629,0.021008,-0.319858,-0.010044,-0.947412,0.002628,0.051350,0.140756,1.763641,-8.232714,-2.101868,,,,,,,
1522137263.861881,-0.323619,0.013792,-1.815765,0.201424,0.183113,-0.032423,-0.317970,-0.013792,-0.948000,0.000999,0.023893,0.068697,-0.194519,-9.048906,-2.099548,,,,,,,
1522137263.891849,-0.316843,0.017987,-1.815715,0.056231,0.180314,-0.036789,-0.311518,-0.017986,-0.950070,0.004221,-0.075947,-0.200550,-0.414551,-8.822466,-1.650574,,,,,,,
1522137263.921818,-0.319652,0.016719,-1.816103,-0.059076,-0.239449,0.009363,-0.314192,-0.016719,-0.949212,0.010237,-0.022283,-0.003928,-0.921860,-7.319735,-1.206909,,,,,,,
1522137263.951786,-0.322444,0.019014,-1.816762,0.174495,0.065612,-0.087728,-0.316828,-0.019013,-0.948292,-0.028249,0.033356,0.057957,-0.691635,-6.795778,-1.208862,,,,,,,
1522137263.981754,-0.319227,0.022864,-1.818102,-0.000833,0.052030,-0.056952,-0.313751,-0.022862,-0.949230,-0.044770,-0.051097,-0.179722,1.738953,-3.956347,-0.843994,,,,,,,
1522137264.011722,-0.319356,0.018694,-1.819942,-0.234477,-0.059504,0.018646,-0.313900,-0.018693,-0.949272,-0.026554,-0.017013,-0.064217,2.499542,-2.984621,-0.697510,,,,,,,
1522137264.041691,-0.322153,0.011724,-1.820848,-0.183413,-0.063039,0.050651,-0.316588,-0.011724,-0.948490,-0.020906,0.062108,0.066426,2.878387,-2.012316,-1.676147,,,,,,,
1522137264.071659,-0.322261,0.008113,-1.820083,-0.063573,0.017272,0.070909,-0.316702,-0.008113,-0.948490,0.007940,0.020366,0.096806,1.914001,0.314924,-3.786011,,,,,,,
1522137264.101627,-0.320349,0.007610,-1.818035,0.075700,0.106294,0.056002,-0.314888,-0.007610,-0.949098,0.032357,-0.003284,0.072557,2.441971,1.061796,-4.538696,,,,,,,
,,,,,,,,,,,,,,,,25.318968,51.445585,-19.219517,-1.000000,-1.000000,1522137264.109733,
1522137264.131595,-0.317578,0.012575,-1.815966,0.220998,0.046927,-0.014160,-0.312242,-0.012575,-0.949919,0.036531,-0.048414,-0.108705,-0.468735,2.949125,-5.297729,,,,,,,
1522137264.161564,-0.318379,0.016465,-1.815173,0.040915,-0.103574,-0.006680,-0.312985,-0.016464,-0.949615,0.002865,-0.069367,-0.168946,-1.731232,3.705641,-4.476379,,,,,,,
1522137264.191532,-0.325726,0.015456,-1.815175,-0.052785,-0.272378,0.004080,-0.319958,-0.015455,-0.947305,-0.009617,0.008055,0.079462,-2.893555,5.813627,-1.710327,,,,,,,
1522137264.221500,-0.328240,0.014324,-1.816643,-0.046555,0.084085,-0.065545,-0.322344,-0.014323,-0.946514,-0.038328,0.027431,0.076244,-3.775543,6.943724,-0.590332,,,,,,,
1522137264.251468,-0.325398,0.010427,-1.819433,-0.223290,0.020383,-0.011268,-0.319669,-0.010427,-0.947471,-0.038958,-0.030009,-0.076119,-0.901505,8.132811,1.431335,,,,,,,
1522137264.281437,-0.324910,0.004600,-1.820922,-0.123063,0.027346,0.020767,-0.319220,-0.004600,-0.947669,-0.022440,0.003821,-0.019372,-0.442383,8.506636,2.330078,,,,,,,
1522137264.311405,-0.324596,0.004701,-1.820335,0.061483,-0.007124,0.022004,-0.318923,-0.004701,-0.947769,-0.039995,-0.013503,-0.007554,1.522064,9.548475,3.001892,,,,,,,
1522137264.341373,-0.325444,0.004688,-1.819322,-0.044436,-0.035667,0.039000,-0.319726,-0.004688,-0.947498,0.000222,0.014866,0.075229,3.693054,9.463179,2.478271,,,,,,,
1522137264.371341,-0.324069,0.003781,-1.818884,0.031263,0.141816,0.007979,-0.318424,-0.003781,-0.947941,0.026737,0.045346,0.074100,4.440186,9.309599,2.254333,,,,,,,
1522137264.401310,-0.318354,0.008315,-1.818259,0.206736,0.176720,-0.032410,-0.312993,-0.008315,-0.949719,0.017857,-0.024599,-0.175587,4.876114,8.032408,2.034668,,,,,,,
1522137264.431278,-0.317102,0.013163,-1.816904,0.115659,-0.083667,0.008267,-0.311787,-0.013163,-0.950061,-0.016613,0.013163,-0.116132,5.084763,6.980497,1.063904,,,,,,,
1522137264.461246,-0.321661,0.014487,-1.816746,-0.015737,-0.138366,-0.024805,-0.316110,-0.014486,-0.948612,-0.043692,0.043707,0.042835,3.937042,5.109999,0.395874,,,,,,,
1522137264.491214,-0.323279,0.011386,-1.818724,-0.175237,0.003390,-0.028269,-0.317657,-0.011386,-0.948137,-0.038422,0.051730,0.123811,3.618637,3.535994,-0.048035,,,,,,,
1522137264.521183,-0.320060,0.006972,-1.820824,-0.115788,0.184798,-0.009217,-0.314616,-0.006972,-0.949193,0.028727,0.018889,0.066518,3.153244,2.262632,-0.493164,,,,,,,
1522137264.551120,-0.314070,0.007422,-1.820329,0.115537,0.143597,0.025098,-0.308924,-0.007422,-0.951057,0.060190,-0.052316,-0.064979,2.918549,1.064070,-0.113525,,,,,,,
1522137264.581089,-0.316083,0.011657,-1.817469,0.179251,-0.141496,0.048867,-0.310825,-0.011657,-0.950395,0.037677,-0.011582,0.048097,2.453415,0.090269,-1.009827,,,,,,,
1522137264.611034,-0.316619,0.015922,-1.815772,0.136791,0.065292,-0.025968,-0.311316,-0.015921,-0.950173,0.011191,0.026648,-0.021492,3.571014,-0.290361,-1.607788,,,,,,,
1522137264.641002,-0.314989,0.019018,-1.815814,0.052182,0.007025,-0.023828,-0.309750,-0.019017,-0.950628,-0.004322,0.017277,-0.107219,1.836487,-0.433901,-2.958008,,,,,,,
1522137264.670971,-0.316712,0.019815,-1.815799,0.016392,-0.091859,-0.002445,-0.311383,-0.019814,-0.950078,0.007931,0.042489,-0.045803,1.079468,-0.506548,-4.008118,,,,,,,
1522137264.700939,-0.318721,0.019455,-1.815860,-0.035850,-0.059918,0.009195,-0.313293,-0.019453,-0.949457,-0.007767,0.019743,0.016779,-0.576187,-0.350298,-5.209595,,,,,,,
1522137264.730907,-0.317868,0.017288,-1.816403,-0.079907,0.089089,-0.011225,-0.312495,-0.017287,-0.949762,0.016399,-0.025361,-0.001578,-3.874741,0.338636,-6.114014,,,,,,,
1522137264.760875,-0.314802,0.015987,-1.817515,-0.017985,0.073080,-0.023946,-0.309588,-0.015987,-0.950736,0.033008,-0.064122,-0.051889,-5.664902,1.097075,-5.742920,,,,,,,
1522137264.790844,-0.315689,0.016445,-1.818022,0.019623,-0.097098,-0.013097,-0.310430,-0.016445,-0.950454,0.023564,-0.049214,0.000441,-7.295044,1.781569,-3.571411,,,,,,,
1522137264.820812,-0.317766,0.016148,-1.818311,-0.053707,-0.014091,-0.005772,-0.312404,-0.016147,-0.949812,0.002559,0.008945,-0.046740,-8.255585,2.237547,-1.923767,,,,,,,
1522137264.850780,-0.315561,0.013892,-1.819475,-0.112055,0.072117,-0.003775,-0.310320,-0.013891,-0.950530,-0.012526,-0.038812,-0.188462,-7.566345,1.862440,1.078064,,,,,,,
1522137264.880748,-0.317175,0.010343,-1.819935,-0.118704,-0.169397,0.040157,-0.311867,-0.010343,-0.950069,-0.035255,-0.036211,-0.103062,-5.837341,1.630720,2.129883,,,,,,,
1522137264.910717,-0.322757,0.005277,-1.820176,-0.209295,-0.133036,0.040049,-0.317178,-0.005277,-0.948351,-0.025672,0.012724,0.071169,-5.613342,0.356657,4.085083,,,,,,,
1522137264.940685,-0.321492,-0.000952,-1.821821,-0.195065,0.138156,0.002494,-0.315982,0.000952,-0.948764,0.000660,-0.008658,0.046420,-5.243423,-0.694094,4.989502,,,,,,,
1522137264.970653,-0.317676,-0.003973,-1.822501,-0.037257,0.104732,0.014371,-0.312357,0.003973,-0.949956,0.039530,-0.041662,0.013448,-2.694702,-1.903765,6.795593,,,,,,,
1522137265.000621,-0.316624,-0.001838,-1.821213,0.146695,-0.050930,0.024250,-0.311359,0.001838,-0.950290,0.052707,-0.046928,-0.011288,-1.794708,-2.581682,7.923767,,,,,,,
1522137265.030590,-0.319161,0.002151,-1.819069,0.121197,-0.026402,0.021009,-0.313769,-0.002151,-0.949496,0.017504,0.009856,0.003864,0.077423,-3.863451,9.579834,,,,,,,
1522137265.060558,-0.317274,0.003422,-1.818733,-0.005356,0.046404,-0.012191,-0.311976,-0.003422,-0.950083,-0.019903,0.001927,-0.115529,2.925812,-4.250887,9.957825,,,,,,,
1522137265.090526,-0.318700,0.003744,-1.819052,0.017381,-0.116253,-0.008815,-0.313330,-0.003744,-0.949636,-0.035929,0.036841,-0.024424,3.147964,-4.626741,10.109375,,,,,,,
,,,,,,,,,,,,,,,,25.318969,51.445590,-19.241367,-1.000000,-1.000000,1522137265.098523,
1522137265.120494,-0.320255,0.004899,-1.819038,0.037075,-0.014284,-0.011029,-0.314805,-0.004899,-0.949143,-0.009231,0.046205,0.085984,4.793854,-4.859438,9.811157,,,,,,,
1522137265.150463,-0.318876,0.004330,-1.818998,-0.060812,0.093091,0.016493,-0.313497,-0.004330,-0.949579,0.026479,0.045956,0.065286,6.215912,-4.791445,9.211609,,,,,,,
1522137265.180431,-0.315136,0.002815,-1.819364,0.013260,0.154716,-0.008025,-0.309944,-0.002815,-0.950750,0.038246,-0.005364,-0.031351,5.854858,-3.439745,9.281006,,,,,,,
1522137265.210399,-0.312559,0.006417,-1.818516,0.226094,-0.012585,-0.017283,-0.307488,-0.006417,-0.951530,0.041024,-0.019050,-0.032616,6.316223,-2.391680,9.427063,,,,,,,
1522137265.240368,-0.314271,0.013456,-1.817066,0.194120,-0.020861,-0.036485,-0.309095,-0.013455,-0.950936,0.009626,0.017224,-0.024666,7.087753,-0.594561,10.020203,,,,,,,
1522137265.270336,-0.314059,0.015402,-1.817428,-0.007750,-0.020473,-0.020651,-0.308885,-0.015402,-0.950974,-0.015395,0.057058,0.000870,7.916611,-0.298143,10.169495,,,,,,,
1522137265.300304,-0.313447,0.015887,-1.817990,0.028849,0.045333,-0.021761,-0.308301,-0.015886,-0.951156,-0.008853,0.037172,-0.060624,10.842056,0.512419,8.892700,,,,,,,
1522137265.330272,-0.313134,0.015717,-1.817775,-0.018710,-0.031385,0.024103,-0.308003,-0.015716,-0.951255,-0.002345,-0.004028,-0.027200,12.030304,0.055876,7.695129,,,,,,,
1522137265.360241,-0.314394,0.015462,-1.817268,0.016745,-0.010062,0.000671,-0.309203,-0.015461,-0.950870,0.023604,-0.020519,0.049335,12.759827,0.124067,4.170227,,,,,,,
1522137265.390209,-0.313939,0.015665,-1.817661,0.009554,0.018845,-0.028131,-0.308769,-0.015665,-0.951007,0.021446,-0.021903,0.012012,12.220444,-0.100527,2.145813,,,,,,,
1522137265.420177,-0.313025,0.015788,-1.818160,0.003148,0.036809,-0.012168,-0.307900,-0.015787,-0.951287,0.046745,-0.024984,0.009851,12.883087,-0.030687,-0.029114,,,,,,,
1522137265.450145,-0.311753,0.017376,-1.817898,0.064947,0.026975,0.003874,-0.306681,-0.017375,-0.951653,0.031001,-0.021352,-0.097587,10.166061,0.203321,-3.256409,,,,,,,
1522137265.480114,-0.313655,0.017209,-1.817053,-0.071626,-0.134520,0.050811,-0.308492,-0.017208,-0.951071,-0.002162,-0.028919,-0.115000,9.486282,0.579954,-4.683228,,,,,,,
1522137265.510082,-0.317540,0.014267,-1.816886,-0.087224,-0.090609,0.008130,-0.312199,-0.014267,-0.949909,-0.018612,0.033035,0.083820,6.469727,0.590742,-7.459839,,,,,,,
1522137265.540050,-0.315333,0.012494,-1.818291,-0.080762,0.115786,-0.029368,-0.310108,-0.012494,-0.950619,-0.008160,-0.005115,-0.042362,4.885330,0.371672,-8.659729,,,,,,,
1522137265.570018,-0.314148,0.009913,-1.819402,-0.083693,-0.020488,0.007003,-0.308991,-0.009913,-0.951013,0.021195,-0.031942,-0.028846,2.038895,0.909178,-8.963318,,,,,,,
1522137265.599987,-0.315777,0.008689,-1.819103,0.013375,-0.018726,0.025184,-0.310543,-0.008689,-0.950519,0.024884,-0.010049,0.032657,1.288788,0.762785,-8.738098,,,,,,,
1522137265.629970,-0.314479,0.010732,-1.818123,0.085328,0.048196,0.002794,-0.309303,-0.010731,-0.950902,0.010307,-0.061015,-0.026179,0.536575,0.091917,-7.985840,,,,,,,
1522137265.659938,-0.313793,0.011709,-1.817928,-0.008684,0.014570,-0.016427,-0.308648,-0.011709,-0.951104,-0.003898,-0.039805,-0.054923,0.682373,-0.059191,-8.435059,,,,,,,
1522137265.689906,-0.313843,0.010400,-1.818919,-0.073046,-0.043801,-0.006813,-0.308699,-0.010400,-0.951102,-0.011369,-0.007407,-0.056268,-0.300522,-0.580217,-8.883484,,,,,,,
1522137265.719875,-0.315290,0.008742,-1.819069,-0.048663,-0.043023,0.026231,-0.310081,-0.008742,-0.950670,-0.007729,0.034972,0.012254,-0.385712,-1.105654,-9.706482,,,,,,,
1522137265.749843,-0.315274,0.007531,-1.818279,-0.035715,0.012054,0.047493,-0.310068,-0.007531,-0.950684,0.003046,0.034402,0.032868,-2.037750,-1.173449,-9.932007,,,,,,,
1522137265.779811,-0.313998,0.006609,-1.817386,-0.009588,0.090810,0.019734,-0.308857,-0.006609,-0.951085,0.022755,0.022539,0.028386,-5.106033,-0.859041,-9.334778,,,,,,,
1522137265.809779,-0.312639,0.006968,-1.817222,0.058465,0.001559,-0.004637,-0.307563,-0.006968,-0.951502,0.029365,-0.004690,0.005167,-6.896484,-0.849413,-7.760742,,,,,,,
1522137265.839748,-0.312885,0.010610,-1.816490,0.185571,-0.015591,-0.029030,-0.307787,-0.010610,-0.951396,0.034197,0.032369,0.057185,-8.828262,-0.238695,-5.739197,,,,,,,
1522137265.869716,-0.311699,0.017020,-1.815818,0.187202,0.080222,-0.054700,-0.306632,-0.017020,-0.951676,0.014670,0.007559,-0.088592,-10.159882,0.294477,-3.566895,,,,,,,
1522137265.899684,-0.309796,0.019824,-1.815936,0.041512,0.013397,-0.019580,-0.304804,-0.019822,-0.952208,0.010645,-0.008193,-0.109895,-11.637436,0.379713,0.031982,,,,,,,
1522137265.929653,-0.311097,0.020391,-1.816657,0.008086,-0.073560,-0.032307,-0.306039,-0.020389,-0.951800,-0.004981,0.008304,-0.088239,-11.927505,0.158049,2.057739,,,,,,,
1522137265.959621,-0.314460,0.019085,-1.817781,-0.100022,-0.116979,-0.016354,-0.309247,-0.019084,-0.950790,-0.008350,0.044383,0.058624,-12.061981,-1.036760,6.637390,,,,,,,
1522137265.989588,-0.314093,0.015635,-1.819386,-0.106555,0.096576,-0.011241,-0.308916,-0.015634,-0.950960,0.014376,0.018579,0.058855,-11.295944,-0.962664,9.187561,,,,,,,
1522137266.019557,-0.311441,0.015352,-1.819367,0.061628,0.016288,0.015594,-0.306394,-0.015352,-0.951780,0.029676,-0.033110,0.004469,-6.339905,-2.481432,12.721069,,,,,,,
1522137266.049525,-0.313318,0.017758,-1.817792,0.112636,-0.036954,0.014614,-0.308168,-0.017757,-0.951166,0.035478,-0.008763,0.036523,-4.612106,-3.012850,14.074097,,,,,,,
1522137266.079494,-0.312798,0.021004,-1.817056,0.110066,0.056832,-0.024902,-0.307654,-0.021003,-0.951266,0.015326,-0.035195,-0.105863,-0.188309,-3.856554,15.279663,,,,,,,
1522137266.109462,-0.312474,0.022965,-1.816754,0.019737,-0.052610,0.004982,-0.307332,-0.022963,-0.951325,0.000432,-0.034944,-0.187607,3.181595,-3.872545,14.456421,,,,,,,
1522137266.139430,-0.316334,0.020659,-1.816727,-0.137901,-0.170370,0.034813,-0.311018,-0.020658,-0.950179,-0.025896,0.000837,-0.065812,3.100754,-4.322405,14.233154,,,,,,,
,,,,,,,,,,,,,,,,25.318971,51.445596,-19.281132,-1.000000,-1.000000,1522137266.109326,
1522137266.169399,-0.319592,0.015085,-1.817625,-0.218309,-0.026593,0.017558,-0.314143,-0.015084,-0.949255,-0.006505,0.045358,0.050360,3.166443,-4.623751,13.184387,,,,,,,
1522137266.199367,-0.317652,0.009202,-1.819114,-0.170855,0.079537,0.018556,-0.312323,-0.009202,-0.949931,0.036261,0.008104,0.083247,4.891220,-4.107409,12.283203,,,,,,,
1522137266.229335,-0.314281,0.007550,-1.819178,0.039665,0.110963,0.009087,-0.309124,-0.007550,-0.950991,0.078823,-0.018130,0.064593,5.345245,-3.884157,12.582581,,,,,,,
1522137266.259303,-0.313079,0.009702,-1.818091,0.090549,0.026882,0.008155,-0.307975,-0.009702,-0.951344,0.081885,-0.026980,-0.031016,6.848770,-3.441072,12.431519,,,,,,,
1522137266.289272,-0.312746,0.011182,-1.817471,0.031568,-0.031405,0.007102,-0.307653,-0.011182,-0.951432,0.033132,-0.015765,-0.095260,10.371613,-2.708498,10.855347,,,,,,,
1522137266.319240,-0.313927,0.011895,-1.816873,0.016690,-0.017549,0.006014,-0.308774,-0.011895,-0.951060,0.023633,0.016442,-0.051900,11.414810,-2.489702,9.354980,,,,,,,
1522137266.349208,-0.314343,0.010358,-1.817372,-0.129748,-0.048034,0.011261,-0.309175,-0.010358,-0.950948,0.016191,0.028333,0.043416,13.031876,-2.951693,4.632690,,,,,,,
1522137266.379176,-0.313179,0.006172,-1.818538,-0.126878,0.095551,-0.007004,-0.308079,-0.006172,-0.951340,0.058887,0.025337,0.095582,13.169373,-2.804644,2.307129,,,,,,,
1522137266.409145,-0.309274,0.005719,-1.818992,0.072995,0.138631,-0.010087,-0.304362,-0.005719,-0.952539,0.079524,0.012875,0.041467,11.499603,-2.351183,-1.745483,,,,,,,
1522137266.439113,-0.305083,0.009808,-1.817785,0.152798,0.098987,0.008127,-0.300358,-0.009808,-0.953776,0.089603,-0.020404,-0.078558,10.440338,-2.422838,-3.170776,,,,,,,
1522137266.469081,-0.304175,0.012485,-1.816172,0.063738,0.018365,0.021986,-0.299483,-0.012484,-0.954019,0.076720,0.026339,-0.076224,9.378479,-2.345156,-5.271606,,,,,,,
1522137266.499050,-0.302703,0.012250,-1.816042,-0.044989,0.035778,0.002704,-0.298078,-0.012249,-0.954462,0.057127,0.017285,-0.135137,4.049347,-1.722902,-7.001770,,,,,,,
1522137266.529018,-0.302203,0.009955,-1.816300,-0.092408,-0.037592,0.025126,-0.297609,-0.009955,-0.954635,0.063356,0.013052,-0.075638,1.351547,-1.410921,-7.154358,,,,,,,
1522137266.558986,-0.303967,0.007149,-1.816796,-0.092189,-0.030981,-0.010036,-0.299300,-0.007149,-0.954132,0.062697,0.046547,0.055175,-2.609955,-0.642122,-6.184387,,,,,,,
1522137266.588953,-0.301067,0.005152,-1.818540,-0.066861,0.105194,-0.041059,-0.296535,-0.005152,-0.955007,0.080593,-0.004843,-0.027704,-4.851624,-0.256289,-5.437073,,,,,,,
1522137266.618911,-0.300713,0.005798,-1.819020,0.076439,-0.043073,-0.009910,-0.296196,-0.005798,-0.955109,0.093055,-0.020798,0.022339,-6.029053,0.875883,-3.567200,,,,,,,
1522137266.648879,-0.300561,0.008630,-1.817872,0.121417,0.010852,0.011385,-0.296045,-0.008630,-0.955135,0.100641,0.021798,0.004146,-6.538757,1.554594,-2.145142,,,,,,,
1522137266.678847,-0.298649,0.011999,-1.816824,0.102476,0.049282,-0.007844,-0.294208,-0.011999,-0.955665,0.075794,0.012060,-0.176979,-6.595734,1.782484,0.478882,,,,,,,
1522137266.708815,-0.299752,0.013654,-1.816414,0.023820,-0.099346,0.000771,-0.295255,-0.013653,-0.955320,0.059400,0.035855,-0.125170,-5.541855,1.628630,1.380005,,,,,,,
1522137266.738784,-0.302992,0.014452,-1.816978,0.028014,-0.167059,-0.042844,-0.298346,-0.014451,-0.954348,0.038245,0.056840,-0.009123,-3.514389,1.470182,2.056702,,,,,,,
1522137266.768752,-0.307087,0.015269,-1.818391,-0.002372,-0.070099,-0.069602,-0.302248,-0.015269,-0.953106,0.034349,0.073252,0.078427,-3.366318,1.094831,2.358276,,,,,,,
1522137266.798720,-0.303967,0.014819,-1.821510,-0.076025,0.137500,-0.098638,-0.299275,-0.014819,-0.954051,0.039158,-0.030653,-0.117345,-2.382828,1.765699,2.656067,,,,,,,
1522137266.828688,-0.302023,0.012239,-1.824281,-0.103745,-0.022248,-0.038824,-0.297430,-0.012239,-0.954665,0.066198,-0.074034,-0.142396,-3.058701,1.543959,2.881592,,,,,,,
1522137266.858657,-0.305685,0.009681,-1.825532,-0.074649,-0.160687,-0.005634,-0.300932,-0.009681,-0.953596,0.057463,-0.040765,-0.001421,-2.979782,1.619139,3.406372,,,,,,,
1522137266.888625,-0.307940,0.007470,-1.825764,-0.090035,0.012358,0.022947,-0.303087,-0.007470,-0.952933,0.059695,0.036035,0.050070,-0.857697,2.661528,5.353271,,,,,,,
1522137266.918593,-0.306107,0.006008,-1.825371,-0.008983,0.016235,0.045390,-0.301343,-0.006008,-0.953496,0.047895,0.029018,-0.002009,0.265305,2.506407,5.279419,,,,,,,
1522137266.948561,-0.304798,0.006655,-1.823564,0.059418,0.036255,0.047541,-0.300093,-0.006655,-0.953886,0.061324,0.035205,-0.033159,2.140076,3.022062,4.378296,,,,,,,
1522137266.978530,-0.304821,0.009267,-1.821718,0.136332,0.004411,0.013542,-0.300109,-0.009267,-0.953859,0.059112,0.037984,0.016130,4.764786,3.534361,3.477600,,,,,,,
1522137267.008498,-0.303447,0.011904,-1.821310,0.061965,0.032573,-0.034499,-0.298790,-0.011904,-0.954244,0.062554,0.030444,-0.022898,5.958679,4.725981,0.473389,,,,,,,
1522137267.038466,-0.302872,0.012374,-1.822205,-0.020358,0.011487,-0.030270,-0.298239,-0.012374,-0.954410,0.098792,0.040633,0.036304,5.509262,5.551725,-0.805115,,,,,,,
1522137267.068434,-0.301225,0.012505,-1.823922,0.028174,0.059555,-0.082497,-0.296667,-0.012504,-0.954898,0.075476,-0.005120,-0.035763,5.660080,7.572813,-4.038147,,,,,,,
1522137267.098403,-0.298640,0.012934,-1.826310,-0.047638,0.065025,-0.077235,-0.294196,-0.012933,-0.955657,0.067130,-0.021201,-0.138047,4.098755,9.079603,-4.269958,,,,,,,
,,,,,,,,,,,,,,,,25.318970,51.445608,-19.378239,-1.000000,-1.000000,1522137267.096132,
1522137267.128371,-0.299692,0.010788,-1.828866,-0.089268,-0.127472,-0.039775,-0.295209,-0.010788,-0.955371,0.047864,0.018402,0.041843,2.389175,11.935102,-6.457214,,,,,,,
1522137267.158339,-0.300735,0.009665,-1.830391,-0.008437,0.030719,-0.048401,-0.296208,-0.009665,-0.955074,0.037160,0.077475,0.108974,1.946960,13.211271,-7.287598,,,,,,,
1522137267.188308,-0.297411,0.011202,-1.831385,0.030338,0.126109,-0.029278,-0.293027,-0.011202,-0.956038,0.065931,0.020021,-0.038683,0.232803,14.343901,-7.367920,,,,,,,
1522137267.218276,-0.293891,0.011443,-1.831104,0.035255,0.083286,0.014455,-0.289660,-0.011443,-0.957061,0.088198,0.018004,-0.064912,-1.241837,16.526136,-6.777405,,,,,,,
1522137267.248244,-0.294895,0.013481,-1.830037,0.093249,-0.091039,0.002949,-0.290612,-0.013481,-0.956745,0.071969,0.043602,0.009174,-1.010696,16.825621,-6.253479,,,,,,,
1522137267.278212,-0.294943,0.014716,-1.830518,0.010870,0.043437,-0.052650,-0.290653,-0.014715,-0.956715,0.069111,0.062307,-0.016964,-0.868164,15.625731,-5.498596,,,,,,,
1522137267.308181,-0.292710,0.015279,-1.832333,-0.005072,0.045715,-0.066527,-0.288514,-0.015279,-0.957353,0.061356,0.051640,-0.104018,-1.253021,14.502684,-5.269348,,,,,,,
1522137267.338149,-0.292879,0.015113,-1.833741,-0.020722,-0.066110,-0.026993,-0.288676,-0.015113,-0.957307,0.064784,0.027991,-0.113402,-2.201614,10.081221,-6.002136,,,,,,,
1522137267.368117,-0.296137,0.015009,-1.833847,0.037579,-0.125961,0.001878,-0.291794,-0.015009,-0.956363,0.075593,0.039575,0.046283,-5.084290,6.943983,-6.216003,,,,,,,
1522137267.398085,-0.295675,0.016055,-1.834118,0.029242,0.100733,-0.046305,-0.291348,-0.016054,-0.956482,0.075604,0.035204,-0.018082,-8.503250,1.860518,-5.072327,,,,,,,
1522137267.428054,-0.292606,0.016391,-1.835151,-0.003382,0.004981,-0.016406,-0.288410,-0.016391,-0.957366,0.083545,-0.007718,-0.056992,-9.715591,-0.232607,-3.639587,,,,,,,
1522137267.458022,-0.294223,0.017739,-1.835288,0.103174,-0.066346,-0.036494,-0.289950,-0.017738,-0.956877,0.060077,0.008430,-0.025774,-11.900253,-3.818407,0.723633,,,,,,,
1522137267.487990,-0.293862,0.020575,-1.835771,0.062997,0.015617,-0.041937,-0.289589,-0.020573,-0.956929,0.042961,0.029805,-0.117030,-12.342575,-4.264391,2.750244,,,,,,,
1522137267.517958,-0.294070,0.021112,-1.836768,-0.030299,-0.061822,-0.029135,-0.289785,-0.021111,-0.956858,0.045675,0.026329,-0.108922,-10.830612,-4.194323,4.625671,,,,,,,
1522137267.547927,-0.296060,0.018351,-1.838489,-0.143437,-0.060443,-0.034546,-0.291705,-0.018350,-0.956332,0.038500,0.043207,-0.087049,-9.384171,-4.571627,8.827942,,,,,,,
1522137267.577895,-0.298326,0.014554,-1.840546,-0.116978,-0.093544,-0.019582,-0.293889,-0.014554,-0.955728,0.053548,0.028531,0.012643,-7.571960,-4.203356,10.252380,,,,,,,
1522137267.607846,-0.298668,0.013230,-1.841770,0.001133,0.033787,-0.036666,-0.294222,-0.013230,-0.955645,0.054811,0.048646,0.042757,-2.682007,-3.474077,11.526855,,,,,,,
1522137267.637814,-0.297634,0.014513,-1.842230,0.044720,0.019704,-0.013181,-0.293228,-0.014512,-0.955932,0.071167,-0.003921,-0.023133,-0.869186,-2.731340,12.424805,,,,,,,
1522137267.667783,-0.298455,0.015901,-1.841310,0.082657,-0.050756,0.021012,-0.294006,-0.015900,-0.955671,0.069794,-0.003234,-0.028750,3.795578,-1.027712,12.045349,,,,,,,
1522137267.697751,-0.298460,0.018406,-1.839931,0.111794,0.007672,0.012452,-0.293999,-0.018405,-0.955628,0.076546,-0.012083,-0.098403,6.575668,-0.065981,11.292908,,,,,,,
1522137267.727719,-0.298621,0.020038,-1.839110,0.015493,-0.047308,0.006048,-0.294143,-0.020037,-0.955551,0.058700,0.006258,-0.163605,9.503479,1.793211,8.661926,,,,,,,
1522137267.757687,-0.302302,0.017290,-1.839677,-0.167706,-0.180748,0.009233,-0.297674,-0.017290,-0.954510,0.038808,0.029420,-0.066486,10.031403,3.213957,6.781494,,,,,,,
1522137267.787656,-0.305199,0.011969,-1.842270,-0.185865,-0.030388,-0.062313,-0.300461,-0.011968,-0.953718,0.040177,0.092428,0.093580,9.282700,5.014540,3.998901,,,,,,,
1522137267.817624,-0.302471,0.008995,-1.845924,-0.085740,0.127864,-0.085845,-0.297868,-0.008994,-0.954564,0.060288,0.044029,0.040822,8.982407,5.839476,2.570435,,,,,,,
1522137267.847592,-0.299670,0.008621,-1.847621,0.016110,0.052821,-0.027092,-0.295193,-0.008621,-0.955398,0.093487,-0.013032,0.046310,8.686600,6.440504,2.267883,,,,,,,
1522137267.877561,-0.298301,0.010342,-1.847329,0.111083,0.060944,-0.008906,-0.293880,-0.010342,-0.955786,0.096630,-0.000050,0.015371,9.656693,7.258955,0.090149,,,,,,,
1522137267.907498,-0.295631,0.014069,-1.846673,0.133579,0.065213,-0.019548,-0.291314,-0.014068,-0.956523,0.093362,0.011276,-0.078557,9.498459,6.883924,-0.658447,,,,,,,
1522137267.937467,-0.293910,0.018319,-1.845891,0.148504,0.059877,-0.020602,-0.289648,-0.018318,-0.956957,0.083975,0.057640,-0.149183,10.609894,6.876661,-2.907898,,,,,,,
1522137267.967435,-0.294931,0.019873,-1.845768,-0.046921,-0.154466,0.006103,-0.290616,-0.019872,-0.956633,0.036359,0.093175,-0.081148,10.592484,6.349714,-4.930786,,,,,,,
1522137267.997403,-0.297990,0.015179,-1.847137,-0.200051,-0.050838,-0.020744,-0.293565,-0.015178,-0.955818,0.029832,0.147335,0.080146,7.801392,6.359587,-7.632263,,,,,,,
1522137268.027371,-0.296059,0.010969,-1.850168,-0.100733,0.128881,-0.075196,-0.291735,-0.010969,-0.956436,0.039935,0.124067,0.084503,7.121902,6.586515,-8.758484,,,,,,,
1522137268.057340,-0.290351,0.011049,-1.852441,0.037091,0.167755,-0.060218,-0.286271,-0.011049,-0.958084,0.083634,0.030886,0.040924,3.138931,6.827711,-10.486450,,,,,,,
1522137268.087308,-0.286719,0.012937,-1.853146,0.086945,0.112267,-0.045206,-0.282783,-0.012936,-0.959096,0.111106,0.042996,-0.010707,0.886322,6.837400,-10.937622,,,,,,,
1522137268.117276,-0.284222,0.015959,-1.853344,0.138925,0.046202,-0.037641,-0.280375,-0.015958,-0.959757,0.109202,0.037290,-0.081792,-2.259201,6.927153,-10.339478,,,,,,,
,,,,,,,,,,,,,,,,25.318965,51.445627,-19.443913,-1.000000,-1.000000,1522137268.097983,
1522137268.147244,-0.283977,0.020159,-1.853399,0.119455,-0.019556,-0.047185,-0.280118,-0.020158,-0.959753,0.074506,0.086228,-0.094110,-5.482697,6.492628,-9.364380,,,,,,,
1522137268.177213,-0.284575,0.021018,-1.854594,-0.041786,-0.036092,-0.056876,-0.280688,-0.021017,-0.959568,0.031207,0.158483,-0.045925,-9.225418,5.462400,-6.437134,,,,,,,
1522137268.207181,-0.283635,0.019021,-1.857386,-0.081904,0.042745,-0.074023,-0.279797,-0.019020,-0.959870,0.022991,0.148033,-0.040282,-10.418304,5.094572,-4.636292,,,,,,,
1522137268.237149,-0.283262,0.019472,-1.859401,0.060754,-0.029948,-0.060003,-0.279436,-0.019470,-0.959966,0.052202,0.079849,0.002996,-10.562714,4.347395,-2.458313,,,,,,,
1522137268.267117,-0.283188,0.018883,-1.860415,-0.113218,0.038154,-0.012250,-0.279368,-0.018882,-0.959998,0.074565,0.061515,0.003638,-11.380081,2.630201,1.673157,,,,,,,
1522137268.297086,-0.280835,0.012489,-1.862187,-0.205818,0.103181,-0.010248,-0.277136,-0.012489,-0.960749,0.102652,0.105567,0.011103,-10.481583,1.577665,3.177795,,,,,,,
1522137268.327054,-0.277238,0.011180,-1.863543,0.101635,0.046417,-0.053659,-0.273683,-0.011180,-0.961754,0.102601,0.071086,-0.079414,-8.081604,-0.230135,6.186218,,,,,,,
1522137268.357022,-0.279398,0.016580,-1.863658,0.199206,-0.111018,-0.064083,-0.275739,-0.016580,-0.961089,0.066800,0.106729,-0.014726,-6.664413,-1.510683,7.017029,,,,,,,
1522137268.386990,-0.279955,0.021738,-1.865111,0.126233,-0.024370,-0.121757,-0.276247,-0.021737,-0.960840,0.030229,0.122735,-0.048452,-3.223969,-3.324724,8.451050,,,,,,,
1522137268.416959,-0.280316,0.021834,-1.868361,-0.106658,-0.026099,-0.096353,-0.276593,-0.021832,-0.960738,0.014447,0.129132,-0.084046,-2.110535,-4.754274,8.907288,,,,,,,
1522137268.446927,-0.280850,0.017719,-1.871960,-0.148378,-0.019772,-0.075078,-0.277128,-0.017718,-0.960669,0.026549,0.115908,-0.078775,2.440308,-6.500872,7.791504,,,,,,,
1522137268.476895,-0.281141,0.015737,-1.874817,-0.005284,-0.024322,-0.083489,-0.277418,-0.015736,-0.960620,0.086897,0.068928,0.005374,4.679550,-6.812227,6.518921,,,,,,,
1522137268.506864,-0.281671,0.016887,-1.877324,0.039711,-0.013665,-0.103712,-0.277922,-0.016886,-0.960455,0.088362,0.084086,0.006612,6.901413,-7.875139,3.599304,,,,,,,
1522137268.536832,-0.281784,0.017914,-1.879898,0.034364,-0.008369,-0.098398,-0.278024,-0.017913,-0.960406,0.070032,0.133056,0.034411,7.561676,-8.180056,1.650818,,,,,,,
1522137268.566800,-0.279413,0.020802,-1.882416,0.104242,0.089270,-0.105903,-0.275731,-0.020800,-0.961009,0.061696,0.093707,-0.070989,8.074661,-8.259233,-0.223572,,,,,,,
1522137268.596768,-0.277600,0.023880,-1.883848,0.087529,-0.008809,-0.055731,-0.273970,-0.023878,-0.961441,0.048445,0.082197,-0.040192,6.614166,-9.830965,-3.518005,,,,,,,
1522137268.626749,-0.278528,0.023917,-1.885200,-0.033029,-0.006262,-0.071813,-0.274862,-0.023915,-0.961185,0.052374,0.129444,-0.039410,5.322250,-10.352098,-5.466614,,,,,,,
1522137268.656717,-0.276552,0.021204,-1.888764,-0.148957,0.060096,-0.099665,-0.272978,-0.021203,-0.961786,0.060454,0.094201,-0.125494,2.304230,-10.940538,-7.490784,,,,,,,
1522137268.686685,-0.276653,0.017318,-1.892829,-0.113303,-0.083429,-0.100565,-0.273096,-0.017317,-0.961830,0.069163,0.107634,-0.020119,-0.023972,-11.080370,-7.791382,,,,,,,
1522137268.716653,-0.279369,0.016234,-1.896983,-0.054133,-0.037568,-0.146382,-0.275713,-0.016234,-0.961102,0.068728,0.143187,0.091870,-4.079361,-11.437426,-8.091980,,,,,,,
1522137268.746622,-0.277174,0.015186,-1.901774,-0.056664,0.118598,-0.140148,-0.273607,-0.015185,-0.961721,0.069460,0.125110,0.013341,-5.200119,-11.057299,-8.019043,,,,,,,
1522137268.776590,-0.273766,0.015468,-1.905247,0.050428,0.003270,-0.097331,-0.270326,-0.015467,-0.962644,0.059175,0.091899,-0.049136,-8.487076,-10.740862,-6.371948,,,,,,,
1522137268.806558,-0.274540,0.019596,-1.906801,0.206492,0.024252,-0.114284,-0.271052,-0.019594,-0.962364,0.073878,0.118013,0.010979,-9.076263,-9.837908,-6.075867,,,,,,,
1522137268.836526,-0.272055,0.025250,-1.908551,0.139427,0.078556,-0.105866,-0.268625,-0.025247,-0.962913,0.066385,0.108957,-0.065438,-8.306946,-8.715029,-4.729980,,,,,,,
1522137268.866495,-0.270065,0.027350,-1.911023,0.024900,0.020353,-0.100561,-0.266694,-0.027347,-0.963392,0.058656,0.135989,-0.088335,-9.270096,-7.660479,-4.509705,,,,,,,
1522137268.896463,-0.270354,0.027613,-1.913721,0.025566,-0.061500,-0.095155,-0.266971,-0.027610,-0.963308,0.068255,0.155478,-0.008005,-8.283463,-6.539843,-4.438660,,,,,,,
1522137268.926431,-0.271025,0.029029,-1.916870,0.025010,-0.000621,-0.139965,-0.267606,-0.029025,-0.963090,0.065259,0.175784,0.012056,-7.967636,-4.142626,-5.798096,,,,,,,
1522137268.956399,-0.269116,0.028716,-1.921441,-0.061131,0.052860,-0.159263,-0.265769,-0.028712,-0.963608,0.059028,0.181422,0.023667,-9.085861,-3.237963,-6.177246,,,,,,,
1522137268.986368,-0.266177,0.027574,-1.927155,-0.028596,0.117882,-0.199795,-0.262945,-0.027571,-0.964416,0.064474,0.164671,-0.080140,-11.086685,-0.903826,-6.037598,,,,,,,
1522137269.016336,-0.262541,0.030213,-1.932839,0.106807,0.060250,-0.212420,-0.259417,-0.030209,-0.965292,0.064257,0.102658,-0.189325,-11.899231,0.299894,-5.967834,,,,,,,
1522137269.046304,-0.263967,0.033064,-1.937531,0.013925,-0.106738,-0.154793,-0.260770,-0.033058,-0.964834,0.064587,0.122749,-0.117685,-15.917892,2.045301,-3.651794,,,,,,,
1522137269.076272,-0.267905,0.032013,-1.942325,-0.129317,-0.144664,-0.152720,-0.264576,-0.032008,-0.963833,0.069675,0.116740,-0.094013,-16.127121,2.722731,-2.154602,,,,,,,
1522137269.106241,-0.271127,0.027565,-1.947292,-0.193411,-0.087507,-0.097421,-0.267715,-0.027561,-0.963103,0.052826,0.160267,0.015670,-17.886703,4.160002,2.188721,,,,,,,
,,,,,,,,,,,,,,,,25.318991,51.445674,-19.613895,-1.000000,-1.000000,1522137269.096975,
1522137269.136209,-0.272554,0.025624,-1.951627,-0.033944,-0.038796,-0.129320,-0.269103,-0.025621,-0.962770,0.063644,0.152544,0.026185,-18.244553,4.389082,4.662659,,,,,,,
1522137269.166177,-0.273973,0.026047,-1.955693,-0.018976,-0.044103,-0.136756,-0.270466,-0.026044,-0.962376,0.045414,0.177548,0.045277,-16.185257,4.759916,9.762207,,,,,,,
1522137269.196146,-0.273682,0.026432,-1.959673,0.014393,0.008975,-0.142108,-0.270184,-0.026429,-0.962445,0.059720,0.130188,-0.072436,-13.405243,4.224134,11.490723,,,,,,,
1522137269.226114,-0.273373,0.027731,-1.963247,0.043830,-0.063524,-0.117509,-0.269877,-0.027727,-0.962495,0.035410,0.088228,-0.158843,-9.792603,3.685881,14.494690,,,,,,,
1522137269.256082,-0.277038,0.028756,-1.966301,0.020294,-0.098363,-0.139875,-0.273395,-0.028752,-0.961471,0.052112,0.165303,-0.007248,-7.541626,3.151808,15.547974,,,,,,,
1522137269.286050,-0.277482,0.029255,-1.971452,-0.051697,-0.021344,-0.189012,-0.273817,-0.029251,-0.961336,-0.013307,0.169021,-0.118666,-4.923325,2.614805,15.326416,,,,,,,
1522137269.316019,-0.278930,0.026099,-1.977756,-0.217654,-0.093350,-0.163502,-0.275233,-0.026096,-0.961022,-0.021962,0.173557,-0.036673,-1.791733,1.399672,14.282837,,,,,,,
1522137269.345987,-0.283035,0.021443,-1.984778,-0.206922,-0.122894,-0.198620,-0.279206,-0.021442,-0.959991,0.004777,0.173007,0.098541,-0.080887,0.341368,13.687927,,,,,,,
1522137269.375955,-0.283368,0.016676,-1.992252,-0.186944,0.049195,-0.196654,-0.279552,-0.016675,-0.959985,0.013393,0.172818,0.076318,2.057297,-1.546236,10.696594,,,,,,,
1522137269.405923,-0.281141,0.015019,-1.997823,0.011357,0.041977,-0.147481,-0.277420,-0.015018,-0.960630,0.028748,0.114094,-0.030626,2.561447,-3.049486,9.727783,,,,,,,
1522137269.435892,-0.282861,0.017836,-2.000325,0.119401,-0.098889,-0.102495,-0.279059,-0.017835,-0.960107,0.022773,0.099485,-0.014975,1.324020,-4.996904,6.734985,,,,,,,
1522137269.465860,-0.284697,0.018910,-2.002821,-0.014846,-0.030565,-0.098410,-0.280816,-0.018908,-0.959574,0.027413,0.118289,-0.041616,1.159195,-5.897127,5.763489,,,,,,,
1522137269.495828,-0.284563,0.017606,-2.006601,-0.076460,0.004871,-0.128331,-0.280694,-0.017605,-0.959635,-0.009726,0.140820,-0.069357,-2.225449,-5.733782,3.886169,,,,,,,
1522137269.525796,-0.285200,0.014153,-2.011337,-0.183375,-0.027803,-0.128378,-0.281321,-0.014152,-0.959508,-0.009160,0.189583,0.049337,-3.645309,-5.127535,3.732971,,,,,,,
1522137269.555765,-0.284017,0.008509,-2.017084,-0.228922,0.054092,-0.125286,-0.280203,-0.008509,-0.959902,0.004996,0.169093,0.065935,-6.182312,-4.365236,4.628723,,,,,,,
1522137269.585733,-0.282383,0.003659,-2.021773,-0.116886,0.060048,-0.106025,-0.278643,-0.003659,-0.960387,0.022814,0.132245,0.028273,-6.997665,-3.985582,5.601746,,,,,,,
1522137269.615681,-0.280858,0.003060,-2.024956,0.056052,0.040587,-0.118668,-0.277179,-0.003060,-0.960813,0.042941,0.090508,-0.042758,-7.442093,-3.608294,5.900024,,,,,,,
1522137269.645648,-0.280438,0.005060,-2.027539,0.064300,-0.006286,-0.103702,-0.276772,-0.005060,-0.960921,0.033364,0.086695,-0.109559,-7.958359,-3.904024,7.850952,,,,,,,
1522137269.675618,-0.282445,0.005033,-2.030069,-0.043043,-0.112404,-0.085563,-0.278701,-0.005033,-0.960364,0.021865,0.138257,0.000769,-7.512421,-4.355944,7.927979,,,,,,,
1522137269.705585,-0.283309,0.003131,-2.033838,-0.092348,0.026212,-0.134760,-0.279533,-0.003131,-0.960130,0.026451,0.184787,0.044710,-6.328308,-6.086046,8.160461,,,,,,,
1522137269.735554,-0.281186,0.002437,-2.038850,-0.046078,0.078308,-0.157145,-0.277494,-0.002437,-0.960723,0.019346,0.119579,-0.085038,-5.659470,-6.838823,8.388855,,,,,,,
1522137269.765522,-0.282363,0.002329,-2.042768,-0.000182,-0.123941,-0.123872,-0.278625,-0.002329,-0.960396,0.038025,0.132578,0.007942,-5.010880,-8.493380,6.745789,,,,,,,
1522137269.795491,-0.283689,0.003715,-2.046443,0.034718,0.013208,-0.146361,-0.279897,-0.003715,-0.960022,0.040593,0.138267,-0.005402,-4.117523,-8.573381,5.771545,,,,,,,
1522137269.825459,-0.283963,0.004438,-2.050383,-0.006180,-0.044125,-0.135693,-0.280160,-0.004438,-0.959942,0.034386,0.165067,-0.045917,-4.352280,-8.873446,4.647644,,,,,,,
1522137269.855427,-0.284409,0.005463,-2.054418,0.037603,-0.056945,-0.145219,-0.280586,-0.005463,-0.959812,0.009925,0.159455,-0.053295,-4.274734,-9.023119,5.323303,,,,,,,
1522137269.885396,-0.286963,0.008684,-2.058133,0.105898,-0.080374,-0.160071,-0.283030,-0.008684,-0.959071,-0.011755,0.163454,-0.031621,-2.399216,-8.432467,4.421814,,,,,,,
1522137269.915364,-0.287419,0.011387,-2.062383,0.005977,0.008120,-0.167691,-0.283459,-0.011387,-0.958916,-0.019946,0.127903,-0.059487,-1.644760,-7.985857,4.420410,,,,,,,
1522137269.945332,-0.288341,0.010521,-2.067668,-0.087178,-0.049047,-0.165570,-0.284346,-0.010520,-0.958663,-0.003145,0.166252,0.014419,-0.676407,-8.066195,3.446228,,,,,,,
1522137269.975300,-0.287401,0.010145,-2.073122,0.007332,0.061301,-0.176263,-0.283446,-0.010144,-0.958933,0.019729,0.162351,0.026850,1.793182,-7.029924,0.818359,,,,,,,
1522137270.005269,-0.286976,0.013340,-2.076773,0.109416,0.014021,-0.137780,-0.283028,-0.013340,-0.959018,0.013649,0.149128,-0.017560,1.710236,-7.330385,-0.005493,,,,,,,
1522137270.035237,-0.286649,0.016040,-2.080047,0.032385,-0.014510,-0.132484,-0.282703,-0.016040,-0.959072,-0.004742,0.097232,-0.066242,2.895447,-6.963793,-3.081421,,,,,,,
1522137270.065205,-0.287990,0.015904,-2.084007,-0.044742,-0.073812,-0.134611,-0.283989,-0.015903,-0.958695,-0.019172,0.141239,-0.009109,3.489380,-6.667971,-4.582275,,,,,,,
1522137270.095173,-0.288498,0.013241,-2.088809,-0.146789,0.026331,-0.134790,-0.284487,-0.013241,-0.958587,-0.006101,0.166927,0.041778,1.751541,-6.287920,-7.359619,,,,,,,
,,,,,,,,,,,,,,,,25.319002,51.445696,-19.621050,0.209935,-1.000000,1522137270.103959,
1522137270.125142,-0.287278,0.009572,-2.093760,-0.128663,0.030491,-0.127326,-0.283329,-0.009572,-0.958974,0.025441,0.163777,0.099858,1.743271,-5.989763,-9.235840,,,,,,,
1522137270.155110,-0.285816,0.008449,-2.098142,0.001793,0.064241,-0.136856,-0.281930,-0.008449,-0.959397,0.022591,0.092265,-0.054428,-0.515701,-4.857973,-12.616516,,,,,,,
1522137270.185078,-0.284523,0.008893,-2.101207,0.019537,0.020308,-0.094162,-0.280688,-0.008893,-0.959757,0.015963,0.052045,-0.144552,-2.772217,-4.699175,-13.968323,,,,,,,
1522137270.215046,-0.286321,0.009396,-2.103990,0.004144,-0.104874,-0.117492,-0.282412,-0.009396,-0.959246,0.029375,0.107510,0.022952,-8.474136,-3.625628,-16.075439,,,,,,,
1522137270.245015,-0.286682,0.008360,-2.108888,-0.142084,0.074411,-0.175318,-0.282761,-0.008360,-0.959153,0.017030,0.161635,0.026703,-10.642166,-2.791094,-16.304810,,,,,,,
1522137270.274983,-0.284367,0.003470,-2.115011,-0.216414,0.000854,-0.113506,-0.280548,-0.003470,-0.959833,0.016144,0.134268,-0.083441,-13.924805,-1.725206,-15.185730,,,,,,,
1522137270.304951,-0.286514,0.000635,-2.119115,-0.038413,-0.073935,-0.119687,-0.282610,-0.000635,-0.959234,0.018404,0.099131,-0.026194,-19.677216,-0.722231,-13.092651,,,,,,,
1522137270.334918,-0.287639,0.000659,-2.123140,-0.051975,-0.022756,-0.137871,-0.283689,-0.000659,-0.958915,-0.004031,0.053516,-0.023919,-21.386978,-0.187883,-11.445618,,,,,,,
1522137270.364887,-0.287822,-0.002374,-2.128541,-0.183069,0.009561,-0.153984,-0.283864,0.002374,-0.958861,0.014424,0.098929,-0.005678,-26.237289,-0.236864,-7.247864,,,,,,,
1522137270.394855,-0.287268,-0.007333,-2.134615,-0.189451,0.021212,-0.147602,-0.283325,0.007333,-0.958995,0.010651,0.151435,-0.038732,-28.701340,-0.673220,-4.697327,,,,,,,
1522137270.424824,-0.288889,-0.009628,-2.138888,-0.040849,-0.112339,-0.096214,-0.284874,0.009628,-0.958516,0.011589,0.130616,-0.004909,-31.533722,-2.155077,0.707153,,,,,,,
1522137270.454792,-0.290565,-0.008006,-2.141903,0.067826,0.016304,-0.145273,-0.286484,0.008006,-0.958051,-0.004761,0.119878,-0.037708,-31.978256,-3.499910,3.862366,,,,,,,
1522137270.484761,-0.289665,-0.007279,-2.146596,-0.077287,0.018910,-0.161371,-0.285623,0.007279,-0.958313,-0.018240,0.170104,-0.044845,-31.208969,-5.671541,10.696411,,,,,,,
1522137270.514729,-0.289106,-0.008123,-2.152398,-0.033328,0.025386,-0.191180,-0.285085,0.008122,-0.958467,-0.005091,0.184077,0.016404,-29.406006,-6.727404,12.951538,,,,,,,
1522137270.544697,-0.288510,-0.006358,-2.157466,0.056285,0.028223,-0.174063,-0.284518,0.006358,-0.958648,-0.013852,0.175908,0.038940,-25.799728,-9.213442,18.138306,,,,,,,
1522137270.574666,-0.286160,-0.003341,-2.160585,0.101164,0.110548,-0.110181,-0.282269,0.003341,-0.959328,0.019009,0.130524,-0.040900,-22.950577,-9.975130,19.267761,,,,,,,
1522137270.604634,-0.285069,-0.000179,-2.162298,0.105845,-0.009698,-0.087679,-0.281223,0.000179,-0.959641,0.024235,0.155003,-0.028442,-17.245087,-10.149614,20.471313,,,,,,,
1522137270.634606,-0.285129,0.001759,-2.165409,0.027267,0.005863,-0.157014,-0.281281,-0.001759,-0.959623,0.003083,0.178990,-0.046603,-14.548950,-10.312105,20.098328,,,,,,,
1522137270.664574,-0.284390,0.003515,-2.170571,0.022353,0.042358,-0.207136,-0.280570,-0.003515,-0.959826,0.015434,0.183096,-0.024595,-12.743500,-9.720308,20.021851,,,,,,,
1522137270.694543,-0.284192,0.004933,-2.176791,-0.020606,-0.020212,-0.211359,-0.280378,-0.004933,-0.959876,0.004881,0.184468,-0.020974,-7.862122,-8.767809,19.495483,,,,,,,
1522137270.724511,-0.285012,0.003632,-2.182992,-0.115967,-0.058422,-0.181567,-0.281167,-0.003632,-0.959651,-0.000663,0.180100,0.022685,-6.065979,-8.477007,18.370178,,,,,,,
1522137270.754479,-0.284812,0.001560,-2.189190,-0.052288,0.076442,-0.194429,-0.280977,-0.001560,-0.959712,-0.001158,0.172153,0.047404,-1.716949,-7.448458,16.493286,,,,,,,
1522137270.784447,-0.282622,0.003857,-2.194551,0.093926,0.059126,-0.199639,-0.278872,-0.003857,-0.960319,0.013567,0.137723,0.007194,-0.304489,-7.307146,14.168396,,,,,,,
1522137270.814416,-0.281291,0.006308,-2.199090,0.072321,0.032431,-0.174053,-0.277590,-0.006308,-0.960678,0.011461,0.156821,-0.030884,2.523315,-7.548174,10.870789,,,,,,,
1522137270.844384,-0.280854,0.008178,-2.203602,0.021878,-0.006887,-0.156998,-0.277167,-0.008178,-0.960786,0.008688,0.162338,-0.015212,3.623062,-8.231188,7.799011,,,,,,,
1522137270.874352,-0.281007,0.007591,-2.208059,-0.054887,0.029394,-0.148581,-0.277315,-0.007591,-0.960748,0.005373,0.182350,-0.011908,4.858215,-9.066988,2.552979,,,,,,,
1522137270.904320,-0.279222,0.006198,-2.212950,-0.053745,0.044239,-0.147515,-0.275602,-0.006198,-0.961251,0.023099,0.173816,-0.079734,5.367859,-9.071840,0.003296,,,,,,,
1522137270.934289,-0.279722,0.006388,-2.217301,-0.025441,-0.061069,-0.139939,-0.276082,-0.006388,-0.961112,0.021474,0.148219,-0.075326,4.283813,-8.922884,-5.922852,,,,,,,
1522137270.964257,-0.280909,0.005833,-2.221958,-0.048576,-0.014074,-0.166639,-0.277224,-0.005833,-0.960786,0.010516,0.118382,-0.108916,1.948395,-8.839251,-7.799377,,,,,,,
1522137270.994225,-0.284310,0.004071,-2.227086,-0.155208,-0.187212,-0.137777,-0.280492,-0.004071,-0.959846,0.011312,0.137982,0.022926,-0.308151,-8.231203,-9.902893,,,,,,,
1522137271.024194,-0.286106,-0.001175,-2.233554,-0.226620,0.031062,-0.176403,-0.282218,0.001175,-0.959348,0.020240,0.130493,0.010603,-5.184372,-6.637117,-12.761719,,,,,,,
1522137271.054162,-0.286339,-0.004980,-2.239540,-0.125827,-0.068252,-0.141070,-0.282438,0.004980,-0.959271,0.032240,0.070246,-0.036319,-7.958054,-6.324938,-13.064392,,,,,,,
1522137271.084130,-0.289462,-0.006980,-2.243793,-0.072556,-0.074874,-0.125040,-0.285429,0.006980,-0.958373,0.035216,0.113335,0.088134,-14.539520,-4.869646,-12.398499,,,,,,,
,,,,,,,,,,,,,,,,25.319024,51.445733,-20.262892,0.528263,-1.000000,1522137271.091652,
1522137271.114098,-0.287520,-0.007678,-2.249058,-0.023351,0.114527,-0.181655,-0.283566,0.007678,-0.958921,0.003720,0.114805,-0.090930,-16.924438,-3.583559,-12.029846,,,,,,,
1522137271.144067,-0.286466,-0.005391,-2.253644,0.070812,-0.057932,-0.167570,-0.282560,0.005391,-0.959233,-0.005251,0.131938,-0.144984,-20.797104,-3.187227,-8.133301,,,,,,,
1522137271.174035,-0.289795,-0.004658,-2.258562,-0.088264,-0.068099,-0.177265,-0.285752,0.004658,-0.958291,-0.007995,0.199230,-0.001151,-22.357193,-2.728487,-6.410950,,,,,,,
1522137271.204003,-0.289199,-0.008541,-2.265282,-0.204200,0.034186,-0.174263,-0.285174,0.008541,-0.958437,-0.003385,0.177891,0.008455,-22.778488,-1.973070,-2.889160,,,,,,,
1522137271.233971,-0.287948,-0.011610,-2.271094,-0.091031,0.061341,-0.148625,-0.283966,0.011610,-0.958763,0.026459,0.157686,0.030098,-22.848953,-2.645876,-1.011536,,,,,,,
1522137271.263940,-0.286974,-0.011318,-2.275217,0.060563,0.057774,-0.148508,-0.283033,0.011318,-0.959042,0.045881,0.166981,0.071088,-22.540680,-3.170000,1.240723,,,,,,,
