timestamp(unix),attitude_roll(radians),attitude_pitch(radians),attitude_yaw(radians),rotation_rate_x(radians/s),rotation_rate_y(radians/s),rotation_rate_z(radians/s),gravity_x(G),gravity_y(G),gravity_z(G),user_acc_x(G),user_acc_y(G),user_acc_z(G),magnetic_field_x(microteslas),magnetic_field_y(microteslas),magnetic_field_z(microteslas),latitude(degree),longitude(degree),altitude(meter),speed(m/s),course(degree),timestamp(unix),User Mark
1523696647.198543,-0.673661,0.065824,1.663876,0.313440,-0.008355,0.138621,-0.622501,-0.065777,-0.779850,0.105945,-0.128864,0.030552,-8.974258,-16.310688,13.821106,,,,,,,
,,,,,,,,,,,,,,,,25.318402,51.455897,13.727463,8.090000,274.570312,1523696646.997663,
1523696647.228511,-0.670861,0.069933,1.671836,0.150759,0.182000,0.174539,-0.620141,-0.069876,-0.781372,0.076974,-0.162180,-0.030243,-8.454117,-16.613316,13.522583,,,,,,,
1523696647.258480,-0.663406,0.068976,1.677291,0.003757,0.279998,0.193506,-0.614339,-0.068921,-0.786026,0.041570,-0.192035,-0.113281,-8.074020,-16.239811,13.746277,,,,,,,
1523696647.288448,-0.655188,0.066544,1.681474,-0.004978,0.225881,0.185034,-0.607960,-0.066495,-0.791179,-0.006664,-0.249515,-0.159398,-9.354950,-16.834034,13.747986,,,,,,,
1523696647.318416,-0.651002,0.063561,1.686327,0.017565,0.068220,0.232101,-0.604760,-0.063518,-0.793871,0.000024,-0.253910,-0.091856,-9.354492,-16.833973,13.822998,,,,,,,
1523696647.348385,-0.650529,0.061879,1.694306,0.163449,-0.002351,0.243995,-0.604448,-0.061839,-0.794241,0.047579,-0.266560,-0.053217,-10.098633,-16.380390,14.045776,,,,,,,
1523696647.378353,-0.652030,0.063254,1.703186,0.254356,-0.040390,0.181234,-0.605587,-0.063212,-0.793264,0.093091,-0.210043,-0.010432,-10.469864,-16.003727,14.044067,,,,,,,
1523696647.408304,-0.652692,0.066621,1.712083,0.253727,0.037315,0.163037,-0.605980,-0.066572,-0.792689,0.109093,-0.179614,-0.016744,-9.720642,-16.082096,14.044800,,,,,,,
1523696647.438272,-0.649631,0.068367,1.719788,0.164439,0.150013,0.185237,-0.603480,-0.068314,-0.794447,0.116633,-0.202194,-0.091082,-10.697403,-16.302631,14.120178,,,,,,,
1523696647.468241,-0.647423,0.070953,1.728052,0.280334,0.051899,0.193950,-0.601615,-0.070894,-0.795634,0.119285,-0.209914,-0.077855,-10.328415,-16.904285,14.122803,,,,,,,
1523696647.498209,-0.646115,0.077261,1.739527,0.393332,0.035545,0.213229,-0.600293,-0.077184,-0.796047,0.099011,-0.219279,-0.079288,-9.872604,-16.456120,14.346252,,,,,,,
1523696647.528177,-0.644846,0.083122,1.751824,0.341898,0.032252,0.246227,-0.599000,-0.083026,-0.796433,0.077409,-0.237912,-0.072372,-10.246826,-16.604053,14.721680,,,,,,,
1523696647.558145,-0.644299,0.084674,1.762158,0.123980,0.042151,0.275888,-0.598486,-0.084573,-0.796656,0.054907,-0.242621,-0.082265,-11.215027,-16.373951,15.470276,,,,,,,
1523696647.588114,-0.643595,0.080306,1.769360,-0.011729,0.015909,0.276886,-0.598141,-0.080219,-0.797366,0.040051,-0.243862,-0.100675,-11.662003,-16.071934,15.468811,,,,,,,
1523696647.618082,-0.646966,0.078723,1.777167,0.243931,-0.173483,0.222917,-0.600902,-0.078642,-0.795445,0.101756,-0.209810,0.029194,-12.334427,-15.768987,15.392273,,,,,,,
1523696647.648050,-0.651216,0.085380,1.789683,0.468682,-0.044441,0.229341,-0.603946,-0.085276,-0.792450,0.121509,-0.223104,0.044709,-12.485184,-15.843312,15.392456,,,,,,,
1523696647.678018,-0.649747,0.092222,1.803686,0.355061,0.153096,0.283408,-0.602414,-0.092092,-0.792853,0.125165,-0.224421,-0.031472,-11.882797,-15.695867,15.542175,,,,,,,
1523696647.707987,-0.643152,0.093321,1.814385,0.100392,0.279026,0.295881,-0.597111,-0.093185,-0.796728,0.099171,-0.228897,-0.131343,-12.630508,-15.692128,15.916748,,,,,,,
1523696647.737955,-0.636273,0.090633,1.821698,0.011435,0.174230,0.270346,-0.591763,-0.090509,-0.801015,0.060070,-0.263968,-0.177730,-13.160873,-16.139896,15.768311,,,,,,,
1523696647.767923,-0.635377,0.088830,1.828938,0.126905,-0.054346,0.246153,-0.591141,-0.088713,-0.801675,0.050232,-0.273103,-0.102683,-12.409256,-16.068119,15.918396,,,,,,,
1523696647.797891,-0.637440,0.088765,1.838887,0.197272,-0.008162,0.303692,-0.592797,-0.088649,-0.800458,0.039773,-0.293920,-0.068820,-13.679138,-15.687184,16.141235,,,,,,,
1523696647.827860,-0.637627,0.086556,1.850209,0.161971,0.038306,0.356896,-0.593062,-0.086448,-0.800503,0.041868,-0.279869,-0.065388,-13.900513,-15.460973,16.365234,,,,,,,
1523696647.857828,-0.636878,0.086118,1.862110,0.273445,0.066076,0.297281,-0.592484,-0.086011,-0.800977,0.077073,-0.251254,-0.058001,-14.720398,-15.082051,16.588318,,,,,,,
1523696647.887796,-0.636535,0.088129,1.873947,0.268097,0.030134,0.270685,-0.592106,-0.088015,-0.801039,0.099980,-0.213575,-0.057298,-15.471863,-15.228673,16.588562,,,,,,,
1523696647.917765,-0.636036,0.088084,1.884336,0.167730,0.045178,0.283376,-0.591708,-0.087971,-0.801338,0.115405,-0.212918,-0.053078,-15.174271,-15.380162,16.439270,,,,,,,
1523696647.947733,-0.635806,0.088592,1.894503,0.243490,0.015366,0.265346,-0.591497,-0.088476,-0.801438,0.110815,-0.216975,-0.030746,-14.342117,-14.933461,16.887939,,,,,,,
1523696647.977701,-0.636121,0.092437,1.906249,0.349189,0.005588,0.257979,-0.591543,-0.092305,-0.800972,0.089590,-0.245280,-0.004875,-15.543549,-15.302678,17.263794,,,,,,,
1523696648.007669,-0.635564,0.098549,1.919019,0.362074,0.029916,0.267564,-0.590751,-0.098390,-0.800832,0.065101,-0.270217,-0.000193,-15.238312,-15.003667,17.637756,,,,,,,
1523696648.037638,-0.634874,0.102263,1.931431,0.235929,0.053286,0.315384,-0.589977,-0.102085,-0.800940,0.043408,-0.284313,-0.024667,-15.683502,-14.476750,17.560425,,,,,,,
,,,,,,,,,,,,,,,,25.318407,51.455815,13.744957,7.950000,260.156250,1523696647.997651,
1523696648.067636,-0.634200,0.101811,1.942552,0.140588,0.020361,0.347309,-0.589465,-0.101636,-0.801375,0.033556,-0.285877,-0.045336,-17.102448,-14.319615,18.309082,,,,,,,
1523696648.097605,-0.636507,0.102114,1.954429,0.260949,-0.058473,0.333625,-0.591294,-0.101937,-0.799987,0.054612,-0.269706,0.012985,-16.951416,-14.170369,18.233521,,,,,,,
1523696648.127573,-0.639054,0.105704,1.968445,0.371153,-0.008826,0.334734,-0.593107,-0.105508,-0.798180,0.068571,-0.266608,0.045907,-16.648575,-13.796880,18.082214,,,,,,,
1523696648.157541,-0.638053,0.109066,1.982984,0.287345,0.145266,0.363280,-0.592093,-0.108850,-0.798484,0.063407,-0.261847,-0.006829,-16.653824,-14.321858,18.084351,,,,,,,
1523696648.187509,-0.632506,0.107471,1.994755,0.070892,0.215881,0.370510,-0.587757,-0.107265,-0.801895,0.036137,-0.273213,-0.104187,-17.550049,-13.942830,18.082336,,,,,,,
1523696648.217478,-0.628614,0.103305,2.004006,0.055675,0.118393,0.337564,-0.584889,-0.103121,-0.804531,0.029210,-0.272276,-0.103123,-17.323547,-13.793843,18.081909,,,,,,,
1523696648.247446,-0.627116,0.100297,2.014193,0.160161,0.080996,0.331278,-0.583863,-0.100129,-0.805654,0.021149,-0.299240,-0.068049,-18.149567,-13.940053,18.156982,,,,,,,
1523696648.277414,-0.625603,0.099125,2.025551,0.197606,0.093674,0.328099,-0.582711,-0.098963,-0.806631,0.012033,-0.312902,-0.050196,-18.440399,-13.338231,18.679504,,,,,,,
1523696648.307382,-0.623404,0.097527,2.036784,0.159235,0.118137,0.337639,-0.581028,-0.097372,-0.808038,0.029316,-0.322809,-0.050544,-18.365402,-13.338567,18.679504,,,,,,,
1523696648.337351,-0.621964,0.095846,2.047915,0.189957,0.053332,0.326000,-0.579958,-0.095700,-0.809006,0.050387,-0.298771,-0.039032,-19.934509,-12.881276,18.901855,,,,,,,
1523696648.367319,-0.620792,0.095204,2.059207,0.209409,0.087389,0.311064,-0.579045,-0.095060,-0.809734,0.072698,-0.258669,-0.068973,-19.861588,-12.956822,18.677246,,,,,,,
1523696648.397287,-0.619257,0.094611,2.070355,0.177327,0.084215,0.319573,-0.577834,-0.094470,-0.810668,0.069503,-0.249295,-0.104829,-20.392426,-13.404668,18.453796,,,,,,,
1523696648.427239,-0.618654,0.093401,2.081370,0.215444,0.009760,0.316480,-0.577412,-0.093265,-0.811109,0.073139,-0.236370,-0.077594,-20.544662,-13.628972,18.454590,,,,,,,
1523696648.457208,-0.619884,0.095533,2.094232,0.356473,0.013763,0.301663,-0.578292,-0.095388,-0.810234,0.074080,-0.255915,-0.033241,-19.852753,-12.431279,19.275146,,,,,,,
1523696648.487176,-0.620627,0.099016,2.108170,0.357378,-0.004431,0.318737,-0.578697,-0.098854,-0.809529,0.074867,-0.266258,-0.015712,-20.307983,-12.954228,19.276978,,,,,,,
1523696648.517144,-0.623052,0.100892,2.122597,0.292943,-0.013193,0.380489,-0.580549,-0.100721,-0.807972,0.047208,-0.261858,-0.012234,-21.201797,-12.649678,19.800354,,,,,,,
1523696648.547113,-0.622280,0.099897,2.136719,0.211997,0.073895,0.416564,-0.579983,-0.099731,-0.808501,0.049557,-0.262589,-0.061876,-21.651031,-12.572652,19.799805,,,,,,,
1523696648.577081,-0.623272,0.100660,2.151011,0.330263,-0.033427,0.373082,-0.580740,-0.100490,-0.807863,0.060782,-0.258671,-0.026305,-21.641312,-11.822331,20.171814,,,,,,,
1523696648.607049,-0.626050,0.104950,2.166439,0.407260,-0.038716,0.343304,-0.582725,-0.104757,-0.805889,0.065116,-0.275232,0.039273,-23.059647,-11.290730,20.393982,,,,,,,
1523696648.637017,-0.627010,0.110629,2.181790,0.412154,0.073001,0.320821,-0.583139,-0.110404,-0.804835,0.075647,-0.305047,0.052455,-22.386902,-11.518743,20.395203,,,,,,,
1523696648.666986,-0.623566,0.115275,2.195646,0.308160,0.193450,0.303578,-0.580058,-0.115020,-0.806414,0.081614,-0.339845,0.009096,-22.991104,-11.666478,19.945557,,,,,,,
1523696648.696954,-0.618475,0.116872,2.207388,0.166072,0.203186,0.329037,-0.575838,-0.116606,-0.809205,0.078005,-0.353303,-0.064589,-23.434036,-11.139195,20.243225,,,,,,,
1523696648.726922,-0.615381,0.115272,2.218324,0.117475,0.122319,0.363172,-0.573438,-0.115016,-0.811135,0.080427,-0.366780,-0.073295,-22.984802,-11.216207,20.243713,,,,,,,
1523696648.756890,-0.613026,0.113243,2.230164,0.171850,0.127348,0.383457,-0.571660,-0.113001,-0.812672,0.070149,-0.390356,-0.059734,-23.283752,-11.064946,20.167969,,,,,,,
1523696648.786859,-0.610489,0.111622,2.243579,0.245500,0.141905,0.401618,-0.569700,-0.111390,-0.814269,0.062636,-0.399733,-0.029222,-25.002808,-10.831609,20.766174,,,,,,,
1523696648.816827,-0.607691,0.111920,2.258560,0.319139,0.132170,0.399554,-0.567401,-0.111686,-0.815832,0.061038,-0.368004,-0.021952,-25.001617,-10.531911,20.464966,,,,,,,
1523696648.846795,-0.605929,0.113334,2.273840,0.322329,0.115266,0.385715,-0.565872,-0.113092,-0.816700,0.067413,-0.320365,-0.038387,-24.922729,-10.456746,20.989746,,,,,,,
1523696648.876763,-0.604278,0.113678,2.288172,0.232618,0.113356,0.387776,-0.564501,-0.113433,-0.817601,0.055818,-0.285767,-0.072032,-25.966568,-9.926900,21.137024,,,,,,,
1523696648.906732,-0.601698,0.110382,2.300568,0.089529,0.130579,0.406832,-0.562599,-0.110158,-0.819358,0.055702,-0.260844,-0.126519,-26.044250,-9.926991,20.687073,,,,,,,
1523696648.936700,-0.599910,0.105491,2.312252,0.109493,0.064594,0.413314,-0.561430,-0.105295,-0.820798,0.058378,-0.259023,-0.127871,-26.489883,-9.624776,20.910583,,,,,,,
1523696648.966668,-0.601366,0.103273,2.326077,0.256441,-0.008099,0.424147,-0.562755,-0.103089,-0.820170,0.083095,-0.270644,-0.068547,-27.164413,-9.621663,20.985291,,,,,,,
1523696648.996636,-0.602099,0.102890,2.341691,0.282199,0.037432,0.437972,-0.563379,-0.102709,-0.819790,0.103708,-0.289839,-0.050663,-25.953690,-8.726811,21.282288,,,,,,,
1523696649.026605,-0.602422,0.101932,2.356729,0.234335,0.056806,0.419803,-0.563698,-0.101755,-0.819689,0.111565,-0.306753,-0.027937,-26.852875,-8.872396,21.657410,,,,,,,
,,,,,,,,,,,,,,,,25.318391,51.455798,13.796349,6.030000,236.601562,1523696648.997641,
1523696649.056603,-0.601437,0.100103,2.370334,0.189753,0.086819,0.397369,-0.562995,-0.099936,-0.820396,0.086189,-0.329035,-0.055917,-27.894897,-8.117635,21.728882,,,,,,,
1523696649.086572,-0.601130,0.098601,2.383407,0.238568,0.001824,0.379370,-0.562828,-0.098441,-0.820691,0.072929,-0.339395,-0.083926,-27.515732,-7.519643,21.426697,,,,,,,
1523696649.116540,-0.604040,0.099644,2.397979,0.340683,-0.076036,0.384850,-0.565154,-0.099479,-0.818965,0.051650,-0.349236,-0.042454,-28.557007,-6.914510,21.873718,,,,,,,
1523696649.146508,-0.608017,0.100939,2.413910,0.330747,-0.097581,0.429620,-0.568333,-0.100768,-0.816605,0.045796,-0.337297,-0.011078,-28.634857,-7.064382,21.649292,,,,,,,
1523696649.176477,-0.613410,0.101850,2.431063,0.377421,-0.123418,0.462701,-0.572676,-0.101674,-0.813452,0.071989,-0.313625,0.042151,-28.103149,-6.391774,21.646851,,,,,,,
1523696649.206445,-0.618972,0.103685,2.449874,0.423325,-0.105615,0.481907,-0.577082,-0.103500,-0.810101,0.087504,-0.274476,0.049435,-29.220016,-5.936147,22.244446,,,,,,,
1523696649.236413,-0.622603,0.107153,2.469064,0.423646,-0.040760,0.476515,-0.579807,-0.106948,-0.807704,0.093525,-0.252640,0.035441,-28.988708,-5.486897,22.542847,,,,,,,
1523696649.266381,-0.624143,0.111199,2.487385,0.365421,0.043488,0.454011,-0.580793,-0.110970,-0.806452,0.078397,-0.268517,-0.010183,-28.982574,-4.961766,22.690674,,,,,,,
1523696649.296350,-0.622233,0.112098,2.503095,0.188606,0.141675,0.456971,-0.579193,-0.111864,-0.807479,0.036468,-0.328887,-0.075440,-29.728210,-4.658193,22.914124,,,,,,,
1523696649.326318,-0.619794,0.108843,2.516491,0.099715,0.076032,0.453778,-0.577430,-0.108628,-0.809181,0.015098,-0.362822,-0.132164,-30.100647,-4.581212,23.213623,,,,,,,
1523696649.356286,-0.619658,0.103371,2.528942,0.079252,0.027264,0.445286,-0.577657,-0.103187,-0.809732,-0.004451,-0.363091,-0.166022,-29.721909,-3.983296,22.836426,,,,,,,
1523696649.386254,-0.621518,0.098729,2.542051,0.178264,-0.034625,0.446490,-0.579434,-0.098569,-0.809036,-0.001224,-0.352572,-0.129669,-31.063919,-3.451818,23.283630,,,,,,,
1523696649.416238,-0.623505,0.096688,2.557611,0.276503,-0.005271,0.468908,-0.581157,-0.096537,-0.808045,0.019908,-0.349477,-0.080108,-31.588013,-3.224675,23.057434,,,,,,,
1523696649.446206,-0.624089,0.095107,2.574092,0.271343,0.041463,0.474182,-0.581718,-0.094963,-0.807828,0.037437,-0.354637,-0.069583,-30.688202,-2.929250,22.531738,,,,,,,
1523696649.476174,-0.624318,0.093585,2.589982,0.268341,0.051217,0.446475,-0.581986,-0.093448,-0.807811,0.064561,-0.326596,-0.031041,-31.283234,-2.701131,22.980469,,,,,,,
1523696649.506142,-0.623821,0.093361,2.605272,0.307136,0.073765,0.398537,-0.581597,-0.093226,-0.808117,0.094521,-0.304708,0.010739,-31.952682,-2.098195,22.902771,,,,,,,
1523696649.536111,-0.623196,0.095133,2.620328,0.363960,0.077148,0.352747,-0.580994,-0.094989,-0.808345,0.114075,-0.289883,0.022914,-31.274704,-1.801244,22.901917,,,,,,,
1523696649.566079,-0.621065,0.098494,2.634603,0.306627,0.125251,0.332409,-0.579082,-0.098334,-0.809317,0.103877,-0.305047,-0.005212,-32.093369,-1.571889,23.575623,,,,,,,
1523696649.596047,-0.619330,0.100919,2.647323,0.247523,0.045662,0.337776,-0.577536,-0.100748,-0.810124,0.097922,-0.316611,-0.019999,-32.238724,-0.971456,23.348083,,,,,,,
1523696649.626015,-0.619506,0.103278,2.660600,0.273777,-0.000401,0.381528,-0.577539,-0.103095,-0.809827,0.095941,-0.307565,-0.012072,-31.785599,-0.748357,23.497437,,,,,,,
1523696649.655984,-0.621475,0.106538,2.676496,0.361806,-0.052118,0.450910,-0.578934,-0.106336,-0.808410,0.092087,-0.272555,0.013229,-33.349915,0.009212,24.018677,,,,,,,
1523696649.685952,-0.623941,0.110658,2.695705,0.437332,-0.032622,0.522341,-0.580665,-0.110433,-0.806618,0.074531,-0.230403,0.012077,-33.124771,0.157969,23.793152,,,,,,,
1523696649.715920,-0.624942,0.114379,2.716865,0.449236,0.040434,0.555309,-0.581227,-0.114130,-0.805698,0.068288,-0.223974,-0.003140,-32.139175,1.128688,23.939758,,,,,,,
1523696649.745889,-0.624781,0.118608,2.737845,0.464635,0.080103,0.500931,-0.580810,-0.118330,-0.805393,0.051910,-0.254061,-0.030179,-32.659821,1.431254,24.163269,,,,,,,
1523696649.775857,-0.623735,0.122669,2.756509,0.370116,0.105289,0.427319,-0.579682,-0.122361,-0.805603,0.047227,-0.284682,-0.065598,-33.180603,2.033290,23.860657,,,,,,,
1523696649.805825,-0.620822,0.122972,2.770072,0.136834,0.156234,0.367422,-0.577311,-0.122662,-0.807258,0.042201,-0.332981,-0.113763,-32.653839,2.031215,24.160889,,,,,,,
1523696649.835793,-0.617839,0.117646,2.779334,-0.004244,0.105731,0.348175,-0.575271,-0.117375,-0.809497,0.031677,-0.348903,-0.146771,-33.697357,2.635982,24.232971,,,,,,,
1523696649.865762,-0.618515,0.113001,2.788744,0.131773,-0.041252,0.347368,-0.576128,-0.112761,-0.809544,0.035204,-0.348726,-0.094585,-33.771454,2.861094,24.007019,,,,,,,
1523696649.895730,-0.620774,0.112590,2.802357,0.317532,0.012123,0.397536,-0.577982,-0.112352,-0.808278,0.038233,-0.304518,-0.049861,-33.389420,3.384669,24.305115,,,,,,,
1523696649.925698,-0.621413,0.114130,2.819048,0.381582,0.046818,0.428445,-0.578397,-0.113882,-0.807767,0.061368,-0.282724,-0.054126,-34.364548,3.463908,24.154297,,,,,,,
1523696649.955666,-0.621323,0.115489,2.836009,0.336841,0.075596,0.432640,-0.578233,-0.115232,-0.807693,0.059724,-0.302981,-0.076127,-34.290741,3.613124,23.703735,,,,,,,
1523696649.985635,-0.621846,0.115626,2.851662,0.292960,0.018500,0.406035,-0.578646,-0.115369,-0.807377,0.062899,-0.322208,-0.068004,-34.204987,4.513041,24.000244,,,,,,,
1523696650.015633,-0.625265,0.116583,2.866806,0.347027,-0.100461,0.378497,-0.581339,-0.116319,-0.805304,0.053567,-0.337798,0.011237,-34.500473,4.739741,24.374146,,,,,,,
1523696650.045602,-0.630851,0.119379,2.883121,0.434374,-0.137878,0.381785,-0.585634,-0.119096,-0.801778,0.067782,-0.326049,0.074102,-33.593903,5.260890,24.597534,,,,,,,
,,,,,,,,,,,,,,,,25.318321,51.455778,13.683409,5.340000,203.906250,1523696649.997630,
1523696650.075570,-0.636805,0.124483,2.901134,0.499560,-0.108407,0.397793,-0.590028,-0.124162,-0.797778,0.067247,-0.298339,0.102649,-33.809174,6.012233,24.969421,,,,,,,
1523696650.105538,-0.639325,0.129802,2.919814,0.410285,0.045503,0.452982,-0.591634,-0.129438,-0.795747,0.046682,-0.283389,0.029085,-34.250458,6.839290,25.040894,,,,,,,
1523696650.135506,-0.639892,0.130376,2.937004,0.225102,0.005188,0.509358,-0.592041,-0.130007,-0.795352,0.021484,-0.277632,-0.061170,-34.471588,7.365047,24.813660,,,,,,,
1523696650.165475,-0.644159,0.128462,2.953659,0.251164,-0.108708,0.529729,-0.595578,-0.128109,-0.793016,0.017758,-0.287311,-0.033843,-35.441589,7.819484,24.886353,,,,,,,
1523696650.195443,-0.649497,0.127780,2.972420,0.351397,-0.115471,0.548992,-0.599855,-0.127432,-0.789895,-0.007109,-0.286005,-0.031638,-35.061218,8.267924,25.034790,,,,,,,
1523696650.225411,-0.654508,0.127715,2.992505,0.415894,-0.044279,0.526591,-0.603810,-0.127368,-0.786886,-0.022197,-0.294553,0.018087,-34.304077,9.164210,24.731567,,,,,,,
1523696650.255379,-0.657770,0.129230,3.012413,0.455857,-0.013138,0.465856,-0.606256,-0.128871,-0.784758,-0.017417,-0.278051,0.056044,-34.452881,9.239955,24.806152,,,,,,,
1523696650.285348,-0.658496,0.131280,3.030596,0.376656,0.126591,0.418773,-0.606662,-0.130903,-0.784107,-0.021146,-0.302370,0.036625,-34.445679,9.914989,24.878479,,,,,,,
1523696650.315316,-0.655097,0.130168,3.045042,0.168872,0.187842,0.394055,-0.604082,-0.129800,-0.786280,-0.018294,-0.327948,-0.019430,-34.072052,10.137706,24.277771,,,,,,,
1523696650.345284,-0.651104,0.125229,3.055762,0.068442,0.148917,0.373776,-0.601318,-0.124902,-0.789186,-0.013550,-0.324226,-0.036513,-34.886093,10.742183,25.099976,,,,,,,
1523696650.375253,-0.649234,0.121716,3.067231,0.202637,0.075262,0.373950,-0.600104,-0.121416,-0.790654,-0.016870,-0.327513,-0.022777,-35.559875,11.044917,24.798340,,,,,,,
1523696650.405221,-0.649454,0.121501,3.081258,0.301772,0.044165,0.378320,-0.600293,-0.121203,-0.790542,-0.009357,-0.300291,-0.013977,-35.401657,11.869197,24.795166,,,,,,,
1523696650.435183,-0.649521,0.121074,3.096048,0.257958,0.076973,0.413414,-0.600377,-0.120778,-0.790543,0.007131,-0.274073,-0.029540,-35.851944,12.020930,24.494324,,,,,,,
1523696650.465151,-0.649713,0.119219,3.110507,0.248021,0.012160,0.417724,-0.600663,-0.118937,-0.790605,0.024934,-0.242254,-0.020613,-35.704941,11.944896,24.119690,,,,,,,
1523696650.495120,-0.652237,0.119121,3.125581,0.345163,-0.031412,0.383745,-0.602664,-0.118839,-0.789096,0.038028,-0.224117,0.031711,-34.278656,12.163325,23.969604,,,,,,,
1523696650.525088,-0.654291,0.122074,3.141477,0.401059,0.019620,0.358173,-0.604068,-0.121771,-0.787574,0.021686,-0.219431,0.047447,-34.869644,12.841350,24.341553,,,,,,,
1523696650.555056,-0.653651,0.125411,-3.126622,0.322402,0.093195,0.351636,-0.603313,-0.125083,-0.787634,0.006450,-0.244119,0.038168,-34.562759,13.440120,24.489319,,,,,,,
1523696650.585024,-0.652138,0.127102,-3.113153,0.242387,0.102956,0.350509,-0.601992,-0.126760,-0.788377,-0.004866,-0.260813,0.012605,-34.258743,13.888682,24.412659,,,,,,,
1523696650.614993,-0.651596,0.126833,-3.101290,0.163047,0.026672,0.347327,-0.601585,-0.126493,-0.788730,-0.004265,-0.251925,0.000125,-35.081619,13.967601,24.636963,,,,,,,
1523696650.644961,-0.652975,0.125966,-3.090052,0.154367,0.001162,0.351607,-0.602738,-0.125633,-0.787986,-0.002212,-0.231881,0.007041,-35.673325,14.570643,25.009216,,,,,,,
1523696650.674929,-0.653990,0.125584,-3.078807,0.164166,0.028844,0.339869,-0.603567,-0.125254,-0.787412,0.017477,-0.209005,0.010511,-35.004379,14.416881,24.260193,,,,,,,
1523696650.704897,-0.654160,0.124404,-3.068096,0.130036,0.033203,0.336641,-0.603790,-0.124083,-0.787426,0.025986,-0.191514,-0.006107,-35.605545,14.344508,24.185181,,,,,,,
1523696650.734866,-0.654619,0.121705,-3.058447,0.068038,0.019517,0.339810,-0.604353,-0.121405,-0.787412,0.009459,-0.174829,-0.001376,-35.898651,14.945979,24.332642,,,,,,,
1523696650.764834,-0.654797,0.118487,-3.049107,0.073499,0.049241,0.341915,-0.604728,-0.118210,-0.787610,-0.000603,-0.195450,0.012418,-34.253815,14.787974,23.734070,,,,,,,
1523696650.794801,-0.653912,0.115930,-3.039234,0.123638,0.036426,0.335559,-0.604213,-0.115670,-0.788382,-0.027058,-0.208793,0.027869,-35.146729,15.092662,24.407410,,,,,,,
1523696650.824769,-0.653287,0.115147,-3.028927,0.148639,0.088679,0.298243,-0.603775,-0.114893,-0.788831,-0.018509,-0.227911,0.018003,-35.293869,15.468181,24.255859,,,,,,,
1523696650.854738,-0.650130,0.112568,-3.020657,-0.027280,0.138027,0.293801,-0.601459,-0.112331,-0.790967,-0.033566,-0.256474,-0.014408,-34.842728,15.765849,23.954895,,,,,,,
1523696650.884706,-0.647278,0.104243,-3.016226,-0.214439,0.100058,0.320333,-0.599744,-0.104054,-0.793397,-0.015857,-0.229549,-0.011916,-35.580536,16.445065,24.851746,,,,,,,
1523696650.914675,-0.645749,0.095614,-3.011560,-0.107856,0.046710,0.311951,-0.599048,-0.095469,-0.795001,-0.017896,-0.198492,-0.024182,-36.257324,16.447811,24.551453,,,,,,,
1523696650.944643,-0.644967,0.088908,-3.005213,-0.029787,0.060444,0.297070,-0.598797,-0.088790,-0.795963,-0.025669,-0.149933,-0.004284,-36.337845,16.072872,24.252930,,,,,,,
1523696650.974612,-0.643069,0.083515,-2.999006,-0.041198,0.095769,0.263996,-0.597564,-0.083418,-0.797470,0.001372,-0.090120,-0.006119,-36.112732,16.221630,24.027405,,,,,,,
1523696651.004611,-0.640271,0.079386,-2.994089,-0.048311,0.117389,0.213890,-0.595531,-0.079303,-0.799408,0.004146,-0.034680,0.012924,-35.965561,15.846126,24.178955,,,,,,,
1523696651.034579,-0.634960,0.075921,-2.990524,-0.064698,0.243013,0.187106,-0.591437,-0.075848,-0.802776,0.000845,-0.031391,0.009074,-34.764740,16.065502,23.953735,,,,,,,
,,,,,,,,,,,,,,,,25.318247,51.455740,13.511330,5.910000,175.781250,1523696650.997619,
1523696651.064547,-0.626978,0.072049,-2.986848,-0.065684,0.281139,0.205184,-0.585177,-0.071987,-0.807703,-0.001065,-0.045872,-0.027670,-36.557327,16.673794,24.175354,,,,,,,
1523696651.094515,-0.618961,0.068015,-2.982337,-0.027306,0.280958,0.216937,-0.578847,-0.067962,-0.812598,-0.001368,-0.088928,-0.054498,-36.478271,16.898724,24.474487,,,,,,,
1523696651.124484,-0.610803,0.063831,-2.978021,-0.038028,0.242903,0.192459,-0.572357,-0.063787,-0.817519,-0.006363,-0.068918,-0.075761,-36.407928,16.747890,23.950195,,,,,,,
1523696651.154452,-0.606602,0.061754,-2.973987,0.044921,0.101754,0.136199,-0.568992,-0.061715,-0.820023,-0.002556,-0.041465,-0.032653,-37.530472,17.127712,23.723083,,,,,,,
1523696651.184420,-0.603400,0.061454,-2.970465,0.019437,0.102029,0.107402,-0.566374,-0.061415,-0.821856,-0.001284,-0.023424,-0.037564,-37.532593,17.277126,23.122498,,,,,,,
