timestamp(unix),attitude_roll(radians),attitude_pitch(radians),attitude_yaw(radians),rotation_rate_x(radians/s),rotation_rate_y(radians/s),rotation_rate_z(radians/s),gravity_x(G),gravity_y(G),gravity_z(G),user_acc_x(G),user_acc_y(G),user_acc_z(G),magnetic_field_x(microteslas),magnetic_field_y(microteslas),magnetic_field_z(microteslas),latitude(degree),longitude(degree),altitude(meter),speed(m/s),course(degree),timestamp(unix),User Mark
1523694917.866828,-0.612308,-0.139209,-2.651801,0.014447,0.128377,0.018761,-0.569197,0.138760,-0.810406,-0.070161,-0.319485,0.028286,-22.706360,24.191166,34.922729,,,,,,,
1523694917.896796,-0.609993,-0.139334,-2.649765,-0.008753,0.080929,0.126407,-0.567309,0.138884,-0.811707,-0.059369,-0.318251,0.077424,-22.930283,24.342106,34.846985,,,,,,,
,,,,,,,,,,,,,,,,25.298112,51.441516,13.671480,11.730000,127.265625,1523694916.997068,
1523694917.926783,-0.605120,-0.139343,-2.644351,0.089604,0.219219,0.221175,-0.563346,0.138892,-0.814461,-0.069405,-0.327338,0.030541,-22.031677,24.337833,34.622498,,,,,,,
1523694917.956751,-0.595986,-0.137928,-2.635392,0.163535,0.316556,0.255229,-0.555994,0.137491,-0.819734,-0.100623,-0.226785,-0.075087,-22.559967,24.414539,33.946838,,,,,,,
1523694917.986720,-0.588316,-0.137679,-2.626613,0.108241,0.123334,0.250055,-0.549709,0.137245,-0.824003,-0.094426,-0.176490,-0.152361,-22.412811,24.039021,34.098450,,,,,,,
1523694918.016688,-0.587685,-0.137913,-2.618738,0.173807,-0.077312,0.199167,-0.549170,0.137476,-0.824324,-0.044168,-0.157389,-0.063646,-22.491852,23.814075,33.799316,,,,,,,
1523694918.046656,-0.589462,-0.134612,-2.609573,0.284911,-0.094383,0.170493,-0.550884,0.134205,-0.823719,-0.013768,-0.223210,-0.014309,-21.664200,24.260044,33.497986,,,,,,,
,,,,,,,,,,,,,,,,25.298059,51.441594,13.501087,11.100000,123.750000,1523694917.997054,
1523694918.076624,-0.588997,-0.130524,-2.600822,0.239619,0.036507,0.161790,-0.550801,0.130154,-0.824424,0.013036,-0.262234,-0.027093,-21.962265,24.411472,33.572144,,,,,,,
1523694918.106593,-0.586027,-0.130252,-2.594449,0.032612,0.047697,0.152051,-0.548370,0.129884,-0.826086,-0.007477,-0.283174,-0.022623,-21.507034,24.934422,33.570312,,,,,,,
1523694918.136561,-0.587549,-0.131601,-2.590791,0.035243,-0.108295,0.123426,-0.549529,0.131222,-0.825104,0.001937,-0.274746,0.083298,-21.810318,24.785480,33.270752,,,,,,,
1523694918.166529,-0.588693,-0.130834,-2.585346,0.094001,-0.033410,0.182002,-0.550528,0.130461,-0.824558,-0.010736,-0.266859,0.065876,-21.809875,25.010181,32.969849,,,,,,,
1523694918.196498,-0.588343,-0.130281,-2.577476,0.131095,-0.006417,0.258723,-0.550279,0.129913,-0.824811,0.006853,-0.265151,0.055234,-21.061111,25.156361,32.519653,,,,,,,
1523694918.226466,-0.586661,-0.129832,-2.567717,0.156834,0.051771,0.286386,-0.548924,0.129468,-0.825783,-0.000850,-0.281049,-0.025093,-21.366196,24.782505,32.296021,,,,,,,
1523694918.256434,-0.586464,-0.130925,-2.558772,0.039843,-0.081840,0.288563,-0.548682,0.130551,-0.825773,-0.038964,-0.303525,-0.051836,-20.768768,24.704517,31.996643,,,,,,,
1523694918.286402,-0.588968,-0.133398,-2.551037,0.029173,-0.102946,0.270468,-0.550567,0.133003,-0.824126,-0.057709,-0.292076,-0.022051,-20.317276,24.627872,32.372192,,,,,,,
1523694918.316371,-0.591897,-0.134801,-2.544226,0.036724,-0.127136,0.233199,-0.552874,0.134393,-0.822354,-0.069471,-0.291681,0.037396,-20.396912,24.028446,32.599487,,,,,,,
1523694918.346339,-0.592412,-0.136647,-2.537285,0.056487,0.023528,0.258634,-0.553158,0.136222,-0.821862,-0.067921,-0.288505,0.030739,-20.021027,24.251530,32.373840,,,,,,,
1523694918.376307,-0.589486,-0.137583,-2.528573,0.121746,0.085832,0.289528,-0.550680,0.137149,-0.823370,-0.051829,-0.238468,-0.015451,-19.492462,24.474384,32.598206,,,,,,,
1523694918.406275,-0.585176,-0.137643,-2.518465,0.185851,0.105816,0.297009,-0.547122,0.137209,-0.825729,-0.031659,-0.222917,-0.054383,-20.167892,24.477345,32.522827,,,,,,,
1523694918.436244,-0.582649,-0.136040,-2.507380,0.243038,-0.009009,0.286508,-0.545153,0.135621,-0.827292,-0.027463,-0.229264,-0.045099,-19.566711,24.774342,32.221924,,,,,,,
1523694918.466212,-0.581670,-0.132740,-2.495901,0.306272,0.000642,0.250325,-0.544586,0.132350,-0.828195,-0.041031,-0.284419,-0.059455,-18.738770,25.295231,31.845276,,,,,,,
1523694918.496180,-0.581155,-0.128045,-2.484485,0.319031,-0.034325,0.231193,-0.544494,0.127696,-0.828985,-0.036148,-0.313685,-0.027918,-18.895203,24.920490,31.396667,,,,,,,
1523694918.526148,-0.581485,-0.123247,-2.474458,0.291453,-0.054066,0.177911,-0.545098,0.122935,-0.829308,-0.006568,-0.290553,0.057504,-18.903442,24.320148,31.024048,,,,,,,
1523694918.556117,-0.579111,-0.118772,-2.465441,0.228154,0.139338,0.198980,-0.543423,0.118493,-0.831052,-0.026950,-0.265908,0.015836,-17.335403,23.937580,30.501404,,,,,,,
1523694918.586085,-0.573059,-0.116624,-2.457325,0.166166,0.134153,0.204257,-0.538521,0.116360,-0.834538,-0.050346,-0.284374,-0.053905,-17.712036,23.864124,30.351501,,,,,,,
1523694918.616053,-0.569087,-0.114661,-2.448638,0.205404,0.110434,0.237352,-0.535324,0.114410,-0.836861,-0.092682,-0.244003,-0.106682,-17.416534,23.412800,30.353455,,,,,,,
1523694918.646021,-0.568521,-0.111827,-2.438729,0.261015,-0.105439,0.239748,-0.535023,0.111594,-0.837434,-0.089107,-0.220878,-0.049789,-17.119553,23.336079,29.978943,,,,,,,
1523694918.675990,-0.570050,-0.109398,-2.428310,0.218268,-0.072621,0.273772,-0.536447,0.109179,-0.836841,-0.065802,-0.164584,-0.003934,-17.719238,23.638325,29.527405,,,,,,,
1523694918.705958,-0.571443,-0.109150,-2.417427,0.200878,-0.074043,0.331299,-0.537628,0.108933,-0.836115,-0.013093,-0.190446,0.046412,-17.720596,23.862736,28.926514,,,,,,,
1523694918.735926,-0.570375,-0.108145,-2.404430,0.319660,0.010532,0.351544,-0.536793,0.107934,-0.836780,-0.004360,-0.230661,-0.009243,-17.334839,24.761295,29.223083,,,,,,,
1523694918.765895,-0.570228,-0.102343,-2.389921,0.447764,-0.061636,0.293110,-0.536999,0.102165,-0.837373,0.017742,-0.296608,-0.015166,-18.535110,25.141026,28.546021,,,,,,,
1523694918.795863,-0.569666,-0.094922,-2.376924,0.360901,0.003921,0.218393,-0.536922,0.094779,-0.838290,0.019604,-0.314216,-0.042860,-18.463715,25.140095,27.945984,,,,,,,
1523694918.825831,-0.570333,-0.090519,-2.368712,0.158947,-0.095053,0.161860,-0.537701,0.090395,-0.838275,-0.013797,-0.336840,-0.007276,-19.141846,25.142628,27.420715,,,,,,,
1523694918.855799,-0.574272,-0.089334,-2.362821,0.090204,-0.161977,0.183188,-0.541057,0.089215,-0.836239,-0.040333,-0.348706,0.037091,-18.839157,25.141712,27.870850,,,,,,,
1523694918.885768,-0.577316,-0.088719,-2.355947,0.143752,-0.079552,0.226846,-0.543630,0.088603,-0.834634,-0.044994,-0.349208,0.040338,-17.713745,25.136723,27.946411,,,,,,,
1523694918.915757,-0.576448,-0.088170,-2.346572,0.146077,0.062240,0.311944,-0.542932,0.088056,-0.835146,-0.070868,-0.339810,-0.024595,-17.711349,25.286869,28.095825,,,,,,,
1523694918.945726,-0.574312,-0.088638,-2.335986,0.186355,0.017405,0.327996,-0.541124,0.088522,-0.836269,-0.083067,-0.327413,-0.048878,-17.187424,25.134586,28.171692,,,,,,,
1523694918.975694,-0.575703,-0.086804,-2.323964,0.290337,-0.143239,0.316524,-0.542374,0.086695,-0.835651,-0.056045,-0.299372,0.013965,-17.114243,25.133945,27.871765,,,,,,,
1523694919.005662,-0.578830,-0.082778,-2.311436,0.340966,-0.076215,0.287722,-0.545172,0.082683,-0.834236,-0.007136,-0.220119,0.093468,-16.813202,25.282520,27.796326,,,,,,,
1523694919.035630,-0.576363,-0.078187,-2.298488,0.328980,0.140412,0.314125,-0.543313,0.078107,-0.835888,-0.018409,-0.168515,0.008953,-15.835693,25.578053,27.720581,,,,,,,
1523694919.065599,-0.569793,-0.074947,-2.285073,0.305625,0.210316,0.352410,-0.537943,0.074877,-0.839648,-0.053030,-0.197573,-0.146466,-15.461761,25.651066,27.420471,,,,,,,
,,,,,,,,,,,,,,,,25.298051,51.441663,13.446059,9.080000,108.632812,1523694918.997039,
1523694919.095567,-0.567218,-0.072782,-2.271414,0.308425,-0.104278,0.361248,-0.535865,0.072717,-0.841166,-0.069390,-0.275034,-0.169363,-15.242172,25.649174,26.520569,,,,,,,
1523694919.125535,-0.573764,-0.070212,-2.257477,0.324780,-0.290113,0.339066,-0.541460,0.070155,-0.837794,-0.045775,-0.311900,-0.066518,-14.794281,25.571934,26.296143,,,,,,,
1523694919.155503,-0.579428,-0.067886,-2.244520,0.289182,-0.159149,0.315459,-0.546284,0.067834,-0.834848,-0.051738,-0.350854,-0.033744,-11.799088,25.407932,25.773254,,,,,,,
1523694919.185472,-0.581266,-0.065233,-2.232078,0.325090,-0.046428,0.287684,-0.547914,0.065187,-0.833990,-0.057081,-0.340822,-0.046168,-12.178711,25.259113,25.248718,,,,,,,
1523694919.215440,-0.582928,-0.060077,-2.218707,0.429351,-0.136918,0.277184,-0.549478,0.060041,-0.833347,-0.025855,-0.343534,-0.011425,-11.285202,25.104267,24.424744,,,,,,,
1523694919.245408,-0.588075,-0.053565,-2.203636,0.474627,-0.230826,0.317803,-0.553965,0.053539,-0.830816,-0.001577,-0.341076,0.046743,-10.988235,25.252186,23.674316,,,,,,,
1523694919.275376,-0.593954,-0.047732,-2.187287,0.436120,-0.192819,0.365691,-0.559004,0.047714,-0.827790,0.000319,-0.318542,0.079880,-10.087830,25.697453,22.997986,,,,,,,
1523694919.305345,-0.595933,-0.043605,-2.171017,0.355692,0.012168,0.406985,-0.560747,0.043591,-0.826838,-0.019438,-0.329693,0.070521,-9.264359,25.543751,22.999023,,,,,,,
1523694919.335313,-0.592076,-0.042698,-2.155278,0.243987,0.168250,0.464282,-0.557576,0.042686,-0.829027,-0.055874,-0.321540,-0.020811,-8.509460,26.439686,22.320801,,,,,,,
1523694919.365281,-0.587906,-0.043836,-2.140334,0.225332,0.037720,0.447347,-0.554086,0.043822,-0.831304,-0.060507,-0.286758,-0.063990,-8.966034,25.916508,22.097656,,,,,,,
1523694919.395250,-0.587653,-0.043784,-2.125805,0.247811,0.004999,0.407972,-0.553878,0.043770,-0.831446,-0.062043,-0.261040,-0.078894,-8.665909,26.289555,21.496338,,,,,,,
1523694919.425218,-0.587244,-0.044263,-2.112164,0.228564,-0.031944,0.380286,-0.553526,0.044248,-0.831655,-0.045031,-0.267362,-0.095225,-7.918198,26.285816,21.121765,,,,,,,
1523694919.455186,-0.589263,-0.043790,-2.099098,0.303169,-0.124210,0.327163,-0.555215,0.043776,-0.830553,0.001702,-0.263488,-0.043974,-8.668625,26.289127,21.046326,,,,,,,
1523694919.485154,-0.593071,-0.038996,-2.085217,0.435665,-0.153985,0.282543,-0.558485,0.038986,-0.828597,0.020841,-0.259171,0.023803,-7.622421,26.358662,20.296570,,,,,,,
1523694919.515123,-0.596182,-0.033149,-2.070823,0.401716,-0.085999,0.298428,-0.561179,0.033143,-0.827030,0.007224,-0.242997,0.057529,-6.867065,26.805408,20.445129,,,,,,,
1523694919.545091,-0.595996,-0.029320,-2.057179,0.294298,0.050024,0.335502,-0.561092,0.029316,-0.827233,-0.038929,-0.241337,-0.004966,-7.546387,26.732868,19.845093,,,,,,,
1523694919.575059,-0.593244,-0.029229,-2.044570,0.169344,0.085128,0.373737,-0.558815,0.029225,-0.828777,-0.086815,-0.251362,-0.080952,-6.945068,26.730381,20.070374,,,,,,,
1523694919.605027,-0.591903,-0.030915,-2.032581,0.185947,-0.028580,0.368540,-0.557675,0.030910,-0.829483,-0.103275,-0.253994,-0.108536,-6.113358,27.177021,20.444031,,,,,,,
1523694919.634996,-0.595776,-0.029244,-2.019293,0.368996,-0.212535,0.321974,-0.560911,0.029240,-0.827359,-0.071398,-0.264134,-0.010959,-6.791031,27.179615,19.993713,,,,,,,
1523694919.664964,-0.602857,-0.023706,-2.003747,0.489527,-0.232000,0.327411,-0.566839,0.023704,-0.823487,-0.019801,-0.244529,0.088944,-6.263214,27.552097,19.842468,,,,,,,
1523694919.694932,-0.607010,-0.017137,-1.986550,0.509170,-0.099465,0.361392,-0.570330,0.017136,-0.821236,0.018114,-0.262711,0.114632,-5.663681,27.773945,19.391846,,,,,,,
1523694919.724900,-0.607102,-0.010904,-1.968723,0.476632,0.064056,0.392092,-0.570455,0.010904,-0.821255,0.007849,-0.262933,0.056134,-6.343491,27.476704,19.092712,,,,,,,
1523694919.754869,-0.603616,-0.006680,-1.951642,0.360599,0.156673,0.407902,-0.567610,0.006680,-0.823270,-0.034914,-0.279202,-0.055911,-6.055923,26.949207,17.894958,,,,,,,
1523694919.784837,-0.601441,-0.004539,-1.936938,0.283218,-0.003294,0.366447,-0.565825,0.004539,-0.824512,-0.063341,-0.267311,-0.092831,-5.080963,26.944828,17.895508,,,,,,,
1523694919.814805,-0.603806,-0.003128,-1.923184,0.279489,-0.120198,0.368702,-0.567777,0.003128,-0.823176,-0.082934,-0.286026,-0.045889,-5.084564,26.719624,17.671387,,,,,,,
1523694919.844773,-0.608462,-0.000864,-1.908445,0.377632,-0.136386,0.369854,-0.571606,0.000864,-0.820527,-0.076374,-0.301035,0.059266,-4.783218,26.718479,17.896545,,,,,,,
1523694919.874742,-0.610145,0.003037,-1.891603,0.451798,0.007720,0.400670,-0.572983,-0.003037,-0.819561,-0.091079,-0.333083,0.069103,-4.638641,26.716938,16.996643,,,,,,,
1523694919.904696,-0.605769,0.006186,-1.874038,0.373702,0.257362,0.439779,-0.569383,-0.006186,-0.822048,-0.108031,-0.412423,-0.029484,-5.466293,26.495579,16.922119,,,,,,,
1523694919.934664,-0.598573,0.005154,-1.857995,0.213998,0.146030,0.462147,-0.563456,-0.005154,-0.826129,-0.104024,-0.416691,-0.087262,-4.037445,26.564686,17.447510,,,,,,,
1523694919.964632,-0.600386,0.003680,-1.843723,0.280290,-0.163879,0.383670,-0.564957,-0.003680,-0.825112,-0.061615,-0.367918,0.037972,-3.137802,26.710331,17.147400,,,,,,,
1523694919.994601,-0.605185,0.006984,-1.828390,0.418289,-0.136403,0.356042,-0.568900,-0.006984,-0.822376,-0.042931,-0.323399,0.067432,-4.113953,26.415028,17.448059,,,,,,,
1523694920.024569,-0.607781,0.010414,-1.811999,0.382084,-0.048468,0.409186,-0.571016,-0.010414,-0.820872,-0.019408,-0.275566,0.079707,-3.217743,26.485249,16.698242,,,,,,,
1523694920.054537,-0.607789,0.011615,-1.794575,0.364035,0.063667,0.486844,-0.571015,-0.011614,-0.820857,-0.027389,-0.259061,0.060481,-3.078094,25.809025,16.101013,,,,,,,
,,,,,,,,,,,,,,,,25.298071,51.441666,13.392801,6.830000,83.671875,1523694919.997025,
1523694920.084506,-0.604975,0.012025,-1.775781,0.343891,0.125134,0.515548,-0.568700,-0.012025,-0.822456,-0.063273,-0.246337,-0.063484,-1.962296,25.428104,15.203064,,,,,,,
1523694920.114474,-0.602017,0.011903,-1.758433,0.301286,0.084202,0.459078,-0.566265,-0.011903,-0.824136,-0.072300,-0.229049,-0.122626,-2.112869,25.503559,14.977722,,,,,,,
1523694920.144442,-0.603554,0.014276,-1.741827,0.422346,-0.130319,0.398646,-0.567514,-0.014276,-0.823239,-0.069220,-0.289542,-0.044040,-1.144241,25.273518,14.304138,,,,,,,
1523694920.174410,-0.609104,0.017624,-1.724538,0.412349,-0.188925,0.424277,-0.572044,-0.017623,-0.820033,-0.058663,-0.300370,0.045634,-1.819504,25.650883,13.627319,,,,,,,
1523694920.204379,-0.613642,0.020111,-1.706825,0.394570,-0.075355,0.449718,-0.575732,-0.020110,-0.817390,-0.055600,-0.320054,0.112266,-1.749908,25.425037,13.103210,,,,,,,
1523694920.234347,-0.611497,0.019672,-1.689785,0.241763,0.178705,0.489840,-0.573982,-0.019671,-0.818631,-0.050835,-0.314054,-0.000339,-1.524200,25.948277,12.351257,,,,,,,
1523694920.264315,-0.607894,0.016083,-1.674679,0.210250,0.020657,0.460146,-0.571066,-0.016082,-0.820746,-0.033289,-0.275177,-0.078592,-1.747971,25.799732,12.801758,,,,,,,
1523694920.294283,-0.611819,0.018283,-1.657846,0.497850,-0.186884,0.407283,-0.574261,-0.018282,-0.818467,-0.001438,-0.273482,0.068589,-2.120560,25.951557,12.950928,,,,,,,
1523694920.324252,-0.617684,0.025629,-1.637882,0.570536,-0.147878,0.425414,-0.578958,-0.025626,-0.814954,-0.005149,-0.281258,0.095883,-1.002945,25.570927,12.353027,,,,,,,
1523694920.354220,-0.619717,0.030651,-1.618608,0.416196,-0.009541,0.452858,-0.580532,-0.030647,-0.813660,-0.018650,-0.292870,0.077484,-1.001144,25.571217,12.653015,,,,,,,
1523694920.384188,-0.618076,0.030448,-1.601587,0.218222,0.178673,0.501550,-0.579199,-0.030443,-0.814617,-0.064813,-0.293501,-0.038334,0.110443,24.815250,11.681641,,,,,,,
1523694920.414156,-0.613963,0.026939,-1.586580,0.207053,0.019617,0.458013,-0.575902,-0.026936,-0.817074,-0.065913,-0.290386,-0.080417,-0.340408,24.592503,11.907227,,,,,,,
1523694920.444125,-0.619716,0.029820,-1.570437,0.465985,-0.186565,0.374221,-0.580545,-0.029816,-0.813681,-0.029699,-0.256546,0.049155,0.031281,24.440540,11.608032,,,,,,,
1523694920.474093,-0.623724,0.035430,-1.553131,0.446386,-0.031438,0.380459,-0.583695,-0.035423,-0.811199,-0.019057,-0.253701,0.047848,2.195541,23.680271,11.087158,,,,,,,
1523694920.504061,-0.623021,0.037486,-1.536769,0.302363,0.067308,0.443114,-0.583081,-0.037477,-0.811548,-0.022006,-0.252974,-0.011572,2.570969,23.678654,11.162354,,,,,,,
1523694920.534029,-0.621921,0.035184,-1.520526,0.252777,0.036154,0.508111,-0.582236,-0.035177,-0.812258,-0.044747,-0.230540,-0.047117,2.787735,22.628071,11.541687,,,,,,,
1523694920.563998,-0.622672,0.033429,-1.502463,0.332381,-0.042811,0.528487,-0.582882,-0.033423,-0.811869,-0.077702,-0.224145,-0.038900,3.461807,22.624882,11.392090,,,,,,,
1523694920.593966,-0.624579,0.033025,-1.483889,0.356068,-0.039461,0.495478,-0.584437,-0.033019,-0.810767,-0.053243,-0.223451,-0.014047,3.082474,22.326359,11.168030,,,,,,,
1523694920.623965,-0.627554,0.034335,-1.465798,0.421283,-0.083863,0.440163,-0.586820,-0.034329,-0.808988,-0.013354,-0.253498,0.089033,3.461639,22.924351,10.865845,,,,,,,
1523694920.653933,-0.628354,0.038491,-1.447221,0.483917,0.050025,0.418760,-0.587378,-0.038481,-0.808397,0.008276,-0.311174,0.086168,5.177841,22.765430,9.667297,,,,,,,
1523694920.683901,-0.627852,0.044306,-1.428437,0.525699,0.049063,0.390021,-0.586831,-0.044291,-0.808497,0.017602,-0.328954,0.070063,4.349762,22.319386,9.893738,,,,,,,
1523694920.713870,-0.628337,0.051669,-1.410108,0.515998,0.002487,0.367685,-0.587015,-0.051646,-0.807926,0.020929,-0.334798,0.050205,4.710510,21.566639,8.771912,,,,,,,
1523694920.743838,-0.627879,0.057264,-1.392568,0.399742,0.092684,0.425056,-0.586466,-0.057233,-0.807948,-0.019536,-0.304064,0.013377,5.005859,21.190159,8.623535,,,,,,,
1523694920.773806,-0.626427,0.060507,-1.375203,0.404878,0.073386,0.447457,-0.585181,-0.060470,-0.808644,-0.063699,-0.301713,-0.029201,5.454651,20.888447,8.924988,,,,,,,
1523694920.803774,-0.626213,0.063461,-1.356205,0.434207,-0.004552,0.489114,-0.584900,-0.063418,-0.808621,-0.083541,-0.269788,-0.060229,6.644836,20.132710,8.553589,,,,,,,
1523694920.833743,-0.630139,0.065943,-1.336052,0.494582,-0.101434,0.495641,-0.587976,-0.065895,-0.806189,-0.058493,-0.228309,0.025305,7.013687,19.830540,8.030029,,,,,,,
1523694920.863711,-0.632758,0.069490,-1.315151,0.495139,0.011270,0.485937,-0.589943,-0.069434,-0.804453,-0.035866,-0.221399,0.007013,7.305145,19.378544,7.356934,,,,,,,
1523694920.893679,-0.630972,0.071218,-1.295822,0.368731,0.153962,0.486770,-0.588434,-0.071158,-0.805407,-0.035361,-0.250085,-0.099302,7.224915,18.853916,7.358948,,,,,,,
1523694920.923638,-0.627404,0.070064,-1.278724,0.280059,0.124522,0.472886,-0.585605,-0.070007,-0.807567,-0.033444,-0.259873,-0.198124,8.197617,18.849155,6.984497,,,,,,,
1523694920.953607,-0.628957,0.070474,-1.262307,0.398938,-0.104852,0.409274,-0.586841,-0.070416,-0.806634,-0.026257,-0.269916,-0.139945,7.743744,18.326435,7.211365,,,,,,,
1523694920.983575,-0.634962,0.075318,-1.244023,0.526827,-0.170963,0.396650,-0.591465,-0.075246,-0.802811,-0.033535,-0.286448,-0.066787,7.657944,17.651142,6.539062,,,,,,,
1523694921.013542,-0.641002,0.080384,-1.225080,0.492766,-0.134808,0.406171,-0.596068,-0.080297,-0.798908,-0.024416,-0.297098,-0.024502,8.325882,17.347462,5.865540,,,,,,,
1523694921.043510,-0.645511,0.084045,-1.206647,0.433169,-0.063636,0.430562,-0.599483,-0.083946,-0.795973,-0.040883,-0.313988,-0.043535,7.860031,16.074039,5.345459,,,,,,,
1523694921.073479,-0.647119,0.084504,-1.189686,0.307491,0.010999,0.437859,-0.600738,-0.084404,-0.794977,-0.042191,-0.310860,-0.119574,7.932480,15.773791,5.421692,,,,,,,
,,,,,,,,,,,,,,,,25.298079,51.441735,13.392801,5.870000,51.679688,1523694920.997011,
1523694921.103447,-0.648429,0.083569,-1.174017,0.269919,-0.025099,0.446394,-0.601827,-0.083471,-0.794251,-0.058360,-0.313059,-0.195495,9.050995,15.168689,5.349670,,,,,,,
1523694921.133415,-0.652682,0.079767,-1.158898,0.160175,-0.154808,0.495457,-0.605387,-0.079683,-0.791931,-0.052785,-0.290968,-0.199249,8.893982,14.419467,5.427612,,,,,,,
1523694921.163383,-0.662405,0.075167,-1.143458,0.254244,-0.352771,0.507447,-0.613278,-0.075096,-0.786288,-0.023669,-0.303108,-0.019223,8.817764,14.344729,5.352844,,,,,,,
1523694921.193352,-0.673080,0.074170,-1.124276,0.430753,-0.248183,0.531980,-0.621682,-0.074102,-0.779755,0.018548,-0.295847,0.065980,9.631210,13.590411,4.681274,,,,,,,
1523694921.223320,-0.679018,0.074925,-1.103226,0.473204,-0.088806,0.516945,-0.626267,-0.074855,-0.776006,0.047440,-0.306630,0.071095,8.876602,12.994021,4.908264,,,,,,,
1523694921.253289,-0.681664,0.077993,-1.082595,0.542375,0.000887,0.431657,-0.628170,-0.077914,-0.774164,0.086056,-0.284604,0.067942,9.395584,12.616321,4.535034,,,,,,,
1523694921.283257,-0.683403,0.084127,-1.062381,0.579890,-0.019072,0.385886,-0.629202,-0.084028,-0.772685,0.085440,-0.272249,0.034343,9.920547,12.613955,4.535278,,,,,,,
1523694921.313226,-0.684225,0.089720,-1.043345,0.430454,0.021486,0.413437,-0.629530,-0.089600,-0.771792,0.052366,-0.289901,-0.040418,8.492035,12.170535,4.686401,,,,,,,
1523694921.343194,-0.687210,0.090246,-1.027069,0.250443,-0.073972,0.452819,-0.631801,-0.090123,-0.769873,-0.024373,-0.325755,-0.051905,9.382416,11.565936,4.089233,,,,,,,
1523694921.373162,-0.692531,0.088248,-1.011596,0.298892,-0.205945,0.465773,-0.636002,-0.088133,-0.766637,-0.040787,-0.363542,-0.002177,9.370285,10.440845,3.943726,,,,,,,
1523694921.403131,-0.701329,0.089907,-0.991357,0.591025,-0.247377,0.510793,-0.642627,-0.089786,-0.760899,-0.028195,-0.399335,0.072728,9.285843,9.990405,3.120483,,,,,,,
1523694921.433099,-0.708370,0.094975,-0.965420,0.728101,-0.090825,0.565073,-0.647664,-0.094833,-0.756001,0.055333,-0.343430,0.130665,10.775299,9.382953,2.373657,,,,,,,
1523694921.463067,-0.711038,0.101054,-0.938563,0.707831,0.110275,0.532897,-0.649290,-0.100882,-0.753819,0.071547,-0.258767,0.100316,10.921082,8.782596,2.676147,,,,,,,
1523694921.493035,-0.705328,0.105681,-0.915508,0.479702,0.367285,0.482388,-0.644666,-0.105484,-0.757151,0.070325,-0.213684,-0.042654,10.393433,8.335269,2.977661,,,,,,,
1523694921.523004,-0.695865,0.105382,-0.899235,0.201276,0.349253,0.423604,-0.637493,-0.105187,-0.763242,0.044170,-0.193595,-0.151401,10.460495,7.360278,3.281555,,,,,,,
1523694921.552972,-0.688353,0.099459,-0.887613,0.023518,0.250808,0.435277,-0.632127,-0.099295,-0.768476,-0.005279,-0.183832,-0.204913,11.584534,7.579684,2.756287,,,,,,,
1523694921.582940,-0.684732,0.090159,-0.877009,-0.011672,0.087915,0.491891,-0.629897,-0.090036,-0.771442,-0.039766,-0.187170,-0.176052,10.682220,6.984347,3.358215,,,,,,,
1523694921.612907,-0.683745,0.082865,-0.863083,0.220851,0.075404,0.526177,-0.629533,-0.082770,-0.772552,-0.075789,-0.192682,-0.112488,11.348633,6.081439,3.437134,,,,,,,
1523694921.642877,-0.681515,0.080602,-0.844347,0.360163,0.191941,0.527226,-0.627925,-0.080515,-0.774098,-0.075582,-0.186666,-0.086422,11.421844,6.080798,3.137207,,,,,,,
1523694921.672844,-0.676519,0.079025,-0.827050,0.300877,0.205414,0.444064,-0.624128,-0.078943,-0.777323,0.016737,-0.163886,-0.044637,10.966614,5.557849,3.139038,,,,,,,
1523694921.702812,-0.672472,0.078695,-0.811565,0.329741,0.156831,0.392981,-0.620994,-0.078613,-0.779863,0.097282,-0.180252,-0.000228,11.029800,4.731967,2.542358,,,,,,,
1523694921.732780,-0.668376,0.078914,-0.796531,0.290436,0.185682,0.382277,-0.617783,-0.078832,-0.782386,0.127473,-0.221537,-0.047600,12.302490,4.276629,2.919800,,,,,,,
1523694921.762749,-0.665619,0.078461,-0.782472,0.270801,0.084861,0.372765,-0.615646,-0.078380,-0.784115,0.124236,-0.246479,-0.073475,12.440201,3.225711,2.624084,,,,,,,
1523694921.792717,-0.664576,0.078270,-0.768354,0.270385,0.037841,0.411168,-0.614837,-0.078190,-0.784768,0.093856,-0.298961,-0.082832,12.058487,2.777057,2.250732,,,,,,,
1523694921.822685,-0.665988,0.077965,-0.751843,0.331367,-0.075570,0.497649,-0.615959,-0.077886,-0.783918,0.043968,-0.339075,-0.058505,13.260254,2.771945,2.551331,,,,,,,
1523694921.852654,-0.671244,0.077704,-0.732471,0.396995,-0.151476,0.540394,-0.620084,-0.077626,-0.780685,0.008390,-0.358562,-0.040268,12.728683,2.024493,2.704041,,,,,,,
1523694921.882622,-0.676077,0.076206,-0.712539,0.348096,-0.086638,0.555209,-0.623921,-0.076132,-0.777770,0.007954,-0.340356,-0.021272,12.426895,1.800921,2.779846,,,,,,,
1523694921.912578,-0.679955,0.073561,-0.693183,0.343914,-0.066423,0.554114,-0.627058,-0.073495,-0.775498,0.062589,-0.299018,0.009232,12.720901,0.974978,3.158264,,,,,,,
1523694921.942546,-0.682180,0.071948,-0.673694,0.382724,-0.014290,0.529591,-0.628855,-0.071886,-0.774192,0.114771,-0.248030,0.033530,12.344131,0.751742,3.234009,,,,,,,
1523694921.972515,-0.683551,0.072180,-0.653842,0.407443,0.013343,0.521052,-0.629905,-0.072118,-0.773316,0.134254,-0.176265,0.031388,13.162216,0.147922,3.086792,,,,,,,
1523694922.002483,-0.682458,0.072995,-0.634450,0.350424,0.145300,0.513419,-0.629023,-0.072930,-0.773958,0.093562,-0.144767,-0.072767,12.561661,-0.223859,3.612976,,,,,,,
1523694922.032451,-0.677814,0.069444,-0.618366,0.120720,0.123483,0.523925,-0.625580,-0.069388,-0.777068,0.055329,-0.150400,-0.193681,11.950867,-0.896771,2.940308,,,,,,,
1523694922.062419,-0.679374,0.064976,-0.602981,0.290584,-0.119059,0.500860,-0.626980,-0.064930,-0.776325,0.020291,-0.172802,-0.126813,12.997238,-1.126706,2.716797,,,,,,,
,,,,,,,,,,,,,,,,25.298138,51.441735,13.313273,5.920000,17.578125,1523694921.996996,
1523694922.092388,-0.686221,0.067110,-0.582451,0.570884,-0.233412,0.495850,-0.632191,-0.067060,-0.771905,0.016362,-0.213733,-0.034553,12.160477,-2.397794,2.871521,,,,,,,
1523694922.122356,-0.693354,0.071558,-0.559741,0.556250,-0.164294,0.494701,-0.637484,-0.071497,-0.767139,0.010409,-0.247198,0.016498,12.007324,-2.622235,2.722290,,,,,,,
1523694922.152324,-0.697066,0.072643,-0.539657,0.373528,0.024309,0.483728,-0.640278,-0.072579,-0.764707,0.018650,-0.223319,0.056257,12.295166,-3.524045,2.200989,,,,,,,
1523694922.182292,-0.692467,0.069441,-0.523615,0.165314,0.264923,0.490792,-0.636900,-0.069385,-0.767818,0.023420,-0.198590,-0.114537,12.297424,-3.748303,2.951904,,,,,,,
1523694922.212261,-0.687045,0.063873,-0.509952,0.147798,0.150316,0.474911,-0.632962,-0.063829,-0.771547,0.051221,-0.174818,-0.146056,12.367630,-4.048917,2.653137,,,,,,,
1523694922.242259,-0.686389,0.061900,-0.494299,0.356542,0.003363,0.446440,-0.632534,-0.061861,-0.772058,0.077984,-0.151213,-0.149680,13.034973,-4.727078,2.506226,,,,,,,
1523694922.272228,-0.689509,0.063864,-0.475113,0.508633,-0.106597,0.464781,-0.634862,-0.063821,-0.769985,0.075902,-0.190955,-0.057255,12.366608,-4.423474,3.104675,,,,,,,
1523694922.302196,-0.691931,0.065671,-0.453810,0.448006,0.041755,0.546625,-0.636650,-0.065624,-0.768355,0.035347,-0.239430,-0.089433,11.985931,-4.946820,3.031555,,,,,,,
1523694922.332164,-0.692838,0.062664,-0.433849,0.290688,-0.004862,0.580664,-0.637469,-0.062623,-0.767926,0.018863,-0.276305,-0.104892,12.956543,-5.251416,2.808289,,,,,,,
1523694922.362132,-0.693487,0.057996,-0.415789,0.272761,0.001870,0.539071,-0.638148,-0.057963,-0.767728,0.012492,-0.283452,-0.138171,11.747620,-6.145978,2.811279,,,,,,,
1523694922.392101,-0.695490,0.055692,-0.398373,0.325300,-0.037100,0.467778,-0.639768,-0.055663,-0.766550,0.017927,-0.284714,-0.157614,10.915619,-6.667523,2.512939,,,,,,,
1523694922.422069,-0.697380,0.053636,-0.382429,0.252652,-0.066526,0.448564,-0.641288,-0.053611,-0.765425,0.046363,-0.267114,-0.166918,11.582657,-7.420606,2.441284,,,,,,,
1523694922.452037,-0.702623,0.050889,-0.367096,0.300212,-0.171859,0.450838,-0.645385,-0.050867,-0.762162,0.098327,-0.229574,-0.036025,10.527466,-7.940854,2.442810,,,,,,,
1523694922.482006,-0.707430,0.051215,-0.348683,0.461761,-0.077804,0.467908,-0.649030,-0.051192,-0.759038,0.112119,-0.224015,0.012715,10.148438,-8.389066,2.519470,,,,,,,
1523694922.511974,-0.708455,0.052135,-0.328792,0.428013,0.038991,0.491217,-0.649777,-0.052111,-0.758336,0.105573,-0.208661,-0.046916,10.892120,-8.842710,2.221619,,,,,,,
1523694922.541942,-0.707564,0.052009,-0.310417,0.360981,0.055318,0.460247,-0.649106,-0.051985,-0.758920,0.092251,-0.179597,-0.117408,10.369980,-8.914762,2.821655,,,,,,,
1523694922.571910,-0.707621,0.052874,-0.293280,0.375681,-0.020024,0.441150,-0.649120,-0.052850,-0.758848,0.059367,-0.155524,-0.122881,10.066574,-9.662717,3.499512,,,,,,,
1523694922.601879,-0.710609,0.053706,-0.274817,0.418559,-0.150202,0.502053,-0.651355,-0.053681,-0.756872,0.051319,-0.183777,-0.055613,10.816101,-9.666165,3.424866,,,,,,,
1523694922.631847,-0.716379,0.053276,-0.253693,0.445857,-0.151935,0.588380,-0.655727,-0.053250,-0.753118,0.053386,-0.192157,0.009786,9.461380,-10.409619,3.877197,,,,,,,
1523694922.661815,-0.719811,0.052841,-0.231332,0.479563,-0.043465,0.564852,-0.658322,-0.052817,-0.750881,0.073834,-0.168161,0.051525,10.213455,-10.337781,4.102234,,,,,,,
1523694922.691783,-0.719685,0.055382,-0.209966,0.522327,0.076212,0.453954,-0.658137,-0.055353,-0.750861,0.102366,-0.166677,0.023962,8.942108,-10.556088,5.077515,,,,,,,
1523694922.721752,-0.716833,0.059341,-0.190602,0.451357,0.160595,0.417584,-0.655844,-0.059307,-0.752563,0.123602,-0.190251,-0.092255,8.486725,-11.004178,4.929077,,,,,,,
1523694922.751720,-0.713368,0.059196,-0.174176,0.263891,0.067260,0.458035,-0.653238,-0.059161,-0.754838,0.125315,-0.237042,-0.153335,7.805466,-11.451413,4.630493,,,,,,,
1523694922.781688,-0.715647,0.057125,-0.157885,0.334478,-0.115825,0.479574,-0.655035,-0.057094,-0.753438,0.111822,-0.265415,-0.090480,8.400818,-11.829251,4.482300,,,,,,,
1523694922.811656,-0.721069,0.058054,-0.138715,0.454841,-0.170372,0.487179,-0.659076,-0.058022,-0.749835,0.077502,-0.265068,-0.037183,7.570770,-12.649976,5.010193,,,,,,,
1523694922.841625,-0.723002,0.058079,-0.119583,0.323273,0.035950,0.508186,-0.660523,-0.058046,-0.748559,0.039994,-0.255537,-0.082893,7.864166,-13.176526,4.787476,,,,,,,
1523694922.871593,-0.722885,0.054091,-0.103263,0.235647,0.005422,0.497501,-0.660583,-0.054064,-0.748803,0.028427,-0.226224,-0.081168,7.864624,-13.176450,4.862427,,,,,,,
1523694922.901561,-0.723538,0.050855,-0.086656,0.326421,-0.006373,0.481591,-0.661185,-0.050833,-0.748499,0.031729,-0.202173,-0.087698,7.411942,-13.624112,5.164001,,,,,,,
1523694922.931542,-0.724131,0.048896,-0.069045,0.322305,0.036088,0.489005,-0.661693,-0.048877,-0.748180,0.033687,-0.184781,-0.124195,6.961075,-13.622235,5.013794,,,,,,,
1523694922.961512,-0.724602,0.044752,-0.052808,0.217338,-0.028531,0.497517,-0.662174,-0.044737,-0.748013,0.014683,-0.147432,-0.110797,6.437454,-13.619657,5.238464,,,,,,,
1523694922.991479,-0.726686,0.041108,-0.036799,0.332672,-0.059408,0.465666,-0.663835,-0.041096,-0.746749,0.002534,-0.170406,-0.012101,6.432663,-14.144559,5.315552,,,,,,,
1523694923.021447,-0.729570,0.042319,-0.017686,0.515418,-0.052216,0.437020,-0.665952,-0.042306,-0.744794,0.008176,-0.168586,0.024961,6.354828,-14.519055,5.467041,,,,,,,
1523694923.051415,-0.729655,0.044725,0.001632,0.440116,0.050033,0.429404,-0.665946,-0.044710,-0.744659,0.022727,-0.192518,-0.001633,5.755615,-14.665982,5.842346,,,,,,,
1523694923.081384,-0.728274,0.045937,0.018935,0.387094,0.098164,0.402682,-0.664880,-0.045921,-0.745537,0.050668,-0.194359,-0.074089,4.706711,-14.960584,6.518005,,,,,,,
,,,,,,,,,,,,,,,,25.298198,51.441689,13.367784,4.640000,343.125000,1523694922.996982,
1523694923.111352,-0.726838,0.046648,0.035459,0.360028,0.034340,0.420846,-0.663787,-0.046631,-0.746466,0.037948,-0.180938,-0.124765,5.374039,-15.414105,5.995117,,,,,,,
1523694923.141320,-0.728935,0.046704,0.053309,0.409295,-0.095826,0.480672,-0.665349,-0.046687,-0.745071,0.019963,-0.183690,-0.082398,4.463913,-16.609707,6.299500,,,,,,,
1523694923.171289,-0.734115,0.047734,0.073809,0.500704,-0.157880,0.507447,-0.669167,-0.047715,-0.741579,0.004921,-0.179488,0.020067,4.236526,-17.208080,6.901733,,,,,,,
1523694923.201257,-0.737342,0.049030,0.095450,0.484328,0.018435,0.524306,-0.671514,-0.049010,-0.739369,-0.030100,-0.195909,0.031147,4.086090,-17.207485,6.826660,,,,,,,
1523694923.231225,-0.732966,0.046220,0.114402,0.203404,0.262268,0.553684,-0.668362,-0.046203,-0.742400,-0.058887,-0.254563,-0.162813,3.403061,-18.328884,7.355835,,,,,,,
1523694923.261194,-0.726491,0.034934,0.126500,-0.053362,0.097442,0.511035,-0.663845,-0.034927,-0.747054,0.004910,-0.229736,-0.264314,3.777298,-18.630184,7.732239,,,,,,,
1523694923.291162,-0.733661,0.032192,0.140679,0.501783,-0.325796,0.359506,-0.669246,-0.032186,-0.742343,0.081111,-0.206370,0.037845,3.847519,-19.155422,7.809387,,,,,,,
1523694923.321131,-0.741139,0.040574,0.163178,0.753585,-0.088644,0.393557,-0.674573,-0.040563,-0.737093,0.064191,-0.241344,0.075930,2.872269,-19.450588,8.260010,,,,,,,
1523694923.351099,-0.740132,0.044430,0.184928,0.461580,0.128295,0.475156,-0.673720,-0.044415,-0.737651,0.064681,-0.261554,0.040843,2.797424,-19.749722,8.786194,,,,,,,
1523694923.381067,-0.737386,0.043002,0.203370,0.344946,0.081736,0.486847,-0.671734,-0.042988,-0.739544,0.044536,-0.286525,0.015057,3.020920,-19.900738,8.786926,,,,,,,
1523694923.411036,-0.738507,0.041875,0.220736,0.373373,-0.057256,0.445460,-0.672594,-0.041863,-0.738826,0.022463,-0.278922,0.036968,2.275177,-20.196178,9.987732,,,,,,,
1523694923.441004,-0.740588,0.044747,0.238720,0.506146,-0.043285,0.379463,-0.674047,-0.044732,-0.737333,0.006368,-0.295844,0.050947,1.972488,-20.419888,9.913452,,,,,,,
1523694923.470972,-0.741625,0.049737,0.257084,0.433889,0.041852,0.386782,-0.674652,-0.049716,-0.736460,-0.010132,-0.293423,-0.021994,2.268753,-21.020840,10.291016,,,,,,,
1523694923.500940,-0.741591,0.049398,0.272764,0.242323,0.015278,0.453807,-0.674638,-0.049378,-0.736495,-0.005828,-0.269226,-0.050080,2.114426,-21.544994,10.443054,,,,,,,
1523694923.530909,-0.741167,0.044690,0.287919,0.187570,0.036162,0.527258,-0.674475,-0.044675,-0.736944,-0.008844,-0.225924,-0.107798,0.908035,-22.364269,10.745728,,,,,,,
1523694923.560877,-0.742508,0.038842,0.304381,0.270355,-0.058720,0.541272,-0.675628,-0.038832,-0.736219,0.013229,-0.176012,-0.074557,1.955444,-22.444271,10.446594,,,,,,,
1523694923.590845,-0.744752,0.036531,0.323177,0.433085,-0.022638,0.489152,-0.677337,-0.036523,-0.734766,0.029464,-0.122977,-0.037512,1.280045,-22.890560,11.123047,,,,,,,
1523694923.620812,-0.744027,0.037224,0.342734,0.451998,0.098745,0.447487,-0.676787,-0.037215,-0.735237,0.036086,-0.133622,-0.070610,0.681427,-22.887646,11.347656,,,,,,,
1523694923.650782,-0.742575,0.038216,0.360425,0.394436,0.063131,0.396325,-0.675693,-0.038207,-0.736192,0.034901,-0.143754,-0.086074,1.279587,-22.890636,11.048035,,,,,,,
1523694923.680749,-0.741080,0.036107,0.374825,0.170985,0.019960,0.418581,-0.674645,-0.036099,-0.737259,0.003121,-0.191929,-0.119675,0.160034,-22.660076,11.571533,,,,,,,
1523694923.710717,-0.740172,0.027232,0.386047,-0.046113,0.050644,0.514286,-0.674165,-0.027228,-0.738078,-0.031569,-0.239160,-0.172444,0.533218,-22.886669,11.647583,,,,,,,
1523694923.740685,-0.740526,0.016660,0.396931,0.063586,-0.055629,0.476122,-0.674582,-0.016659,-0.738011,-0.036722,-0.259479,-0.093501,1.058960,-22.589413,11.271667,,,,,,,
1523694923.770654,-0.747364,0.015427,0.411726,0.497819,-0.285231,0.334952,-0.679626,-0.015427,-0.733396,0.010376,-0.229965,0.101392,-0.662247,-22.431301,11.645203,,,,,,,
1523694923.800653,-0.752316,0.022764,0.430523,0.588892,-0.036447,0.283623,-0.683154,-0.022762,-0.729919,0.039172,-0.281971,0.099014,-1.260117,-22.353390,11.869629,,,,,,,
1523694923.830621,-0.750058,0.024868,0.445714,0.224291,0.178546,0.364112,-0.681470,-0.024865,-0.731423,0.047757,-0.296088,0.006646,-0.514648,-22.582104,11.495911,,,,,,,
1523694923.860590,-0.742374,0.015715,0.454677,-0.164535,0.244717,0.459660,-0.675955,-0.015714,-0.736774,0.023825,-0.281618,-0.131985,-1.941498,-22.950390,11.796631,,,,,,,
1523694923.890558,-0.740651,0.002670,0.462008,-0.087030,-0.066946,0.478143,-0.674766,-0.002670,-0.738026,0.028648,-0.199921,-0.090877,-2.767975,-23.096676,11.796814,,,,,,,
1523694923.920521,-0.746304,-0.001665,0.474772,0.328734,-0.288505,0.407285,-0.678929,0.001665,-0.734202,0.073796,-0.126879,0.033244,-1.720871,-23.251598,11.572998,,,,,,,
1523694923.950489,-0.756552,0.003864,0.493076,0.647332,-0.322520,0.295677,-0.686413,-0.003864,-0.727201,0.105618,-0.072948,0.158430,-2.763306,-23.395412,13.073059,,,,,,,
1523694923.980457,-0.761771,0.013273,0.513493,0.669995,-0.046216,0.283696,-0.690143,-0.013272,-0.723551,0.100024,-0.082782,0.101130,-3.288574,-23.692593,13.523926,,,,,,,
1523694924.010425,-0.759214,0.014793,0.528943,0.134353,0.155177,0.393909,-0.688276,-0.014793,-0.725297,0.052671,-0.110451,-0.099349,-3.054276,-23.392605,14.572876,,,,,,,
1523694924.040394,-0.757294,0.003807,0.536066,-0.185835,-0.035422,0.411976,-0.686952,-0.003807,-0.726692,-0.016966,-0.093575,-0.126320,-3.953186,-23.687878,15.248596,,,,,,,
1523694924.070362,-0.762062,-0.005065,0.541555,0.022042,-0.259239,0.281301,-0.690405,0.005065,-0.723405,-0.048563,-0.075637,-0.039398,-5.141418,-23.231335,16.446167,,,,,,,
,,,,,,,,,,,,,,,,25.298228,51.441691,13.585009,4.970000,307.617188,1523694923.996967,
1523694924.100330,-0.769939,-0.005989,0.548792,0.194896,-0.199199,0.146035,-0.696079,0.005989,-0.717940,-0.059048,-0.044381,0.051589,-4.536652,-22.933758,16.745300,,,,,,,
1523694924.130298,-0.770824,-0.003278,0.555135,0.196474,0.073273,0.080772,-0.696723,0.003278,-0.717332,-0.038873,-0.015607,-0.034712,-5.057587,-22.930752,17.419983,,,,,,,
1523694924.160267,-0.766234,-0.002164,0.560943,0.135732,0.180255,0.150944,-0.693425,0.002164,-0.720525,-0.019161,0.030901,-0.133906,-5.805145,-23.001858,17.944946,,,,,,,
1523694924.190235,-0.762729,-0.002702,0.569415,0.249845,0.050585,0.267298,-0.690894,0.002702,-0.722951,0.002906,0.036422,-0.147334,-5.274155,-22.853497,18.694641,,,,,,,
1523694924.220203,-0.765139,0.000603,0.584991,0.583811,-0.192794,0.305092,-0.692636,-0.000603,-0.721286,0.043619,0.035667,-0.052655,-5.275040,-23.078259,18.920471,,,,,,,
1523694924.250171,-0.773012,0.010691,0.607938,0.872938,-0.217011,0.323439,-0.698254,-0.010691,-0.715769,0.040768,-0.048635,0.068385,-5.268585,-22.927471,19.744873,,,,,,,
1523694924.280140,-0.775006,0.017570,0.630490,0.501017,0.033046,0.406023,-0.699612,-0.017569,-0.714307,-0.027149,-0.128351,-0.030124,-4.890915,-22.704098,19.819214,,,,,,,
1523694924.310108,-0.772166,0.011148,0.643435,-0.086292,0.115712,0.493941,-0.697645,-0.011148,-0.716356,-0.104952,-0.235999,-0.161512,-5.039124,-22.478497,19.743225,,,,,,,
