timestamp(unix),attitude_roll(radians),attitude_pitch(radians),attitude_yaw(radians),rotation_rate_x(radians/s),rotation_rate_y(radians/s),rotation_rate_z(radians/s),gravity_x(G),gravity_y(G),gravity_z(G),user_acc_x(G),user_acc_y(G),user_acc_z(G),magnetic_field_x(microteslas),magnetic_field_y(microteslas),magnetic_field_z(microteslas),latitude(degree),longitude(degree),altitude(meter),speed(m/s),course(degree),timestamp(unix),User Mark
1522137345.253922,-0.186382,-0.016951,1.232104,0.092170,-0.133017,0.018202,-0.185278,0.016950,-0.982540,-0.012003,-0.064740,0.023739,12.321548,-33.690643,12.480225,,,,,,,
,,,,,,,,,,,,,,,,25.312868,51.448594,-21.171604,-1.000000,-1.000000,1522137345.099805,
1522137345.283890,-0.188801,-0.013953,1.233824,0.045723,0.016717,0.046791,-0.187663,0.013952,-0.982134,-0.049413,-0.048239,0.002459,15.571655,-36.708557,9.193970,,,,,,,
1522137345.313859,-0.187342,-0.017565,1.234329,-0.210630,-0.014470,0.040234,-0.186220,0.017564,-0.982351,-0.027373,-0.060411,0.025381,16.967514,-38.142319,6.725403,,,,,,,
1522137345.343827,-0.190107,-0.022199,1.233549,-0.134775,-0.074812,-0.020377,-0.188917,0.022197,-0.981742,-0.018526,-0.077586,0.052116,20.811981,-40.415085,1.261353,,,,,,,
1522137345.373795,-0.190125,-0.023361,1.232893,0.006616,0.034239,-0.013989,-0.188931,0.023359,-0.981713,-0.025501,-0.077405,-0.007271,22.132690,-41.549026,-1.733459,,,,,,,
1522137345.403763,-0.189091,-0.020843,1.231783,0.072039,0.027064,-0.075728,-0.187926,0.020841,-0.981962,-0.033022,-0.067381,-0.037737,24.237076,-44.340591,-8.846191,,,,,,,
1522137345.433732,-0.189206,-0.019887,1.228430,-0.078389,0.004388,-0.119518,-0.188042,0.019885,-0.981960,-0.046928,-0.059772,-0.004277,23.753235,-45.841568,-11.990417,,,,,,,
1522137345.463700,-0.190341,-0.021359,1.225505,-0.067230,-0.048199,-0.051254,-0.189150,0.021358,-0.981716,-0.001493,-0.099071,-0.002552,23.150101,-49.520737,-18.876038,,,,,,,
1522137345.493668,-0.188601,-0.021959,1.224049,-0.012937,0.148294,-0.056744,-0.187440,0.021958,-0.982031,0.017396,-0.074829,-0.089289,22.514465,-51.245956,-21.944458,,,,,,,
1522137345.523636,-0.182310,-0.019537,1.220840,0.105454,0.236925,-0.161164,-0.181267,0.019536,-0.983240,0.039238,-0.061376,-0.273535,21.644058,-53.720474,-25.385010,,,,,,,
1522137345.553605,-0.178485,-0.015159,1.215966,0.074518,-0.011549,-0.175852,-0.177519,0.015158,-0.984001,0.076796,-0.079627,-0.368676,16.839233,-58.653931,-30.467590,,,,,,,
1522137345.583573,-0.187049,-0.017899,1.212796,-0.205867,-0.450788,-0.021121,-0.185930,0.017898,-0.982400,0.027361,-0.018890,-0.090293,13.873428,-61.118271,-33.159241,,,,,,,
1522137345.613541,-0.202456,-0.024432,1.212587,-0.195706,-0.471589,0.060960,-0.201016,0.024430,-0.979283,0.002530,-0.010010,0.104375,6.087158,-64.912125,-37.047913,,,,,,,
1522137345.643510,-0.210718,-0.030420,1.213106,-0.187802,-0.160117,0.041466,-0.209065,0.030415,-0.977429,0.005895,-0.044774,0.158688,2.463776,-66.172623,-38.844727,,,,,,,
1522137345.673478,-0.213295,-0.033501,1.211969,-0.013798,-0.040870,-0.054419,-0.211562,0.033495,-0.976790,0.007949,-0.057406,0.150542,-3.047821,-69.298706,-39.734985,,,,,,,
1522137345.703431,-0.214275,-0.028518,1.210081,0.254398,-0.060241,-0.112813,-0.212553,0.028514,-0.976733,0.009626,-0.043513,-0.077664,-6.888809,-71.081116,-39.429749,,,,,,,
1522137345.733398,-0.223580,-0.015583,1.208831,0.483154,-0.516414,-0.149475,-0.221695,0.015583,-0.974992,-0.028732,0.000302,-0.104995,-12.381180,-74.129227,-37.245361,,,,,,,
1522137345.763368,-0.240237,-0.001909,1.207943,0.375360,-0.465411,-0.112307,-0.237932,0.001909,-0.971280,-0.029600,0.045881,-0.004489,-14.254440,-74.944138,-35.593018,,,,,,,
1522137345.793335,-0.247881,0.006404,1.206760,0.208622,-0.230370,-0.080710,-0.245345,-0.006404,-0.969415,-0.078034,0.027019,-0.057136,-18.378601,-76.348099,-33.114441,,,,,,,
1522137345.823303,-0.252733,0.012865,1.205189,0.197724,-0.073971,-0.106440,-0.250031,-0.012864,-0.968152,-0.041168,-0.014693,-0.126177,-18.817032,-75.820084,-32.066772,,,,,,,
1522137345.853271,-0.253780,0.018336,1.204347,0.107686,-0.059392,-0.028754,-0.251022,-0.018335,-0.967808,-0.040375,-0.007117,-0.032559,-19.558319,-75.216293,-31.619568,,,,,,,
1522137345.883240,-0.255619,0.016553,1.205159,-0.153171,-0.037092,0.060559,-0.252810,-0.016552,-0.967374,-0.095121,0.021511,0.076124,-21.329483,-72.957275,-30.579529,,,,,,,
1522137345.913208,-0.258202,0.008670,1.204474,-0.337799,-0.084031,0.002920,-0.255333,-0.008670,-0.966814,-0.102364,-0.008298,0.152468,-22.138290,-71.153946,-30.887085,,,,,,,
1522137345.943177,-0.255852,-0.002813,1.197468,-0.467772,0.194166,-0.222295,-0.253068,0.002813,-0.967444,-0.008879,-0.045873,0.143790,-23.063889,-66.199814,-30.907410,,,,,,,
1522137345.973145,-0.247600,-0.011872,1.182797,-0.343812,0.323588,-0.539854,-0.245060,0.011872,-0.969435,0.057591,-0.089661,0.077528,-24.239578,-63.944214,-30.617004,,,,,,,
1522137346.003114,-0.240376,-0.013359,1.160124,-0.189345,0.136147,-0.838956,-0.238047,0.013358,-0.971162,0.108698,-0.181388,-0.053023,-24.560776,-60.040329,-28.157776,,,,,,,
1522137346.033082,-0.241510,-0.012314,1.131296,-0.206973,-0.148641,-0.981471,-0.239151,0.012314,-0.970904,0.091034,-0.136185,-0.113034,-23.107819,-57.870819,-27.115723,,,,,,,
1522137346.063050,-0.251850,-0.007779,1.100669,0.042925,-0.450570,-1.049173,-0.249188,0.007779,-0.968424,0.056500,0.004215,-0.076437,-20.967880,-55.627518,-24.198669,,,,,,,
1522137346.093018,-0.270984,0.012200,1.073214,0.694721,-0.812409,-1.050452,-0.267660,-0.012200,-0.963436,-0.012858,0.053414,0.047619,-19.375397,-54.957886,-22.400574,,,,,,,
,,,,,,,,,,,,,,,,25.312842,51.448529,-21.109928,-1.000000,-1.000000,1522137346.086734,
1522137346.122987,-0.298457,0.049170,1.055390,1.152739,-0.964279,-0.769726,-0.293690,-0.049150,-0.954636,-0.074932,-0.082335,0.126496,-17.417358,-55.414612,-20.297729,,,,,,,
1522137346.152955,-0.320604,0.083981,1.050992,0.890756,-0.534282,-0.321771,-0.314029,-0.083883,-0.945701,0.054355,-0.074641,0.049262,-17.499680,-56.463699,-19.768616,,,,,,,
1522137346.182923,-0.328912,0.100411,1.047364,0.215499,-0.169187,-0.322640,-0.321387,-0.100242,-0.941627,0.084204,0.040413,-0.036598,-18.854858,-56.982605,-19.767212,,,,,,,
1522137346.212891,-0.338438,0.106194,1.038471,0.085636,-0.570460,-0.334046,-0.330144,-0.105995,-0.937961,0.045384,0.055625,0.076785,-20.928345,-56.444748,-16.245361,,,,,,,
1522137346.242890,-0.356613,0.115475,1.032374,0.330478,-0.588897,-0.213454,-0.346777,-0.115218,-0.930844,0.011831,-0.099412,0.209012,-21.729141,-55.912994,-13.097900,,,,,,,
1522137346.272859,-0.369805,0.127477,1.035662,0.406382,-0.294300,0.023931,-0.358500,-0.127132,-0.924832,0.048442,-0.108906,0.090878,-20.238510,-53.213272,-6.657959,,,,,,,
1522137346.302827,-0.374688,0.132615,1.036396,-0.043692,-0.098856,-0.106606,-0.362768,-0.132227,-0.922451,0.005072,-0.055243,-0.069889,-17.731842,-51.347382,-4.489136,,,,,,,
1522137346.332794,-0.374621,0.126567,1.029695,-0.388975,0.026418,-0.120834,-0.362993,-0.126230,-0.923202,-0.058440,-0.049430,-0.058731,-14.170120,-48.661774,-2.848145,,,,,,,
1522137346.362762,-0.368889,0.112570,1.021706,-0.609474,0.226205,-0.045544,-0.358297,-0.112333,-0.926825,-0.072458,-0.068911,-0.063364,-11.091995,-48.076065,-3.298950,,,,,,,
1522137346.392731,-0.367170,0.099598,1.015474,-0.346542,-0.167712,-0.031102,-0.357196,-0.099434,-0.928722,-0.026577,-0.094704,-0.028157,-7.570740,-47.643265,-4.648926,,,,,,,
1522137346.422699,-0.372369,0.092461,1.012146,-0.262867,-0.074455,-0.025801,-0.362269,-0.092329,-0.927489,0.016902,-0.064333,0.031249,-5.625641,-47.727692,-5.322571,,,,,,,
1522137346.452667,-0.368268,0.087726,1.008306,-0.111930,0.205989,-0.065405,-0.358616,-0.087614,-0.929365,-0.035763,0.007475,0.002210,-2.356506,-49.469650,-7.563965,,,,,,,
1522137346.482635,-0.365766,0.088856,1.007698,0.045782,-0.029682,-0.004305,-0.356254,-0.088739,-0.930166,-0.080972,0.019357,-0.060923,-0.199890,-50.455765,-8.983948,,,,,,,
1522137346.512604,-0.370218,0.089572,1.008278,0.043719,-0.238008,0.005487,-0.360368,-0.089452,-0.928511,-0.049056,-0.041087,0.065062,0.874100,-53.089706,-13.097900,,,,,,,
1522137346.542572,-0.375509,0.092885,1.006137,0.047714,-0.052813,-0.190753,-0.365165,-0.092751,-0.926311,-0.025185,-0.014991,-0.025502,1.143509,-54.893021,-15.190552,,,,,,,
1522137346.572541,-0.369935,0.094742,0.997671,-0.091164,0.247084,-0.326485,-0.359933,-0.094601,-0.928170,-0.011145,0.007076,-0.092170,2.993988,-56.178284,-17.134521,,,,,,,
1522137346.602509,-0.366902,0.098845,0.987435,0.124546,-0.055861,-0.389944,-0.356975,-0.098684,-0.928887,-0.008885,-0.012934,-0.009971,1.811340,-59.701706,-20.871033,,,,,,,
1522137346.632478,-0.371265,0.111458,0.978887,0.335283,-0.193494,-0.383265,-0.360544,-0.111227,-0.926087,-0.047675,-0.070673,0.002869,1.408188,-61.801071,-22.062744,,,,,,,
1522137346.662446,-0.372533,0.121770,0.973672,0.225482,-0.017678,-0.263114,-0.361281,-0.121470,-0.924511,-0.006517,-0.025747,0.000653,-0.126480,-64.645218,-23.102234,,,,,,,
1522137346.692428,-0.373274,0.129844,0.966707,0.113592,-0.072034,-0.351582,-0.361596,-0.129480,-0.923300,0.014398,-0.044394,-0.001489,-0.740234,-66.067368,-23.021790,,,,,,,
1522137346.722396,-0.375675,0.137918,0.958898,0.228180,-0.170440,-0.299191,-0.363416,-0.137481,-0.921427,0.026105,-0.039094,0.057779,-1.280762,-67.714783,-22.865479,,,,,,,
1522137346.752365,-0.384036,0.151358,0.955048,0.429113,-0.354814,-0.293525,-0.370382,-0.150780,-0.916560,0.035375,-0.014701,0.056849,-1.434341,-68.388565,-22.337891,,,,,,,
1522137346.782333,-0.393979,0.164575,0.953493,0.300504,-0.250576,-0.110458,-0.378679,-0.163833,-0.910912,-0.019194,-0.020920,0.001122,-2.946686,-70.255707,-21.281128,,,,,,,
1522137346.812301,-0.391038,0.161244,0.955589,-0.299027,0.264883,0.239140,-0.376204,-0.160546,-0.912522,0.013960,-0.097129,-0.014572,-3.406403,-70.779388,-22.029236,,,,,,,
1522137346.842269,-0.388430,0.149885,0.961312,-0.226820,0.066311,0.347006,-0.374490,-0.149324,-0.915128,0.003701,-0.047331,0.033842,-4.698563,-72.049316,-22.774841,,,,,,,
1522137346.872238,-0.382986,0.141472,0.967890,-0.161068,0.330332,0.251964,-0.369958,-0.141000,-0.918286,0.045358,-0.055869,0.027493,-5.237488,-72.947708,-23.596497,,,,,,,
1522137346.902206,-0.376495,0.138184,0.969894,-0.056426,0.096656,0.048764,-0.364159,-0.137744,-0.921094,0.009438,-0.044415,0.010496,-5.474594,-74.071793,-23.742188,,,,,,,
1522137346.932174,-0.374570,0.138418,0.970205,0.026023,0.091488,-0.001249,-0.362373,-0.137976,-0.921764,0.014350,-0.009668,0.006481,-6.249100,-76.842773,-23.206421,,,,,,,
1522137346.962143,-0.371901,0.140997,0.970451,0.193365,-0.014917,-0.039379,-0.359781,-0.140531,-0.922393,0.001856,-0.013156,-0.040681,-6.409851,-78.191589,-22.751099,,,,,,,
1522137346.992111,-0.374632,0.147236,0.969927,0.059265,-0.021410,-0.126845,-0.361971,-0.146704,-0.920573,-0.000028,-0.000512,-0.104512,-5.303558,-81.194687,-20.863525,,,,,,,
1522137347.022079,-0.370223,0.141826,0.963264,-0.443988,0.118054,-0.138012,-0.358190,-0.141351,-0.922886,-0.012476,-0.045966,-0.103404,-4.865402,-82.246872,-21.084167,,,,,,,
