timestamp(unix),attitude_roll(radians),attitude_pitch(radians),attitude_yaw(radians),rotation_rate_x(radians/s),rotation_rate_y(radians/s),rotation_rate_z(radians/s),gravity_x(G),gravity_y(G),gravity_z(G),user_acc_x(G),user_acc_y(G),user_acc_z(G),magnetic_field_x(microteslas),magnetic_field_y(microteslas),magnetic_field_z(microteslas),latitude(degree),longitude(degree),altitude(meter),speed(m/s),course(degree),timestamp(unix),User Mark
1522137106.060402,-0.250996,-0.007252,-1.719730,0.274379,-0.998657,0.110556,-0.248362,0.007252,-0.968640,0.209299,0.293667,0.348630,-5.471024,11.074385,-2.557678,,,,,,,
,,,,,,,,,,,,,,,,25.318809,51.440800,-19.954136,-1.000000,-1.000000,1522137105.092369,
1522137106.090370,-0.281682,0.006309,-1.704687,0.603398,-0.677445,0.557993,-0.277967,-0.006309,-0.960570,0.203305,0.042350,0.272414,-5.245728,10.923674,-2.257019,,,,,,,
1522137106.120338,-0.272262,0.004106,-1.684203,-0.230369,0.698603,0.706226,-0.268908,-0.004106,-0.963157,0.241534,-0.141524,0.127372,-2.455582,12.036787,-1.585083,,,,,,,
1522137106.150307,-0.264795,-0.017943,-1.672340,-0.815390,-0.057910,0.449761,-0.261669,0.017942,-0.964991,0.219829,-0.083311,0.277811,-2.972900,12.489637,-1.062134,,,,,,,
1522137106.180275,-0.258325,-0.044317,-1.674433,-0.819443,0.586424,-0.059149,-0.255211,0.044303,-0.965870,0.131218,0.026361,0.363819,-1.378342,13.683729,0.208862,,,,,,,
1522137106.210243,-0.234628,-0.056361,-1.685003,0.036795,0.749726,-0.317585,-0.232112,0.056331,-0.971057,-0.216665,0.197209,-0.367185,-0.547974,13.905516,0.733398,,,,,,,
1522137106.240211,-0.234959,-0.031738,-1.689585,1.017296,-0.579922,-0.312336,-0.232686,0.031733,-0.972034,-0.010280,-0.209117,-0.528805,-0.104752,13.902403,-0.391357,,,,,,,
,,,,,,,,,,,,,,,,25.318818,51.440907,-19.965122,-1.000000,-1.000000,1522137106.164740,
1522137106.270180,-0.261408,-0.007414,-1.691037,0.400610,-0.810951,-0.183625,-0.258434,0.007413,-0.966000,0.086925,-0.244749,-0.153506,-0.703690,14.279646,-0.843140,,,,,,,
1522137106.300148,-0.264576,-0.010738,-1.694237,-0.399556,0.244925,0.000114,-0.261485,0.010738,-0.965148,0.075145,-0.008006,0.144744,-0.256866,14.277113,-1.367920,,,,,,,
1522137106.330116,-0.255482,-0.026618,-1.697506,-0.549794,0.337586,0.022288,-0.252622,0.026615,-0.967199,-0.050692,0.083248,0.272726,-0.774200,14.729963,-0.844971,,,,,,,
1522137106.360084,-0.244890,-0.036758,-1.699062,-0.152934,0.290759,0.042878,-0.242286,0.036750,-0.969509,-0.055184,0.020608,0.082179,-0.774490,14.879667,-1.145569,,,,,,,
1522137106.390053,-0.244935,-0.033660,-1.698903,0.259722,-0.200364,-0.074597,-0.242356,0.033654,-0.969603,-0.019469,-0.012078,-0.133729,-1.073730,14.956007,-1.146057,,,,,,,
1522137106.420021,-0.246150,-0.024639,-1.699951,0.223093,0.166544,-0.104832,-0.243598,0.024637,-0.969563,-0.001443,-0.014124,-0.176585,-2.503174,14.737059,-1.520874,,,,,,,
1522137106.449989,-0.242068,-0.021666,-1.701214,0.011529,-0.017312,-0.027017,-0.239654,0.021665,-0.970617,-0.009751,-0.025830,-0.083003,-2.573364,14.363798,-0.094421,,,,,,,
1522137106.479935,-0.247067,-0.022629,-1.700792,-0.048363,-0.168714,0.066859,-0.244498,0.022627,-0.969386,-0.005608,-0.014036,0.071940,-2.270233,14.587599,0.054871,,,,,,,
1522137106.509904,-0.249785,-0.025073,-1.698677,-0.066026,-0.033850,0.088009,-0.247118,0.025070,-0.968661,0.024873,-0.038040,0.082553,-3.238846,14.143751,1.856140,,,,,,,
1522137106.539872,-0.246586,-0.026309,-1.696873,0.015093,0.139470,0.039960,-0.244011,0.026306,-0.969416,0.019508,-0.013351,0.043268,-2.717758,13.616636,2.083496,,,,,,,
1522137106.569840,-0.243492,-0.024924,-1.694596,0.075714,0.106287,0.054946,-0.241018,0.024921,-0.970201,0.049337,0.080807,-0.023131,-1.584702,13.612883,3.434082,,,,,,,
1522137106.599808,-0.240651,-0.023249,-1.693733,0.024511,0.048347,-0.001493,-0.238270,0.023247,-0.970921,0.024617,0.040444,-0.074322,-1.666702,12.638716,3.887939,,,,,,,
1522137106.629777,-0.239820,-0.024956,-1.693859,-0.084572,0.037830,0.022937,-0.237454,0.024954,-0.971078,0.023633,-0.014852,-0.042182,0.284866,12.480452,4.414551,,,,,,,
1522137106.659745,-0.236185,-0.027301,-1.694040,-0.036907,0.172784,0.006849,-0.233908,0.027297,-0.971875,0.025595,-0.030517,-0.020770,1.189941,12.626982,5.014465,,,,,,,
1522137106.689713,-0.231029,-0.027228,-1.692572,0.043643,0.118981,0.074091,-0.228895,0.027225,-0.973070,0.053907,-0.045321,-0.027494,0.811798,12.178907,5.241028,,,,,,,
1522137106.719682,-0.230372,-0.027452,-1.689110,-0.027833,-0.054353,0.117899,-0.228253,0.027449,-0.973215,0.092771,-0.051268,-0.049628,2.983871,11.794279,5.393677,,,,,,,
1522137106.749650,-0.230444,-0.030378,-1.686559,-0.082764,0.050093,0.094305,-0.228304,0.030374,-0.973116,0.072543,-0.004922,-0.009474,4.030396,11.489500,5.320374,,,,,,,
1522137106.779619,-0.227945,-0.031572,-1.684113,0.026177,0.057250,0.094386,-0.225864,0.031567,-0.973647,0.073581,0.011295,0.008651,5.745590,10.731413,4.949280,,,,,,,
1522137106.809587,-0.227475,-0.029132,-1.679935,0.146099,-0.043302,0.146788,-0.225423,0.029128,-0.973825,0.112004,0.020127,0.016199,6.416672,10.652876,4.424927,,,,,,,
1522137106.839556,-0.228677,-0.026010,-1.674440,0.107565,-0.053917,0.157432,-0.226613,0.026007,-0.973638,0.129475,0.025506,0.006948,9.029999,10.339689,3.002502,,,,,,,
1522137106.869524,-0.225466,-0.025657,-1.670222,0.006373,0.184683,0.112359,-0.223487,0.025654,-0.974369,0.121070,0.025752,-0.026653,9.094635,9.888426,2.029358,,,,,,,
1522137106.899492,-0.219130,-0.026335,-1.667475,0.012762,0.133946,0.071925,-0.217305,0.026332,-0.975748,0.132558,0.017446,-0.119711,10.432999,9.805601,0.230286,,,,,,,
1522137106.929460,-0.217548,-0.025684,-1.665604,0.044056,-0.048798,0.056155,-0.215765,0.025682,-0.976108,0.153799,0.000960,-0.164456,11.400314,9.575346,-0.668274,,,,,,,
1522137106.959429,-0.220084,-0.025856,-1.664075,-0.009313,-0.048604,0.050771,-0.218239,0.025854,-0.975553,0.158638,0.006373,-0.039843,11.907730,9.345518,-3.217102,,,,,,,
1522137106.989397,-0.218522,-0.026200,-1.661995,0.024072,0.040376,0.075230,-0.216713,0.026197,-0.975884,0.142769,0.015902,-0.009071,11.522690,8.971205,-4.265808,,,,,,,
1522137107.019364,-0.217337,-0.025117,-1.660000,0.064718,0.018222,0.040109,-0.215562,0.025114,-0.976167,0.126115,0.007463,-0.034926,12.416031,9.115828,-5.615967,,,,,,,
1522137107.049332,-0.217656,-0.023418,-1.659822,0.034946,-0.054436,-0.045075,-0.215883,0.023416,-0.976138,0.109971,-0.030542,-0.050595,10.970993,8.594862,-8.089539,,,,,,,
1522137107.079301,-0.216857,-0.022866,-1.662736,-0.022831,0.063143,-0.124082,-0.215105,0.022864,-0.976323,0.119051,-0.041311,-0.054881,9.686905,8.224745,-8.988770,,,,,,,
1522137107.109269,-0.215147,-0.023668,-1.667759,-0.084786,0.002027,-0.173092,-0.213432,0.023666,-0.976671,0.087394,-0.041397,-0.032926,7.422424,8.307386,-11.540222,,,,,,,
,,,,,,,,,,,,,,,,25.318855,51.441089,-20.021458,-1.000000,-1.000000,1522137107.099834,
1522137107.139237,-0.215154,-0.024762,-1.673242,-0.075258,-0.011831,-0.169877,-0.213433,0.024759,-0.976644,0.093590,-0.036143,-0.026164,6.368103,8.236525,-12.140503,,,,,,,
1522137107.169205,-0.213871,-0.026172,-1.678438,-0.092269,0.038995,-0.139036,-0.212171,0.026169,-0.976882,0.094068,-0.053619,-0.031953,3.369705,8.849257,-12.894409,,,,,,,
1522137107.199174,-0.214887,-0.027240,-1.682297,-0.041898,-0.117568,-0.105809,-0.213158,0.027236,-0.976638,0.080132,-0.052398,0.004653,-0.236893,8.415113,-13.269470,,,,,,,
1522137107.229142,-0.217903,-0.026297,-1.685370,0.015901,-0.079497,-0.100476,-0.216108,0.026294,-0.976015,0.089887,-0.021045,0.003451,-2.634506,7.977034,-12.143921,,,,,,,
1522137107.259110,-0.220020,-0.025788,-1.688255,-0.048269,-0.095347,-0.091976,-0.218177,0.025785,-0.975568,0.084083,-0.007307,0.019819,-4.653290,8.286634,-11.621155,,,,,,,
1522137107.289078,-0.221855,-0.026637,-1.690716,-0.048380,-0.074371,-0.052572,-0.219962,0.026634,-0.975145,0.094855,0.016838,0.007295,-6.888779,8.299101,-9.222290,,,,,,,
1522137107.319047,-0.223146,-0.025620,-1.691886,0.074465,-0.035490,-0.032283,-0.221226,0.025617,-0.974886,0.087483,0.032610,-0.047850,-7.857101,8.154799,-7.872253,,,,,,,
1522137107.349015,-0.221736,-0.022407,-1.691559,0.106768,0.053517,-0.007842,-0.219868,0.022406,-0.975272,0.125004,0.016596,-0.132958,-8.451797,7.783979,-6.371033,,,,,,,
1522137107.378983,-0.221184,-0.021563,-1.691548,-0.033351,-0.003520,-0.007885,-0.219334,0.021561,-0.975412,0.131611,0.000763,-0.122321,-9.105011,7.940290,-2.997009,,,,,,,
1522137107.408952,-0.219950,-0.024137,-1.691527,-0.088939,0.028232,0.031458,-0.218117,0.024135,-0.975624,0.131020,0.019017,-0.055611,-9.024292,7.791136,-1.796326,,,,,,,
1522137107.438920,-0.218634,-0.025357,-1.690833,0.023222,0.052315,0.042175,-0.216827,0.025355,-0.975881,0.131393,0.016271,-0.015849,-8.026672,8.614042,0.600830,,,,,,,
1522137107.468880,-0.216840,-0.023354,-1.688568,0.096620,0.014808,0.061445,-0.215086,0.023352,-0.976316,0.133375,-0.009146,-0.033679,-8.621094,8.542768,1.650879,,,,,,,
1522137107.498848,-0.217327,-0.021965,-1.686309,0.032412,-0.019044,0.061437,-0.215568,0.021963,-0.976242,0.133399,-0.023199,-0.041855,-6.579514,8.985609,3.675110,,,,,,,
1522137107.528817,-0.215844,-0.021575,-1.684663,0.020030,0.038604,0.028336,-0.214122,0.021573,-0.976569,0.130626,-0.009946,-0.012979,-5.070267,9.055235,5.100525,,,,,,,
1522137107.558785,-0.213637,-0.021258,-1.684670,0.004350,0.071828,-0.006870,-0.211967,0.021256,-0.977046,0.133613,0.000579,-0.033544,-4.235260,9.427534,6.149536,,,,,,,
1522137107.588753,-0.210319,-0.020861,-1.684649,0.007430,0.049476,-0.002583,-0.208726,0.020860,-0.977752,0.142808,0.001479,-0.089509,-3.179749,9.573454,6.824463,,,,,,,
1522137107.618721,-0.210987,-0.021536,-1.684378,-0.043483,-0.075994,0.028400,-0.209376,0.021535,-0.977598,0.158931,-0.006581,-0.069872,0.061462,10.609846,7.796936,,,,,,,
1522137107.648690,-0.210950,-0.022177,-1.683832,0.018876,0.003640,0.014517,-0.209337,0.022175,-0.977592,0.148226,-0.001377,0.001640,0.589279,10.757689,8.021606,,,,,,,
1522137107.678658,-0.209716,-0.021141,-1.683623,0.026720,0.042115,-0.021735,-0.208136,0.021140,-0.977871,0.131918,0.002527,-0.017139,4.268616,11.191130,8.021729,,,,,,,
1522137107.708627,-0.207338,-0.021073,-1.684488,-0.030918,0.038050,-0.028165,-0.205810,0.021071,-0.978365,0.150985,-0.030852,-0.064588,6.000259,11.858335,8.019897,,,,,,,
1522137107.738595,-0.207286,-0.022650,-1.685345,-0.080432,-0.039445,-0.019608,-0.205752,0.022648,-0.978342,0.125461,-0.022679,-0.064856,6.972092,11.628813,7.871277,,,,,,,
1522137107.768564,-0.207236,-0.025470,-1.686817,-0.089627,0.020278,-0.047378,-0.205689,0.025467,-0.978286,0.113526,0.004761,-0.067567,9.518204,12.140852,6.370544,,,,,,,
1522137107.798532,-0.207190,-0.025639,-1.688989,0.014773,-0.058470,-0.069590,-0.205643,0.025636,-0.978291,0.126480,0.009673,-0.043239,11.620209,12.431257,6.220398,,,,,,,
1522137107.828500,-0.208016,-0.024616,-1.689862,0.007156,-0.019538,-0.009975,-0.206457,0.024614,-0.978146,0.141241,0.002165,-0.051639,12.661743,12.799543,4.194458,,,,,,,
1522137107.858467,-0.207753,-0.025889,-1.689896,-0.069741,0.002791,0.014457,-0.206193,0.025886,-0.978169,0.124802,-0.005851,-0.061840,13.029663,12.721830,3.144958,,,,,,,
1522137107.888437,-0.207240,-0.027804,-1.690096,-0.038572,0.025170,-0.005788,-0.205680,0.027801,-0.978224,0.121543,0.002793,-0.015489,14.821167,13.086744,1.119385,,,,,,,
1522137107.918404,-0.205810,-0.027337,-1.690792,0.032003,0.013539,-0.037696,-0.204284,0.027334,-0.978530,0.121963,-0.023595,-0.036775,15.188644,12.784346,0.370789,,,,,,,
1522137107.948372,-0.204405,-0.026772,-1.692009,-0.000925,0.051848,-0.035619,-0.202912,0.026769,-0.978831,0.129349,-0.039281,-0.095861,15.401474,12.781355,-1.654114,,,,,,,
1522137107.978341,-0.202675,-0.027528,-1.692178,-0.058894,0.046291,0.019751,-0.201214,0.027525,-0.979160,0.142117,-0.041929,-0.238903,16.220276,12.701780,-2.553345,,,,,,,
1522137108.008278,-0.201544,-0.031325,-1.691571,-0.161662,0.017675,0.046337,-0.200084,0.031320,-0.979278,0.130534,-0.027703,-0.352692,15.683136,12.702162,-4.578674,,,,,,,
1522137108.038247,-0.203465,-0.034386,-1.691080,-0.020393,-0.138923,0.051930,-0.201944,0.034379,-0.978793,0.198999,-0.015382,-0.393903,15.454376,12.777449,-5.329102,,,,,,,
1522137108.068215,-0.208470,-0.033655,-1.688936,0.052001,-0.162614,0.071187,-0.206846,0.033649,-0.977795,0.261625,-0.009342,-0.346989,13.937775,12.332243,-7.353027,,,,,,,
1522137108.098183,-0.215127,-0.034024,-1.686408,-0.039315,-0.250809,0.103174,-0.213348,0.034018,-0.976384,0.286483,0.002649,-0.293971,13.406799,12.408506,-8.478577,,,,,,,
,,,,,,,,,,,,,,,,25.318876,51.441261,-20.034214,-1.000000,-1.000000,1522137108.090114,
1522137108.128151,-0.219332,-0.037312,-1.683372,-0.094978,-0.022364,0.124218,-0.217426,0.037303,-0.975364,0.291828,0.054829,-0.303643,12.200836,12.038557,-8.852722,,,,,,,
1522137108.158120,-0.222492,-0.039971,-1.681081,-0.046424,-0.238698,0.044558,-0.220485,0.039960,-0.974572,0.128688,0.048358,-0.093452,10.990097,11.592970,-9.901611,,,,,,,
1522137108.188088,-0.229429,-0.038964,-1.682620,0.088227,-0.164533,-0.121650,-0.227249,0.038954,-0.973057,0.125915,0.051637,0.139958,9.258713,11.449934,-10.726807,,,,,,,
1522137108.218056,-0.236290,-0.033099,-1.685138,0.199579,-0.299959,-0.093725,-0.233969,0.033093,-0.971681,0.155447,0.022418,0.302598,6.703278,11.310759,-11.402588,,,,,,,
1522137108.248024,-0.242687,-0.027009,-1.684743,0.213975,-0.094419,-0.013999,-0.240224,0.027006,-0.970342,0.080297,0.038424,0.325688,6.400131,11.311598,-11.927734,,,,,,,
1522137108.277993,-0.244573,-0.019901,-1.684003,0.243998,-0.113322,-0.055518,-0.242094,0.019900,-0.970049,0.023664,-0.010089,0.339800,3.694122,10.574003,-11.701172,,,,,,,
1522137108.307961,-0.248144,-0.012337,-1.684100,0.224778,-0.088983,-0.034247,-0.245586,0.012337,-0.969296,0.028972,-0.120720,0.439053,2.938751,10.351866,-12.225586,,,,,,,
1522137108.337929,-0.247712,-0.010240,-1.680798,-0.027464,0.077131,0.159315,-0.245174,0.010239,-0.969425,0.075649,-0.094849,0.452152,1.285522,10.209013,-12.525879,,,,,,,
1522137108.367898,-0.245030,-0.013534,-1.675551,-0.047846,0.102348,0.202981,-0.242563,0.013533,-0.970041,0.061304,-0.021880,0.379312,0.680588,9.761656,-12.599365,,,,,,,
1522137108.397866,-0.245143,-0.014940,-1.668853,0.055249,-0.174528,0.255529,-0.242668,0.014940,-0.969994,0.026741,0.001174,0.312966,0.228806,9.763395,-12.899658,,,,,,,
1522137108.427835,-0.260652,-0.016774,-1.661369,-0.145862,-0.757292,0.237864,-0.257674,0.016773,-0.966086,0.038146,-0.089817,0.145865,-1.196289,9.844648,-13.050659,,,,,,,
1522137108.457803,-0.282581,-0.035847,-1.664143,-1.033629,-0.498038,-0.050749,-0.278656,0.035840,-0.959722,0.019089,-0.055691,0.141042,-1.269028,9.845350,-12.675720,,,,,,,
1522137108.487766,-0.279299,-0.076638,-1.683588,-1.667219,0.608209,-0.441258,-0.274872,0.076563,-0.958427,0.188126,0.033865,0.402443,-1.250763,11.270948,-12.006409,,,,,,,
1522137108.517735,-0.253276,-0.116435,-1.715670,-1.462535,0.917847,-0.726971,-0.248880,0.116172,-0.961542,0.029581,0.011727,0.186121,-1.167068,11.646391,-11.182861,,,,,,,
1522137108.547703,-0.228491,-0.153841,-1.743014,-1.402126,1.157922,-0.434150,-0.223833,0.153235,-0.962506,-0.059920,0.030649,0.059247,-1.449509,12.324461,-9.385681,,,,,,,
1522137108.577671,-0.189435,-0.195315,-1.758888,-1.530192,1.554407,-0.103271,-0.184724,0.194076,-0.963437,0.045472,0.095200,-0.054492,-1.596634,12.475340,-9.161438,,,,,,,
1522137108.607639,-0.135891,-0.235798,-1.768704,-1.172968,1.940225,-0.092733,-0.131725,0.233619,-0.963364,0.098628,0.075540,-0.140975,-1.057999,12.849577,-7.512634,,,,,,,
1522137108.637608,-0.083128,-0.252168,-1.767803,0.026112,1.728167,0.323935,-0.080407,0.249504,-0.965030,0.006051,-0.041756,-0.298932,-0.984039,12.250059,-6.685181,,,,,,,
1522137108.667576,-0.039703,-0.194426,-1.736708,4.484634,-0.118184,1.406353,-0.038945,0.193204,-0.980385,0.102177,0.268909,-2.131812,0.858536,9.765501,-7.949341,,,,,,,
1522137108.697544,-0.103523,-0.006411,-1.677337,5.369329,-2.682105,1.523615,-0.103336,0.006411,-0.994626,0.166797,-0.530245,-2.733814,-0.904907,7.221281,-10.115051,,,,,,,
1522137108.727513,-0.135412,0.027407,-1.658533,-0.860584,-0.675426,-0.424443,-0.134947,-0.027404,-0.990474,0.318068,-0.215455,-0.868672,-1.881668,7.225370,-10.415527,,,,,,,
1522137108.757481,-0.129975,-0.026438,-1.694191,-2.342340,0.991821,-1.267913,-0.129564,0.026435,-0.991219,0.061448,0.012276,0.351204,-1.415817,8.723417,-10.271301,,,,,,,
1522137108.787449,-0.074657,-0.091843,-1.734283,-2.163335,2.168284,-0.593432,-0.074273,0.091714,-0.993012,-0.353263,0.044135,0.210159,-2.000519,9.627104,-9.225159,,,,,,,
1522137108.817417,-0.043407,-0.141146,-1.736028,-1.065091,0.134787,0.181940,-0.042962,0.140678,-0.989123,0.044060,0.180748,-0.082136,-1.231934,10.450361,-7.503113,,,,,,,
1522137108.847386,-0.069764,-0.140309,-1.733235,0.805027,-1.585834,0.010318,-0.069022,0.139849,-0.987764,0.130485,0.015775,0.155138,-0.479431,10.971525,-7.954834,,,,,,,
1522137108.877354,-0.123839,-0.095804,-1.731614,1.758717,-1.749455,-0.179536,-0.122956,0.095658,-0.987791,0.093156,-0.130051,0.623884,-2.068466,9.928083,-8.551392,,,,,,,
1522137108.907322,-0.159377,-0.047554,-1.733417,1.366215,-0.695167,-0.369487,-0.158524,0.047536,-0.986210,0.059388,-0.087239,0.823826,-2.452896,9.478987,-9.374817,,,,,,,
1522137108.937290,-0.158386,-0.013428,-1.738055,1.010466,0.531419,-0.292135,-0.157711,0.013428,-0.987394,0.077205,0.051376,0.770674,-1.710724,9.099974,-10.047913,,,,,,,
1522137108.967259,-0.147829,0.020805,-1.737042,1.270623,-0.154558,0.002839,-0.147259,-0.020803,-0.988879,0.077252,0.093939,0.718219,-2.389725,8.653105,-9.971497,,,,,,,
1522137108.997227,-0.181582,0.057283,-1.727837,1.085290,-1.578794,0.119203,-0.180290,-0.057252,-0.981946,0.095558,0.093568,0.816785,-2.103973,7.676069,-10.717407,,,,,,,
1522137109.027195,-0.220289,0.075911,-1.725062,0.331003,-0.835373,-0.163398,-0.217883,-0.075838,-0.973024,0.103823,0.059450,0.817140,-2.256973,7.601377,-11.092224,,,,,,,
1522137109.057163,-0.224687,0.079749,-1.731054,-0.030450,0.142563,-0.232855,-0.222094,-0.079664,-0.971765,0.161776,0.057844,0.590464,-3.008270,7.379911,-10.941711,,,,,,,
1522137109.087132,-0.224987,0.079847,-1.737498,-0.008027,-0.297654,-0.201480,-0.222383,-0.079763,-0.971691,0.132005,0.011953,0.548916,-3.157532,7.455580,-10.942078,,,,,,,
,,,,,,,,,,,,,,,,25.318877,51.441347,-20.018589,-1.000000,-1.000000,1522137109.092354,
1522137109.117100,-0.244574,0.084036,-1.742535,0.063929,-0.907776,-0.197629,-0.241289,-0.083937,-0.966817,0.071214,0.030852,0.595143,-2.564606,7.152250,-11.615601,,,,,,,
1522137109.147068,-0.270157,0.074518,-1.744880,-0.662406,-0.532491,0.186103,-0.266142,-0.074449,-0.961054,-0.033586,0.150438,0.537699,-5.047577,6.488203,-11.839111,,,,,,,
1522137109.177036,-0.255796,0.045074,-1.742449,-0.942937,1.113172,0.329156,-0.252758,-0.045059,-0.966480,-0.101841,0.118606,0.039127,-5.274811,6.488844,-12.214233,,,,,,,
1522137109.207005,-0.226942,0.024859,-1.744896,-0.545461,0.645717,-0.130375,-0.224930,-0.024857,-0.974058,-0.170364,-0.286285,0.010343,-5.128296,6.637358,-13.039795,,,,,,,
1522137109.236973,-0.200739,-0.008038,-1.762501,-1.935732,1.509526,-0.379493,-0.199387,0.008038,-0.979888,-0.192611,-0.246411,-0.098741,-6.775070,6.869917,-12.891602,,,,,,,
1522137109.266941,-0.098001,-0.075161,-1.782577,-2.144393,4.484971,-0.175926,-0.097568,0.075091,-0.992392,-0.117398,0.456175,-1.453165,-5.414658,7.464537,-12.143250,,,,,,,
1522137109.296910,-0.012941,-0.101786,-1.781590,0.195410,1.331727,0.275450,-0.012873,0.101611,-0.994741,-0.042958,0.148862,-1.441859,-5.186340,7.838438,-12.219604,,,,,,,
1522137109.326878,-0.012985,-0.074194,-1.768251,1.153218,-0.517969,0.499651,-0.012949,0.074126,-0.997165,-0.061941,-0.160078,-0.864972,-7.374725,6.273664,-11.839478,,,,,,,
1522137109.356846,-0.013670,-0.048147,-1.748434,0.465461,0.422520,0.731544,-0.013654,0.048128,-0.998748,-0.032459,-0.153765,-0.824845,-8.130829,5.751921,-11.987793,,,,,,,
1522137109.386814,-0.004094,-0.051606,-1.731901,-0.499755,0.034059,0.403035,-0.004088,0.051584,-0.998660,-0.076112,-0.045617,-0.386578,-10.226837,5.612257,-11.088257,,,,,,,
1522137109.416783,-0.005346,-0.073283,-1.726597,-0.791587,0.032955,0.059710,-0.005332,0.073217,-0.997302,-0.079415,-0.078924,-0.016874,-10.514542,6.663847,-10.792603,,,,,,,
1522137109.446751,0.002521,-0.093016,-1.727807,-0.424202,0.355039,-0.089503,0.002510,0.092882,-0.995674,0.034080,0.015226,-0.161537,-11.182449,6.742903,-9.743225,,,,,,,
1522137109.476741,0.003967,-0.091470,-1.729261,0.395672,-0.273495,0.000173,0.003950,0.091343,-0.995812,0.044985,0.027172,-0.224937,-12.301239,6.599211,-8.468201,,,,,,,
1522137109.506709,-0.020617,-0.069474,-1.727473,0.917465,-1.214577,0.063307,-0.020566,0.069418,-0.997376,0.066861,-0.021063,-0.083694,-13.723465,6.381437,-7.643127,,,,,,,
1522137109.536678,-0.062657,-0.038737,-1.726042,1.060506,-1.369167,-0.065362,-0.062569,0.038727,-0.997289,0.149696,-0.038346,0.204992,-15.068130,5.789366,-5.766418,,,,,,,
1522137109.566646,-0.093980,-0.009538,-1.728420,0.862142,-0.781091,-0.213137,-0.093837,0.009538,-0.995542,0.107021,-0.055329,0.350202,-15.440552,5.641706,-5.090942,,,,,,,
1522137109.596614,-0.110380,0.012417,-1.732761,0.611598,-0.452190,-0.203001,-0.110148,-0.012416,-0.993838,0.052744,-0.011097,0.354113,-17.074265,5.876387,-2.767761,,,,,,,
1522137109.626582,-0.123366,0.026649,-1.735500,0.363263,-0.473566,-0.098735,-0.123010,-0.026646,-0.992048,0.057809,-0.008998,0.313749,-17.293549,5.953199,-1.943176,,,,,,,
1522137109.656551,-0.140431,0.032354,-1.735471,0.032218,-0.576673,0.026838,-0.139897,-0.032349,-0.989637,0.058079,0.011200,0.365828,-17.873856,6.258589,0.830383,,,,,,,
1522137109.686519,-0.149569,0.025397,-1.734091,-0.374718,-0.036483,0.114439,-0.148964,-0.025395,-0.988517,0.034431,-0.008114,0.378348,-17.863663,6.559736,2.029175,,,,,,,
1522137109.716487,-0.145506,0.016094,-1.729744,-0.111164,0.080949,0.246641,-0.144974,-0.016093,-0.989305,-0.045929,-0.019841,0.189790,-17.242096,7.683653,3.749939,,,,,,,
1522137109.746455,-0.155675,0.021081,-1.719349,0.420137,-0.607484,0.342558,-0.155012,-0.021080,-0.987688,-0.099077,-0.045968,0.118242,-17.307938,7.610609,5.400269,,,,,,,
1522137109.776424,-0.178019,0.034269,-1.706936,0.476468,-0.713606,0.301159,-0.176976,-0.034262,-0.983619,-0.076137,-0.030786,0.173926,-17.224808,7.836210,6.374390,,,,,,,
1522137109.806392,-0.188173,0.039810,-1.699539,0.002112,0.001574,0.159438,-0.186917,-0.039799,-0.981569,-0.013446,-0.049571,0.132402,-15.180237,8.354399,8.773315,,,,,,,
1522137109.836360,-0.178493,0.032762,-1.696959,-0.311587,0.448032,0.096949,-0.177451,-0.032756,-0.983584,-0.037514,-0.027806,-0.032788,-14.420670,8.726957,9.747192,,,,,,,
1522137109.866328,-0.160053,0.020417,-1.697813,-0.510702,0.713642,0.019826,-0.159337,-0.020416,-0.987013,-0.055003,0.022171,-0.098238,-13.281296,8.724226,12.147827,,,,,,,
1522137109.896297,-0.135890,0.000546,-1.698692,-0.751893,0.877051,0.139880,-0.135473,-0.000546,-0.990781,-0.111552,0.037747,-0.131060,-12.146133,8.795698,13.723022,,,,,,,
1522137109.926265,-0.108637,-0.025344,-1.692641,-0.853581,0.889256,0.405110,-0.108389,0.025342,-0.993786,-0.042688,0.034763,-0.215092,-10.481934,9.090086,15.597717,,,,,,,
1522137109.956233,-0.087190,-0.049384,-1.682332,-0.648293,0.460623,0.388651,-0.086973,0.049364,-0.994987,0.039290,0.011671,-0.272652,-8.977356,9.009214,16.498840,,,,,,,
1522137109.986202,-0.087665,-0.059196,-1.673307,-0.038508,-0.332885,0.288670,-0.087399,0.059162,-0.994415,-0.001452,-0.040806,-0.212265,-5.441238,9.444426,17.623840,,,,,,,
1522137110.016170,-0.104037,-0.057385,-1.665874,0.102725,-0.608873,0.197416,-0.103678,0.057354,-0.992956,0.020777,0.002537,-0.088801,-4.839905,9.217329,18.225037,,,,,,,
1522137110.046138,-0.114051,-0.055463,-1.661560,0.096832,-0.134273,0.101046,-0.113629,0.055435,-0.991975,0.000623,0.017212,-0.078032,-1.090073,9.425077,17.851074,,,,,,,
1522137110.076106,-0.121874,-0.047532,-1.658607,0.433000,-0.465206,0.048350,-0.121435,0.047514,-0.991462,-0.018579,0.004122,-0.022943,0.937820,9.940580,17.475037,,,,,,,
1522137110.106075,-0.139493,-0.031751,-1.655684,0.532005,-0.558768,0.021874,-0.138971,0.031746,-0.989787,-0.016546,-0.049461,0.016902,3.556259,9.777967,16.652039,,,,,,,
,,,,,,,,,,,,,,,,25.318931,51.441383,-19.898716,-1.000000,-1.000000,1522137110.097037,
1522137110.136043,-0.148205,-0.023741,-1.652927,0.064002,-0.117973,0.062639,-0.147621,0.023739,-0.988759,0.013069,0.014057,-0.021327,4.749771,9.397154,16.204163,,,,,,,
1522137110.166011,-0.148385,-0.027403,-1.653513,-0.188680,0.049300,-0.064506,-0.147785,0.027400,-0.988640,-0.027493,0.028401,-0.028984,5.351990,10.068693,15.451721,,,,,,,
1522137110.195979,-0.150305,-0.031992,-1.658918,-0.185763,-0.169677,-0.201755,-0.149663,0.031986,-0.988219,-0.069682,0.032604,0.009750,8.043610,10.130079,13.952820,,,,,,,
1522137110.225948,-0.155723,-0.037844,-1.666700,-0.268589,-0.112929,-0.237020,-0.154983,0.037835,-0.987192,-0.102402,0.028831,0.062052,8.935608,9.600615,13.505371,,,,,,,
1522137110.255916,-0.154118,-0.044697,-1.674866,-0.229597,0.254612,-0.232041,-0.153355,0.044682,-0.987160,-0.118358,0.047648,0.117837,11.176636,10.188047,11.029175,,,,,,,
1522137110.285884,-0.145954,-0.047011,-1.683165,-0.011545,0.243838,-0.288341,-0.145275,0.046994,-0.988275,-0.151066,0.078464,0.067758,11.102371,10.488020,10.652954,,,,,,,
1522137110.315852,-0.145380,-0.041057,-1.691755,0.259380,-0.084986,-0.316575,-0.144746,0.041046,-0.988617,-0.201186,0.050324,-0.022827,11.165649,10.710402,8.327087,,,,,,,
1522137110.345821,-0.150743,-0.031787,-1.699548,0.270021,-0.071339,-0.297397,-0.150097,0.031781,-0.988160,-0.243198,-0.071134,-0.031691,12.504623,10.552809,6.753357,,,,,,,
1522137110.375789,-0.150762,-0.026894,-1.707264,0.065772,0.119220,-0.275364,-0.150137,0.026891,-0.988299,-0.178430,-0.035940,0.012530,11.667648,10.704313,4.502319,,,,,,,
1522137110.405757,-0.149049,-0.026095,-1.715635,-0.051206,-0.006985,-0.268931,-0.148447,0.026092,-0.988576,-0.173895,-0.026214,0.004583,11.881973,10.402082,3.228638,,,,,,,
1522137110.435725,-0.157280,-0.028411,-1.723631,-0.195985,-0.349009,-0.236730,-0.156569,0.028407,-0.987258,-0.180452,-0.037837,0.061248,11.644516,10.550825,0.902954,,,,,,,
1522137110.465691,-0.163369,-0.035245,-1.731075,-0.317342,0.035555,-0.178607,-0.162543,0.035238,-0.986072,-0.173517,-0.078924,0.144901,10.213272,10.556211,-0.147827,,,,,,,
1522137110.495659,-0.156419,-0.043212,-1.736249,-0.225660,0.353428,-0.081893,-0.155636,0.043198,-0.986869,-0.174091,-0.059464,0.084159,9.602020,10.332457,-1.647217,,,,,,,
1522137110.525627,-0.150907,-0.043376,-1.736388,0.119323,0.068932,0.058235,-0.150193,0.043363,-0.987705,-0.205809,-0.038526,-0.002575,9.217712,10.482389,-3.447998,,,,,,,
1522137110.555595,-0.155006,-0.038512,-1.732621,0.118221,-0.100478,0.123403,-0.154271,0.038503,-0.987278,-0.189021,-0.067739,0.018726,7.858032,9.738142,-3.820740,,,,,,,
1522137110.585564,-0.154959,-0.039232,-1.728975,-0.121909,0.144591,0.112326,-0.154220,0.039222,-0.987258,-0.159897,-0.103691,0.026641,6.118546,9.369169,-5.620117,,,,,,,
1522137110.615532,-0.149971,-0.044099,-1.727347,-0.138427,0.206659,0.056839,-0.149264,0.044085,-0.987814,-0.129163,-0.084109,-0.011667,6.194275,9.668455,-5.996277,,,,,,,
1522137110.645500,-0.146069,-0.044757,-1.727590,0.012468,0.180354,-0.033593,-0.145404,0.044742,-0.988360,-0.127866,-0.058520,-0.000394,4.087936,9.077848,-6.069946,,,,,,,
1522137110.675469,-0.142903,-0.044042,-1.729370,-0.028323,0.076641,-0.080397,-0.142279,0.044027,-0.988847,-0.138238,-0.060309,-0.012526,3.032593,8.632460,-6.218689,,,,,,,
1522137110.705437,-0.142313,-0.045574,-1.732657,-0.116852,0.078040,-0.096450,-0.141685,0.045558,-0.988863,-0.146767,-0.028911,0.009157,2.132019,8.711287,-6.444458,,,,,,,
1522137110.735405,-0.139510,-0.047841,-1.735138,-0.063621,0.104121,-0.045296,-0.138899,0.047823,-0.989151,-0.122576,0.011915,-0.019790,1.679199,8.563093,-6.669067,,,,,,,
1522137110.765373,-0.140708,-0.046790,-1.734819,0.102556,-0.119001,0.041371,-0.140090,0.046772,-0.989033,-0.115327,0.005855,-0.011302,1.373962,8.264097,-7.043030,,,,,,,
1522137110.795342,-0.147761,-0.041988,-1.732317,0.201079,-0.254383,0.070338,-0.147094,0.041976,-0.988231,-0.123169,-0.023726,0.024913,0.998383,8.115934,-6.892700,,,,,,,
1522137110.825310,-0.155939,-0.036954,-1.729419,0.149639,-0.303115,0.066094,-0.155202,0.036946,-0.987192,-0.112376,-0.026387,0.000863,-0.050964,8.045881,-6.667908,,,,,,,
1522137110.855278,-0.168168,-0.034486,-1.727695,0.055283,-0.437557,0.026735,-0.167277,0.034480,-0.985307,-0.092198,-0.005778,0.014787,-1.179520,7.825743,-6.892578,,,,,,,
1522137110.885246,-0.182769,-0.034136,-1.727556,-0.037412,-0.425448,0.000014,-0.181647,0.034130,-0.982771,-0.089700,0.023259,0.079375,-0.656189,7.748228,-7.041992,,,,,,,
1522137110.915215,-0.186261,-0.038124,-1.727701,-0.187986,0.076280,0.029226,-0.185052,0.038114,-0.981989,-0.079231,0.010836,-0.023626,-2.006592,7.529600,-6.741821,,,,,,,
1522137110.945183,-0.185291,-0.042110,-1.728851,-0.085484,-0.001083,-0.037743,-0.184069,0.042098,-0.982011,-0.113630,-0.005507,-0.066786,-2.232025,7.755171,-7.192810,,,,,,,
1522137110.975151,-0.186298,-0.042961,-1.731765,-0.038980,0.004859,-0.145325,-0.185051,0.042948,-0.981790,-0.109153,-0.033076,-0.018683,-3.054596,7.909025,-7.043823,,,,,,,
1522137111.005119,-0.186539,-0.043254,-1.738061,-0.039713,-0.003119,-0.217783,-0.185286,0.043241,-0.981733,-0.128481,-0.017728,0.054807,-3.061050,7.533598,-7.492371,,,,,,,
1522137111.035088,-0.189071,-0.041919,-1.744121,0.038673,-0.090758,-0.173947,-0.187781,0.041907,-0.981316,-0.131524,-0.008460,0.075707,-3.740372,7.461058,-8.092346,,,,,,,
1522137111.065056,-0.192277,-0.040143,-1.746823,-0.016380,-0.057607,-0.031249,-0.190941,0.040132,-0.980781,-0.126870,-0.012209,0.003867,-4.936737,7.691664,-7.868896,,,,,,,
1522137111.095024,-0.193631,-0.041660,-1.746501,-0.028256,0.002440,0.046469,-0.192257,0.041648,-0.980461,-0.120060,-0.046454,0.037834,-6.286209,7.697813,-7.794617,,,,,,,
1522137111.124992,-0.195210,-0.041287,-1.745392,0.039979,-0.040093,0.027379,-0.193807,0.041275,-0.980171,-0.142695,-0.054062,-0.049996,-6.888596,7.774992,-8.320251,,,,,,,
,,,,,,,,,,,,,,,,25.318941,51.441444,-19.923252,-1.000000,-1.000000,1522137111.106424,
1522137111.154961,-0.197577,-0.041459,-1.745349,-0.044236,-0.050303,-0.004627,-0.196126,0.041447,-0.979702,-0.141277,-0.051304,-0.003482,-8.606308,7.559309,-6.745239,,,,,,,
1522137111.184929,-0.198163,-0.041941,-1.745439,-0.011812,0.052624,0.007003,-0.196695,0.041929,-0.979568,-0.121359,-0.023618,0.021850,-9.128586,7.786726,-6.671387,,,,,,,
1522137111.214897,-0.196591,-0.040631,-1.744806,0.083070,0.036343,0.020947,-0.195165,0.040620,-0.979929,-0.114039,-0.037278,-0.001623,-9.498627,8.013838,-6.222473,,,,,,,
1522137111.244866,-0.197675,-0.036647,-1.742954,0.232021,-0.046033,0.048837,-0.196258,0.036639,-0.979867,-0.118286,-0.073901,0.065195,-10.615448,8.020216,-4.873047,,,,,,,
1522137111.274834,-0.202962,-0.030537,-1.740944,0.109204,-0.110218,0.000867,-0.201478,0.030532,-0.979017,-0.078445,-0.035232,0.018034,-10.456009,8.245695,-3.673889,,,,,,,
1522137111.304802,-0.198643,-0.034672,-1.741622,-0.340837,0.276397,0.032116,-0.197221,0.034665,-0.979746,-0.088027,-0.015378,-0.036718,-10.210190,9.296309,-1.953003,,,,,,,
