timestamp(unix),attitude_roll(radians),attitude_pitch(radians),attitude_yaw(radians),rotation_rate_x(radians/s),rotation_rate_y(radians/s),rotation_rate_z(radians/s),gravity_x(G),gravity_y(G),gravity_z(G),user_acc_x(G),user_acc_y(G),user_acc_z(G),magnetic_field_x(microteslas),magnetic_field_y(microteslas),magnetic_field_z(microteslas),latitude(degree),longitude(degree),altitude(meter),speed(m/s),course(degree),timestamp(unix),User Mark
1523524662.928501,-0.593345,0.134453,0.073778,0.779602,0.485866,0.616422,-0.554091,-0.134048,-0.821592,0.062941,-0.122300,0.073103,21.848999,32.800903,-23.434326,,,,,,,
,,,,,,,,,,,,,,,,25.312575,51.436412,8.701470,6.860000,41.835938,1523524661.996680,
1523524662.958470,-0.589707,0.141008,0.102775,0.646190,0.180258,0.754089,-0.550598,-0.140541,-0.822855,0.064026,-0.112495,0.082620,21.691223,31.976685,-23.356079,,,,,,,
1523524662.988438,-0.588370,0.140251,0.130965,0.345271,0.053080,0.814718,-0.549556,-0.139792,-0.823678,-0.031285,-0.080088,0.011835,21.612793,31.676971,-23.429932,,,,,,,
1523524663.018406,-0.602467,0.136831,0.155487,0.414890,-0.517915,0.690686,-0.561380,-0.136404,-0.816239,-0.093909,-0.038400,-0.129989,19.123978,30.338104,-23.500854,,,,,,,
1523524663.048374,-0.613214,0.136911,0.177829,0.337902,0.033505,0.576067,-0.570113,-0.136484,-0.810150,-0.086076,-0.129858,-0.021988,19.338470,29.511765,-23.872437,,,,,,,
,,,,,,,,,,,,,,,,25.312616,51.436462,8.446592,6.840000,19.335938,1523524662.996670,
1523524663.078343,-0.604688,0.134345,0.196053,0.146465,0.397644,0.541454,-0.563383,-0.133941,-0.815267,-0.034442,-0.080414,0.028813,18.507980,29.140198,-24.171387,,,,,,,
1523524663.108311,-0.597117,0.125219,0.210660,-0.034155,0.185161,0.599077,-0.557858,-0.124892,-0.820485,0.001507,-0.097764,0.008519,18.062363,29.217804,-23.571838,,,,,,,
1523524663.138279,-0.602840,0.114796,0.226993,0.068097,-0.230167,0.694394,-0.563253,-0.114544,-0.818307,-0.002696,-0.132893,-0.032935,15.513977,28.930023,-22.821960,,,,,,,
1523524663.168247,-0.607011,0.103687,0.246448,-0.037223,0.180769,0.772755,-0.567351,-0.103501,-0.816946,-0.017686,-0.095535,-0.046137,14.468384,28.785706,-21.846985,,,,,,,
1523524663.198216,-0.590485,0.088847,0.260957,-0.223660,0.808171,0.621742,-0.554568,-0.088730,-0.827394,-0.009122,-0.199173,-0.042769,14.034912,29.089905,-19.598389,,,,,,,
1523524663.228184,-0.563051,0.075990,0.272034,-0.122260,0.937094,0.535385,-0.532229,-0.075917,-0.843190,-0.052061,-0.150432,-0.051433,14.193604,29.240387,-18.398926,,,,,,,
1523524663.258152,-0.533854,0.065135,0.281714,-0.229581,1.188735,0.449811,-0.507776,-0.065089,-0.859027,-0.063681,-0.147786,0.035769,15.411575,29.687149,-16.150085,,,,,,,
1523524663.288120,-0.495113,0.052123,0.287295,-0.306446,1.286475,0.328186,-0.474486,-0.052099,-0.878720,-0.031160,-0.113917,0.043225,15.644684,29.462830,-14.424072,,,,,,,
1523524663.318089,-0.460258,0.043006,0.291293,-0.175768,1.038143,0.236895,-0.443768,-0.042993,-0.895110,-0.011371,-0.159079,-0.026475,17.161438,29.383926,-11.498047,,,,,,,
1523524663.348049,-0.434026,0.037156,0.295145,-0.058661,0.880045,0.163614,-0.420236,-0.037147,-0.906654,0.006082,-0.123574,0.001609,17.168961,29.460022,-10.373291,,,,,,,
1523524663.378048,-0.398647,0.031689,0.299434,-0.134331,1.238823,0.244181,-0.387976,-0.031683,-0.921125,0.023368,-0.134714,-0.153735,18.906357,29.753784,-8.798584,,,,,,,
1523524663.408016,-0.381169,0.025710,0.305736,-0.005339,0.071382,0.297666,-0.371883,-0.025707,-0.927924,0.036815,-0.123509,-0.106760,19.364319,29.154053,-6.470947,,,,,,,
1523524663.437984,-0.386284,0.021983,0.316135,-0.076280,-0.159702,0.393744,-0.376658,-0.021981,-0.926092,0.042917,-0.086890,-0.017634,19.743362,28.928391,-5.419861,,,,,,,
1523524663.467953,-0.381035,0.014679,0.323599,-0.217242,0.444835,0.305650,-0.371841,-0.014678,-0.928180,-0.047455,-0.087662,-0.018185,21.027344,28.699493,-3.543335,,,,,,,
1523524663.497921,-0.366040,0.007125,0.329584,-0.174279,0.487274,0.297131,-0.357911,-0.007124,-0.933729,-0.020385,-0.061037,-0.085406,21.940201,29.221649,-2.269958,,,,,,,
1523524663.527889,-0.357945,-0.002452,0.336025,-0.279639,-0.106672,0.329602,-0.350349,0.002452,-0.936616,0.030464,-0.075756,-0.122726,24.054977,29.439240,-0.169739,,,,,,,
1523524663.557858,-0.363379,-0.014759,0.342182,-0.360595,-0.076664,0.320993,-0.355396,0.014758,-0.934599,0.060260,-0.060657,-0.049974,23.833893,29.291138,0.730713,,,,,,,
1523524663.587826,-0.362256,-0.028492,0.343937,-0.473519,0.021513,0.151383,-0.354241,0.028488,-0.934720,0.051858,-0.041900,-0.030917,26.692032,29.204773,2.232544,,,,,,,
1523524663.617795,-0.357223,-0.039974,0.341325,-0.348648,0.325007,0.013720,-0.349395,0.039963,-0.936123,0.024474,-0.061005,0.019711,28.870117,29.195496,2.758606,,,,,,,
1523524663.647762,-0.350260,-0.046078,0.339383,-0.129295,-0.028422,0.027030,-0.342778,0.046061,-0.938287,0.006855,-0.107203,-0.034934,32.171768,29.180939,3.060364,,,,,,,
1523524663.677730,-0.355803,-0.047045,0.341750,0.003722,-0.224057,0.147731,-0.347958,0.047027,-0.936330,-0.019032,-0.108261,-0.021312,33.519943,28.949951,3.136902,,,,,,,
1523524663.707699,-0.362022,-0.048767,0.347974,-0.022293,-0.167465,0.270186,-0.353745,0.048747,-0.934071,-0.011535,-0.113933,0.025440,34.710419,28.269150,2.690308,,,,,,,
1523524663.737667,-0.363333,-0.050678,0.355722,-0.015431,-0.067601,0.270094,-0.354936,0.050656,-0.933517,0.006745,-0.102445,0.060470,37.024979,28.032379,1.342346,,,,,,,
1523524663.767635,-0.359455,-0.050986,0.363099,0.045583,0.203211,0.269869,-0.351307,0.050964,-0.934872,-0.009197,-0.093948,0.017041,37.992889,27.727356,0.669067,,,,,,,
1523524663.797603,-0.355909,-0.051291,0.374331,0.119867,0.037269,0.419271,-0.347984,0.051268,-0.936097,0.000206,-0.057066,-0.006285,40.373016,26.365601,-0.374268,,,,,,,
1523524663.827572,-0.355361,-0.049346,0.387574,0.198751,-0.034918,0.381044,-0.347505,0.049326,-0.936380,0.028383,-0.032053,-0.046973,40.135712,25.541000,-1.046082,,,,,,,
1523524663.857540,-0.359821,-0.045189,0.399750,0.198375,-0.166378,0.338551,-0.351747,0.045174,-0.935004,0.026460,-0.026528,-0.184716,41.232956,23.884201,-2.913940,,,,,,,
1523524663.887508,-0.365877,-0.045225,0.409613,0.025045,-0.270976,0.316142,-0.357402,0.045209,-0.932856,0.016628,-0.048154,-0.129904,42.122879,23.279510,-3.586121,,,,,,,
1523524663.917476,-0.372466,-0.051381,0.417955,-0.174329,-0.183492,0.337214,-0.363434,0.051359,-0.930203,0.023071,-0.028745,-0.022021,40.895645,22.082489,-6.131897,,,,,,,
1523524663.947445,-0.379635,-0.059769,0.425770,-0.102466,-0.314551,0.364030,-0.369920,0.059733,-0.927141,0.026765,-0.006160,0.054293,41.037827,21.930801,-7.181213,,,,,,,
1523524663.977413,-0.385202,-0.062202,0.436463,0.188069,-0.063355,0.352274,-0.375019,0.062162,-0.924930,0.040058,0.023913,0.059955,41.018173,21.403503,-9.579163,,,,,,,
1523524664.007381,-0.383222,-0.058841,0.448178,0.240372,0.082584,0.279725,-0.373264,0.058807,-0.925860,0.062335,0.046616,-0.032652,39.810867,21.033325,-10.178284,,,,,,,
1523524664.037350,-0.376778,-0.058454,0.455559,-0.004442,0.148629,0.192100,-0.367298,0.058420,-0.928267,0.066791,0.050939,-0.095857,39.719971,20.432098,-11.825928,,,,,,,
1523524664.067318,-0.377445,-0.061153,0.460325,0.025449,-0.117968,0.165747,-0.367857,0.061115,-0.927871,0.055708,0.050579,-0.000595,39.794205,20.581375,-12.201477,,,,,,,
,,,,,,,,,,,,,,,,25.312684,51.436481,7.869225,6.950000,357.187500,1523524663.996660,
1523524664.097286,-0.380352,-0.061330,0.464951,0.100728,-0.056188,0.116732,-0.370549,0.061291,-0.926788,0.047307,0.065051,0.036011,38.586456,20.211136,-12.875610,,,,,,,
1523524664.127254,-0.378543,-0.061960,0.468256,0.036159,0.049336,0.096315,-0.368858,0.061920,-0.927421,0.028175,0.107269,0.048576,37.457153,20.140625,-13.475891,,,,,,,
1523524664.157223,-0.375285,-0.060566,0.472818,0.197268,0.066693,0.136926,-0.365866,0.060529,-0.928697,0.026129,0.131198,0.028993,37.083511,20.367157,-13.626953,,,,,,,
1523524664.187191,-0.372464,-0.056589,0.480282,0.217736,0.138703,0.164574,-0.363329,0.056559,-0.929942,0.050890,0.172812,-0.013966,35.050507,19.701080,-13.850281,,,,,,,
1523524664.217160,-0.364851,-0.056285,0.483693,0.049328,0.283519,0.030045,-0.356245,0.056255,-0.932698,0.067716,0.189030,-0.090786,34.825241,19.402542,-13.399231,,,,,,,
1523524664.247127,-0.361660,-0.059917,0.484701,-0.096884,-0.100195,0.097454,-0.353193,0.059881,-0.933632,0.047269,0.152109,-0.016655,34.222855,19.255112,-13.548950,,,,,,,
1523524664.277097,-0.366444,-0.067185,0.487063,-0.101429,-0.140705,0.116678,-0.357489,0.067135,-0.931501,0.069098,0.231724,0.102781,32.873962,18.961853,-12.873474,,,,,,,
1523524664.307064,-0.366410,-0.064723,0.489902,0.348379,0.016390,-0.016350,-0.357516,0.064678,-0.931665,0.094851,0.151631,-0.038306,31.964584,18.065872,-12.945374,,,,,,,
1523524664.337029,-0.365793,-0.055851,0.490071,0.272162,-0.048045,-0.196411,-0.357133,0.055822,-0.932384,0.076752,0.089045,-0.142247,32.495712,18.139374,-12.045349,,,,,,,
1523524664.366997,-0.372507,-0.050003,0.486138,0.102817,-0.419585,-0.188709,-0.363497,0.049982,-0.930253,0.048815,0.056982,-0.089049,31.814041,17.242828,-11.667114,,,,,,,
1523524664.396966,-0.384422,-0.046488,0.482139,0.096457,-0.406845,-0.185526,-0.374619,0.046472,-0.926013,0.032959,0.023368,-0.026867,31.659393,16.868378,-11.815735,,,,,,,
1523524664.426934,-0.395614,-0.041303,0.478254,0.181063,-0.351785,-0.187649,-0.385046,0.041291,-0.921973,0.008596,-0.022004,-0.009607,32.185135,16.941010,-11.815735,,,,,,,
1523524664.456902,-0.403657,-0.032918,0.477053,0.285924,-0.229216,-0.125895,-0.392571,0.032913,-0.919132,0.005242,-0.024825,-0.051235,31.950531,16.116837,-12.037537,,,,,,,
1523524664.486870,-0.409398,-0.025041,0.476594,0.183472,-0.183471,-0.096187,-0.397932,0.025038,-0.917073,-0.018007,-0.026625,-0.062816,32.541702,15.363953,-12.259216,,,,,,,
1523524664.516839,-0.412666,-0.022596,0.475767,-0.031386,-0.128374,0.001632,-0.400950,0.022594,-0.915821,-0.042592,-0.022198,-0.052975,33.658554,14.908340,-12.856873,,,,,,,
1523524664.546807,-0.418784,-0.024581,0.478920,0.024919,-0.207399,0.190344,-0.406527,0.024578,-0.913308,-0.022963,0.017994,0.043328,32.980423,14.910858,-13.382141,,,,,,,
1523524664.576806,-0.419346,-0.024749,0.484751,0.047778,0.089249,0.157028,-0.407039,0.024746,-0.913075,0.041423,0.052448,0.018330,33.043716,14.459381,-14.580322,,,,,,,
1523524664.606774,-0.414565,-0.026040,0.486993,-0.007663,0.217639,0.050313,-0.402655,0.026038,-0.914981,0.032859,0.084436,-0.001615,33.571381,14.682083,-14.505981,,,,,,,
1523524664.636742,-0.410407,-0.026496,0.488907,0.092477,0.156885,0.040861,-0.398843,0.026493,-0.916636,0.053918,0.128674,-0.041295,32.743561,14.760208,-15.106750,,,,,,,
1523524664.666711,-0.405794,-0.023386,0.491234,0.153326,0.118718,0.007907,-0.394640,0.023384,-0.918538,0.067156,0.071312,-0.083110,32.444916,14.986404,-15.257751,,,,,,,
1523524664.696679,-0.404430,-0.025722,0.491662,-0.140800,-0.000606,0.004615,-0.393364,0.025719,-0.919023,0.064965,0.104438,-0.036361,31.245255,15.291336,-15.709595,,,,,,,
1523524664.726647,-0.404311,-0.030098,0.489162,-0.066005,-0.038717,-0.041116,-0.393207,0.030093,-0.918957,0.037235,0.077787,-0.013416,31.170273,15.291672,-15.709595,,,,,,,
1523524664.756615,-0.407154,-0.031725,0.487925,-0.017244,-0.102689,-0.028226,-0.395798,0.031720,-0.917789,0.017243,0.096683,0.049000,30.569061,15.668564,-16.536438,,,,,,,
1523524664.786584,-0.406950,-0.030845,0.488449,0.127672,0.101839,-0.000618,-0.395622,0.030840,-0.917895,0.012229,0.070661,0.024158,29.367462,15.374191,-16.310852,,,,,,,
1523524664.816552,-0.400676,-0.030380,0.489186,0.016184,0.245535,0.004479,-0.389861,0.030375,-0.920372,0.001494,0.060369,-0.045265,29.218826,15.599716,-16.461792,,,,,,,
1523524664.846520,-0.397842,-0.034123,0.490425,-0.097774,-0.026005,0.126143,-0.387204,0.034116,-0.921362,0.000073,0.084048,-0.014612,29.219727,15.599854,-16.311829,,,,,,,
1523524664.876488,-0.399275,-0.039535,0.493916,-0.092792,-0.028618,0.193281,-0.388447,0.039525,-0.920623,0.023274,0.114665,0.021346,28.550018,15.678619,-15.562500,,,,,,,
1523524664.906457,-0.396652,-0.043841,0.496956,-0.047687,0.161073,0.100416,-0.385961,0.043827,-0.921473,0.059972,0.137631,0.035624,26.671799,15.312149,-15.486938,,,,,,,
1523524664.936425,-0.389659,-0.042833,0.499248,0.189310,0.306574,0.026926,-0.379524,0.042820,-0.924190,0.055656,0.141201,-0.038121,26.975388,15.536011,-15.262695,,,,,,,
1523524664.966393,-0.381085,-0.039401,0.502255,0.133217,0.235196,0.073834,-0.371639,0.039391,-0.927541,0.072643,0.115150,-0.113780,26.911499,15.613022,-13.538025,,,,,,,
1523524664.996361,-0.375695,-0.041897,0.504296,-0.051906,0.128399,0.063157,-0.366597,0.041885,-0.929436,0.096852,0.113175,-0.130149,27.889603,15.833771,-13.388428,,,,,,,
1523524665.026330,-0.378273,-0.045017,0.504924,-0.071761,-0.261429,0.050737,-0.368942,0.045002,-0.928362,0.097549,0.089397,-0.024900,29.014862,15.903625,-13.463135,,,,,,,
1523524665.056298,-0.385653,-0.047273,0.504647,-0.001601,-0.189856,-0.030250,-0.375744,0.047255,-0.925518,0.068722,0.085542,0.060817,28.495407,16.505890,-13.540833,,,,,,,
,,,,,,,,,,,,,,,,25.312760,51.436476,7.418807,8.070000,351.562500,1523524664.996649,
1523524665.086266,-0.386886,-0.043501,0.504701,0.159084,-0.081774,-0.041971,-0.376950,0.043488,-0.925212,0.042477,0.065033,-0.001469,29.090881,16.277832,-13.914612,,,,,,,
1523524665.116234,-0.386756,-0.040067,0.504966,0.102925,0.016075,-0.036772,-0.376883,0.040056,-0.925394,0.021079,0.085264,-0.031225,30.140366,16.497650,-14.364990,,,,,,,
1523524665.146203,-0.386658,-0.037233,0.505356,0.123743,-0.094517,-0.031325,-0.376834,0.037224,-0.925533,0.016955,0.060295,-0.113850,30.216873,16.871933,-14.741455,,,,,,,
1523524665.176171,-0.393318,-0.036432,0.506034,-0.023755,-0.293272,0.029490,-0.383001,0.036424,-0.923030,0.029424,0.050612,-0.034215,28.945374,17.402359,-15.044189,,,,,,,
1523524665.206139,-0.397913,-0.040258,0.505186,-0.119671,-0.061159,-0.004899,-0.387181,0.040247,-0.921125,0.044179,0.071737,0.067273,27.671310,17.632858,-15.270691,,,,,,,
1523524665.236108,-0.395569,-0.040348,0.503466,0.057272,0.041903,-0.065610,-0.385020,0.040337,-0.922026,0.019679,0.082420,0.037612,26.857880,18.162567,-14.223267,,,,,,,
1523524665.266076,-0.391307,-0.035340,0.503192,0.193506,0.179725,-0.068842,-0.381159,0.035333,-0.923834,-0.012610,0.077857,-0.065912,26.707306,17.788773,-13.696838,,,,,,,
1523524665.296044,-0.389550,-0.033011,0.504668,0.039196,-0.019599,0.072963,-0.379566,0.033005,-0.924576,-0.004025,0.051498,-0.094070,27.836929,17.709595,-12.795959,,,,,,,
1523524665.326012,-0.389588,-0.038300,0.506470,-0.224709,-0.010757,0.117513,-0.379529,0.038290,-0.924387,0.035382,0.118555,-0.041601,27.466599,17.861786,-12.271729,,,,,,,
1523524665.355984,-0.390480,-0.045024,0.506070,-0.132772,-0.061530,0.051571,-0.380246,0.045009,-0.923789,0.057279,0.127797,0.009925,27.617172,17.786331,-12.046387,,,,,,,
1523524665.385952,-0.391956,-0.046927,0.506504,0.026539,-0.049985,0.016509,-0.381577,0.046910,-0.923146,0.086838,0.134731,0.054127,28.665192,17.856171,-12.496155,,,,,,,
1523524665.415920,-0.392449,-0.044824,0.507266,0.186267,0.006471,-0.059085,-0.382069,0.044809,-0.923047,0.073811,0.122000,-0.027988,29.111603,16.730438,-11.216370,,,,,,,
1523524665.445888,-0.390099,-0.041271,0.506534,0.059592,0.042131,-0.099700,-0.379956,0.041259,-0.924084,0.054882,0.119096,-0.111683,30.309021,16.200500,-10.763672,,,,,,,
1523524665.475857,-0.388454,-0.043222,0.502471,-0.073659,0.054363,-0.129649,-0.378404,0.043209,-0.924631,0.009767,0.085331,-0.075964,32.779572,15.889160,-10.986206,,,,,,,
1523524665.505825,-0.387238,-0.046306,0.500344,-0.136652,-0.008150,0.019535,-0.377228,0.046289,-0.924963,0.003677,0.092261,0.004598,33.221603,15.361725,-11.433899,,,,,,,
1523524665.535793,-0.384972,-0.052417,0.499962,-0.102736,0.192465,0.037479,-0.375018,0.052393,-0.925536,0.012408,0.120993,0.041274,34.115280,15.356644,-12.483398,,,,,,,
1523524665.565761,-0.377794,-0.055294,0.500709,-0.049535,0.185758,0.066292,-0.368307,0.055266,-0.928060,0.040807,0.115922,-0.050852,35.900787,15.346222,-14.882446,,,,,,,
1523524665.595730,-0.375464,-0.059106,0.502491,-0.102728,0.049488,0.119678,-0.366064,0.059072,-0.928713,0.071386,0.126170,-0.026075,34.398727,15.502380,-15.483887,,,,,,,
1523524665.625698,-0.373734,-0.064313,0.503801,-0.092563,0.097762,0.052500,-0.364339,0.064269,-0.929046,0.097616,0.142396,0.010879,33.045425,16.481293,-17.663452,,,,,,,
1523524665.655666,-0.371532,-0.066853,0.503630,0.013166,0.021515,-0.020874,-0.362232,0.066803,-0.929691,0.109165,0.161255,0.037906,32.901566,17.680954,-18.643311,,,,,,,
1523524665.685634,-0.372097,-0.065077,0.502837,0.137976,-0.078255,-0.083536,-0.362800,0.065031,-0.929595,0.092277,0.157854,0.026519,29.459885,18.970688,-19.400146,,,,,,,
1523524665.715603,-0.373573,-0.061629,0.501295,0.090104,-0.076861,-0.114469,-0.364252,0.061590,-0.929262,0.074411,0.141978,0.002306,28.190201,19.501404,-19.402954,,,,,,,
1523524665.745571,-0.373828,-0.059839,0.497423,0.082092,-0.021187,-0.169947,-0.364528,0.059803,-0.929270,0.047862,0.141460,-0.007024,26.558090,20.934341,-18.809509,,,,,,,
1523524665.775539,-0.375231,-0.055283,0.493986,0.206776,-0.086246,-0.180440,-0.365927,0.055255,-0.929002,0.019492,0.121625,-0.035720,25.067291,21.316940,-17.911743,,,,,,,
1523524665.805538,-0.377881,-0.050513,0.491273,0.108498,-0.061776,-0.149639,-0.368482,0.050491,-0.928263,0.011502,0.103821,-0.030401,23.807205,21.998962,-16.565125,,,,,,,
1523524665.835506,-0.376980,-0.049980,0.487308,-0.035261,0.033075,-0.139182,-0.367655,0.049959,-0.928619,0.000635,0.128401,-0.064652,24.789810,22.445068,-16.041382,,,,,,,
1523524665.865475,-0.376962,-0.049205,0.483332,-0.001609,-0.040564,-0.104989,-0.367652,0.049186,-0.928662,-0.001687,0.077493,-0.109958,24.050781,22.824585,-14.843323,,,,,,,
1523524665.895443,-0.383658,-0.051493,0.481769,-0.088529,-0.249360,0.001703,-0.373819,0.051470,-0.926073,0.026956,0.091733,0.014146,24.583694,23.347626,-14.395142,,,,,,,
1523524665.925411,-0.387387,-0.053506,0.481276,-0.017135,-0.062406,-0.014415,-0.377230,0.053480,-0.924574,0.049822,0.073839,0.029158,25.189514,23.795135,-14.171631,,,,,,,
1523524665.955379,-0.389949,-0.054282,0.480563,-0.012088,-0.148365,-0.032437,-0.379582,0.054255,-0.923566,0.067341,0.102682,0.052426,24.824600,24.172821,-13.123291,,,,,,,
1523524665.985348,-0.393472,-0.050920,0.479548,0.233228,-0.068647,-0.121844,-0.382901,0.050898,-0.922386,0.048626,0.084203,-0.013405,25.054688,24.322388,-12.523804,,,,,,,
1523524666.015316,-0.394909,-0.043815,0.477527,0.192398,0.013869,-0.206137,-0.384355,0.043801,-0.922146,0.015977,0.040061,-0.049793,25.654968,23.720734,-11.471130,,,,,,,
1523524666.045284,-0.393325,-0.041425,0.473494,0.008432,0.013860,-0.141266,-0.382932,0.041413,-0.922848,-0.015261,0.063018,-0.042393,26.105118,23.643860,-11.320557,,,,,,,
,,,,,,,,,,,,,,,,25.312841,51.436462,7.605801,8.620000,351.914062,1523524665.996639,
1523524666.075252,-0.392402,-0.038566,0.471647,0.150171,0.037455,-0.070861,-0.382125,0.038556,-0.923306,-0.028383,0.018069,-0.066547,27.372421,22.963013,-11.467224,,,,,,,
1523524666.105221,-0.393278,-0.039080,0.472178,-0.133082,-0.108382,0.067588,-0.382926,0.039070,-0.922953,0.008566,0.014503,-0.047934,26.923630,23.040100,-11.392761,,,,,,,
1523524666.135189,-0.395594,-0.044841,0.472544,-0.077929,0.051904,0.071731,-0.384969,0.044826,-0.921840,0.024724,0.076832,0.044216,25.186157,21.698090,-11.238220,,,,,,,
1523524666.165157,-0.392402,-0.045019,0.474573,0.041858,0.085659,0.063271,-0.382021,0.045004,-0.923057,0.038561,0.055857,-0.049050,24.584244,21.101471,-10.561157,,,,,,,
1523524666.195125,-0.392173,-0.047574,0.476808,-0.095498,-0.014214,0.110153,-0.381765,0.047556,-0.923035,0.061681,0.083745,-0.049621,25.110641,19.751572,-8.080505,,,,,,,
1523524666.225094,-0.394329,-0.053289,0.477260,-0.168143,-0.092233,0.049436,-0.383643,0.053264,-0.921944,0.070579,0.116994,0.006523,25.335953,18.927002,-6.652039,,,,,,,
1523524666.255062,-0.397339,-0.056294,0.475968,-0.004524,-0.123976,-0.028192,-0.386353,0.056264,-0.920633,0.050049,0.114436,0.027902,26.307938,18.173370,-5.898560,,,,,,,
1523524666.285030,-0.402325,-0.052947,0.476450,0.235739,-0.130824,-0.044002,-0.391010,0.052923,-0.918863,0.035480,0.092967,0.009333,28.848129,16.513077,-4.765625,,,,,,,
1523524666.314998,-0.403409,-0.048101,0.478207,0.157910,-0.068168,-0.011090,-0.392102,0.048083,-0.918664,-0.014454,0.118467,-0.047141,31.019608,15.978607,-4.462402,,,,,,,
1523524666.344940,-0.404253,-0.045530,0.478853,0.154187,0.032881,-0.026101,-0.392924,0.045515,-0.918444,-0.008031,0.060931,-0.038252,34.834396,15.810013,-5.884827,,,,,,,
1523524666.374908,-0.406519,-0.040296,0.481059,0.265241,-0.159977,0.009339,-0.395093,0.040285,-0.917757,0.001340,0.047544,-0.026060,35.955154,15.654526,-6.333679,,,,,,,
1523524666.404876,-0.412818,-0.034207,0.484691,0.220047,-0.217361,0.026409,-0.400957,0.034200,-0.915458,0.024477,0.083445,0.037910,36.843521,16.022980,-8.884705,,,,,,,
1523524666.434844,-0.414080,-0.029017,0.487974,0.254410,0.036698,0.001665,-0.402179,0.029013,-0.915101,0.028537,0.128183,-0.035659,37.283890,15.869644,-10.233887,,,,,,,
1523524666.464813,-0.414013,-0.021175,0.488634,0.209790,-0.074885,-0.134633,-0.402196,0.021174,-0.915308,0.064474,0.088399,-0.098699,37.731720,17.140152,-12.713745,,,,,,,
1523524666.494781,-0.420213,-0.017932,0.486012,0.014906,-0.214596,-0.145287,-0.407889,0.017931,-0.912855,0.060264,0.060499,-0.159914,37.131714,17.816727,-13.841736,,,,,,,
1523524666.524749,-0.432958,-0.021402,0.478725,-0.137954,-0.465145,-0.122776,-0.419462,0.021400,-0.907520,-0.042605,0.026177,-0.043224,35.627960,19.470108,-17.224121,,,,,,,
1523524666.554718,-0.445280,-0.019738,0.479312,0.188875,-0.294655,-0.001245,-0.430626,0.019736,-0.902314,-0.009590,0.018487,0.137284,33.451233,19.704224,-17.901123,,,,,,,
1523524666.584686,-0.450067,-0.010726,0.483529,0.373193,-0.154793,-0.009770,-0.435001,0.010726,-0.900366,-0.011166,0.015153,0.058706,32.330902,20.309036,-18.129150,,,,,,,
1523524666.614654,-0.450826,0.001866,0.486706,0.386671,0.079850,-0.138923,-0.435708,-0.001866,-0.900086,0.011789,0.042347,0.034882,31.137695,20.989410,-18.132446,,,,,,,
1523524666.644622,-0.448264,0.012460,0.485750,0.288148,-0.066085,-0.205969,-0.433368,-0.012459,-0.901131,-0.033596,0.054268,-0.116219,29.948700,21.595581,-17.310425,,,,,,,
1523524666.674591,-0.465327,0.023971,0.484040,0.298646,-0.827917,-0.216920,-0.448586,-0.023968,-0.893418,0.025246,0.108899,-0.129913,28.610733,22.576965,-16.940063,,,,,,,
1523524666.704559,-0.489776,0.029824,0.483127,0.119380,-0.649892,-0.082977,-0.470219,-0.029819,-0.882046,0.058140,0.015491,-0.006992,28.693665,23.102051,-16.492065,,,,,,,
1523524666.734527,-0.498282,0.032239,0.483873,0.088079,-0.118226,0.029402,-0.477669,-0.032234,-0.877948,-0.005409,0.073814,-0.012708,28.786804,23.928268,-14.845398,,,,,,,
1523524666.764495,-0.497947,0.033560,0.486174,0.047344,0.103825,0.048330,-0.477354,-0.033554,-0.878070,-0.043001,0.041809,0.001147,29.463135,23.700821,-14.244080,,,,,,,
1523524666.794464,-0.490031,0.031507,0.484974,-0.166967,0.286772,-0.053235,-0.470420,-0.031502,-0.881880,-0.007638,0.027855,0.026854,32.539795,24.136536,-14.694336,,,,,,,
1523524666.824432,-0.482629,0.026172,0.477894,-0.358137,0.153014,-0.156593,-0.463950,-0.026169,-0.885474,-0.012323,0.008530,-0.044701,32.982147,23.908646,-15.593201,,,,,,,
1523524666.854400,-0.487590,0.017180,0.466489,-0.442657,-0.463518,-0.246606,-0.468428,-0.017179,-0.883334,-0.001191,-0.000170,-0.021604,33.194016,24.579391,-18.895752,,,,,,,
1523524666.884368,-0.511200,0.008778,0.452744,-0.516640,-0.805239,-0.280428,-0.489205,-0.008778,-0.872124,0.012917,0.028812,0.156365,32.434418,24.880707,-20.997314,,,,,,,
1523524666.914337,-0.527586,-0.005764,0.433205,-0.913123,-0.481913,-0.335378,-0.503440,0.005764,-0.864010,0.057838,-0.014049,-0.118366,30.404099,25.113556,-22.274292,,,,,,,
1523524666.944305,-0.543660,-0.020545,0.415332,-0.578768,-0.489206,-0.171034,-0.517163,0.020543,-0.855640,0.030804,0.007487,-0.080685,27.767960,24.674301,-23.398865,,,,,,,
1523524666.974273,-0.553264,-0.031738,0.405002,-0.427522,-0.218248,-0.072101,-0.525202,0.031732,-0.850385,0.010569,0.042410,-0.110735,26.794342,24.903534,-23.550232,,,,,,,
1523524667.004241,-0.560743,-0.039580,0.399454,-0.286544,-0.335076,0.021883,-0.531399,0.039569,-0.846197,0.026608,0.062359,-0.050303,23.791504,23.943176,-22.422913,,,,,,,
1523524667.034210,-0.571959,-0.048123,0.396104,-0.305148,-0.371585,0.080523,-0.540653,0.048104,-0.839869,0.045566,0.067984,-0.030584,22.961899,23.122513,-21.820068,,,,,,,
,,,,,,,,,,,,,,,,25.312932,51.436479,7.518999,9.130000,353.671875,1523524666.996629,
1523524667.064209,-0.578671,-0.056662,0.393327,-0.254778,-0.103826,0.067492,-0.546034,0.056631,-0.835846,0.050551,0.000101,-0.087387,22.290863,22.527176,-20.167969,,,,,,,
1523524667.094177,-0.580361,-0.062448,0.393311,-0.092872,-0.102656,0.144341,-0.547257,0.062407,-0.834634,0.071107,0.003282,-0.028159,21.539276,21.781540,-19.190430,,,,,,,
1523524667.124145,-0.584041,-0.067293,0.396355,-0.063382,-0.150803,0.180640,-0.550151,0.067242,-0.832353,0.034770,0.035678,0.006349,22.521927,20.879898,-16.411255,,,,,,,
1523524667.154113,-0.585141,-0.071019,0.400642,0.020350,-0.050062,0.180600,-0.550925,0.070960,-0.831532,0.025000,0.061868,0.015202,24.020966,20.648376,-16.184631,,,,,,,
1523524667.184082,-0.584305,-0.071472,0.406298,0.083691,-0.008549,0.148636,-0.550212,0.071411,-0.831966,0.023783,0.082459,0.005199,25.588470,19.217453,-15.053101,,,,,,,
1523524667.214050,-0.583706,-0.073832,0.408918,-0.052329,0.042272,0.070705,-0.549618,0.073765,-0.832153,-0.021778,0.082866,-0.047150,26.786453,19.061981,-15.126892,,,,,,,
1523524667.244018,-0.580868,-0.076083,0.409909,0.009711,0.077122,0.079242,-0.547162,0.076010,-0.833568,-0.032901,0.043314,-0.040669,28.046112,18.155273,-16.172668,,,,,,,
1523524667.273986,-0.577671,-0.077735,0.416206,0.158547,0.164645,0.275314,-0.544425,0.077657,-0.835206,-0.019417,0.040828,0.018571,28.493698,18.227737,-16.697754,,,,,,,
1523524667.303955,-0.570033,-0.080027,0.427843,0.126211,0.212917,0.374330,-0.537933,0.079942,-0.839188,-0.013535,0.074889,-0.002807,29.009079,17.624817,-17.295044,,,,,,,
1523524667.333933,-0.567082,-0.085714,0.436606,-0.035471,0.031040,0.305130,-0.535201,0.085609,-0.840375,0.003356,0.009651,-0.016253,30.123199,17.618011,-19.094421,,,,,,,
1523524667.363901,-0.563493,-0.088694,0.444742,0.153297,0.155276,0.249745,-0.532043,0.088578,-0.842071,0.011001,-0.007142,-0.027543,29.819458,17.693619,-19.844910,,,,,,,
1523524667.393869,-0.559622,-0.087577,0.453310,0.205614,0.065355,0.173161,-0.528831,0.087465,-0.844208,0.010826,0.005507,-0.079468,28.836090,18.071014,-21.871948,,,,,,,
1523524667.423838,-0.561124,-0.087723,0.455837,-0.051924,-0.158231,0.024021,-0.530092,0.087611,-0.843402,-0.011229,0.038137,-0.043699,28.690842,19.270477,-23.076782,,,,,,,
1523524667.453806,-0.567483,-0.088117,0.455045,-0.005216,-0.289680,-0.037611,-0.535426,0.088003,-0.839984,0.038691,0.041269,0.056537,25.029602,20.786713,-23.309692,,,,,,,
1523524667.483774,-0.573597,-0.087909,0.451987,-0.076179,-0.015851,-0.116795,-0.540561,0.087796,-0.836711,0.017658,0.005176,0.043925,23.911087,21.391815,-23.237671,,,,,,,
1523524667.513742,-0.563632,-0.088871,0.448418,-0.082549,0.499333,-0.088550,-0.532152,0.088754,-0.841984,-0.022078,0.032324,-0.189404,22.060165,22.677017,-21.368713,,,,,,,
1523524667.543711,-0.556497,-0.089688,0.445202,-0.061840,-0.105436,-0.076199,-0.526092,0.089568,-0.845698,-0.035813,0.020723,-0.119100,21.777252,23.579636,-20.022461,,,,,,,
1523524667.573679,-0.570505,-0.088131,0.442973,0.053973,-0.491291,-0.098105,-0.537961,0.088017,-0.838362,-0.005954,0.035656,0.104582,21.493927,24.257553,-18.375305,,,,,,,
1523524667.603647,-0.577145,-0.084923,0.442038,0.095141,-0.068805,-0.051614,-0.543667,0.084821,-0.835004,0.092693,0.020159,0.061551,21.504440,24.409012,-16.875916,,,,,,,
1523524667.633615,-0.581622,-0.083347,0.444395,0.064835,-0.232314,0.091311,-0.547473,0.083250,-0.832672,0.118716,-0.047148,-0.001252,21.136948,24.711411,-16.127319,,,,,,,
1523524667.663584,-0.586288,-0.083806,0.446313,-0.000322,-0.084973,0.016515,-0.551330,0.083708,-0.830077,0.026901,-0.084654,-0.069689,23.405930,24.854126,-13.201782,,,,,,,
1523524667.693552,-0.589415,-0.083566,0.444105,-0.033192,-0.206080,-0.129354,-0.553935,0.083469,-0.828365,-0.010960,0.028012,-0.070592,25.657043,24.694458,-12.750000,,,,,,,
1523524667.723520,-0.596976,-0.079842,0.440998,0.077708,-0.254058,-0.145210,-0.560353,0.079757,-0.824404,-0.005702,0.066559,-0.015210,28.806458,24.455582,-12.447449,,,,,,,
1523524667.753489,-0.602832,-0.072476,0.441683,0.293064,-0.241307,-0.071532,-0.565489,0.072413,-0.821570,0.033446,0.073919,0.013419,30.830185,24.596024,-12.897034,,,,,,,
1523524667.783457,-0.607731,-0.064119,0.446693,0.323105,-0.134492,-0.008757,-0.569832,0.064075,-0.819259,-0.007942,0.058560,-0.048020,33.438721,24.207184,-14.994141,,,,,,,
1523524667.813425,-0.608016,-0.058506,0.451133,0.210321,0.000453,0.032577,-0.570263,0.058473,-0.819378,0.003109,0.028075,-0.112293,33.651535,23.979584,-16.643127,,,,,,,
1523524667.843393,-0.613451,-0.055038,0.455741,0.205466,-0.335498,0.058481,-0.574821,0.055010,-0.816428,0.026389,0.041303,-0.004633,33.406143,23.827530,-19.792603,,,,,,,
1523524667.873362,-0.623037,-0.050998,0.461333,0.232338,-0.298348,0.055265,-0.582745,0.050976,-0.811054,0.029752,0.034077,0.020267,31.446899,23.535309,-20.842468,,,,,,,
1523524667.903330,-0.628751,-0.047419,0.465306,0.132753,-0.171395,0.017776,-0.587474,0.047401,-0.807853,-0.005391,0.021706,0.006034,29.037415,22.945541,-21.441284,,,,,,,
1523524667.933298,-0.630697,-0.046263,0.466582,0.037643,0.009688,-0.012306,-0.589077,0.046247,-0.806752,-0.009724,0.021716,0.003759,28.662125,22.872314,-21.366211,,,,,,,
1523524667.963266,-0.627979,-0.046102,0.466165,-0.018619,0.069423,-0.024133,-0.586886,0.046085,-0.808357,-0.016889,0.023892,-0.053627,27.758591,22.201904,-20.838989,,,,,,,
1523524667.993235,-0.629022,-0.046926,0.465556,-0.005643,-0.097629,0.003744,-0.587706,0.046909,-0.807713,-0.018037,0.030529,-0.040935,27.087082,22.055756,-20.013733,,,,,,,
1523524668.023203,-0.633014,-0.045417,0.466897,0.128751,-0.134085,0.000696,-0.590967,0.045402,-0.805417,-0.002340,0.007897,-0.018375,27.537369,21.904022,-19.712891,,,,,,,
,,,,,,,,,,,,,,,,25.313031,51.436492,7.474785,9.850000,355.429688,1523524667.996619,
1523524668.053171,-0.640757,-0.041918,0.470776,0.180679,-0.384332,0.060644,-0.597278,0.041906,-0.800939,0.075915,0.013392,0.058492,27.231964,21.904495,-20.613037,,,,,,,
1523524668.083139,-0.649022,-0.040716,0.475299,0.073978,-0.100566,0.090121,-0.603907,0.040705,-0.796015,0.001917,0.031332,0.005197,26.855316,22.055664,-21.138855,,,,,,,
1523524668.113108,-0.644156,-0.043832,0.476117,-0.145711,0.172130,0.072634,-0.599947,0.043818,-0.798838,-0.017362,-0.025172,-0.136342,27.680862,22.651047,-22.040771,,,,,,,
1523524668.143076,-0.645252,-0.046487,0.475035,0.004894,-0.167572,-0.028137,-0.600750,0.046470,-0.798085,-0.020573,-0.020042,-0.039607,26.858871,22.954742,-22.042419,,,,,,,
1523524668.173044,-0.650303,-0.043345,0.476163,0.157510,-0.182798,-0.031211,-0.604859,0.043331,-0.795153,0.009110,0.018085,-0.005750,25.800980,22.883301,-23.242676,,,,,,,
1523524668.203012,-0.653190,-0.040974,0.477840,0.026462,-0.057496,0.026112,-0.607213,0.040962,-0.793482,-0.025676,0.016350,-0.065710,25.876404,23.332291,-23.919434,,,,,,,
1523524668.232981,-0.654065,-0.041516,0.478089,-0.006792,-0.103025,0.015472,-0.607893,0.041504,-0.792933,0.009062,-0.021225,-0.068257,22.953766,23.795059,-24.297729,,,,,,,
1523524668.262949,-0.661013,-0.040551,0.478938,0.068413,-0.256098,-0.002435,-0.613412,0.040539,-0.788721,0.059366,-0.016064,0.009073,21.456223,23.951950,-24.149170,,,,,,,
1523524668.292948,-0.666387,-0.037749,0.481646,0.138488,-0.099078,0.005994,-0.617709,0.037740,-0.785500,0.060031,-0.028341,0.024422,19.525650,25.086990,-22.804626,,,,,,,
1523524668.322916,-0.666855,-0.036295,0.483071,0.011537,-0.052145,0.026094,-0.618110,0.036287,-0.785253,0.066093,-0.017733,-0.000345,18.250565,24.493698,-21.827881,,,,,,,
1523524668.352868,-0.666332,-0.038669,0.482269,-0.139109,0.145965,0.012998,-0.617644,0.038659,-0.785506,-0.009690,-0.004876,-0.022935,16.691681,25.027512,-20.030823,,,,,,,
