timestamp(unix),attitude_roll(radians),attitude_pitch(radians),attitude_yaw(radians),rotation_rate_x(radians/s),rotation_rate_y(radians/s),rotation_rate_z(radians/s),gravity_x(G),gravity_y(G),gravity_z(G),user_acc_x(G),user_acc_y(G),user_acc_z(G),magnetic_field_x(microteslas),magnetic_field_y(microteslas),magnetic_field_z(microteslas),latitude(degree),longitude(degree),altitude(meter),speed(m/s),course(degree),timestamp(unix),User Mark
1522314444.825688,-0.141526,0.007528,2.222649,-0.521163,0.087390,-0.030139,-0.141050,-0.007528,-0.989974,0.024640,-0.028986,0.085051,24.972931,-14.461987,-20.848694,,,,,,,1
1522314444.855656,-0.142262,0.004011,2.222121,0.159593,-0.159174,0.039861,-0.141782,-0.004011,-0.989890,0.031537,-0.029727,0.038733,24.295425,-14.534237,-21.148743,,,,,,,1
,,,,,,,,,,,,,,,,25.307311,51.445165,15.593079,14.290000,349.453125,1522314443.999562,1
1522314444.885625,-0.144803,0.011340,2.224960,0.212386,-0.035109,0.056831,-0.144288,-0.011340,-0.989471,-0.001311,-0.021115,-0.054444,24.141205,-14.908627,-21.222351,,,,,,,1
1522314444.915593,-0.146578,0.016819,2.227868,0.208921,-0.067150,0.080307,-0.146033,-0.016819,-0.989137,0.017767,-0.031720,-0.049437,23.623138,-14.530758,-20.699097,,,,,,,1
1522314444.945561,-0.147208,0.023064,2.230904,0.189073,-0.002102,0.053594,-0.146638,-0.023062,-0.988921,0.005967,-0.027323,-0.054810,24.065475,-15.207897,-20.846191,,,,,,,1
1522314444.975529,-0.147731,0.025471,2.232111,0.025918,-0.011991,0.006598,-0.147147,-0.025468,-0.988787,-0.002206,-0.023940,-0.016478,23.920746,-14.906872,-20.472473,,,,,,,1
1522314445.005498,-0.147186,0.027665,2.232290,0.094480,0.039910,0.006594,-0.146599,-0.027661,-0.988809,0.037361,-0.010913,0.020456,23.626144,-14.455395,-20.324402,,,,,,,1
1522314445.035466,-0.145996,0.029719,2.232646,0.062293,0.018655,0.018313,-0.145414,-0.029715,-0.988925,0.006406,-0.012323,0.018298,23.846924,-14.831463,-20.397766,,,,,,,1
,,,,,,,,,,,,,,,,25.307430,51.445127,15.314724,14.180000,346.640625,1522314444.999565,1
1522314445.065434,-0.147688,0.033068,2.234840,0.163144,-0.055230,0.064274,-0.147071,-0.033062,-0.988573,0.020423,-0.000049,-0.033781,24.668610,-14.985455,-20.696777,,,,,,,1
1522314445.095402,-0.147050,0.037599,2.237260,0.120918,0.039511,0.054560,-0.146417,-0.037590,-0.988508,0.023874,-0.009285,-0.032472,24.145721,-15.132519,-20.096436,,,,,,,1
1522314445.125371,-0.146052,0.039040,2.238151,0.016507,0.026312,0.002294,-0.145422,-0.039030,-0.988599,0.036398,-0.010439,0.002577,24.664856,-15.135830,-21.071167,,,,,,,1
1522314445.155339,-0.147046,0.040164,2.238324,0.064136,-0.058848,0.007739,-0.146398,-0.040153,-0.988410,0.039571,-0.010551,-0.038872,25.045242,-14.912014,-20.546875,,,,,,,1
1522314445.185307,-0.147507,0.041641,2.238691,0.028046,-0.001447,0.017246,-0.146845,-0.041629,-0.988283,0.021585,-0.003766,-0.035292,24.816940,-15.061275,-20.846375,,,,,,,1
1522314445.215275,-0.147990,0.042367,2.239734,0.043811,-0.030328,0.039659,-0.147318,-0.042354,-0.988182,0.020258,-0.008335,-0.042549,24.666824,-15.210369,-20.620850,,,,,,,1
1522314445.245244,-0.148176,0.042111,2.241242,-0.056397,0.012374,0.047000,-0.147503,-0.042099,-0.988165,0.029904,-0.009186,-0.027490,24.442856,-15.059444,-20.696594,,,,,,,1
1522314445.275212,-0.147428,0.039460,2.241704,-0.079776,0.005175,0.020355,-0.146780,-0.039449,-0.988382,0.038717,-0.013438,0.026926,24.069824,-14.907696,-20.622375,,,,,,,1
1522314445.305180,-0.147701,0.038737,2.242504,0.027805,-0.033432,0.034317,-0.147054,-0.038727,-0.988370,0.027807,-0.022674,-0.016528,24.293030,-14.908993,-20.922302,,,,,,,1
1522314445.335149,-0.148982,0.040348,2.244224,0.057584,-0.034720,0.055652,-0.148311,-0.040337,-0.988118,0.025249,-0.028373,-0.048946,24.224472,-14.533245,-20.473816,,,,,,,1
1522314445.365117,-0.149453,0.040730,2.245552,-0.005252,-0.023797,0.035351,-0.148773,-0.040718,-0.988033,0.007004,-0.037620,-0.049443,23.544708,-14.830471,-20.772949,,,,,,,1
1522314445.395085,-0.149541,0.039695,2.246177,-0.059461,0.011500,0.020364,-0.148867,-0.039685,-0.988061,0.005465,-0.042866,-0.042488,23.166733,-15.353405,-20.396057,,,,,,,1
1522314445.425053,-0.149605,0.037757,2.246588,-0.050014,-0.011960,0.029979,-0.148941,-0.037748,-0.988125,0.009308,-0.044283,-0.025424,23.994080,-14.982342,-20.622070,,,,,,,1
1522314445.455022,-0.149432,0.036471,2.247439,-0.048940,-0.000346,0.039561,-0.148778,-0.036462,-0.988198,-0.000286,-0.038916,-0.033393,23.390060,-15.429562,-20.545654,,,,,,,1
1522314445.484990,-0.150101,0.035495,2.249204,-0.020413,-0.026167,0.074771,-0.149443,-0.035487,-0.988133,0.028319,-0.032979,-0.042247,23.615967,-15.655056,-20.019592,,,,,,,1
1522314445.514958,-0.150971,0.034659,2.251409,-0.028987,-0.032547,0.076910,-0.150308,-0.034652,-0.988032,0.025262,-0.033875,-0.072729,24.141830,-15.208019,-20.621094,,,,,,,1
1522314445.544926,-0.150944,0.033197,2.252615,-0.088164,0.045540,0.025635,-0.150288,-0.033191,-0.988085,0.013142,-0.016232,-0.059873,24.065338,-15.582302,-20.244629,,,,,,,1
1522314445.574895,-0.149849,0.029540,2.251981,-0.107365,0.003357,-0.013759,-0.149223,-0.029536,-0.988362,0.014931,-0.032323,0.032933,23.541275,-15.355160,-20.470886,,,,,,,1
1522314445.604863,-0.149963,0.029596,2.251866,0.062194,-0.015286,0.008761,-0.149336,-0.029592,-0.988344,0.029662,-0.010142,0.045076,24.591812,-15.210033,-20.620850,,,,,,,1
1522314445.634831,-0.151011,0.033405,2.253433,0.169629,-0.059389,0.047243,-0.150354,-0.033399,-0.988068,0.036996,0.007673,-0.012542,24.063538,-15.357967,-20.920593,,,,,,,1
1522314445.664799,-0.153097,0.038974,2.255814,0.180195,-0.073300,0.056858,-0.152384,-0.038964,-0.987553,0.028284,0.002862,-0.084377,23.837646,-15.581722,-20.694763,,,,,,,1
1522314445.694768,-0.154595,0.041376,2.257593,0.000090,-0.022762,0.036425,-0.153848,-0.041364,-0.987228,-0.011908,-0.005572,-0.112671,24.513077,-15.584682,-20.619446,,,,,,,1
1522314445.724739,-0.153775,0.037637,2.257165,-0.193639,0.053496,-0.010681,-0.153062,-0.037628,-0.987500,-0.009460,-0.025925,-0.033649,24.508865,-15.735119,-21.068848,,,,,,,1
1522314445.754707,-0.151622,0.031107,2.255571,-0.203195,0.064138,-0.010693,-0.150969,-0.031102,-0.988049,0.009093,-0.034679,0.055096,24.207077,-15.734066,-21.368958,,,,,,,1
1522314445.784675,-0.151485,0.029474,2.256410,0.095906,-0.042371,0.071675,-0.150841,-0.029470,-0.988119,0.049538,-0.025095,0.030889,25.108841,-15.513195,-21.444397,,,,,,,1
1522314445.814644,-0.153946,0.037604,2.260275,0.347640,-0.078174,0.086820,-0.153230,-0.037595,-0.987475,0.050096,-0.032733,-0.084562,24.359024,-15.584667,-21.294556,,,,,,,1
1522314445.844612,-0.154738,0.044667,2.263523,0.139982,-0.003018,0.049300,-0.153968,-0.044652,-0.987066,0.038718,-0.004939,-0.093164,23.081238,-15.953762,-21.143677,,,,,,,1
1522314445.874580,-0.157231,0.045611,2.264811,-0.011065,-0.140607,0.025878,-0.156421,-0.045595,-0.986638,0.053271,-0.008574,-0.138164,23.759949,-15.581829,-21.144836,,,,,,,1
1522314445.904548,-0.159569,0.043070,2.264080,-0.175635,-0.002712,-0.031925,-0.158745,-0.043056,-0.986380,0.017082,0.000133,-0.101770,22.112137,-15.499187,-20.921021,,,,,,,1
1522314445.934517,-0.156037,0.034509,2.260801,-0.358269,0.174381,-0.069520,-0.155312,-0.034502,-0.987263,0.005714,0.009355,0.128285,23.017914,-15.053036,-20.697327,,,,,,,1
1522314445.964485,-0.150224,0.025295,2.258093,-0.223027,0.175711,-0.002301,-0.149612,-0.025293,-0.988421,0.012908,-0.019690,0.229052,23.698288,-14.830563,-20.172913,,,,,,,1
1522314445.994453,-0.152881,0.027899,2.261247,0.404050,-0.292273,0.140353,-0.152227,-0.027895,-0.987952,-0.001567,-0.037153,-0.006845,23.541122,-15.504940,-20.245239,,,,,,,1
1522314446.024422,-0.159709,0.047355,2.268766,0.723307,-0.082492,0.113747,-0.158853,-0.047337,-0.986167,-0.002707,-0.062556,-0.218759,23.464478,-15.804363,-20.019104,,,,,,,1
,,,,,,,,,,,,,,,,25.307554,51.445088,15.193207,14.620000,345.585938,1522314445.999567,1
1522314446.054390,-0.160013,0.060016,2.272881,0.240452,-0.006279,0.024868,-0.159044,-0.059980,-0.985448,-0.023008,-0.022723,-0.197902,23.615540,-16.104366,-19.342834,,,,,,,1
1522314446.084358,-0.159799,0.059893,2.272260,-0.235114,0.042205,-0.052258,-0.158835,-0.059857,-0.985489,-0.006540,0.007611,-0.158935,23.687088,-16.180141,-19.792480,,,,,,,1
1522314446.114326,-0.157097,0.044395,2.267394,-0.674515,0.124209,-0.073978,-0.156297,-0.044381,-0.986712,0.000841,0.022500,0.066501,24.516220,-15.359554,-20.470337,,,,,,,1
1522314446.144295,-0.151599,0.024832,2.263404,-0.611646,0.208410,0.020806,-0.150972,-0.024830,-0.988226,0.064440,0.011661,0.239950,24.284195,-15.659176,-21.144287,,,,,,,1
1522314446.174263,-0.149310,0.014617,2.265721,-0.023537,-0.106703,0.195257,-0.148740,-0.014617,-0.988768,0.076398,-0.005464,0.243590,23.755005,-16.031887,-21.218079,,,,,,,1
1522314446.204231,-0.156240,0.027514,2.274502,0.727354,-0.268012,0.201312,-0.155547,-0.027511,-0.987445,0.104308,-0.002625,-0.063122,22.928864,-16.327847,-20.917297,,,,,,,1
1522314446.234199,-0.162899,0.052134,2.281078,0.790985,-0.129633,-0.006561,-0.161959,-0.052110,-0.985421,0.077334,-0.021559,-0.247688,24.132111,-16.182964,-20.617249,,,,,,,1
1522314446.264168,-0.163066,0.064641,2.278798,0.087120,0.041518,-0.219309,-0.162006,-0.064596,-0.984673,-0.032162,-0.032648,-0.194846,23.460281,-16.179424,-20.092590,,,,,,,1
1522314446.294136,-0.164148,0.058521,2.271466,-0.394174,-0.105221,-0.185426,-0.163132,-0.058488,-0.984869,-0.049271,-0.012054,-0.109049,23.158508,-16.178371,-20.392761,,,,,,,1
1522314446.324104,-0.164900,0.046097,2.265895,-0.431701,0.021378,-0.043855,-0.163979,-0.046080,-0.985387,-0.081107,0.007735,0.004643,23.532135,-15.955639,-20.993408,,,,,,,1
1522314446.354072,-0.164827,0.036707,2.267218,-0.157766,-0.046825,0.189769,-0.163971,-0.036699,-0.985782,0.031891,-0.001250,0.053364,23.084091,-15.803555,-20.919312,,,,,,,1
1522314446.384041,-0.166731,0.040446,2.274625,0.319516,0.005934,0.227353,-0.165824,-0.040435,-0.985326,0.088004,-0.007279,-0.017100,23.532272,-15.805874,-21.219055,,,,,,,1
1522314446.414009,-0.166114,0.047230,2.280907,0.185813,0.059088,0.117463,-0.165167,-0.047213,-0.985135,0.082082,0.017641,-0.003497,22.780823,-16.177120,-20.842957,,,,,,,1
1522314446.443977,-0.165587,0.050860,2.282382,0.111424,-0.027916,-0.025291,-0.164618,-0.050838,-0.985046,0.075568,0.031857,-0.038284,22.936646,-15.952206,-20.243713,,,,,,,1
1522314446.473945,-0.165969,0.052610,2.280362,-0.033345,-0.009003,-0.093618,-0.164979,-0.052586,-0.984894,-0.005477,0.040089,-0.067703,23.389023,-15.804104,-20.094116,,,,,,,1
1522314446.503914,-0.165700,0.050449,2.277042,-0.058082,-0.035621,-0.079745,-0.164733,-0.050427,-0.985048,-0.049821,0.000989,-0.069593,23.310135,-15.879269,-20.618835,,,,,,,1
1522314446.533882,-0.166548,0.051203,2.275831,0.035712,0.009371,-0.011536,-0.165562,-0.051181,-0.984870,-0.038250,-0.045408,-0.071572,23.983765,-16.107143,-20.467651,,,,,,,1
1522314446.563850,-0.163999,0.048721,2.276533,-0.138223,0.114466,0.062827,-0.163071,-0.048701,-0.985412,-0.022018,-0.040425,0.036956,24.059647,-15.882732,-20.693481,,,,,,,1
1522314446.593819,-0.162617,0.044748,2.278733,-0.057783,0.014044,0.110936,-0.161739,-0.044734,-0.985819,0.053967,-0.009847,0.043314,23.762360,-15.880932,-20.243591,,,,,,,1
1522314446.623787,-0.164351,0.045709,2.282641,0.079578,-0.055428,0.120693,-0.163441,-0.045693,-0.985494,0.080036,0.013024,-0.018748,23.310730,-15.954052,-20.393555,,,,,,,1
1522314446.653755,-0.165497,0.047528,2.285320,0.054473,-0.019826,0.052448,-0.164557,-0.047510,-0.985223,0.076788,0.005045,-0.029594,24.131805,-16.257900,-20.541992,,,,,,,1
1522314446.683723,-0.164916,0.047796,2.285118,-0.039955,0.009737,-0.037163,-0.163982,-0.047777,-0.985306,0.075374,-0.018797,-0.016403,23.533646,-16.030285,-20.618103,,,,,,,1
1522314446.713676,-0.165086,0.046352,2.283509,-0.040283,-0.059340,-0.034968,-0.164160,-0.046336,-0.985345,0.045874,-0.032323,-0.035697,23.533188,-16.030361,-20.693115,,,,,,,1
1522314446.743644,-0.166498,0.046072,2.282375,0.008803,-0.062680,-0.031726,-0.165554,-0.046056,-0.985125,-0.003315,-0.017039,-0.068617,23.083038,-15.953472,-20.843689,,,,,,,1
1522314446.773612,-0.167807,0.046871,2.282487,0.026776,-0.050287,0.013027,-0.166837,-0.046854,-0.984871,0.018506,0.010248,-0.045555,23.158203,-16.028667,-20.693359,,,,,,,1
1522314446.803580,-0.169206,0.047592,2.283280,0.013824,-0.062067,0.030080,-0.168210,-0.047574,-0.984603,0.028866,0.024289,-0.046571,22.857162,-15.952602,-20.993774,,,,,,,1
1522314446.833549,-0.169930,0.047071,2.284030,-0.029595,0.009281,0.023583,-0.168926,-0.047054,-0.984505,0.023387,0.045085,-0.014290,23.609070,-15.805904,-20.919067,,,,,,,1
1522314446.863517,-0.170237,0.046722,2.284731,0.028925,-0.027047,0.031123,-0.169231,-0.046705,-0.984469,0.046962,0.036833,-0.006238,22.633957,-15.951305,-20.693909,,,,,,,1
1522314446.893485,-0.169705,0.047288,2.285616,0.023844,0.028226,0.030000,-0.168702,-0.047270,-0.984533,0.015855,0.030241,0.021627,23.082596,-16.178173,-20.542786,,,,,,,1
1522314446.923453,-0.170541,0.048964,2.287149,0.136447,-0.084760,0.040848,-0.169512,-0.048944,-0.984312,0.031878,0.013025,-0.034563,23.388718,-15.654415,-20.394714,,,,,,,1
1522314446.953422,-0.172959,0.054305,2.288951,0.195505,-0.040100,0.015275,-0.171844,-0.054278,-0.983628,0.031600,0.002093,-0.090576,22.707169,-16.401180,-20.242065,,,,,,,1
1522314446.983390,-0.172226,0.057207,2.289502,0.030508,0.035961,-0.013694,-0.171096,-0.057176,-0.983594,0.020705,0.028184,-0.033679,23.079315,-16.553082,-20.466309,,,,,,,1
1522314447.013358,-0.170298,0.055104,2.288696,-0.121037,0.071262,0.005342,-0.169219,-0.055076,-0.984038,0.023451,0.032631,0.023849,25.640274,-11.993111,-25.570435,,,,,,,1
1522314447.043326,-0.169241,0.052055,2.289373,-0.028811,-0.011161,0.059829,-0.168206,-0.052031,-0.984378,0.019677,0.018523,0.043185,25.269043,-11.841057,-25.196228,,,,,,,1
,,,,,,,,,,,,,,,,25.307682,51.445038,15.113869,15.350000,343.476562,1522314446.999568,1
1522314447.073295,-0.168916,0.053592,2.292201,0.118581,0.026553,0.083349,-0.167873,-0.053567,-0.984352,0.071041,-0.001136,0.007210,24.971893,-11.464882,-25.347900,,,,,,,1
1522314447.103263,-0.168270,0.056527,2.294374,0.099592,0.010030,0.023673,-0.167210,-0.056497,-0.984301,0.083592,-0.016989,-0.002866,25.867233,-12.068672,-25.119995,,,,,,,1
1522314447.133231,-0.167606,0.057564,2.293797,0.009157,-0.004134,-0.047761,-0.166546,-0.057532,-0.984354,0.044384,-0.019342,-0.042349,25.267090,-11.991127,-25.270630,,,,,,,1
1522314447.163199,-0.167919,0.057400,2.292512,-0.023154,-0.051964,-0.034949,-0.166855,-0.057369,-0.984311,0.040177,0.003322,-0.079379,25.793716,-11.918343,-25.120605,,,,,,,1
1522314447.193168,-0.167326,0.055413,2.291528,-0.136041,0.043776,-0.008498,-0.166291,-0.055384,-0.984520,0.032364,-0.000417,-0.024803,25.867386,-11.918907,-25.345642,,,,,,,1
1522314447.223136,-0.166225,0.049766,2.290984,-0.165332,-0.018042,0.027774,-0.165256,-0.049745,-0.984995,0.052082,0.000474,0.008448,25.869476,-11.843681,-25.120911,,,,,,,1
1522314447.253104,-0.168629,0.049535,2.292416,0.093695,-0.083658,0.050405,-0.167625,-0.049515,-0.984607,0.077049,0.001739,-0.058027,25.495392,-11.617241,-25.346985,,,,,,,1
1522314447.283073,-0.169385,0.052166,2.293356,0.060268,0.003995,-0.013630,-0.168347,-0.052142,-0.984348,0.051419,0.027972,-0.034680,26.174683,-11.320061,-25.122803,,,,,,,1
1522314447.313041,-0.167566,0.051416,2.291627,-0.095013,0.069632,-0.073490,-0.166562,-0.051393,-0.984691,0.042432,0.040300,0.021892,25.871582,-11.768486,-24.896179,,,,,,,1
1522314447.343009,-0.167618,0.049416,2.290179,-0.017085,-0.099932,-0.013595,-0.166631,-0.049396,-0.984781,0.038808,0.047168,-0.013815,26.091751,-11.845146,-25.570801,,,,,,,1
1522314447.372977,-0.169817,0.051165,2.290614,0.100321,-0.067529,0.021621,-0.168781,-0.051142,-0.984326,0.007984,0.014323,-0.071430,25.497192,-11.616951,-25.046997,,,,,,,1
1522314447.402946,-0.170721,0.054217,2.291469,0.110276,-0.015336,0.000265,-0.169643,-0.054191,-0.984014,0.017940,0.008842,-0.071634,25.492401,-11.917213,-25.345825,,,,,,,1
1522314447.432914,-0.170608,0.055301,2.291386,-0.027208,0.022275,-0.012652,-0.169522,-0.055273,-0.983975,0.017514,0.032934,-0.065921,26.017365,-11.919579,-25.345520,,,,,,,1
1522314447.462882,-0.171275,0.052639,2.290598,-0.080020,-0.070111,0.000174,-0.170202,-0.052615,-0.984003,0.001562,0.028735,-0.080114,26.090866,-12.069908,-25.344910,,,,,,,1
1522314447.492850,-0.170970,0.051195,2.290895,-0.031457,0.065638,0.019260,-0.169915,-0.051173,-0.984129,0.033929,0.032862,0.017134,25.266785,-11.841423,-25.571228,,,,,,,1
1522314447.522819,-0.169833,0.050207,2.291974,-0.009455,-0.001503,0.040649,-0.168805,-0.050186,-0.984371,0.056439,0.025406,0.039287,25.488953,-11.992653,-25.795532,,,,,,,1
1522314447.552787,-0.171226,0.051887,2.293603,0.135423,-0.075194,0.040838,-0.170161,-0.051864,-0.984051,0.066020,0.006591,-0.037510,25.490448,-12.067284,-25.420227,,,,,,,1
1522314447.582755,-0.172210,0.056789,2.294817,0.164833,-0.002650,-0.009299,-0.171084,-0.056759,-0.983620,0.045672,0.007091,-0.082756,25.268295,-11.916054,-25.195923,,,,,,,1
1522314447.612723,-0.172068,0.058635,2.293803,-0.014303,-0.014610,-0.061616,-0.170926,-0.058601,-0.983540,0.014279,-0.010323,-0.097927,26.245956,-11.470757,-25.497192,,,,,,,1
1522314447.642692,-0.172712,0.055806,2.291922,-0.133095,-0.045297,-0.036110,-0.171588,-0.055777,-0.983589,0.009585,0.004126,-0.085229,25.270981,-11.690987,-25.121765,,,,,,,1
1522314447.672660,-0.173289,0.052031,2.290790,-0.122597,-0.034992,0.006506,-0.172190,-0.052007,-0.983690,0.031656,0.030340,-0.034026,25.119202,-11.465996,-25.797791,,,,,,,1
1522314447.702628,-0.173039,0.051279,2.290192,0.012699,0.092447,-0.030816,-0.171950,-0.051256,-0.983771,0.059935,0.030077,0.044166,25.871109,-11.319298,-25.723022,,,,,,,1
1522314447.732607,-0.168198,0.049754,2.289808,-0.075824,0.152984,0.004225,-0.167199,-0.049733,-0.984668,0.077218,0.084249,0.153476,24.821915,-11.464211,-25.347961,,,,,,,1
1522314447.762576,-0.167151,0.050150,2.289872,0.076875,-0.057906,0.021593,-0.166165,-0.050129,-0.984823,0.030911,0.029896,0.062048,25.263504,-12.440956,-25.118774,,,,,,,1
1522314447.792544,-0.169162,0.053630,2.292332,0.164279,-0.048819,0.057880,-0.168114,-0.053604,-0.984309,-0.018440,0.009476,-0.045232,25.038513,-12.439934,-25.118896,,,,,,,1
1522314447.822512,-0.168652,0.056896,2.293778,0.050995,0.095309,0.000120,-0.167582,-0.056865,-0.984217,-0.033635,-0.048284,-0.048666,25.415604,-12.366432,-24.894043,,,,,,,1
1522314447.852480,-0.163799,0.053231,2.292658,-0.211705,0.069510,-0.013912,-0.162837,-0.053206,-0.985217,-0.045857,-0.059587,-0.021054,25.187180,-12.440834,-25.343872,,,,,,,1
1522314447.882449,-0.164316,0.048157,2.291730,-0.166053,0.023621,-0.003170,-0.163388,-0.048138,-0.985387,-0.003360,-0.046527,-0.055034,26.162415,-12.145683,-25.794556,,,,,,,1
1522314447.912417,-0.161576,0.041502,2.291882,-0.281259,0.126497,0.065899,-0.160735,-0.041490,-0.986125,0.049957,0.018343,0.113277,25.263947,-12.216270,-25.419739,,,,,,,1
1522314447.942385,-0.159824,0.036078,2.293698,-0.066640,-0.033872,0.129087,-0.159041,-0.036070,-0.986613,0.122816,-0.002718,0.110148,25.486710,-12.217644,-25.794617,,,,,,,1
1522314447.972354,-0.160255,0.035025,2.298166,-0.017339,-0.014719,0.108855,-0.159473,-0.035018,-0.986581,0.097980,0.012679,0.071191,25.263657,-12.291176,-25.344421,,,,,,,1
1522314448.002322,-0.162025,0.037187,2.300562,0.148283,-0.070924,0.034445,-0.161205,-0.037178,-0.986220,0.145031,0.002709,0.034789,24.885223,-12.364937,-25.794312,,,,,,,1
1522314448.032290,-0.161646,0.042874,2.299642,0.173039,0.043722,-0.109498,-0.160795,-0.042860,-0.986057,0.078702,-0.004411,-0.009228,24.969208,-11.914558,-25.046082,,,,,,,1
1522314448.062258,-0.163651,0.046336,2.296263,0.063819,-0.078974,-0.153134,-0.162747,-0.046319,-0.985580,0.001111,0.008081,-0.068741,25.419037,-11.841743,-25.196106,,,,,,,1
,,,,,,,,,,,,,,,,25.307803,51.444998,15.100009,14.410000,343.476562,1522314447.999569,1
1522314448.092227,-0.165730,0.048276,2.292311,0.036686,-0.135483,-0.116867,-0.164780,-0.048257,-0.985149,-0.037261,0.011804,-0.152043,25.420074,-11.691826,-25.271729,,,,,,,1
1522314448.122195,-0.166409,0.048605,2.289603,-0.076047,0.037567,-0.053201,-0.165447,-0.048586,-0.985021,-0.069585,0.024065,-0.115977,25.200638,-11.315529,-24.973389,,,,,,,1
1522314448.152163,-0.164249,0.043651,2.288637,-0.209881,0.084925,0.059599,-0.163355,-0.043637,-0.985602,-0.042867,0.026822,0.005362,26.175278,-10.945595,-25.649353,,,,,,,1
1522314448.182131,-0.163345,0.037385,2.290969,-0.131766,-0.015747,0.143936,-0.162506,-0.037376,-0.985999,0.018936,0.054619,0.050224,26.401627,-11.171013,-25.048340,,,,,,,1
1522314448.212100,-0.165253,0.036603,2.295649,0.081695,-0.025880,0.149433,-0.164391,-0.036595,-0.985716,0.072243,0.055119,0.019850,25.946548,-11.544182,-25.272095,,,,,,,1
1522314448.242068,-0.165559,0.038664,2.299245,0.110976,-0.022171,0.065271,-0.164681,-0.038655,-0.985589,0.079399,0.051381,0.023065,26.401169,-11.171089,-25.123291,,,,,,,1
1522314448.272036,-0.167190,0.043396,2.300465,0.234061,-0.071709,-0.035814,-0.166256,-0.043383,-0.985128,0.067013,0.042696,-0.084056,25.496887,-11.467247,-25.347595,,,,,,,1
1522314448.302004,-0.168440,0.050157,2.299430,0.201344,-0.057386,-0.096589,-0.167434,-0.050136,-0.984608,0.028945,0.022182,-0.112362,25.790863,-11.843941,-25.720947,,,,,,,1
1522314448.331973,-0.168166,0.052468,2.296236,-0.022542,-0.015209,-0.122369,-0.167144,-0.052444,-0.984537,-0.013062,0.015060,-0.083228,27.219849,-11.400444,-25.796997,,,,,,,1
1522314448.361941,-0.168147,0.049118,2.293530,-0.181941,0.016442,-0.034077,-0.167154,-0.049098,-0.984708,0.006723,0.030116,-0.017551,26.768677,-11.698112,-25.496033,,,,,,,1
1522314448.391909,-0.167088,0.042910,2.292950,-0.183404,0.024361,0.049027,-0.166158,-0.042897,-0.985166,0.011632,0.024602,0.063794,26.316147,-11.771370,-25.796021,,,,,,,1
1522314448.421877,-0.166602,0.040007,2.294636,0.019233,-0.004939,0.065185,-0.165699,-0.039996,-0.985365,0.038868,0.004275,0.050581,26.612396,-11.923073,-26.170227,,,,,,,1
1522314448.451846,-0.166826,0.044211,2.296904,0.205281,0.017142,0.032271,-0.165891,-0.044196,-0.985153,0.056073,-0.020348,0.004410,26.235626,-12.370934,-25.718628,,,,,,,1
1522314448.481814,-0.166039,0.048895,2.297620,0.140291,-0.022667,-0.027400,-0.165080,-0.048876,-0.985068,0.021556,-0.016996,-0.048242,26.388901,-12.221336,-25.419189,,,,,,,1
1522314448.511782,-0.167324,0.052250,2.296693,0.062537,-0.023281,-0.063686,-0.166317,-0.052227,-0.984688,-0.002537,-0.009953,-0.114357,26.989197,-12.149101,-25.494080,,,,,,,1
1522314448.541751,-0.165616,0.050569,2.294479,-0.159166,0.069662,-0.055422,-0.164649,-0.050547,-0.985056,-0.011513,0.012415,-0.030508,26.160629,-12.595222,-25.342773,,,,,,,1
1522314448.571719,-0.163827,0.044136,2.292553,-0.244983,0.037658,-0.006443,-0.162936,-0.044122,-0.985650,-0.010572,0.031961,0.012185,26.010468,-12.295067,-25.869019,,,,,,,1
1522314448.601687,-0.162566,0.037759,2.292783,-0.166343,0.046467,0.072460,-0.161736,-0.037750,-0.986112,0.033745,0.015945,0.085355,26.312103,-12.221275,-25.719177,,,,,,,1
1522314448.631655,-0.161563,0.036240,2.295247,0.058694,0.017063,0.093970,-0.160755,-0.036232,-0.986329,0.052387,0.025017,0.061540,26.460739,-12.222176,-25.944092,,,,,,,1
1522314448.661624,-0.161484,0.040138,2.297635,0.174282,-0.002910,0.022683,-0.160654,-0.040127,-0.986195,0.057809,0.005185,0.001423,26.313293,-11.921577,-26.020386,,,,,,,1
1522314448.691592,-0.161126,0.044815,2.297408,0.119348,0.024412,-0.065824,-0.160269,-0.044800,-0.986056,0.026571,0.026230,-0.016660,25.941162,-11.769691,-25.796204,,,,,,,1
1522314448.721568,-0.160104,0.046082,2.294664,-0.036358,0.020817,-0.103234,-0.159252,-0.046066,-0.986163,0.002925,0.035950,-0.030408,26.464645,-11.922035,-25.795349,,,,,,,1
1522314448.751536,-0.158877,0.042806,2.291769,-0.157291,0.013316,-0.053227,-0.158064,-0.042793,-0.986501,-0.004976,0.045295,0.002187,26.391129,-11.547081,-26.171875,,,,,,,1
1522314448.781505,-0.158736,0.038096,2.290610,-0.160813,0.018200,0.010689,-0.157955,-0.038087,-0.986711,-0.008808,0.044892,0.023653,26.541107,-11.323143,-26.547668,,,,,,,1
1522314448.811473,-0.157329,0.033303,2.290989,-0.104255,0.044419,0.039477,-0.156594,-0.033297,-0.987102,0.006554,0.016162,0.073802,25.721527,-10.869316,-26.399902,,,,,,,1
1522314448.841441,-0.157301,0.033388,2.292246,0.099538,0.002557,0.027945,-0.156566,-0.033382,-0.987103,0.035380,0.002910,0.034146,25.719131,-11.019447,-26.549316,,,,,,,1
1522314448.871409,-0.156804,0.037099,2.292509,0.131976,0.011438,-0.040220,-0.156054,-0.037090,-0.987052,0.015262,-0.000294,-0.011590,25.275452,-10.791771,-25.875366,,,,,,,1
1522314448.901378,-0.156167,0.040310,2.291404,0.085040,0.002119,-0.057300,-0.155406,-0.040299,-0.987028,0.017146,0.019807,-0.026476,25.874542,-10.794609,-26.025085,,,,,,,1
1522314448.931346,-0.157251,0.041919,2.290469,-0.000790,-0.042576,-0.016832,-0.156466,-0.041907,-0.986794,0.016451,0.034079,-0.084633,25.728424,-10.493813,-25.876343,,,,,,,1
1522314448.961314,-0.157059,0.038894,2.289756,-0.146895,0.012918,0.000056,-0.156295,-0.038884,-0.986945,-0.011231,0.049550,-0.033960,24.751831,-10.564568,-26.026611,,,,,,,1
1522314448.991282,-0.158170,0.035531,2.289570,-0.058694,-0.057556,0.018303,-0.157411,-0.035524,-0.986894,0.033510,0.032502,-0.015044,24.525345,-10.938164,-25.650208,,,,,,,1
1522314449.021251,-0.159181,0.035159,2.289563,0.001490,-0.010720,-0.015790,-0.158412,-0.035152,-0.986747,0.011378,0.034984,-0.014062,25.126831,-10.790871,-25.650513,,,,,,,1
1522314449.051219,-0.158839,0.034344,2.288571,-0.010146,-0.010552,-0.036042,-0.158079,-0.034338,-0.986829,0.000303,0.025564,-0.005770,23.548599,-11.383324,-25.198914,,,,,,,1
,,,,,,,,,,,,,,,,25.307937,51.444959,14.835944,14.970000,345.234375,1522314448.999569,1
1522314449.081187,-0.160766,0.037408,2.288238,0.172041,-0.085445,-0.027310,-0.159962,-0.037399,-0.986414,-0.003429,0.014969,-0.084219,24.373886,-11.536736,-24.897888,,,,,,,1
1522314449.111155,-0.161595,0.041217,2.287950,0.072052,-0.005485,-0.029596,-0.160756,-0.041205,-0.986134,-0.022304,0.036521,-0.051083,24.520721,-11.762550,-25.046936,,,,,,,1
1522314449.141124,-0.161639,0.041276,2.286861,-0.032501,0.000134,-0.038193,-0.160799,-0.041264,-0.986124,-0.011823,0.042347,-0.012228,24.523880,-11.762047,-24.521912,,,,,,,1
1522314449.171092,-0.161186,0.040860,2.285937,0.013275,-0.001198,-0.014723,-0.160355,-0.040849,-0.986214,-0.010742,0.068254,0.003151,24.823730,-11.688530,-24.672058,,,,,,,1
1522314449.201060,-0.161861,0.042515,2.285868,0.087897,-0.025819,-0.014646,-0.161010,-0.042502,-0.986037,-0.030610,0.051382,-0.010530,24.974457,-11.838829,-24.296387,,,,,,,1
1522314449.231029,-0.161669,0.045039,2.286143,0.090291,0.031556,-0.014702,-0.160802,-0.045024,-0.985959,-0.019419,0.063975,0.012891,24.974609,-11.913689,-24.146057,,,,,,,1
1522314449.260997,-0.160391,0.046937,2.286003,0.052974,0.043341,-0.014744,-0.159528,-0.046919,-0.986078,-0.001223,0.058577,0.035852,25.202179,-11.839409,-23.846252,,,,,,,1
1522314449.290965,-0.160123,0.048186,2.285441,0.083858,0.003015,-0.033857,-0.159255,-0.048167,-0.986062,-0.022599,0.049464,-0.003303,25.655884,-11.466454,-23.847534,,,,,,,1
1522314449.320933,-0.159157,0.050405,2.284974,0.076730,0.075308,-0.037127,-0.158285,-0.050383,-0.986107,-0.007700,0.050032,0.012886,24.988266,-11.537102,-22.497559,,,,,,,1
1522314449.350902,-0.157475,0.051561,2.284270,0.033623,0.008333,-0.017911,-0.156617,-0.051539,-0.986314,-0.012176,0.042597,0.008912,26.112320,-11.542305,-22.646973,,,,,,,1
1522314449.380839,-0.156434,0.050997,2.283882,-0.043001,0.071192,-0.012711,-0.155594,-0.050975,-0.986505,-0.014160,0.048793,0.029092,26.868576,-11.095421,-22.348389,,,,,,,1
1522314449.410808,-0.154454,0.048414,2.283558,-0.088060,0.046708,0.008595,-0.153660,-0.048395,-0.986938,0.025258,0.047434,0.107635,26.788345,-11.395424,-22.722229,,,,,,,1
1522314449.440776,-0.154008,0.047634,2.283766,0.045101,-0.016330,0.010887,-0.153225,-0.047616,-0.987043,0.040356,0.032144,0.047575,27.162720,-11.322334,-22.947327,,,,,,,1
1522314449.470744,-0.154777,0.050348,2.284230,0.107208,-0.003557,-0.013591,-0.153965,-0.050327,-0.986794,0.015567,0.022571,-0.004020,28.064194,-11.401024,-22.571533,,,,,,,1
1522314449.500712,-0.154623,0.052122,2.283606,0.017717,0.006419,-0.041367,-0.153799,-0.052099,-0.986728,-0.012934,0.003713,-0.037976,27.613159,-11.548912,-22.496216,,,,,,,1
1522314449.530681,-0.154046,0.050265,2.281965,-0.113540,0.014216,-0.046797,-0.153244,-0.050244,-0.986910,-0.023255,-0.001194,-0.043363,27.463593,-11.098915,-23.173096,,,,,,,1
1522314449.560649,-0.153666,0.045373,2.280076,-0.194847,-0.001634,-0.029797,-0.152904,-0.045358,-0.987199,-0.017948,-0.014197,-0.010344,28.208771,-11.177940,-23.847412,,,,,,,1
1522314449.590617,-0.153074,0.039323,2.278865,-0.213053,0.027909,0.006389,-0.152359,-0.039313,-0.987543,0.003937,-0.005258,0.020914,27.836624,-11.026054,-23.623169,,,,,,,1
1522314449.620585,-0.153687,0.034676,2.279109,-0.087645,-0.045000,0.054506,-0.152990,-0.034669,-0.987619,0.020056,-0.010024,-0.002447,27.459549,-11.099571,-23.848083,,,,,,,1
1522314449.650554,-0.154733,0.034312,2.280573,0.027880,-0.012244,0.040703,-0.154025,-0.034305,-0.987471,0.006885,-0.016583,-0.051118,27.686630,-11.025383,-23.623230,,,,,,,1
1522314449.680522,-0.154794,0.033491,2.280903,-0.065757,-0.005290,-0.011569,-0.154090,-0.033485,-0.987489,0.000999,-0.009453,-0.020644,27.383072,-11.249229,-23.847534,,,,,,,1
1522314449.710490,-0.155613,0.032313,2.279922,-0.016785,-0.055213,-0.029607,-0.154905,-0.032307,-0.987401,0.020277,-0.017330,-0.026164,27.309097,-11.098961,-23.923157,,,,,,,1
1522314449.740437,-0.156980,0.032387,2.279049,-0.000795,-0.057386,-0.027467,-0.156254,-0.032382,-0.987186,-0.016231,0.009753,-0.063626,28.356644,-11.029213,-24.447876,,,,,,,1
1522314449.770406,-0.158810,0.032628,2.278600,-0.010259,-0.016017,-0.016845,-0.158059,-0.032622,-0.986891,-0.014151,0.030974,-0.064303,27.907120,-11.251732,-23.997253,,,,,,,1
1522314449.800374,-0.156624,0.028664,2.277363,-0.249973,0.088816,-0.027802,-0.155920,-0.028660,-0.987354,-0.022715,0.046345,0.059223,27.531387,-11.100426,-24.373047,,,,,,,1
1522314449.830342,-0.154082,0.019078,2.275344,-0.318572,0.052699,-0.006499,-0.153445,-0.019077,-0.987973,-0.024091,0.053883,0.102536,28.211288,-10.653404,-24.299500,,,,,,,1
1522314449.860311,-0.153941,0.014149,2.275015,-0.005170,-0.021608,0.023641,-0.153318,-0.014148,-0.988075,-0.003359,0.008975,0.067192,27.532120,-10.800804,-24.749207,,,,,,,1
1522314449.890279,-0.154901,0.020102,2.276708,0.346032,-0.054267,0.009025,-0.154251,-0.020101,-0.987827,0.006760,0.022084,-0.035793,27.454880,-11.025459,-24.748352,,,,,,,1
1522314449.920247,-0.156491,0.031802,2.277735,0.379674,-0.005006,-0.054942,-0.155775,-0.031797,-0.987281,0.018629,0.023343,-0.129998,27.459076,-10.875023,-24.299011,,,,,,,1
1522314449.950215,-0.155963,0.037899,2.276700,0.085160,0.003294,-0.076465,-0.155220,-0.037890,-0.987153,-0.025002,0.075366,-0.134688,27.385895,-10.649773,-24.374878,,,,,,,1
1522314449.980184,-0.155078,0.035661,2.272757,-0.243036,0.105334,-0.114114,-0.154359,-0.035654,-0.987371,0.035508,0.095209,-0.013666,27.911591,-10.127876,-25.126709,,,,,,,1
1522314450.010152,-0.150772,0.023697,2.268983,-0.450892,0.031973,-0.036402,-0.150160,-0.023695,-0.988378,0.041548,0.104612,0.132146,27.386322,-9.975822,-25.427612,,,,,,,1
1522314450.040120,-0.153470,0.014806,2.269240,-0.139489,-0.113268,0.109945,-0.152852,-0.014806,-0.988138,0.082417,0.092564,0.138346,27.689743,-9.677116,-25.353699,,,,,,,1
1522314450.070088,-0.155782,0.018464,2.272339,0.338156,-0.095985,0.050620,-0.155126,-0.018463,-0.987722,0.068670,0.092346,0.021536,27.917862,-9.228371,-25.580322,,,,,,,1
,,,,,,,,,,,,,,,,25.308065,51.444917,14.747303,14.700000,344.179688,1522314449.999568,1
1522314450.100057,-0.160584,0.035191,2.274775,0.687715,-0.124774,-0.057782,-0.159796,-0.035184,-0.986523,0.048773,0.066938,-0.112476,27.916229,-9.528130,-25.354126,,,,,,,1
1522314450.130025,-0.160142,0.053917,2.272886,0.458633,0.071127,-0.182815,-0.159227,-0.053891,-0.985770,-0.020430,0.021848,-0.142984,27.392044,-10.124657,-24.227051,,,,,,,1
1522314450.159993,-0.159392,0.058825,2.268233,-0.072643,-0.054119,-0.167096,-0.158443,-0.058791,-0.985616,-0.026402,0.044448,-0.112208,27.918793,-9.677467,-24.678589,,,,,,,1
1522314450.189961,-0.161012,0.050239,2.264053,-0.438347,-0.036015,-0.043782,-0.160115,-0.050218,-0.985820,-0.008494,0.093782,-0.000615,27.987183,-9.753746,-25.653198,,,,,,,1
1522314450.219930,-0.160443,0.036860,2.262250,-0.406651,0.005724,0.055288,-0.159647,-0.036851,-0.986486,0.029902,0.080049,0.111959,27.914413,-9.303795,-26.030029,,,,,,,1
1522314450.249898,-0.160939,0.031250,2.263694,0.013853,0.003410,0.084374,-0.160167,-0.031245,-0.986595,0.071575,0.054545,0.119255,28.210953,-9.605217,-26.103699,,,,,,,1
1522314450.279866,-0.159837,0.036179,2.265714,0.257943,0.042783,-0.009256,-0.159053,-0.036171,-0.986607,0.039241,0.023460,0.061207,27.011169,-9.674660,-25.953979,,,,,,,1
1522314450.309834,-0.159018,0.045470,2.265601,0.331995,0.035709,-0.088040,-0.158185,-0.045455,-0.986363,0.037518,0.001052,-0.001415,26.042343,-9.369774,-25.430725,,,,,,,1
1522314450.339803,-0.156810,0.052591,2.263481,0.127175,0.054419,-0.106331,-0.155952,-0.052567,-0.986365,-0.024911,0.011642,-0.046075,27.023010,-8.849113,-25.357300,,,,,,,1
1522314450.369771,-0.155407,0.052261,2.260501,-0.118597,0.037834,-0.079853,-0.154571,-0.052238,-0.986600,-0.047577,0.019095,-0.055591,26.356567,-8.395454,-24.684448,,,,,,,1
1522314450.399739,-0.154967,0.046525,2.258615,-0.223806,0.008811,0.005338,-0.154180,-0.046508,-0.986947,-0.023554,0.019409,-0.035712,26.436356,-8.320122,-24.009705,,,,,,,1
1522314450.429707,-0.153340,0.038436,2.258300,-0.297304,0.090557,0.042493,-0.152627,-0.038427,-0.987536,0.006600,0.032491,0.052463,26.441010,-7.720375,-24.237122,,,,,,,1
1522314450.459676,-0.151649,0.029522,2.258824,-0.251761,0.038192,0.068155,-0.151002,-0.029518,-0.988093,0.061739,0.044563,0.114664,28.389725,-7.804222,-24.310852,,,,,,,1
1522314450.489644,-0.153045,0.026829,2.260284,0.054193,-0.081486,0.054651,-0.152394,-0.026826,-0.987956,0.070622,0.029755,0.027461,28.541519,-7.579979,-24.386597,,,,,,,1
1522314450.519612,-0.155421,0.031412,2.261443,0.195690,-0.053619,-0.029449,-0.154719,-0.031407,-0.987459,0.072032,0.009007,-0.052961,29.960144,-7.587410,-25.435913,,,,,,,1
1522314450.549581,-0.154195,0.035889,2.259640,0.101448,0.031086,-0.105252,-0.153485,-0.035881,-0.987499,0.031766,0.020470,-0.057102,29.059143,-7.957909,-24.984863,,,,,,,1
1522314450.579549,-0.155506,0.038080,2.256347,0.033709,-0.088743,-0.116899,-0.154768,-0.038070,-0.987217,0.020872,0.046386,-0.110546,29.357635,-7.884621,-25.359985,,,,,,,1
1522314450.609517,-0.156052,0.035700,2.253032,-0.176483,-0.005646,-0.072389,-0.155320,-0.035693,-0.987219,-0.026671,0.082461,-0.047113,30.180649,-7.813774,-25.809875,,,,,,,1
1522314450.639485,-0.156759,0.030494,2.250834,-0.151258,-0.024185,-0.012687,-0.156045,-0.030489,-0.987279,0.006860,0.081987,0.011510,29.127823,-7.734642,-26.410706,,,,,,,1
1522314450.669454,-0.158028,0.029200,2.251183,0.077868,-0.068654,0.032292,-0.157304,-0.029196,-0.987119,0.025575,0.083914,0.022458,28.747437,-8.183083,-26.559143,,,,,,,1
1522314450.699422,-0.159884,0.034429,2.252723,0.245759,-0.049678,-0.003839,-0.159109,-0.034422,-0.986661,0.022131,0.078657,-0.029819,28.895187,-8.408745,-26.558167,,,,,,,1
1522314450.729376,-0.160425,0.042118,2.252548,0.243275,0.018874,-0.081689,-0.159596,-0.042106,-0.986284,0.020421,0.077064,-0.055846,27.918289,-8.554420,-26.632996,,,,,,,1
1522314450.759344,-0.158480,0.044903,2.250274,-0.020281,0.046153,-0.089374,-0.157659,-0.044888,-0.986473,-0.028377,0.102979,-0.055977,27.621887,-8.327858,-26.409119,,,,,,,1
1522314450.789313,-0.157790,0.040319,2.247232,-0.228701,0.035823,-0.056494,-0.157008,-0.040308,-0.986774,-0.030842,0.073923,-0.006710,28.080414,-7.430000,-26.487488,,,,,,,1
1522314450.819281,-0.157024,0.033701,2.245502,-0.143840,-0.028527,-0.004143,-0.156290,-0.033695,-0.987136,-0.038397,0.041049,0.029556,27.626099,-7.952812,-26.335571,,,,,,,1
1522314450.849249,-0.157459,0.032173,2.245544,0.008046,0.048567,0.009744,-0.156728,-0.032167,-0.987118,-0.010111,0.005357,0.015026,27.332397,-7.501183,-26.037537,,,,,,,1
1522314450.879217,-0.155405,0.033417,2.246418,0.089160,0.061007,0.025773,-0.154694,-0.033411,-0.987397,0.019974,0.001764,0.054093,27.783142,-7.428215,-26.037598,,,,,,,1
1522314450.909186,-0.154806,0.035365,2.247375,0.061201,0.015390,0.024734,-0.154092,-0.035358,-0.987424,0.044412,0.013675,-0.013004,27.332123,-8.025368,-25.210449,,,,,,,1
1522314450.939154,-0.154300,0.034773,2.247917,-0.065719,0.029607,0.011841,-0.153595,-0.034766,-0.987522,0.039597,0.011146,0.044971,27.787354,-7.502403,-25.212280,,,,,,,1
1522314450.969122,-0.153764,0.032326,2.247592,-0.072156,0.000032,-0.009454,-0.153079,-0.032320,-0.987685,0.063479,0.003649,0.036086,28.087921,-7.353905,-25.362793,,,,,,,1
1522314450.999090,-0.154268,0.030773,2.246446,-0.034834,-0.053981,-0.047734,-0.153584,-0.030768,-0.987656,0.053303,-0.031503,-0.019225,28.090012,-7.278694,-25.138000,,,,,,,1
1522314451.029059,-0.155198,0.031274,2.244676,0.022175,0.001333,-0.078636,-0.154500,-0.031269,-0.987498,0.018575,-0.006436,-0.026098,29.138931,-7.433342,-25.061951,,,,,,,1
1522314451.059027,-0.154078,0.030735,2.241776,-0.095229,-0.000414,-0.089384,-0.153397,-0.030730,-0.987687,-0.009903,0.001342,-0.052871,29.442078,-7.434181,-24.536743,,,,,,,1
,,,,,,,,,,,,,,,,25.308197,51.444891,14.987279,14.800000,345.937500,1522314450.999567,1
1522314451.088995,-0.153445,0.026218,2.238845,-0.214914,0.011353,-0.058582,-0.152791,-0.026215,-0.987911,-0.029597,0.012710,-0.023808,29.364990,-7.733681,-24.385559,,,,,,,1
1522314451.118964,-0.153430,0.020183,2.237303,-0.187629,-0.015747,0.008591,-0.152798,-0.020182,-0.988051,-0.024036,0.026850,-0.003678,29.579926,-7.886070,-25.809875,,,,,,,1
1522314451.148932,-0.153680,0.017246,2.237358,-0.018901,-0.000289,0.016165,-0.153053,-0.017245,-0.988067,-0.003014,0.029299,0.012634,30.855148,-7.592262,-26.260376,,,,,,,1
1522314451.178900,-0.153581,0.018846,2.237999,0.097510,0.002655,0.010915,-0.152951,-0.018844,-0.988054,0.033551,0.043136,0.008653,29.727509,-7.812263,-26.335083,,,,,,,1
1522314451.208868,-0.154203,0.022089,2.237910,0.088079,-0.010830,-0.033825,-0.153555,-0.022087,-0.987893,0.015051,0.069450,-0.048545,28.901932,-7.733772,-26.560852,,,,,,,1
1522314451.238837,-0.153591,0.021765,2.236224,-0.064209,0.034425,-0.069145,-0.152952,-0.021763,-0.987994,-0.010180,0.076313,-0.001981,28.526337,-7.432686,-27.162231,,,,,,,1
1522314451.268805,-0.153162,0.019447,2.234086,-0.062321,-0.003945,-0.054183,-0.152535,-0.019446,-0.988107,0.007729,0.069586,0.032922,28.228592,-7.206337,-27.163269,,,,,,,1
1522314451.298773,-0.153103,0.017852,2.232812,-0.012243,-0.005255,-0.036034,-0.152481,-0.017851,-0.988145,0.003586,0.074141,0.022355,28.678253,-6.834038,-27.839539,,,,,,,1
1522314451.328741,-0.154040,0.019259,2.232023,0.118965,-0.036340,-0.042307,-0.153403,-0.019258,-0.987976,0.016394,0.062364,-0.007355,27.255875,-6.976967,-27.164673,,,,,,,1
1522314451.358710,-0.153139,0.023300,2.231080,0.135402,0.035985,-0.059408,-0.152500,-0.023297,-0.988029,-0.006283,0.066785,-0.020455,27.781784,-7.203804,-26.638489,,,,,,,1
1522314451.388678,-0.152406,0.024917,2.229866,0.010305,0.007541,-0.049884,-0.151770,-0.024915,-0.988102,-0.013178,0.072248,-0.015255,28.614075,-6.831963,-26.039551,,,,,,,1
1522314451.418646,-0.152259,0.023818,2.228834,-0.040067,0.006361,-0.014761,-0.151628,-0.023816,-0.988151,0.018358,0.073834,-0.001382,28.836060,-6.683708,-26.790039,,,,,,,1
1522314451.448614,-0.151889,0.022671,2.228039,-0.004796,0.010575,-0.020077,-0.151267,-0.022669,-0.988233,0.025198,0.046030,0.015333,28.753876,-7.358406,-26.862427,,,,,,,1
1522314451.478583,-0.151976,0.022962,2.227346,0.063499,-0.020297,-0.038100,-0.151351,-0.022960,-0.988213,0.022689,0.030239,-0.011436,28.904312,-7.134377,-27.163208,,,,,,,1
1522314451.508551,-0.151853,0.024771,2.226390,0.047761,0.026589,-0.050946,-0.151223,-0.024769,-0.988189,0.015252,0.044223,-0.030167,29.126602,-7.360466,-27.237244,,,,,,,1
1522314451.538519,-0.151247,0.023961,2.224840,-0.065666,-0.020998,-0.043524,-0.150628,-0.023959,-0.988300,0.007531,0.040805,-0.018048,29.052200,-7.210274,-27.387817,,,,,,,1
1522314451.568487,-0.151585,0.021903,2.223576,-0.064629,-0.003101,-0.021159,-0.150969,-0.021901,-0.988296,0.012191,0.040654,-0.001160,29.425369,-6.987633,-28.063599,,,,,,,1
1522314451.598456,-0.152092,0.020227,2.222900,-0.023223,-0.047882,-0.014688,-0.151475,-0.020226,-0.988254,0.021547,0.035011,-0.014554,29.127197,-6.985985,-27.763672,,,,,,,1
1522314451.628424,-0.153765,0.020896,2.222267,0.052660,-0.054275,-0.037012,-0.153126,-0.020895,-0.987986,0.012043,0.020376,-0.066488,29.354126,-6.836937,-27.689209,,,,,,,1
1522314451.658392,-0.153570,0.021808,2.220758,-0.015134,0.028977,-0.066974,-0.152931,-0.021806,-0.987996,-0.010384,0.030656,-0.033610,30.179855,-6.990273,-27.313171,,,,,,,1
1522314451.688360,-0.153365,0.019298,2.218712,-0.130752,-0.011285,-0.042513,-0.152736,-0.019297,-0.988079,-0.004521,0.040491,-0.010762,30.174438,-6.991158,-28.213135,,,,,,,1
1522314451.718333,-0.153690,0.015699,2.217421,-0.095687,-0.007365,-0.007331,-0.153066,-0.015699,-0.988091,0.002142,0.045911,0.011635,29.466309,-6.793346,-31.529480,,,,,,,1
1522314451.748301,-0.153771,0.014609,2.216860,0.027105,-0.012911,-0.015768,-0.153150,-0.014608,-0.988095,0.008527,0.014013,0.007275,29.910431,-6.796322,-32.504211,,,,,,,1
1522314451.778269,-0.154523,0.017004,2.216758,0.104004,-0.022613,-0.026341,-0.153886,-0.017003,-0.987942,-0.008025,0.025060,-0.044101,28.933212,-6.792294,-32.879700,,,,,,,1
1522314451.808238,-0.154309,0.018620,2.215737,0.008250,0.019258,-0.054155,-0.153670,-0.018619,-0.987947,-0.019380,0.036869,-0.047576,27.731171,-6.862118,-33.105042,,,,,,,1
1522314451.838206,-0.153704,0.017405,2.213709,-0.082525,0.014202,-0.056360,-0.153077,-0.017404,-0.988061,-0.008880,0.038995,-0.020011,26.903366,-7.008602,-33.329895,,,,,,,1
1522314451.868174,-0.152691,0.014333,2.212121,-0.109175,0.056570,-0.027653,-0.152083,-0.014332,-0.988264,-0.002458,0.057316,0.043241,25.931259,-7.303265,-32.354187,,,,,,,1
1522314451.898142,-0.151456,0.012091,2.198936,-0.013322,0.016928,-0.015817,-0.150867,-0.012091,-0.988480,0.015750,0.047705,0.067261,25.557480,-7.226498,-32.279663,,,,,,,1
1522314451.928111,-0.151270,0.014525,2.186931,0.151038,0.009041,-0.010358,-0.150678,-0.014524,-0.988476,0.034970,0.060728,0.025509,26.388885,-6.854794,-31.830750,,,,,,,1
1522314451.958079,-0.151214,0.020303,2.162613,0.206803,0.016623,-0.050813,-0.150607,-0.020302,-0.988385,0.015643,0.051476,-0.022265,25.483109,-7.750195,-31.302673,,,,,,,1
1522314451.988047,-0.150002,0.023629,2.149130,0.035099,0.029985,-0.076530,-0.149398,-0.023627,-0.988495,0.005874,0.055777,-0.023514,25.559906,-7.750240,-31.002563,,,,,,,1
1522314452.018015,-0.149778,0.021242,2.123013,-0.133769,0.001645,-0.067035,-0.149185,-0.021241,-0.988581,-0.003922,0.052628,-0.028768,26.011978,-7.452419,-31.153564,,,,,,,1
1522314452.047984,-0.149253,0.016378,2.109065,-0.137124,0.003561,-0.036138,-0.148679,-0.016378,-0.988750,0.005750,0.037175,0.035838,25.563660,-7.599880,-30.628174,,,,,,,1
,,,,,,,,,,,,,,,,25.308355,51.444860,14.952313,15.550000,349.453125,1522314451.999565,1
1522314452.077952,-0.149144,0.013834,2.096436,-0.035722,0.017001,-0.019027,-0.148578,-0.013834,-0.988804,0.005633,0.025720,0.042011,25.860809,-7.976070,-30.476562,,,,,,,1
1522314452.107920,-0.148372,0.014035,2.073049,0.065642,0.008222,-0.014683,-0.147814,-0.014035,-0.988916,0.021013,0.013623,0.016992,26.913025,-7.980419,-30.101013,,,,,,,1
1522314452.137888,-0.149831,0.017273,2.061858,0.124071,-0.060976,-0.017764,-0.149248,-0.017272,-0.988649,0.003130,0.025695,-0.074263,26.385635,-8.352825,-29.874756,,,,,,,1
1522314452.167857,-0.149587,0.018768,2.038503,-0.018398,0.037382,-0.049947,-0.149003,-0.018767,-0.988659,0.014527,0.027250,-0.036808,26.465881,-7.828182,-29.876770,,,,,,,1
1522314452.197825,-0.149377,0.016879,2.025568,-0.078500,-0.030499,-0.047787,-0.148800,-0.016878,-0.988723,0.027844,0.045534,-0.021699,27.141617,-7.980846,-29.500854,,,,,,,1
1522314452.227793,-0.150319,0.014448,2.002180,-0.095431,0.007751,-0.042504,-0.149738,-0.014447,-0.988620,0.015063,0.060239,-0.017529,27.142517,-7.980709,-29.350891,,,,,,,1
1522314452.257761,-0.149723,0.011749,1.989576,-0.063512,-0.017823,-0.043521,-0.149154,-0.011749,-0.988744,0.009765,0.037002,0.029424,26.990112,-8.130169,-29.500305,,,,,,,1
1522314452.287730,-0.150421,0.012044,1.967134,0.030451,-0.007468,-0.037074,-0.149843,-0.012044,-0.988636,-0.001951,0.032933,-0.021663,26.466324,-7.603497,-30.177734,,,,,,,1
1522314452.317698,-0.150713,0.011912,1.955812,0.006710,-0.055281,-0.029583,-0.150133,-0.011911,-0.988594,-0.021513,0.018900,-0.037346,27.218384,-7.307018,-30.328491,,,,,,,1
1522314452.347666,-0.152649,0.013878,1.934226,0.090272,-0.020249,-0.054065,-0.152042,-0.013878,-0.988276,-0.013119,0.008461,-0.094289,27.591873,-7.458706,-30.327698,,,,,,,1
1522314452.377635,-0.150920,0.014365,1.926981,-0.068373,0.053595,-0.073432,-0.150332,-0.014365,-0.988531,-0.029416,0.008704,-0.028742,28.126892,-6.860439,-29.654846,,,,,,,1
1522314452.407603,-0.151288,0.010979,1.925172,-0.117123,-0.041231,-0.020096,-0.150702,-0.010979,-0.988518,-0.020257,0.022881,-0.037834,26.927856,-6.854885,-29.505432,,,,,,,1
1522314452.437571,-0.151382,0.008272,1.925392,-0.086052,0.044357,0.035262,-0.150799,-0.008272,-0.988530,-0.007556,0.037584,0.006520,26.625000,-7.003765,-29.730042,,,,,,,1
1522314452.467539,-0.150621,0.006394,1.926006,-0.010485,-0.012096,0.030035,-0.150049,-0.006394,-0.988658,0.032159,0.002885,0.024577,27.079315,-6.480953,-29.881897,,,,,,,1
1522314452.497508,-0.151156,0.008189,1.926667,0.105135,0.012339,-0.009332,-0.150576,-0.008189,-0.988564,0.013918,0.007518,-0.013282,27.152374,-6.855984,-29.580383,,,,,,,1
1522314452.527476,-0.150240,0.010285,1.925992,0.044608,0.028771,-0.058407,-0.149668,-0.010285,-0.988683,-0.003729,0.015152,-0.001628,27.453568,-7.006893,-29.129578,,,,,,,1
1522314452.557444,-0.149690,0.011077,1.908663,-0.003470,0.006650,-0.070136,-0.149123,-0.011076,-0.988757,-0.006685,0.016844,-0.017973,26.925919,-7.229580,-29.203979,,,,,,,1
1522314452.587412,-0.147907,0.009858,1.896809,-0.079217,0.067130,-0.029767,-0.147362,-0.009858,-0.989034,-0.020287,0.021287,0.049367,27.153580,-6.780910,-29.505615,,,,,,,1
1522314452.617381,-0.147258,0.007648,1.876599,-0.018964,-0.013032,0.016172,-0.146722,-0.007648,-0.989148,-0.008048,0.000171,0.034177,27.520020,-7.457851,-29.802795,,,,,,,1
1522314452.647349,-0.148101,0.009421,1.867874,0.115588,-0.002773,0.020525,-0.147554,-0.009421,-0.989009,0.004610,-0.008691,-0.024266,26.399567,-7.227444,-29.429260,,,,,,,1
1522314452.677317,-0.146799,0.011375,1.848504,0.014770,0.072211,-0.030764,-0.146263,-0.011375,-0.989180,0.000068,-0.019280,-0.004869,26.626373,-7.452785,-28.753235,,,,,,,1
1522314452.707285,-0.145738,0.009932,1.837749,-0.082652,0.009780,-0.033969,-0.145216,-0.009932,-0.989350,0.001676,-0.001955,-0.038726,27.151642,-7.155605,-29.204163,,,,,,,1
1522314452.737248,-0.145226,0.006422,1.817691,-0.160582,0.031135,-0.019140,-0.144713,-0.006422,-0.989453,-0.004167,0.000654,-0.045566,26.555420,-7.002544,-28.830078,,,,,,,1
1522314452.767216,-0.143956,0.000962,1.807139,-0.185189,0.035345,-0.005308,-0.143459,-0.000962,-0.989656,-0.001255,-0.014068,0.015565,26.710953,-6.627941,-28.531494,,,,,,,1
1522314452.797184,-0.143047,-0.002851,1.797716,-0.088169,0.027488,0.017163,-0.142559,0.002851,-0.989782,0.024303,-0.017041,0.052236,26.414246,-6.251690,-28.608154,,,,,,,1
1522314452.827152,-0.142700,-0.003061,1.780002,0.048290,-0.011110,0.020487,-0.142216,0.003061,-0.989831,0.019199,-0.023096,0.024255,27.014832,-6.553783,-28.006592,,,,,,,1
1522314452.857121,-0.143723,0.000811,1.771774,0.163575,-0.046272,-0.006034,-0.143229,-0.000811,-0.989689,0.018122,-0.025815,-0.065059,26.944061,-6.403027,-27.557312,,,,,,,1
1522314452.887089,-0.144231,0.004656,1.753536,0.053035,0.011695,-0.050924,-0.143730,-0.004656,-0.989606,-0.009804,-0.026426,-0.068957,28.739914,-6.411770,-28.231384,,,,,,,1
1522314452.917057,-0.143417,0.002279,1.742769,-0.171287,-0.010090,-0.047868,-0.142925,-0.002279,-0.989731,-0.015827,-0.020121,-0.044785,27.992783,-6.258190,-28.007324,,,,,,,1
1522314452.947025,-0.144547,-0.002631,1.723990,-0.170523,-0.041135,-0.015868,-0.144044,0.002631,-0.989568,-0.019698,-0.008903,-0.043300,28.365646,-5.885845,-28.983643,,,,,,,1
1522314452.976994,-0.144684,-0.006333,1.714622,-0.087132,0.002126,-0.000936,-0.144176,0.006332,-0.989532,-0.009968,-0.028473,0.025314,29.411560,-5.891232,-29.658081,,,,,,,1
1522314453.006962,-0.144594,-0.006301,1.698140,0.073875,-0.022869,0.019462,-0.144088,0.006301,-0.989545,0.004867,-0.011748,0.013959,28.208008,-6.111034,-29.882812,,,,,,,1
1522314453.036930,-0.145625,-0.001979,1.691145,0.144403,-0.006037,0.020553,-0.145111,0.001979,-0.989413,-0.009583,-0.012783,-0.059674,27.759369,-5.884167,-30.033936,,,,,,,1
1522314453.066899,-0.144845,0.000312,1.675040,0.030391,0.014613,-0.005122,-0.144339,-0.000312,-0.989528,-0.033700,-0.020608,-0.044148,27.686172,-5.883541,-29.734009,,,,,,,1
,,,,,,,,,,,,,,,,25.308497,51.444851,14.557867,15.730000,352.617188,1522314452.999563,1
1522314453.096867,-0.144423,-0.000107,1.666511,-0.064501,0.035093,-0.012673,-0.143922,0.000107,-0.989589,-0.023681,-0.031585,-0.009892,26.633072,-6.103954,-29.883606,,,,,,,1
1522314453.126835,-0.143705,-0.002785,1.650198,-0.092526,0.006295,0.012905,-0.143210,0.002785,-0.989688,-0.006997,-0.027809,0.044406,27.003708,-6.405834,-30.107239,,,,,,,1
1522314453.156803,-0.144438,-0.003702,1.642810,0.019292,-0.035561,0.032211,-0.143935,0.003702,-0.989580,-0.009401,-0.026849,0.001772,27.078415,-6.481091,-30.031921,,,,,,,1
1522314453.186772,-0.144322,-0.001540,1.635992,0.057139,0.051588,0.016171,-0.143822,0.001540,-0.989602,-0.012276,-0.042021,0.024026,25.879059,-6.550472,-29.807251,,,,,,,1
1522314453.216740,-0.142611,-0.000911,1.621295,-0.005966,0.044188,0.032119,-0.142128,0.000911,-0.989848,0.012886,-0.038906,0.042796,25.580902,-6.998089,-28.755554,,,,,,,1
1522314453.246708,-0.141538,-0.001758,1.614458,-0.048629,0.047518,0.026757,-0.141065,0.001758,-0.989999,0.015257,-0.041385,0.037515,26.185089,-6.625729,-28.681824,,,,,,,1
1522314453.276676,-0.140716,-0.002873,1.599988,-0.006044,0.014510,0.021494,-0.140251,0.002873,-0.990112,0.027291,-0.055332,0.039153,26.410370,-7.001064,-28.005127,,,,,,,1
1522314453.306645,-0.140327,-0.002103,1.593259,0.033477,0.008108,0.011936,-0.139866,0.002103,-0.990168,0.014225,-0.064512,-0.015691,25.962341,-6.848980,-27.931030,,,,,,,1
1522314453.336613,-0.139712,-0.001825,1.578855,-0.036840,0.030653,0.003340,-0.139258,0.001825,-0.990254,0.000571,-0.072412,-0.021678,27.391174,-6.555248,-27.781433,,,,,,,1
1522314453.366581,-0.138608,-0.004206,1.571406,-0.121272,0.025487,0.013930,-0.138164,0.004206,-0.990400,0.003947,-0.063669,-0.006761,26.490753,-6.326656,-28.232849,,,,,,,1
1522314453.396549,-0.138197,-0.007580,1.557078,-0.121367,0.011627,0.020338,-0.137754,0.007580,-0.990438,0.026731,-0.066387,0.006185,26.341217,-6.550533,-27.781982,,,,,,,1
1522314453.426518,-0.137634,-0.010546,1.550250,-0.097931,0.006219,0.025688,-0.137193,0.010546,-0.990488,0.037293,-0.077318,0.045801,26.869034,-6.178066,-27.933228,,,,,,,1
1522314453.456486,-0.138655,-0.010569,1.537437,0.058625,-0.059114,0.043981,-0.138203,0.010569,-0.990347,0.045506,-0.054820,-0.015344,25.975983,-6.247768,-26.658386,,,,,,,1
1522314453.486454,-0.140678,-0.007280,1.532070,0.073706,-0.048433,0.029073,-0.140211,0.007280,-0.990095,0.041746,-0.051577,-0.074892,26.277481,-6.323742,-26.282959,,,,,,,1
1522314453.516422,-0.141354,-0.006498,1.525223,-0.049930,-0.044678,-0.008314,-0.140881,0.006498,-0.990005,0.000256,-0.055432,-0.071503,26.808289,-5.875912,-26.059509,,,,,,,1
1522314453.546391,-0.142403,-0.008423,1.511261,-0.053235,-0.057466,-0.000850,-0.141917,0.008423,-0.989843,0.018306,-0.061310,-0.058772,26.807571,-6.400158,-25.307373,,,,,,,1
1522314453.576359,-0.144267,-0.007995,1.504811,0.043882,-0.059866,0.004548,-0.143762,0.007995,-0.989580,0.017450,-0.030837,-0.048964,27.933868,-6.180370,-25.457642,,,,,,,1
1522314453.606327,-0.144019,-0.007366,1.491314,-0.020790,0.015885,-0.016883,-0.143518,0.007366,-0.989620,0.016733,-0.037471,0.005077,29.577057,-6.638149,-25.830017,,,,,,,1
1522314453.636295,-0.144588,-0.007256,1.484881,0.050225,-0.058909,0.017339,-0.144081,0.007256,-0.989539,0.014503,-0.022683,-0.042382,29.871201,-6.865063,-26.429016,,,,,,,1
1522314453.666264,-0.146569,-0.004250,1.473198,0.098409,-0.016604,0.027991,-0.146044,0.004250,-0.989269,-0.008513,-0.039055,-0.061665,30.543457,-6.643917,-27.254517,,,,,,,1
1522314453.696232,-0.145353,-0.003539,1.467342,-0.017647,0.025293,0.003359,-0.144841,0.003539,-0.989449,-0.000285,-0.041167,-0.003242,30.761230,-6.646099,-28.454407,,,,,,,1
1522314453.726203,-0.146098,-0.003170,1.454750,0.029068,-0.038539,-0.001872,-0.145578,0.003170,-0.989342,0.014764,-0.059781,-0.056633,30.008408,-6.568310,-29.055115,,,,,,,1
1522314453.756172,-0.146995,-0.002559,1.448691,0.003555,-0.016144,-0.004046,-0.146466,0.002559,-0.989212,-0.004565,-0.043681,-0.076782,29.408447,-6.790234,-28.679504,,,,,,,1
1522314453.786140,-0.145965,-0.003852,1.435928,-0.092104,0.080785,-0.003149,-0.145446,0.003852,-0.989359,0.003982,-0.038154,0.015772,28.882095,-6.563457,-29.280701,,,,,,,1
1522314453.816108,-0.143358,-0.008140,1.429576,-0.152219,0.051984,0.034127,-0.142863,0.008140,-0.989709,0.021433,-0.037849,0.088967,29.179535,-6.640102,-29.580200,,,,,,,1
1522314453.846076,-0.143265,-0.008803,1.425189,0.083289,-0.022069,0.055685,-0.142770,0.008803,-0.989717,0.045922,-0.020064,0.049302,28.880600,-6.488827,-29.655945,,,,,,,1
1522314453.876045,-0.143555,-0.003787,1.415133,0.193501,-0.001969,0.028050,-0.143061,0.003787,-0.989707,0.051005,-0.060184,-0.001230,28.803055,-6.788403,-29.579773,,,,,,,1
1522314453.906013,-0.142744,0.001782,1.409914,0.157546,0.018673,-0.022086,-0.142259,-0.001782,-0.989828,0.019945,-0.055027,-0.022333,28.651413,-6.862881,-29.729614,,,,,,,1
1522314453.935981,-0.142446,0.003595,1.397841,-0.049608,0.007496,-0.024346,-0.141964,-0.003595,-0.989865,0.003567,-0.045584,-0.065692,28.803802,-6.713406,-29.580078,,,,,,,1
1522314453.965949,-0.141551,-0.000953,1.390896,-0.236427,0.035475,-0.006408,-0.141079,0.000953,-0.989998,0.005703,-0.040275,-0.011986,27.748596,-7.009045,-29.954468,,,,,,,1
1522314453.995918,-0.140007,-0.008445,1.379222,-0.245171,0.053210,0.045768,-0.139546,0.008445,-0.990180,0.037571,-0.042030,0.089224,27.602493,-6.708233,-29.805786,,,,,,,1
1522314454.025886,-0.139523,-0.011479,1.375039,0.018075,-0.022030,0.072688,-0.139062,0.011479,-0.990217,0.055581,-0.054707,0.059843,28.799149,-6.639294,-30.480408,,,,,,,1
1522314454.055854,-0.139802,-0.007064,1.366422,0.190193,-0.007390,0.044039,-0.139344,0.007064,-0.990219,0.051347,-0.033843,-0.032456,27.900406,-7.009426,-29.654358,,,,,,,1
,,,,,,,,,,,,,,,,25.308638,51.444844,14.529205,15.740000,353.671875,1522314453.999558,1
1522314454.085822,-0.139980,-0.002015,1.361735,0.109393,-0.003542,-0.019965,-0.139523,0.002015,-0.990217,0.033230,-0.045564,-0.067065,27.824661,-7.084087,-29.654114,,,,,,,1
1522314454.115791,-0.139133,-0.002571,1.349797,-0.132747,0.024803,-0.037217,-0.138684,0.002571,-0.990333,0.011822,-0.038048,-0.034386,28.124039,-7.010647,-29.879211,,,,,,,1
1522314454.145759,-0.139324,-0.007969,1.343227,-0.184534,-0.052863,-0.003092,-0.138869,0.007969,-0.990279,0.016906,-0.043232,-0.008867,27.749054,-7.008968,-29.879456,,,,,,,1
1522314454.175727,-0.139367,-0.011061,1.337599,-0.072123,0.023280,0.006518,-0.138908,0.011061,-0.990244,0.021064,-0.055769,-0.010107,27.826904,-6.859097,-29.655029,,,,,,,1
1522314454.205695,-0.138493,-0.010778,1.327622,0.048462,0.014449,0.010879,-0.138043,0.010778,-0.990368,0.022137,-0.029119,-0.009220,28.501419,-6.862194,-29.729675,,,,,,,1
1522314454.235664,-0.139009,-0.007578,1.323620,0.110168,-0.011338,0.030128,-0.138557,0.007578,-0.990325,0.039055,-0.038507,-0.060349,27.899063,-7.234264,-29.503479,,,,,,,1
1522314454.265632,-0.138743,-0.006719,1.313845,-0.042272,0.007335,-0.000914,-0.138295,0.006719,-0.990368,0.011678,-0.014745,-0.046711,27.525558,-6.857952,-29.880127,,,,,,,1
1522314454.295600,-0.138541,-0.009112,1.308063,-0.093494,-0.003099,-0.012650,-0.138092,0.009112,-0.990377,0.035981,-0.030169,0.023687,28.573120,-7.012829,-30.029053,,,,,,,1
1522314454.325569,-0.138904,-0.010020,1.297997,0.026865,-0.041784,0.007716,-0.138451,0.010020,-0.990319,0.021386,-0.033397,-0.004555,27.747101,-7.159023,-29.953857,,,,,,,1
1522314454.355537,-0.139516,-0.007153,1.294002,0.118762,-0.012349,0.019481,-0.139060,0.007153,-0.990258,0.010062,-0.042858,-0.056327,27.595612,-7.308346,-29.953308,,,,,,,1
1522314454.385505,-0.139894,-0.003588,1.285245,0.100720,0.002638,0.010924,-0.139437,0.003588,-0.990224,0.015581,-0.040300,-0.058848,27.519714,-7.308147,-30.103394,,,,,,,1
1522314454.415473,-0.138337,-0.004162,1.280217,-0.117835,0.052206,-0.008474,-0.137895,0.004162,-0.990438,0.006364,-0.013439,-0.000468,26.847748,-7.229763,-29.729065,,,,,,,1
1522314454.445442,-0.137667,-0.008392,1.270074,-0.124617,-0.008526,0.013975,-0.137227,0.008392,-0.990504,0.025670,-0.041199,0.043360,27.599945,-6.783520,-30.105469,,,,,,,1
1522314454.475410,-0.136959,-0.008757,1.266244,0.058029,0.034465,0.034297,-0.136526,0.008757,-0.990598,0.026724,-0.030714,0.039716,28.276566,-6.711422,-29.955383,,,,,,,1
1522314454.505378,-0.136029,-0.005625,1.262809,0.106144,0.024914,0.014104,-0.135607,0.005625,-0.990747,0.033526,-0.039240,0.029550,27.079636,-6.855282,-29.205383,,,,,,,1
1522314454.535346,-0.134803,-0.002943,1.254016,0.051794,0.041040,0.007649,-0.134394,0.002943,-0.990924,0.032771,-0.042432,0.005633,27.450867,-7.007320,-29.579590,,,,,,,1
1522314454.565315,-0.134029,-0.003108,1.249414,-0.043308,0.010548,-0.004115,-0.133628,0.003108,-0.991027,0.000190,-0.031260,-0.042756,28.047684,-7.010525,-30.104309,,,,,,,1
1522314454.595283,-0.132814,-0.005654,1.239786,-0.119926,0.064934,-0.005288,-0.132422,0.005654,-0.991177,0.019751,-0.055138,0.017361,27.753693,-6.633846,-29.730957,,,,,,,1
1522314454.625251,-0.130919,-0.008767,1.235347,-0.076522,0.028405,0.035277,-0.130540,0.008766,-0.991404,0.031983,-0.043297,0.061076,27.904892,-6.559444,-29.656189,,,,,,,1
1522314454.655219,-0.130943,-0.008939,1.228002,0.028832,-0.025133,0.055656,-0.130564,0.008939,-0.991400,0.046304,-0.042035,-0.014567,27.529160,-6.632748,-29.656067,,,,,,,1
1522314454.685188,-0.130713,-0.007048,1.224885,0.048581,0.043140,0.011910,-0.130337,0.007048,-0.991445,0.043606,-0.053771,-0.011210,27.300888,-7.006649,-29.579651,,,,,,,1
1522314454.715156,-0.128805,-0.007389,1.216250,-0.064558,0.035019,-0.002019,-0.128445,0.007389,-0.991689,0.044461,-0.035343,0.033971,27.526901,-6.633114,-30.031067,,,,,,,1
1522314454.745108,-0.128949,-0.009092,1.211876,-0.050113,-0.054396,0.016191,-0.128587,0.009092,-0.991657,0.040574,-0.037549,-0.010235,28.207413,-6.260876,-29.732239,,,,,,,1
1522314454.775076,-0.130848,-0.008211,1.203873,0.076886,-0.079112,0.007800,-0.130471,0.008210,-0.991418,0.034600,-0.053315,-0.068839,27.308228,-6.406460,-29.357117,,,,,,,1
1522314454.805045,-0.131806,-0.005587,1.199833,0.045183,-0.028942,-0.012524,-0.131423,0.005587,-0.991311,0.027724,-0.048769,-0.048698,27.753403,-6.708767,-29.655640,,,,,,,1
1522314454.835013,-0.132422,-0.006071,1.195174,-0.079763,-0.026573,-0.004090,-0.132033,0.006071,-0.991227,0.016875,-0.035185,-0.046066,27.680954,-6.633129,-29.356018,,,,,,,1
1522314454.864981,-0.133648,-0.008926,1.187038,-0.087557,-0.049126,0.035338,-0.133246,0.008926,-0.991043,0.024695,-0.016266,-0.054306,27.530945,-6.407833,-29.731995,,,,,,,1
1522314454.894949,-0.133334,-0.010928,1.183259,-0.061448,0.033811,0.016106,-0.132931,0.010928,-0.991065,0.021939,-0.039492,0.006583,27.904587,-6.634365,-29.580872,,,,,,,1
