timestamp(unix),attitude_roll(radians),attitude_pitch(radians),attitude_yaw(radians),rotation_rate_x(radians/s),rotation_rate_y(radians/s),rotation_rate_z(radians/s),gravity_x(G),gravity_y(G),gravity_z(G),user_acc_x(G),user_acc_y(G),user_acc_z(G),magnetic_field_x(microteslas),magnetic_field_y(microteslas),magnetic_field_z(microteslas),latitude(degree),longitude(degree),altitude(meter),speed(m/s),course(degree),timestamp(unix),User Mark
1523694768.860712,-0.722242,-0.069374,1.686291,-0.082698,-0.089610,-0.032489,-0.659477,0.069318,-0.748520,0.012291,0.026919,0.050995,-9.560272,-25.681347,21.553772,,,,,,,
1523694768.890650,-0.725295,-0.069396,1.683626,-0.079160,-0.065947,-0.075127,-0.661758,0.069341,-0.746501,-0.050262,0.023692,0.120876,-9.028870,-25.083660,21.626648,,,,,,,
1523694768.920618,-0.724763,-0.068730,1.681526,0.024959,0.053906,-0.079438,-0.661392,0.068676,-0.746888,-0.066910,-0.037793,0.085938,-10.154572,-25.153606,21.626343,,,,,,,
,,,,,,,,,,,,,,,,25.298701,51.438350,16.868908,8.620000,283.007812,1523694767.999183,
1523694768.950586,-0.720130,-0.067678,1.680676,-0.049321,0.221554,-0.019984,-0.657972,0.067627,-0.749998,-0.019823,-0.076370,-0.030322,-10.236603,-25.678524,21.328430,,,,,,,
1523694768.980554,-0.715439,-0.070674,1.679739,-0.136442,0.141728,0.031168,-0.654310,0.070615,-0.752920,-0.086321,-0.004086,-0.027002,-9.108673,-25.158978,20.951904,,,,,,,
1523694769.010523,-0.713976,-0.073526,1.678200,-0.075339,-0.040142,0.032465,-0.653074,0.073460,-0.753721,0.035657,0.037517,-0.001390,-9.111664,-25.458965,20.953125,,,,,,,
1523694769.040491,-0.717488,-0.072731,1.677986,0.060558,-0.068587,-0.050518,-0.655755,0.072667,-0.751466,-0.030600,0.038569,0.142717,-10.155167,-25.078823,21.401001,,,,,,,
,,,,,,,,,,,,,,,,25.298730,51.438175,17.169651,11.980000,285.117188,1523694768.999171,
1523694769.070459,-0.713986,-0.069359,1.677940,0.074838,0.219569,-0.082762,-0.653276,0.069303,-0.753940,-0.045348,-0.015852,0.014361,-9.102066,-24.858410,21.550720,,,,,,,
1523694769.100428,-0.705901,-0.068881,1.675884,-0.115105,0.294087,-0.036088,-0.647180,0.068827,-0.759222,-0.055731,-0.053385,-0.091425,-10.160721,-25.454098,21.102539,,,,,,,
1523694769.130396,-0.701133,-0.072730,1.673068,-0.163365,0.068611,0.012041,-0.643377,0.072666,-0.762091,-0.066462,-0.006687,-0.104135,-9.716568,-25.906322,20.879578,,,,,,,
1523694769.160364,-0.704559,-0.074662,1.671345,-0.006551,-0.217516,-0.003533,-0.645893,0.074593,-0.759773,0.025516,0.047066,0.080696,-8.810623,-25.310390,20.877686,,,,,,,
1523694769.190332,-0.710434,-0.071634,1.672915,0.156459,-0.107129,-0.045071,-0.650490,0.071573,-0.756133,-0.035591,0.013526,0.142135,-9.487686,-25.607204,21.028503,,,,,,,
1523694769.220301,-0.707193,-0.067693,1.674157,0.076722,0.194914,-0.053960,-0.648214,0.067642,-0.758446,-0.039592,-0.057647,-0.020744,-9.556259,-25.006817,21.101074,,,,,,,
1523694769.250269,-0.702221,-0.067736,1.672758,-0.102023,0.137759,-0.021014,-0.644433,0.067685,-0.761658,-0.041313,-0.065197,-0.084228,-9.110321,-25.234127,20.802185,,,,,,,
1523694769.280237,-0.701079,-0.071880,1.669630,-0.185157,-0.018540,0.021705,-0.643376,0.071818,-0.762172,-0.035991,0.008168,-0.048466,-9.117203,-25.834240,20.654541,,,,,,,
1523694769.310205,-0.705859,-0.074369,1.668169,-0.018441,-0.225074,0.017776,-0.646894,0.074300,-0.758950,-0.007266,0.024211,0.099648,-9.266144,-25.683651,20.578918,,,,,,,
1523694769.340174,-0.711749,-0.072378,1.670067,0.138897,-0.136210,0.018866,-0.651448,0.072315,-0.755237,-0.007655,-0.028400,0.168460,-9.415237,-25.682827,20.728821,,,,,,,
1523694769.370142,-0.710803,-0.069277,1.673489,0.125193,0.121064,0.004753,-0.650876,0.069221,-0.756020,-0.060809,-0.066383,0.070046,-9.484848,-25.232372,20.877014,,,,,,,
1523694769.400110,-0.704374,-0.070083,1.673999,-0.113611,0.253130,0.048118,-0.645967,0.070026,-0.760145,-0.031508,-0.112003,-0.064943,-9.417343,-25.758038,20.504150,,,,,,,
1523694769.430078,-0.698949,-0.075407,1.671321,-0.209043,0.142951,0.033249,-0.641584,0.075336,-0.763343,-0.071749,-0.065448,-0.121377,-8.669327,-25.686855,20.054199,,,,,,,
1523694769.460047,-0.700875,-0.078313,1.669785,-0.011843,-0.205847,-0.000344,-0.642910,0.078233,-0.761935,-0.042515,-0.018251,-0.023145,-9.794876,-25.831646,20.204285,,,,,,,
1523694769.490015,-0.706162,-0.075089,1.671537,0.191564,-0.123191,-0.037583,-0.647089,0.075019,-0.758713,-0.039968,-0.019324,0.098816,-9.640381,-25.606960,20.578430,,,,,,,
1523694769.519983,-0.706081,-0.070081,1.674071,0.116738,0.072629,-0.054879,-0.647263,0.070024,-0.759042,-0.071243,-0.055345,0.058435,-9.560455,-25.157253,20.651611,,,,,,,
1523694769.549951,-0.702182,-0.070006,1.673940,-0.069271,0.113965,0.025922,-0.644302,0.069949,-0.761564,-0.023636,-0.076632,-0.045367,-10.472397,-25.903896,19.904175,,,,,,,
1523694769.579920,-0.701033,-0.072996,1.673058,-0.099756,0.000249,0.039862,-0.643289,0.072932,-0.762140,-0.037650,-0.020838,-0.049521,-10.169861,-25.829952,20.204102,,,,,,,
1523694769.609888,-0.703857,-0.074533,1.672778,-0.010562,-0.137946,0.015564,-0.645365,0.074464,-0.760234,-0.028890,-0.032365,0.057811,-9.945023,-25.980740,20.429749,,,,,,,
1523694769.639856,-0.708270,-0.073130,1.673323,0.057941,-0.147399,-0.024863,-0.648781,0.073065,-0.757458,-0.002556,-0.053183,0.139232,-10.240204,-25.679119,20.728394,,,,,,,
1523694769.669825,-0.709876,-0.071588,1.674122,0.033044,0.035308,-0.006954,-0.650070,0.071527,-0.756499,-0.024735,-0.068262,0.130049,-10.689896,-25.602169,20.652832,,,,,,,
1523694769.699793,-0.705646,-0.072220,1.674158,-0.058137,0.224412,0.032207,-0.646834,0.072157,-0.759207,-0.016252,-0.067305,-0.019586,-9.570190,-25.907574,20.279663,,,,,,,
1523694769.729761,-0.701424,-0.074248,1.672970,-0.051103,0.087556,-0.001747,-0.643527,0.074180,-0.761818,-0.033520,-0.019401,-0.041679,-10.321198,-26.054119,20.354858,,,,,,,
1523694769.759729,-0.698496,-0.073235,1.671894,0.031716,0.148354,-0.064609,-0.641342,0.073170,-0.763756,-0.050873,-0.054783,-0.008583,-10.169998,-25.979733,20.429626,,,,,,,
1523694769.789696,-0.696986,-0.069858,1.671503,0.088854,0.031326,-0.065509,-0.640343,0.069802,-0.764909,-0.094474,-0.031120,-0.043059,-9.784378,-25.455563,21.327759,,,,,,,
1523694769.819664,-0.693322,-0.069066,1.670543,-0.076525,0.136441,0.004589,-0.637571,0.069011,-0.767292,-0.049379,-0.082866,-0.113674,-10.843628,-25.976467,20.654297,,,,,,,
1523694769.849632,-0.694121,-0.073101,1.670057,-0.113354,-0.096888,0.107080,-0.638001,0.073035,-0.766562,-0.022812,-0.025672,-0.008966,-10.320587,-26.128902,20.580200,,,,,,,
1523694769.879600,-0.696772,-0.076097,1.671646,0.026554,-0.107758,0.091218,-0.639887,0.076023,-0.764697,0.013834,0.002041,0.042148,-10.314758,-25.678707,20.803345,,,,,,,
1523694769.909569,-0.699785,-0.074426,1.674772,0.132698,-0.087302,0.018802,-0.642269,0.074357,-0.762862,0.012020,-0.027238,0.098967,-10.161011,-25.529018,21.177856,,,,,,,
1523694769.939537,-0.699398,-0.071873,1.677607,0.040916,0.089706,-0.037909,-0.642094,0.071811,-0.763253,-0.069637,-0.080417,0.013985,-10.156082,-25.078976,21.251038,,,,,,,
1523694769.969505,-0.695085,-0.072565,1.675396,-0.171154,0.163635,-0.049860,-0.638764,0.072501,-0.765977,-0.074447,-0.120047,-0.114120,-10.842270,-25.976254,20.879333,,,,,,,
1523694769.999472,-0.693416,-0.077815,1.671670,-0.273713,-0.023520,0.005661,-0.637232,0.077736,-0.766739,-0.083928,-0.066613,-0.103439,-10.317291,-25.978619,20.879578,,,,,,,
1523694770.029442,-0.697692,-0.083064,1.669928,-0.136919,-0.169803,0.058119,-0.640235,0.082969,-0.763683,-0.051431,-0.062751,0.028896,-9.192947,-25.908901,20.654846,,,,,,,
1523694770.059409,-0.701827,-0.084738,1.671635,0.063898,-0.103637,0.097628,-0.643297,0.084636,-0.760922,-0.035628,-0.063839,0.088727,-9.568222,-26.206753,21.105835,,,,,,,
,,,,,,,,,,,,,,,,25.298774,51.438053,17.594709,12.520000,287.929688,1523694769.999158,
1523694770.089377,-0.701852,-0.083732,1.676018,0.109495,0.045139,0.080460,-0.643370,0.083634,-0.760971,-0.005388,-0.123521,0.052796,-10.385559,-25.527935,21.252747,,,,,,,
1523694770.119345,-0.701559,-0.083350,1.678277,0.023004,-0.024390,0.023999,-0.643167,0.083254,-0.761184,0.036279,-0.104921,0.072082,-10.318192,-26.203381,21.105469,,,,,,,
1523694770.149314,-0.700551,-0.082718,1.677797,-0.005844,0.105956,-0.065664,-0.642433,0.082624,-0.761872,-0.010597,-0.016248,0.035615,-10.093643,-26.204464,21.030579,,,,,,,
1523694770.179282,-0.697589,-0.080170,1.675541,0.017886,0.090363,-0.124230,-0.640307,0.080084,-0.763930,-0.022535,-0.007910,-0.002122,-9.945602,-26.355206,20.956299,,,,,,,
1523694770.209250,-0.696111,-0.076077,1.675508,0.076442,0.047739,-0.128403,-0.639383,0.076004,-0.765120,-0.056967,-0.021972,0.028792,-9.564331,-25.906628,21.254700,,,,,,,
1523694770.239218,-0.693956,-0.072631,1.675916,0.043255,0.108971,-0.059233,-0.637896,0.072567,-0.766693,-0.071668,-0.053402,-0.026535,-10.318192,-26.203381,21.105469,,,,,,,
1523694770.269187,-0.692504,-0.072862,1.677351,-0.017646,0.004139,0.062294,-0.636771,0.072798,-0.767606,-0.020196,-0.059629,-0.043628,-9.950409,-26.655483,20.657410,,,,,,,
1523694770.299155,-0.694627,-0.074802,1.679600,0.019992,-0.099504,0.128499,-0.638308,0.074732,-0.766142,0.004229,-0.013911,0.016600,-9.497879,-26.582226,20.957397,,,,,,,
1523694770.329123,-0.697731,-0.074790,1.684148,0.152550,-0.084798,0.107265,-0.640683,0.074720,-0.764158,-0.019534,-0.020170,0.027388,-9.939590,-26.204494,21.705688,,,,,,,
1523694770.359092,-0.697025,-0.072291,1.689162,0.132032,0.053639,0.069829,-0.640262,0.072228,-0.764751,-0.083112,-0.059899,-0.095829,-10.615616,-26.126751,21.404968,,,,,,,
1523694770.389060,-0.695427,-0.073720,1.690145,-0.128512,0.028939,0.050465,-0.638971,0.073654,-0.765693,-0.065771,-0.119583,-0.152779,-9.794556,-26.430584,21.256653,,,,,,,
1523694770.419029,-0.698830,-0.079230,1.687641,-0.203173,-0.204581,0.039994,-0.641303,0.079147,-0.763192,-0.054101,-0.102890,-0.036643,-10.475815,-27.102444,21.333984,,,,,,,
1523694770.448997,-0.707192,-0.083140,1.685124,-0.113691,-0.282183,0.012437,-0.647456,0.083045,-0.757562,-0.031927,-0.091147,0.087976,-10.022095,-26.729488,21.332764,,,,,,,
1523694770.478966,-0.712098,-0.083988,1.684734,0.011188,-0.044518,0.019747,-0.651118,0.083889,-0.754323,-0.031911,-0.092770,0.100484,-9.937790,-26.204189,22.005676,,,,,,,
1523694770.508934,-0.709111,-0.083695,1.685925,0.010868,0.140256,0.036611,-0.648879,0.083597,-0.756283,-0.047334,-0.082239,-0.025608,-10.693161,-26.426327,21.481140,,,,,,,
1523694770.538902,-0.708105,-0.084993,1.686319,-0.055215,-0.055196,0.050609,-0.648046,0.084891,-0.756852,-0.006220,-0.050879,-0.048293,-10.849762,-26.950848,21.258179,,,,,,,
1523694770.568870,-0.712871,-0.086349,1.687781,-0.020455,-0.201668,0.014553,-0.651570,0.086242,-0.753667,-0.011531,-0.032241,0.052343,-10.018188,-26.429363,21.481506,,,,,,,
1523694770.598839,-0.718896,-0.085039,1.691037,0.058977,-0.156938,-0.028053,-0.656173,0.084936,-0.749812,-0.013459,-0.063788,0.139872,-11.279495,-25.822414,22.753479,,,,,,,
1523694770.628807,-0.718462,-0.082541,1.691658,0.055048,0.133300,-0.047528,-0.655985,0.082447,-0.750255,-0.082327,-0.071674,0.075618,-10.971573,-25.298351,23.201538,,,,,,,
1523694770.658774,-0.711415,-0.082868,1.690271,-0.109132,0.261829,0.017219,-0.650664,0.082773,-0.754838,-0.051438,-0.120966,-0.094802,-10.067993,-25.301815,23.802002,,,,,,,
1523694770.688742,-0.709283,-0.086494,1.689148,-0.086234,-0.040407,0.074013,-0.648853,0.086386,-0.755991,-0.034603,-0.078864,-0.028265,-10.287292,-25.000378,24.250671,,,,,,,
1523694770.718711,-0.713872,-0.086490,1.690644,0.114040,-0.188307,0.031687,-0.652316,0.086382,-0.753006,0.041568,-0.028597,0.141174,-9.759018,-24.852459,24.550354,,,,,,,
1523694770.748679,-0.716861,-0.082454,1.694437,0.184506,0.014665,0.003836,-0.654788,0.082360,-0.751309,-0.002103,-0.024743,0.145596,-7.264328,-23.512646,25.596252,,,,,,,
1523694770.778629,-0.708743,-0.079211,1.696814,0.056083,0.401911,-0.014769,-0.648838,0.079128,-0.756798,-0.089626,-0.071453,-0.100959,-6.666016,-23.365856,25.070984,,,,,,,
1523694770.808597,-0.696715,-0.081310,1.695587,-0.152773,0.330781,0.050144,-0.639581,0.081221,-0.764419,-0.078864,-0.112883,-0.268830,-5.715500,-24.871700,23.502441,,,,,,,
1523694770.838566,-0.697146,-0.087037,1.694461,-0.154777,-0.293312,0.099785,-0.639601,0.086927,-0.763774,-0.017366,-0.074552,-0.064656,-4.972595,-24.951092,22.453186,,,,,,,
1523694770.868534,-0.711113,-0.089657,1.695535,0.055835,-0.511439,0.065009,-0.650055,0.089537,-0.754591,0.025696,-0.056014,0.210371,-6.185410,-25.696529,21.555481,,,,,,,
1523694770.898502,-0.719867,-0.086066,1.699846,0.253524,-0.064168,0.008227,-0.656843,0.085960,-0.749109,0.001631,-0.087303,0.232935,-7.461426,-25.616100,21.254578,,,,,,,
1523694770.928469,-0.709602,-0.081393,1.703479,0.101439,0.521809,-0.007388,-0.649374,0.081303,-0.756108,-0.057245,-0.137272,-0.088939,-8.671860,-26.211391,20.506348,,,,,,,
1523694770.958439,-0.697409,-0.083847,1.701437,-0.240601,0.227105,0.015024,-0.639977,0.083749,-0.763814,-0.091606,-0.092752,-0.254603,-9.651016,-26.582058,20.432312,,,,,,,
1523694770.988406,-0.699137,-0.091333,1.696209,-0.266254,-0.219342,0.045293,-0.640874,0.091206,-0.762206,-0.032466,-0.052998,-0.090943,-9.270325,-26.283321,20.881348,,,,,,,
1523694771.018374,-0.710979,-0.093907,1.695706,0.056155,-0.470859,0.037258,-0.649700,0.093769,-0.754383,0.008235,-0.030461,0.155659,-9.111359,-25.608669,21.253723,,,,,,,
1523694771.048343,-0.719197,-0.090884,1.699267,0.195850,-0.074638,0.005006,-0.656060,0.090759,-0.749229,0.016214,-0.043930,0.245383,-9.934677,-25.529812,21.402954,,,,,,,
,,,,,,,,,,,,,,,,25.298800,51.437892,18.094648,13.290000,287.226562,1523694770.999146,
1523694771.078311,-0.712984,-0.087142,1.703955,0.109094,0.343169,0.007713,-0.651611,0.087032,-0.753542,-0.032883,-0.080272,0.052736,-9.412231,-25.832088,21.479431,,,,,,,
1523694771.108279,-0.702113,-0.088057,1.704542,-0.102582,0.291569,0.016131,-0.643329,0.087944,-0.760519,-0.074551,-0.061088,-0.224161,-8.064545,-25.838528,21.105103,,,,,,,
1523694771.138247,-0.702761,-0.091429,1.702639,-0.076158,-0.225024,0.030522,-0.643627,0.091301,-0.759872,-0.003148,-0.090798,-0.046158,-8.820953,-26.210567,20.656250,,,,,,,
1523694771.168216,-0.713099,-0.089508,1.704671,0.187047,-0.373151,-0.001105,-0.651561,0.089389,-0.753309,-0.021245,-0.073413,0.166059,-9.798019,-26.281399,20.431030,,,,,,,
1523694771.198184,-0.718871,-0.085078,1.708881,0.181025,-0.012112,0.034764,-0.656152,0.084976,-0.749826,-0.045630,-0.092117,0.109232,-10.327637,-26.429546,19.906372,,,,,,,
1523694771.228153,-0.709666,-0.085805,1.711672,-0.093841,0.452365,0.116133,-0.649182,0.085699,-0.755787,-0.111987,-0.104773,-0.165249,-10.702179,-26.427776,19.981140,,,,,,,
1523694771.258121,-0.701305,-0.093204,1.710845,-0.236908,0.004151,0.137787,-0.642414,0.093069,-0.760683,-0.016430,-0.115209,-0.202833,-10.246353,-25.979610,20.204651,,,,,,,
1523694771.288090,-0.711533,-0.096779,1.710980,0.049804,-0.466562,0.031928,-0.649939,0.096628,-0.753816,0.047720,-0.110940,0.121904,-10.989120,-25.750439,21.028320,,,,,,,
1523694771.318058,-0.719581,-0.092381,1.716551,0.257104,-0.037268,-0.040811,-0.656258,0.092250,-0.748874,0.016670,-0.095485,0.152057,-10.918915,-26.051052,20.729553,,,,,,,
1523694771.348026,-0.712855,-0.087306,1.719874,0.065345,0.290510,-0.043415,-0.651504,0.087195,-0.753615,-0.040467,-0.114051,-0.071000,-9.798157,-26.431179,20.656616,,,,,,,
1523694771.377994,-0.707030,-0.090368,1.717005,-0.269956,0.113429,0.020455,-0.646927,0.090245,-0.757190,-0.089981,-0.071263,-0.166577,-10.320435,-26.428371,21.106384,,,,,,,
1523694771.407963,-0.708519,-0.097517,1.712501,-0.226555,-0.165317,0.054859,-0.647617,0.097362,-0.755717,-0.094098,-0.078808,-0.138738,-10.470734,-26.502621,21.181580,,,,,,,
1523694771.437931,-0.718158,-0.100656,1.712847,0.048789,-0.381953,0.091498,-0.654667,0.100487,-0.749206,-0.004162,-0.115333,0.088515,-11.366348,-25.973751,21.028992,,,,,,,
1523694771.467899,-0.727491,-0.098940,1.718309,0.214835,-0.253847,0.097896,-0.661744,0.098778,-0.743191,0.032243,-0.122506,0.229214,-10.925369,-26.651104,20.656921,,,,,,,
1523694771.497867,-0.728882,-0.095525,1.724566,0.195375,0.122628,0.060209,-0.662998,0.095380,-0.742517,-0.003292,-0.097516,0.153543,-10.624329,-26.727154,20.957458,,,,,,,
1523694771.527836,-0.717107,-0.094155,1.728180,-0.039593,0.476624,-0.028763,-0.654295,0.094016,-0.750370,-0.046679,-0.099173,-0.106259,-10.317429,-26.353008,21.481079,,,,,,,
1523694771.557804,-0.706374,-0.095537,1.725291,-0.159896,0.223519,-0.108512,-0.646118,0.095392,-0.757250,-0.087280,-0.055780,-0.194181,-11.366943,-26.123592,21.179626,,,,,,,
1523694771.587772,-0.707331,-0.095206,1.723153,-0.025920,-0.146525,-0.118699,-0.646863,0.095063,-0.756655,-0.037920,-0.041184,-0.083036,-10.927002,-26.950863,20.883179,,,,,,,
1523694771.617741,-0.713803,-0.092484,1.724355,0.109805,-0.231547,-0.013027,-0.651914,0.092352,-0.752646,0.002103,-0.020972,0.068533,-10.176880,-27.029095,21.033813,,,,,,,
1523694771.647709,-0.719006,-0.091267,1.730166,0.082002,-0.125946,0.089147,-0.655895,0.091140,-0.749327,-0.001271,-0.003570,0.150740,-10.770706,-26.725903,21.557312,,,,,,,
1523694771.677676,-0.716778,-0.091462,1.735483,0.096335,0.229895,0.103712,-0.654212,0.091334,-0.750773,-0.066598,-0.058360,-0.003499,-10.917252,-26.649792,22.006958,,,,,,,
1523694771.707644,-0.707584,-0.090878,1.741159,0.078361,0.228085,0.066400,-0.647316,0.090753,-0.756797,-0.095635,-0.123270,-0.262673,-10.621323,-26.651791,21.332153,,,,,,,
1523694771.737613,-0.709735,-0.091337,1.743038,-0.018811,-0.266776,0.054051,-0.648915,0.091210,-0.755371,-0.052852,-0.138039,-0.137909,-11.596420,-26.797176,21.557190,,,,,,,
1523694771.767596,-0.720612,-0.093332,1.743619,-0.023643,-0.385805,0.058428,-0.656971,0.093197,-0.748130,0.002903,-0.084865,0.080772,-11.070251,-26.724483,21.632202,,,,,,,
1523694771.797564,-0.730512,-0.094434,1.745031,0.018580,-0.253120,0.062593,-0.664277,0.094294,-0.741512,0.021164,-0.095682,0.194683,-10.462326,-25.977139,21.704529,,,,,,,
1523694771.827532,-0.731414,-0.094494,1.747358,0.073730,0.136790,0.055830,-0.664941,0.094353,-0.740909,-0.014304,-0.150597,0.148532,-11.061844,-26.198986,22.155029,,,,,,,
1523694771.857501,-0.721226,-0.094690,1.749370,-0.019907,0.436701,0.051204,-0.657347,0.094549,-0.747630,-0.076876,-0.179678,-0.079732,-11.373978,-27.098110,21.633545,,,,,,,
1523694771.887469,-0.711225,-0.097921,1.748754,-0.136573,0.151062,0.064189,-0.649634,0.097765,-0.753932,-0.083277,-0.166872,-0.198369,-10.243790,-26.353573,21.256104,,,,,,,
1523694771.917437,-0.717061,-0.102467,1.747351,-0.109957,-0.349451,0.057259,-0.653724,0.102288,-0.749785,-0.017236,-0.110024,0.070006,-11.737427,-26.121181,21.929443,,,,,,,
1523694771.947405,-0.726084,-0.102491,1.748626,0.132088,-0.231817,0.015769,-0.660461,0.102312,-0.743854,0.014129,-0.078478,0.183872,-11.508392,-25.672283,21.852722,,,,,,,
1523694771.977374,-0.727763,-0.098345,1.752554,0.203957,0.065631,0.002732,-0.661985,0.098187,-0.743055,0.021848,-0.075406,0.112714,-10.617416,-26.351665,21.480896,,,,,,,
1523694772.007342,-0.722860,-0.094326,1.756286,0.142465,0.174084,0.014302,-0.658590,0.094186,-0.746581,-0.007990,-0.032555,-0.021271,-11.443893,-26.497952,21.481079,,,,,,,
1523694772.037310,-0.717839,-0.094221,1.758323,-0.037200,0.127706,0.026986,-0.654840,0.094081,-0.749886,-0.010352,-0.071758,-0.069160,-10.835815,-25.825451,21.703735,,,,,,,
,,,,,,,,,,,,,,,,25.298840,51.437750,18.467464,13.880000,285.468750,1523694771.999133,
1523694772.067278,-0.718095,-0.094753,1.759995,0.047303,-0.089226,0.017690,-0.654999,0.094611,-0.749681,-0.008240,-0.117041,0.015122,-10.758865,-25.900356,22.153992,,,,,,,
1523694772.097247,-0.721227,-0.092917,1.763250,0.111309,-0.108455,0.010294,-0.657457,0.092784,-0.747755,-0.044264,-0.107066,0.048902,-11.661835,-25.971661,21.778870,,,,,,,
1523694772.127215,-0.722209,-0.090598,1.769317,0.098767,0.019718,0.070898,-0.658331,0.090474,-0.747268,-0.026270,-0.152486,0.035064,-11.068146,-26.649258,21.856873,,,,,,,
1523694772.157183,-0.720353,-0.092280,1.772217,-0.078537,0.053893,0.111211,-0.656842,0.092149,-0.748373,-0.031757,-0.130693,0.008306,-10.389130,-26.202389,21.780396,,,,,,,
1523694772.187151,-0.720203,-0.094822,1.774144,-0.029402,-0.002197,0.060165,-0.656573,0.094680,-0.748293,-0.009992,-0.109267,-0.005247,-11.281448,-25.747860,22.303162,,,,,,,
1523694772.217120,-0.717774,-0.094172,1.775475,0.050436,0.139208,0.021717,-0.654793,0.094033,-0.749932,-0.035499,-0.125176,-0.067390,-11.583969,-26.046413,22.379211,,,,,,,
1523694772.247088,-0.715654,-0.093159,1.775893,-0.021626,-0.017680,-0.009065,-0.653264,0.093024,-0.751390,-0.046138,-0.108435,-0.093520,-11.214691,-26.348522,21.930603,,,,,,,
1523694772.277056,-0.719249,-0.094193,1.774402,-0.078828,-0.146143,-0.003657,-0.655898,0.094053,-0.748964,0.013869,-0.063749,0.072526,-11.063049,-26.274059,22.080383,,,,,,,
1523694772.307025,-0.722987,-0.094547,1.774100,0.022603,-0.115771,0.023029,-0.658670,0.094407,-0.746481,0.002665,-0.067658,0.133353,-10.757370,-25.750362,22.153442,,,,,,,
1523694772.336993,-0.723521,-0.092774,1.776420,0.122621,0.051851,0.027190,-0.659179,0.092641,-0.746254,-0.003221,-0.078053,0.078865,-10.679367,-25.675335,22.528137,,,,,,,
1523694772.366961,-0.720885,-0.090897,1.781583,0.056645,0.099805,0.029235,-0.657323,0.090772,-0.748118,-0.045711,-0.100110,-0.015752,-11.062592,-26.273983,22.155334,,,,,,,
1523694772.396929,-0.719286,-0.091780,1.783417,-0.046332,0.013899,0.044151,-0.656073,0.091651,-0.749108,-0.065943,-0.099036,-0.056617,-10.690308,-26.276104,21.705627,,,,,,,
1523694772.426898,-0.720461,-0.092717,1.783951,0.012171,-0.074217,0.011256,-0.656895,0.092584,-0.748272,-0.051906,-0.100656,-0.025776,-9.643204,-26.431042,21.481689,,,,,,,
1523694772.456866,-0.723591,-0.089873,1.785937,0.144646,-0.071249,-0.003571,-0.659406,0.089752,-0.746406,-0.055011,-0.083648,0.010780,-11.514694,-25.897930,21.178650,,,,,,,
1523694772.486834,-0.722473,-0.087046,1.788329,0.069403,0.073298,0.016484,-0.658736,0.086936,-0.747330,-0.066285,-0.101889,-0.070205,-12.645782,-26.417980,21.030151,,,,,,,
1523694772.516802,-0.721857,-0.088093,1.789186,-0.056399,-0.059582,0.069795,-0.658215,0.087979,-0.747667,-0.038486,-0.096555,-0.063872,-12.197891,-26.944469,21.557495,,,,,,,
1523694772.546771,-0.725851,-0.090979,1.789953,-0.030226,-0.159621,0.082701,-0.661025,0.090853,-0.744839,-0.012208,-0.080584,0.042797,-12.495941,-26.793056,21.631775,,,,,,,
1523694772.576739,-0.729249,-0.091557,1.792116,0.052579,-0.051299,0.062408,-0.663517,0.091429,-0.742549,-0.034908,-0.105406,0.082484,-12.040710,-26.494732,22.005798,,,,,,,
1523694772.606707,-0.727644,-0.091094,1.794162,0.028762,0.084937,0.038814,-0.662352,0.090969,-0.743644,-0.057130,-0.147579,-0.016762,-12.789017,-26.416210,22.155090,,,,,,,
1523694772.636675,-0.726106,-0.091729,1.794525,-0.029231,-0.011454,0.017546,-0.661169,0.091601,-0.744619,-0.031549,-0.183703,-0.036036,-12.716415,-26.791317,22.381653,,,,,,,
1523694772.666644,-0.729629,-0.091097,1.794718,0.031237,-0.120961,0.001734,-0.663827,0.090971,-0.742328,-0.003578,-0.101317,0.088749,-11.590424,-26.421841,21.930725,,,,,,,
1523694772.696612,-0.730026,-0.088923,1.796053,0.076981,0.089277,0.009010,-0.664251,0.088806,-0.742211,-0.021952,-0.069992,0.040840,-12.709671,-26.116344,22.378967,,,,,,,
1523694772.726580,-0.724899,-0.087820,1.796720,-0.035730,0.198961,0.015210,-0.660502,0.087707,-0.745679,-0.051626,-0.042755,-0.061419,-12.638275,-26.341900,22.154846,,,,,,,
1523694772.756548,-0.721094,-0.088863,1.795097,-0.072366,0.075025,-0.027313,-0.657599,0.088746,-0.748118,-0.027276,-0.031648,-0.095281,-11.146729,-27.098751,22.008667,,,,,,,
1523694772.786511,-0.722977,-0.088470,1.793895,0.019460,-0.160053,-0.025940,-0.659030,0.088355,-0.746904,0.018954,-0.010779,-0.018415,-11.590881,-26.646526,22.231567,,,,,,,
1523694772.816479,-0.728178,-0.086699,1.795034,0.081421,-0.113697,0.008161,-0.663009,0.086591,-0.743582,-0.000428,-0.032864,0.117590,-11.736359,-26.420498,22.605591,,,,,,,
1523694772.846447,-0.724547,-0.085721,1.797321,0.048549,0.234561,0.059993,-0.660360,0.085616,-0.746048,-0.054682,-0.103865,0.040619,-11.287582,-26.272976,22.155212,,,,,,,
1523694772.876416,-0.716417,-0.086552,1.799242,0.012202,0.232510,0.064219,-0.654227,0.086444,-0.751338,-0.042383,-0.142612,-0.087697,-12.046677,-27.319332,22.384094,,,,,,,
1523694772.906384,-0.715591,-0.087772,1.800026,-0.037323,-0.128476,0.037914,-0.653536,0.087660,-0.751798,-0.013807,-0.091230,-0.062426,-11.821548,-27.170574,22.158569,,,,,,,
1523694772.936352,-0.721570,-0.087618,1.800671,0.037587,-0.140043,-0.005707,-0.658028,0.087506,-0.747887,0.011849,-0.080991,0.076653,-10.990601,-26.574306,22.156616,,,,,,,
1523694772.966320,-0.721530,-0.085439,1.803269,0.094966,0.078449,0.031410,-0.658122,0.085335,-0.748055,-0.031041,-0.115487,0.047326,-12.493835,-26.942471,22.232300,,,,,,,
1523694772.996289,-0.717880,-0.084840,1.804798,-0.009586,0.102037,0.037707,-0.655421,0.084739,-0.750490,-0.052357,-0.135291,-0.021955,-12.425568,-27.393154,21.859192,,,,,,,
1523694773.026257,-0.716146,-0.086534,1.804691,-0.071770,0.057502,0.047289,-0.654024,0.086426,-0.751516,-0.058363,-0.107971,-0.038324,-11.668427,-26.721478,21.931885,,,,,,,
1523694773.056225,-0.715472,-0.087633,1.804893,0.009025,-0.022382,0.045299,-0.653455,0.087521,-0.751885,-0.007983,-0.076657,-0.032829,-12.865814,-26.865414,22.606812,,,,,,,
,,,,,,,,,,,,,,,,25.298872,51.437603,18.731467,15.100000,283.359375,1523694772.999120,
1523694773.086193,-0.718492,-0.085497,1.806875,0.117788,-0.118944,-0.012064,-0.655844,0.085393,-0.750047,0.004614,-0.031255,0.081727,-13.314896,-26.638622,22.380737,,,,,,,
1523694773.116162,-0.718812,-0.081529,1.808399,0.116739,0.080022,-0.048493,-0.656302,0.081438,-0.750086,-0.024912,-0.056490,0.018504,-12.421982,-26.943310,21.707397,,,,,,,
1523694773.146130,-0.714400,-0.079231,1.808806,-0.001618,0.139651,-0.025193,-0.653107,0.079148,-0.753114,-0.041535,-0.061875,-0.056792,-12.719559,-27.241070,22.608398,,,,,,,
1523694773.176098,-0.714023,-0.080012,1.807866,-0.051940,-0.079434,0.018681,-0.652782,0.079926,-0.753313,-0.025486,-0.055253,0.006212,-12.638718,-26.791210,22.831665,,,,,,,
1523694773.206066,-0.715211,-0.081117,1.808234,0.007209,0.058309,0.054811,-0.653618,0.081028,-0.752470,-0.039451,-0.058399,-0.039415,-12.634964,-26.416241,22.830200,,,,,,,
1523694773.236035,-0.713488,-0.082292,1.810281,-0.025171,-0.013896,0.059120,-0.652258,0.082200,-0.753522,-0.055917,-0.080384,-0.057406,-13.096497,-27.164837,22.157898,,,,,,,
1523694773.266003,-0.715239,-0.083412,1.812401,-0.005018,-0.062719,0.043204,-0.653516,0.083316,-0.752309,-0.009326,-0.064349,0.005117,-13.393631,-27.013271,22.382202,,,,,,,
1523694773.295971,-0.716752,-0.083048,1.814271,0.064586,-0.062614,0.003831,-0.654673,0.082952,-0.751342,-0.027990,-0.054632,0.004974,-12.487671,-26.866604,23.132080,,,,,,,
1523694773.325939,-0.719777,-0.080338,1.815983,0.107111,-0.133716,-0.023774,-0.657089,0.080252,-0.749525,0.000869,-0.048544,0.017790,-13.080002,-26.188778,23.278992,,,,,,,
1523694773.355908,-0.722866,-0.077707,1.817022,0.056222,-0.066558,-0.035604,-0.659538,0.077629,-0.747648,-0.027153,-0.038277,0.042096,-12.942307,-27.015072,22.607422,,,,,,,
1523694773.385876,-0.723178,-0.076519,1.816908,0.015727,-0.019906,-0.007969,-0.659832,0.076445,-0.747510,-0.011250,-0.063429,0.031247,-11.968246,-27.019604,22.457947,,,,,,,
1523694773.415844,-0.724585,-0.076193,1.817928,0.032494,-0.047867,0.031508,-0.660900,0.076119,-0.746599,-0.016514,-0.070001,0.090212,-12.632721,-26.640499,23.581116,,,,,,,
1523694773.445812,-0.724472,-0.076022,1.819549,0.032903,0.057252,0.043120,-0.660824,0.075948,-0.746684,-0.033177,-0.096838,0.042598,-13.003220,-25.964214,23.203186,,,,,,,
1523694773.475781,-0.720885,-0.076833,1.821120,-0.020343,0.126249,0.073902,-0.658100,0.076757,-0.749003,-0.029140,-0.092352,-0.048604,-12.711929,-26.565960,22.755737,,,,,,,
1523694773.505749,-0.719361,-0.078863,1.821966,-0.043216,0.019016,0.068668,-0.656854,0.078781,-0.749887,-0.013373,-0.068832,-0.040976,-13.162201,-26.638866,22.830811,,,,,,,
1523694773.535717,-0.720932,-0.079367,1.822941,0.029264,-0.053157,0.030439,-0.658005,0.079284,-0.748824,0.016388,-0.068877,0.048567,-13.011902,-26.789242,23.131470,,,,,,,
1523694773.565686,-0.719010,-0.078260,1.826140,0.032370,0.142489,0.012126,-0.656622,0.078180,-0.750152,-0.004556,-0.057245,0.030166,-13.676376,-25.960873,23.502808,,,,,,,
1523694773.595654,-0.713318,-0.079925,1.826488,-0.168113,0.220412,0.033207,-0.652255,0.079840,-0.753779,-0.014310,-0.078146,-0.067449,-13.458130,-26.412228,23.129761,,,,,,,
1523694773.625622,-0.707181,-0.085912,1.825101,-0.260165,0.177032,0.039573,-0.647295,0.085806,-0.757390,-0.025617,-0.108755,-0.089869,-12.263290,-26.792828,22.906860,,,,,,,
1523694773.655590,-0.707754,-0.091079,1.822898,-0.153577,-0.131196,0.012258,-0.647432,0.090953,-0.756672,-0.033797,-0.068477,-0.000118,-12.184402,-26.493038,23.055725,,,,,,,
1523694773.685559,-0.712163,-0.090992,1.824860,0.078328,-0.129404,-0.024851,-0.650767,0.090866,-0.753816,-0.037084,-0.068192,0.068712,-13.077759,-25.963802,23.278137,,,,,,,
1523694773.715527,-0.711302,-0.088298,1.827979,0.066511,0.126510,0.004714,-0.650275,0.088183,-0.754558,-0.066232,-0.051822,-0.029438,-13.161163,-26.488949,22.755188,,,,,,,
1523694773.745495,-0.707174,-0.087607,1.830989,0.002362,0.107558,0.003614,-0.647194,0.087495,-0.757283,-0.059059,-0.047166,-0.119396,-12.260590,-26.567776,22.980957,,,,,,,
1523694773.775439,-0.708475,-0.087636,1.832623,0.025717,-0.148649,0.012412,-0.648177,0.087524,-0.756438,-0.015931,-0.019988,-0.091844,-12.108047,-26.493160,23.280701,,,,,,,
1523694773.805408,-0.714030,-0.084643,1.835558,0.187076,-0.181616,-0.041772,-0.652537,0.084542,-0.753020,-0.006200,0.013725,0.037139,-12.254425,-26.267269,23.504761,,,,,,,
1523694773.835376,-0.716550,-0.078543,1.841342,0.193275,0.003289,-0.046212,-0.654760,0.078462,-0.751748,-0.021144,-0.031572,0.037454,-12.563278,-26.791485,22.906677,,,,,,,
1523694773.865344,-0.713517,-0.076701,1.843607,-0.007467,0.071367,0.015367,-0.652570,0.076626,-0.753839,-0.007708,-0.069362,-0.031058,-12.489624,-27.016659,23.057617,,,,,,,
1523694773.895312,-0.714471,-0.079244,1.845304,-0.117035,-0.061276,0.028205,-0.653159,0.079161,-0.753066,-0.036737,-0.036101,0.023024,-11.960602,-26.569118,22.981079,,,,,,,
1523694773.925281,-0.716982,-0.082070,1.844596,-0.095643,-0.072913,0.012256,-0.654898,0.081978,-0.751252,-0.012384,-0.046364,0.082596,-12.856369,-26.190014,23.054138,,,,,,,
1523694773.955249,-0.717655,-0.083709,1.845781,-0.072773,0.027984,0.012166,-0.655314,0.083611,-0.750709,-0.036962,-0.071663,0.091666,-12.792755,-27.015820,22.532471,,,,,,,
1523694773.985217,-0.713495,-0.086294,1.846662,-0.082044,0.189039,0.083376,-0.652042,0.086187,-0.753262,-0.028454,-0.116933,-0.026111,-12.118240,-27.018932,22.457886,,,,,,,
1523694774.015185,-0.710264,-0.089032,1.849293,-0.043976,0.060627,0.045182,-0.649449,0.088915,-0.755183,-0.032238,-0.081148,-0.042089,-12.712967,-26.715878,22.831360,,,,,,,
1523694774.045154,-0.711285,-0.087457,1.851681,0.138455,-0.055186,-0.023809,-0.650310,0.087346,-0.754625,-0.018742,-0.060566,0.030778,-12.931656,-26.264599,23.129395,,,,,,,
,,,,,,,,,,,,,,,,25.298912,51.437421,19.020040,15.280000,282.656250,1523694773.999108,
1523694774.075122,-0.711021,-0.083332,1.856304,0.116468,0.061653,-0.007967,-0.650340,0.083235,-0.755063,-0.010625,-0.041075,-0.003756,-12.414627,-26.792370,22.681763,,,,,,,
1523694774.105090,-0.708451,-0.080848,1.860064,0.108818,0.079419,0.038883,-0.648529,0.080760,-0.756887,0.009491,-0.045634,-0.035853,-13.012955,-26.714535,22.831177,,,,,,,
1523694774.135058,-0.708049,-0.080171,1.861853,0.005936,-0.037039,0.013356,-0.648261,0.080086,-0.757189,0.001898,-0.016502,0.017153,-12.785873,-26.640331,23.055969,,,,,,,
1523694774.165027,-0.707644,-0.079936,1.861278,-0.011559,0.057871,-0.029370,-0.647966,0.079851,-0.757465,-0.011397,-0.034425,0.013279,-12.259094,-26.193157,22.604431,,,,,,,
1523694774.194995,-0.707208,-0.079791,1.859280,-0.065254,-0.037462,-0.052758,-0.647644,0.079706,-0.757756,-0.050492,-0.072214,-0.050257,-12.788269,-26.565838,22.530640,,,,,,,
1523694774.224963,-0.711364,-0.079645,1.857996,0.023512,-0.197334,-0.015240,-0.650794,0.079561,-0.755067,-0.018517,-0.047746,0.009386,-12.792450,-27.165524,22.833130,,,,,,,
1523694774.254932,-0.717977,-0.077459,1.859055,0.100370,-0.207066,-0.019430,-0.655887,0.077381,-0.750876,0.015979,-0.022908,0.097067,-11.592651,-27.096081,22.683411,,,,,,,
1523694774.284900,-0.721096,-0.073826,1.861843,0.120482,-0.035871,-0.043029,-0.658406,0.073759,-0.749033,0.005238,-0.004087,0.112345,-12.711761,-26.865444,23.281921,,,,,,,
1523694774.314868,-0.717196,-0.071185,1.863142,-0.000996,0.240760,-0.051913,-0.655606,0.071125,-0.751739,-0.016239,0.003918,-0.024689,-12.866699,-27.090191,22.832764,,,,,,,
1523694774.344836,-0.710895,-0.072157,1.862667,-0.111402,0.161285,-0.041276,-0.650811,0.072094,-0.755803,-0.018837,-0.007122,-0.094127,-12.265533,-27.017818,22.907715,,,,,,,
1523694774.374805,-0.710014,-0.073160,1.861044,-0.050243,-0.022633,-0.051695,-0.650097,0.073095,-0.756320,-0.007862,0.015055,-0.023801,-12.641861,-27.240978,23.058472,,,,,,,
1523694774.404773,-0.711433,-0.072039,1.861363,0.003347,-0.010878,-0.080434,-0.651223,0.071976,-0.755458,-0.033073,-0.000504,0.030040,-12.411621,-26.941631,23.432373,,,,,,,
1523694774.434741,-0.709606,-0.072036,1.861621,-0.018814,0.121559,-0.016655,-0.649841,0.071974,-0.756647,-0.014557,0.003847,0.022898,-12.495010,-27.466793,22.909424,,,,,,,
1523694774.464709,-0.705601,-0.072581,1.863362,-0.057538,0.096988,0.016369,-0.646780,0.072517,-0.759214,-0.011698,-0.016395,-0.109301,-12.870285,-27.540020,22.984558,,,,,,,
1523694774.494678,-0.706870,-0.076016,1.862646,-0.144841,-0.088730,0.013295,-0.647578,0.075943,-0.758198,-0.050893,0.029999,-0.021175,-12.718033,-27.540325,23.359619,,,,,,,
1523694774.524646,-0.709402,-0.078149,1.862199,-0.035696,-0.043293,0.009079,-0.649388,0.078069,-0.756431,-0.007563,0.000437,0.007911,-12.038284,-27.018475,23.282837,,,,,,,
1523694774.554614,-0.708936,-0.079154,1.864199,-0.046181,0.010886,0.016466,-0.648984,0.079072,-0.756673,-0.035952,-0.031495,-0.010172,-12.649475,-28.140713,23.287048,,,,,,,
1523694774.584582,-0.710071,-0.079690,1.865233,0.016502,-0.082657,-0.002564,-0.649814,0.079605,-0.755905,0.002521,-0.037384,0.020492,-11.900711,-28.219158,23.212769,,,,,,,
1523694774.614551,-0.711472,-0.078452,1.866602,0.012858,-0.007901,-0.055910,-0.650937,0.078372,-0.755067,0.038480,0.005674,0.073182,-11.293381,-27.846294,23.811584,,,,,,,
1523694774.644519,-0.710657,-0.076817,1.866589,0.006886,0.086742,-0.061353,-0.650404,0.076742,-0.755694,-0.030840,0.030710,0.046374,-11.670319,-27.770046,23.361023,,,,,,,
1523694774.674487,-0.706355,-0.076674,1.866230,-0.063318,0.190766,-0.021017,-0.647154,0.076599,-0.758493,-0.021837,0.002121,-0.070242,-10.855865,-28.149837,22.237976,,,,,,,
1523694774.704455,-0.703636,-0.077543,1.865461,-0.001269,0.001347,-0.003731,-0.645046,0.077465,-0.760199,-0.043476,-0.010006,-0.129358,-10.931305,-28.149563,22.162903,,,,,,,
1523694774.734424,-0.707762,-0.076818,1.865565,0.027755,-0.209006,-0.019485,-0.648213,0.076742,-0.757574,0.004292,0.021356,0.010122,-11.374390,-27.772060,22.686218,,,,,,,
1523694774.764392,-0.714115,-0.074691,1.866594,0.106987,-0.157152,-0.017346,-0.653119,0.074622,-0.753562,-0.002964,0.032022,0.094687,-12.356857,-28.068386,21.936890,,,,,,,
1523694774.794355,-0.713551,-0.072785,1.867681,0.023833,0.130883,0.002546,-0.652785,0.072721,-0.754036,-0.002381,-0.001478,-0.000801,-12.058502,-28.369503,22.163269,,,,,,,
1523694774.824324,-0.711622,-0.073541,1.868545,0.002469,-0.059573,0.045345,-0.651294,0.073475,-0.755252,-0.017881,-0.029896,-0.013257,-12.061661,-28.370007,21.638306,,,,,,,
1523694774.854292,-0.715389,-0.074665,1.868659,-0.035915,-0.094271,0.005930,-0.654079,0.074595,-0.752730,-0.007115,-0.022120,0.049605,-11.835770,-28.370876,21.788330,,,,,,,
1523694774.884260,-0.716798,-0.074768,1.868435,0.011516,-0.014577,-0.011161,-0.655134,0.074698,-0.751802,-0.051790,-0.041159,0.036226,-12.657013,-27.542934,21.034607,,,,,,,
1523694774.914228,-0.715823,-0.075115,1.868588,-0.034380,0.056346,0.045199,-0.654384,0.075044,-0.752421,-0.027928,-0.064455,-0.023244,-12.665558,-27.993572,20.361450,,,,,,,
1523694774.944197,-0.715289,-0.077482,1.869134,-0.056138,0.009408,0.080385,-0.653864,0.077405,-0.752634,-0.055258,-0.057644,-0.008932,-12.291046,-27.546078,19.534851,,,,,,,
1523694774.974165,-0.715438,-0.079572,1.869918,-0.016615,-0.001266,0.070849,-0.653869,0.079488,-0.752413,-0.016892,-0.076284,-0.000288,-13.252075,-26.416302,19.979858,,,,,,,
1523694775.004133,-0.715099,-0.080673,1.871443,-0.013217,0.048634,0.076127,-0.653556,0.080586,-0.752568,-0.027978,-0.058247,-0.006237,-14.976089,-26.408398,20.128967,,,,,,,
1523694775.034101,-0.712217,-0.082066,1.872392,0.000029,0.101994,0.038788,-0.651310,0.081974,-0.754362,-0.027507,-0.045780,-0.080263,-15.570084,-26.030361,20.502136,,,,,,,
,,,,,,,,,,,,,,,,25.298960,51.437219,19.320153,16.090000,283.359375,1523694774.999095,
1523694775.064070,-0.712000,-0.080722,1.873806,0.093371,-0.088143,-0.005695,-0.651217,0.080635,-0.754587,0.040332,-0.032432,-0.015951,-15.552826,-25.653179,22.750671,,,,,,,
1523694775.094038,-0.715033,-0.077539,1.875297,0.108512,-0.085821,-0.039779,-0.653668,0.077461,-0.752798,0.044049,0.007561,0.077505,-15.098480,-25.804256,23.726501,,,,,,,
1523694775.124006,-0.713626,-0.075297,1.875104,-0.031244,0.174892,-0.042284,-0.652720,0.075226,-0.753847,-0.037419,-0.012497,0.003908,-14.436691,-26.857677,23.281006,,,,,,,
1523694775.153974,-0.706140,-0.078474,1.872107,-0.176603,0.239478,0.042784,-0.646901,0.078393,-0.758526,-0.013683,-0.078897,-0.110554,-14.286392,-27.008053,23.581726,,,,,,,
1523694775.183943,-0.705810,-0.082528,1.870596,-0.092903,-0.158045,0.028329,-0.646439,0.082434,-0.758491,-0.073730,-0.029364,-0.015389,-14.211227,-27.083248,23.732056,,,,,,,
1523694775.213911,-0.712889,-0.080446,1.870897,0.184918,-0.215470,-0.064106,-0.651903,0.080360,-0.754024,-0.008177,-0.041434,0.073452,-12.932846,-26.788921,23.806519,,,,,,,
1523694775.243879,-0.715165,-0.073151,1.874362,0.216831,0.014930,-0.048335,-0.653984,0.073085,-0.752961,-0.014351,-0.036556,0.003694,-14.283539,-26.857845,23.806091,,,,,,,
1523694775.273847,-0.714086,-0.072117,1.875539,-0.068741,0.000161,0.036716,-0.653221,0.072054,-0.753723,-0.012795,0.017682,-0.083771,-13.392563,-27.537228,23.434265,,,,,,,
1523694775.303816,-0.717855,-0.075765,1.873530,-0.134452,-0.165227,0.005934,-0.655879,0.075693,-0.751053,-0.023534,0.021185,-0.034531,-12.867599,-27.314953,23.058655,,,,,,,
1523694775.333784,-0.721791,-0.076407,1.873037,0.058113,-0.076446,0.007045,-0.658798,0.076332,-0.748428,0.031677,-0.029320,-0.003494,-13.681931,-26.560772,23.580261,,,,,,,
1523694775.363752,-0.720912,-0.074450,1.875128,0.085287,0.018109,-0.001546,-0.658237,0.074381,-0.749118,-0.026394,-0.041010,-0.012936,-13.538681,-27.011791,23.207092,,,,,,,
1523694775.393720,-0.720786,-0.073401,1.875932,0.011493,-0.001966,0.006952,-0.658194,0.073335,-0.749259,-0.022989,-0.066515,-0.029153,-12.117325,-27.243420,22.983704,,,,,,,
1523694775.423689,-0.722028,-0.074707,1.875548,-0.087135,-0.069841,0.023990,-0.659060,0.074638,-0.748368,-0.038083,-0.048148,-0.003951,-13.011002,-26.789089,23.281433,,,,,,,
1523694775.453657,-0.724039,-0.077361,1.875812,-0.097648,-0.054788,0.003715,-0.660430,0.077284,-0.746891,0.006667,-0.056212,0.002124,-13.389893,-26.638287,22.380676,,,,,,,
1523694775.483625,-0.724853,-0.077698,1.876488,0.030683,0.009622,0.017592,-0.661020,0.077619,-0.746333,-0.007284,-0.049253,-0.002522,-11.892807,-26.795254,22.157043,,,,,,,
1523694775.513594,-0.723536,-0.076941,1.877514,0.022216,0.014986,0.011199,-0.660076,0.076865,-0.747247,0.006862,-0.051596,-0.029090,-12.046844,-27.244473,22.233765,,,,,,,
1523694775.543562,-0.723951,-0.077889,1.876425,-0.104812,-0.004702,-0.013393,-0.660337,0.077810,-0.746918,0.018034,-0.031545,0.053833,-12.043686,-27.019344,22.382874,,,,,,,
1523694775.573530,-0.723021,-0.079744,1.873974,-0.095868,0.087660,-0.007072,-0.659546,0.079659,-0.747422,-0.006638,-0.026391,0.041779,-11.821869,-26.796246,21.482056,,,,,,,
1523694775.603498,-0.719226,-0.081308,1.872055,-0.079637,0.136516,-0.008182,-0.656622,0.081218,-0.749825,-0.045893,-0.024837,-0.069663,-12.519760,-28.144665,19.912109,,,,,,,
1523694775.633467,-0.717805,-0.082276,1.871633,-0.001616,-0.029756,0.036793,-0.655503,0.082183,-0.750698,-0.024429,-0.034301,-0.061375,-12.532211,-29.120068,19.466064,,,,,,,
1523694775.663435,-0.718880,-0.083935,1.872213,-0.067750,0.018015,0.066532,-0.656219,0.083836,-0.749889,-0.038071,-0.024617,-0.057072,-14.492493,-29.112972,17.739990,,,,,,,
1523694775.693403,-0.720174,-0.085666,1.871690,-0.026378,-0.132427,-0.012135,-0.657092,0.085561,-0.748929,-0.000714,-0.034322,-0.005069,-17.490433,-28.500149,17.061035,,,,,,,
1523694775.723371,-0.724462,-0.084213,1.871861,0.068908,-0.099590,-0.032335,-0.660379,0.084113,-0.746197,0.076746,-0.036170,0.140743,-19.189743,-26.915859,18.703918,,,,,,,
1523694775.753340,-0.723479,-0.080853,1.872936,0.110623,0.113075,-0.067680,-0.659829,0.080765,-0.747053,-0.004554,0.020584,0.060560,-17.823151,-26.020748,19.975952,,,,,,,
1523694775.783324,-0.717882,-0.079950,1.871796,-0.105786,0.249276,-0.015778,-0.655685,0.079865,-0.750790,-0.056214,-0.015488,-0.114643,-17.191528,-24.071575,21.993530,,,,,,,
1523694775.813291,-0.709653,-0.085749,1.868056,-0.272739,0.234375,0.046979,-0.649172,0.085644,-0.755795,-0.132078,0.004414,-0.256488,-15.987991,-24.076382,22.594116,,,,,,,
1523694775.843259,-0.714559,-0.089507,1.864307,-0.058727,-0.451050,-0.022498,-0.652656,0.089387,-0.752353,0.092674,-0.074266,0.046238,-13.287201,-24.313015,23.121460,,,,,,,
1523694775.873228,-0.731057,-0.085980,1.868089,0.281471,-0.502098,0.011918,-0.665186,0.085874,-0.741713,0.082254,0.000765,0.345137,-12.692017,-24.840618,23.198853,,,,,,,
1523694775.903196,-0.734731,-0.078658,1.873757,0.289999,0.133770,-0.051586,-0.668310,0.078577,-0.739711,0.095648,-0.024332,0.249507,-12.242920,-25.067410,23.424988,,,,,,,
1523694775.933164,-0.720189,-0.074235,1.877133,0.018796,0.651659,-0.011822,-0.657706,0.074167,-0.749605,-0.098108,-0.010828,-0.083204,-12.555191,-25.667049,22.377197,,,,,,,
1523694775.963132,-0.699599,-0.079652,1.871831,-0.368208,0.510416,-0.037543,-0.641865,0.079567,-0.762669,-0.088054,-0.054787,-0.467296,-12.637665,-26.416668,22.380188,,,,,,,
1523694775.993101,-0.703902,-0.083992,1.866147,-0.078023,-0.522958,-0.067182,-0.644911,0.083893,-0.759630,0.030165,-0.038559,-0.106627,-12.039505,-26.195034,21.704590,,,,,,,
1523694776.023069,-0.722956,-0.080034,1.865863,0.181472,-0.552061,-0.101053,-0.659482,0.079949,-0.747448,0.068646,0.059669,0.256054,-11.586823,-26.196621,22.154785,,,,,,,
1523694776.053037,-0.728794,-0.073206,1.870457,0.275686,0.067747,-0.025960,-0.664182,0.073141,-0.743975,0.028363,0.052607,0.189974,-12.641281,-26.641888,22.156067,,,,,,,
,,,,,,,,,,,,,,,,25.298995,51.437045,19.882199,16.450001,283.710938,1523694775.999082,
1523694776.083006,-0.719097,-0.070418,1.875536,0.019217,0.383185,0.086483,-0.657068,0.070360,-0.750531,0.001871,-0.027116,-0.080112,-12.343536,-26.868221,22.157104,,,,,,,
1523694776.112974,-0.712719,-0.075392,1.877080,-0.185185,0.030992,0.076021,-0.652031,0.075321,-0.754432,-0.051994,-0.049213,-0.134987,-12.637833,-26.341824,22.229858,,,,,,,
1523694776.142942,-0.717549,-0.077392,1.877003,0.026638,-0.223884,-0.020527,-0.655567,0.077314,-0.751159,0.000111,-0.042097,0.029876,-13.313858,-26.264080,21.929199,,,,,,,
1523694776.172910,-0.722704,-0.074093,1.877431,0.094729,-0.104666,-0.074933,-0.659596,0.074025,-0.747957,-0.008648,-0.019658,0.056199,-11.673233,-26.797131,21.257202,,,,,,,
1523694776.202879,-0.722843,-0.072390,1.877450,-0.005368,0.035369,-0.005895,-0.659782,0.072327,-0.747959,-0.026940,-0.037033,0.019962,-12.420776,-27.092876,22.157959,,,,,,,
1523694776.232847,-0.721788,-0.074097,1.876488,-0.098406,0.044890,0.032390,-0.658910,0.074029,-0.748560,-0.014552,-0.054101,-0.017965,-12.642029,-26.716885,22.156311,,,,,,,
1523694776.262815,-0.719427,-0.076199,1.875725,-0.036075,0.109725,0.008924,-0.657036,0.076125,-0.749995,-0.074317,-0.039413,-0.105519,-11.898376,-26.721279,21.106750,,,,,,,
1523694776.292783,-0.717493,-0.075038,1.875538,0.062992,-0.015478,-0.053735,-0.655642,0.074968,-0.751331,-0.018476,-0.036226,-0.144360,-12.350723,-27.318630,21.708923,,,,,,,
1523694776.322752,-0.722920,-0.071742,1.876742,0.076001,-0.247971,-0.088658,-0.659870,0.071681,-0.747943,0.016300,0.005345,0.041613,-12.123337,-27.394131,22.234314,,,,,,,
1523694776.352720,-0.729185,-0.069062,1.877783,0.045255,-0.152528,-0.049359,-0.664669,0.069007,-0.743934,0.057415,0.014749,0.111442,-12.646378,-27.017086,21.932556,,,,,,,
1523694776.382689,-0.725735,-0.069422,1.879859,-0.062169,0.280628,0.042832,-0.662082,0.069366,-0.746204,0.018070,-0.010727,-0.009686,-12.726608,-27.541714,21.934631,,,,,,,
1523694776.412656,-0.718917,-0.072791,1.880158,-0.093894,0.123376,0.052555,-0.656822,0.072727,-0.750521,-0.039330,-0.034671,-0.157606,-12.878845,-27.766033,21.935425,,,,,,,
1523694776.442626,-0.720869,-0.073823,1.882482,0.027761,-0.176301,0.011397,-0.658235,0.073756,-0.749181,-0.013121,-0.048136,-0.068659,-12.721375,-27.016750,21.932495,,,,,,,
1523694776.472593,-0.725903,-0.072386,1.883985,0.047564,-0.113277,-0.044051,-0.662068,0.072322,-0.745936,0.000660,-0.038372,0.059428,-13.768616,-27.011578,22.382019,,,,,,,
1523694776.502561,-0.725946,-0.071715,1.885478,-0.048853,0.079148,-0.021947,-0.662132,0.071653,-0.745944,-0.014427,-0.044905,0.038119,-12.947556,-27.315426,22.233582,,,,,,,
1523694776.532529,-0.721837,-0.073457,1.885004,-0.071258,0.123564,0.015292,-0.658978,0.073391,-0.748563,-0.011844,-0.023616,-0.079943,-13.101593,-27.540035,21.934448,,,,,,,
1523694776.562498,-0.722476,-0.073443,1.885350,0.012483,-0.064385,-0.032410,-0.659456,0.073377,-0.748143,0.006991,-0.007352,0.011220,-13.991058,-26.935284,22.681580,,,,,,,
1523694776.592466,-0.722227,-0.072018,1.887369,0.034417,0.084220,-0.016565,-0.659339,0.071956,-0.748385,-0.023645,-0.011730,-0.050962,-14.065460,-26.785091,22.530884,,,,,,,
1523694776.622434,-0.718859,-0.071956,1.887694,-0.063822,0.082319,-0.014501,-0.656817,0.071894,-0.750605,-0.023526,-0.023081,-0.123663,-13.695724,-27.087139,22.157288,,,,,,,
1523694776.652402,-0.721232,-0.073769,1.888450,-0.061870,-0.165467,0.012392,-0.658509,0.073702,-0.748945,-0.016249,-0.018419,0.011838,-14.065918,-26.785168,22.455933,,,,,,,
1523694776.682371,-0.725550,-0.074607,1.889102,-0.008344,-0.124181,0.017706,-0.661696,0.074538,-0.746047,0.040389,-0.022322,0.092346,-14.135361,-26.409557,22.754395,,,,,,,
1523694776.712339,-0.726377,-0.075419,1.892557,-0.006682,0.071986,0.075056,-0.662272,0.075347,-0.745455,-0.003790,-0.027236,0.073214,-13.992584,-26.636028,21.930359,,,,,,,
1523694776.742307,-0.721694,-0.078008,1.894084,-0.079915,0.148808,0.056807,-0.658643,0.077929,-0.748399,-0.016299,-0.040652,-0.064971,-14.514404,-26.633160,22.455139,,,,,,,
1523694776.772255,-0.719370,-0.078974,1.895804,0.020348,0.038573,-0.018657,-0.656852,0.078892,-0.749870,-0.030221,-0.027211,-0.095513,-13.684631,-26.336590,22.754333,,,,,,,
1523694776.802223,-0.720847,-0.075769,1.896974,0.106544,-0.106705,-0.090909,-0.658122,0.075696,-0.749085,-0.007390,-0.012723,-0.057891,-12.854279,-25.890179,22.902954,,,,,,,
1523694776.832191,-0.724478,-0.071685,1.899291,0.076668,-0.085496,-0.074964,-0.661037,0.071624,-0.746916,-0.003529,0.008607,0.005766,-12.634995,-25.966991,22.078369,,,,,,,
1523694776.862159,-0.724975,-0.070295,1.900011,-0.001470,-0.039103,0.003783,-0.661473,0.070237,-0.746661,0.027516,-0.004609,-0.009198,-12.106277,-25.594372,22.077148,,,,,,,
1523694776.892128,-0.727559,-0.072007,1.902275,-0.047862,-0.067094,0.071970,-0.663319,0.071945,-0.744859,0.047749,-0.003021,0.073457,-13.221375,-24.239956,21.471130,,,,,,,
1523694776.922096,-0.727995,-0.073778,1.903258,0.018730,-0.002285,0.050639,-0.663558,0.073711,-0.744473,0.032699,-0.027492,0.077786,-14.194672,-23.711178,20.868591,,,,,,,
1523694776.952064,-0.724746,-0.073522,1.905260,0.055866,0.171947,0.041970,-0.661149,0.073455,-0.746639,-0.001235,-0.057357,-0.021214,-14.197510,-24.086010,21.020020,,,,,,,
1523694776.982032,-0.720595,-0.073055,1.906547,0.027902,0.077720,0.001561,-0.658066,0.072990,-0.749403,0.001908,-0.051948,-0.059710,-14.048447,-24.311459,21.246033,,,,,,,
1523694777.012001,-0.719782,-0.072680,1.906646,-0.008624,0.036329,0.007965,-0.657475,0.072616,-0.749958,0.025044,-0.054687,-0.021648,-14.490753,-24.083569,22.144897,,,,,,,
1523694777.041969,-0.717521,-0.074295,1.906425,-0.065270,0.072312,0.049439,-0.655699,0.074226,-0.751354,0.012130,-0.043724,-0.031636,-15.099579,-24.606426,21.546692,,,,,,,
,,,,,,,,,,,,,,,,25.299035,51.436873,20.320376,16.730000,284.062500,1523694776.999069,
1523694777.071937,-0.716141,-0.076234,1.907380,-0.034408,0.041459,0.043104,-0.654567,0.076161,-0.752147,0.000331,-0.043568,-0.037434,-14.048126,-24.685787,21.922546,,,,,,,
1523694777.101905,-0.714941,-0.076574,1.908708,0.023255,-0.004058,-0.000505,-0.653646,0.076499,-0.752913,0.036352,-0.060890,-0.031022,-14.500809,-24.684200,21.472290,,,,,,,
1523694777.131874,-0.715037,-0.075658,1.908816,-0.005343,0.010015,-0.029298,-0.653764,0.075585,-0.752903,0.015184,-0.032083,-0.014584,-14.271927,-24.385082,21.621216,,,,,,,
1523694777.161842,-0.714528,-0.075634,1.907263,-0.059706,0.028247,-0.032561,-0.653382,0.075562,-0.753237,0.019975,-0.015580,-0.021452,-14.210098,-25.211178,20.799561,,,,,,,
1523694777.191810,-0.713876,-0.076152,1.905585,-0.039645,-0.008027,-0.019719,-0.652865,0.076078,-0.753633,0.018573,-0.015272,-0.025954,-13.907425,-25.212093,21.249695,,,,,,,
1523694777.221778,-0.715372,-0.075860,1.905310,0.017740,-0.059253,-0.010026,-0.654007,0.075787,-0.752672,0.008987,-0.020398,0.026461,-13.157455,-25.215466,21.250122,,,,,,,
1523694777.251747,-0.715587,-0.075336,1.905517,0.007318,0.006631,-0.004784,-0.654195,0.075265,-0.752561,0.010579,-0.021798,0.005109,-14.356506,-24.985302,21.023560,,,,,,,
1523694777.281715,-0.713188,-0.075843,1.906308,-0.042447,0.116099,0.009986,-0.652362,0.075770,-0.754100,-0.012936,-0.038340,-0.088658,-14.514603,-25.435177,20.425293,,,,,,,
1523694777.311683,-0.712486,-0.076667,1.907621,-0.018470,-0.017835,0.006948,-0.651792,0.076592,-0.754510,0.000318,-0.009789,-0.093467,-13.913559,-25.512585,20.725891,,,,,,,
1523694777.341652,-0.714851,-0.076582,1.908601,-0.003869,-0.101771,0.000650,-0.653579,0.076507,-0.752971,0.020522,-0.013168,-0.029545,-13.761169,-25.363125,20.875427,,,,,,,
1523694777.371620,-0.718046,-0.075999,1.908994,0.038856,-0.096585,0.002811,-0.656010,0.075926,-0.750912,0.016880,0.002962,0.045102,-15.333572,-24.831509,20.422485,,,,,,,
1523694777.401588,-0.717782,-0.074943,1.909333,0.037574,0.070396,-0.017607,-0.655864,0.074873,-0.751146,0.038295,-0.009626,-0.032485,-14.735092,-25.208813,20.799255,,,,,,,
1523694777.431556,-0.716297,-0.073532,1.909541,0.031920,-0.022971,-0.036693,-0.654816,0.073466,-0.752198,0.006150,-0.011393,-0.027816,-14.804993,-24.833279,21.022705,,,,,,,
1523694777.461525,-0.719062,-0.071783,1.908557,0.014779,-0.080027,-0.076077,-0.656977,0.071721,-0.750480,0.044673,-0.009221,0.060661,-15.544769,-24.079510,21.469360,,,,,,,
1523694777.491493,-0.717954,-0.069876,1.907468,0.014529,0.117524,-0.062425,-0.656235,0.069819,-0.751309,-0.010514,-0.001215,0.016369,-14.279587,-24.386318,20.346191,,,,,,,
1523694777.521461,-0.712515,-0.068951,1.906523,0.002842,0.168326,-0.029453,-0.652180,0.068897,-0.754916,0.005253,-0.033252,-0.101041,-15.248093,-24.231136,21.170105,,,,,,,
1523694777.551429,-0.711452,-0.068171,1.907173,0.047670,-0.037092,0.001691,-0.651412,0.068118,-0.755649,-0.009385,-0.014896,0.012638,-15.456436,-23.328930,22.441406,,,,,,,
1523694777.581398,-0.709040,-0.067194,1.908368,0.054910,0.157261,0.012167,-0.649631,0.067143,-0.757268,0.020022,-0.013875,-0.039072,-14.706619,-23.257458,22.291504,,,,,,,
1523694777.611366,-0.704834,-0.067398,1.909959,-0.019178,0.115714,0.054767,-0.646431,0.067347,-0.759984,-0.028908,-0.022227,-0.111064,-15.686340,-23.777966,22.368103,,,,,,,
1523694777.641334,-0.703974,-0.069086,1.910116,-0.040091,-0.047713,0.032535,-0.645703,0.069031,-0.760452,0.010815,-0.033600,-0.110291,-14.942215,-24.680782,22.897034,,,,,,,
1523694777.671302,-0.707596,-0.069580,1.909802,-0.013604,-0.149445,-0.016358,-0.648431,0.069523,-0.758082,0.005440,-0.045140,-0.000875,-14.193298,-24.609463,22.597168,,,,,,,
1523694777.701271,-0.711332,-0.069496,1.909058,-0.021906,-0.087833,-0.010037,-0.651262,0.069440,-0.755658,0.025179,-0.047818,0.035428,-14.414703,-24.607861,23.197083,,,,,,,
1523694777.731239,-0.709968,-0.071428,1.908149,-0.115182,0.106574,0.029128,-0.650142,0.071367,-0.756443,-0.028325,-0.020738,-0.052777,-13.298279,-25.063549,22.524414,,,,,,,
1523694777.761207,-0.707564,-0.074270,1.905847,-0.106634,0.069592,-0.003859,-0.648188,0.074202,-0.757846,0.001184,-0.037092,-0.078992,-11.651520,-24.846874,21.624390,,,,,,,
1523694777.791162,-0.709289,-0.074460,1.904522,0.007959,-0.121785,-0.030213,-0.649485,0.074392,-0.756716,0.021845,-0.019567,0.009035,-12.546249,-24.317837,21.621826,,,,,,,
1523694777.821131,-0.711582,-0.072747,1.904315,0.047989,-0.005010,-0.029231,-0.651300,0.072683,-0.755320,0.019052,-0.014990,0.026118,-13.226181,-23.866360,20.044678,,,,,,,
1523694777.851099,-0.709376,-0.072123,1.904402,-0.010541,0.074647,-0.000598,-0.649661,0.072060,-0.756790,-0.005185,-0.014489,-0.046891,-13.145508,-23.341656,20.117615,,,,,,,
1523694777.881067,-0.708965,-0.073199,1.903795,-0.054961,-0.053935,0.014424,-0.649300,0.073134,-0.756997,0.021752,-0.040694,-0.021125,-14.400070,-22.284359,21.762756,,,,,,,
1523694777.911035,-0.711866,-0.074068,1.903103,-0.018600,-0.077165,-0.018562,-0.651451,0.074000,-0.755062,0.019890,0.000387,0.053661,-14.392715,-21.908794,22.361267,,,,,,,
1523694777.941004,-0.711177,-0.072823,1.902982,0.050529,0.086401,-0.031466,-0.650990,0.072759,-0.755580,0.014500,-0.014882,0.010310,-13.568665,-21.912655,22.211670,,,,,,,
1523694777.970972,-0.707993,-0.070816,1.904398,0.064312,0.072509,-0.025050,-0.648675,0.070757,-0.757758,0.005487,-0.018495,-0.063241,-13.278076,-23.263287,22.892212,,,,,,,
1523694778.000940,-0.708625,-0.069438,1.905126,0.030473,-0.073097,-0.008945,-0.649217,0.069382,-0.757421,0.010499,-0.022629,-0.011942,-12.831680,-23.715130,23.044250,,,,,,,
1523694778.030909,-0.709882,-0.069748,1.904963,-0.028017,0.003410,0.012242,-0.650154,0.069691,-0.756589,0.023476,-0.020207,0.000149,-12.235748,-23.718487,22.369568,,,,,,,
1523694778.060877,-0.708086,-0.070854,1.905247,-0.016240,0.038259,0.037796,-0.648744,0.070794,-0.757696,-0.011382,-0.020425,-0.072489,-12.767029,-24.391018,22.447021,,,,,,,
,,,,,,,,,,,,,,,,25.299073,51.436707,20.092756,16.860001,284.062500,1523694777.999057,
1523694778.090845,-0.708992,-0.070976,1.906072,0.045289,-0.077546,0.013450,-0.649425,0.070916,-0.757101,0.030620,-0.057168,-0.014368,-12.694565,-24.691265,22.523193,,,,,,,
1523694778.120813,-0.711779,-0.069566,1.907771,0.057009,-0.075481,0.018779,-0.651596,0.069509,-0.755364,0.027161,-0.039144,0.043724,-12.540390,-24.316891,22.596802,,,,,,,
1523694778.150782,-0.711337,-0.070582,1.908086,-0.088768,0.068111,0.049433,-0.651216,0.070523,-0.755597,0.004396,-0.047498,-0.029345,-13.444977,-24.912594,22.823792,,,,,,,
1523694778.180750,-0.708588,-0.074408,1.906460,-0.146309,0.065227,0.025954,-0.648956,0.074339,-0.757174,-0.050049,-0.046247,-0.118131,-13.751099,-25.660992,23.051575,,,,,,,
1523694778.210718,-0.709903,-0.076273,1.904897,-0.018891,-0.120858,-0.000404,-0.649860,0.076199,-0.756214,0.003787,-0.087139,-0.041150,-12.163254,-25.366482,24.701233,,,,,,,
1523694778.240686,-0.714095,-0.075647,1.905446,0.032271,-0.134842,0.004980,-0.653055,0.075575,-0.753519,0.014215,-0.047789,0.075113,-11.484390,-25.069393,24.850342,,,,,,,
1523694778.270655,-0.714667,-0.075482,1.906289,-0.021411,0.063853,0.027108,-0.653495,0.075410,-0.753154,-0.000741,-0.042772,0.023570,-9.322220,-25.680248,23.728882,,,,,,,
1523694778.300623,-0.710804,-0.077834,1.905461,-0.115185,0.112916,0.034446,-0.650462,0.077756,-0.755537,-0.000935,-0.038678,-0.103853,-8.651581,-25.983486,23.505432,,,,,,,
1523694778.330591,-0.710901,-0.080030,1.904210,-0.049616,-0.080340,-0.010053,-0.650423,0.079945,-0.755342,-0.030424,-0.011158,-0.069655,-9.929092,-25.828411,22.829163,,,,,,,
1523694778.360559,-0.714496,-0.078579,1.903856,0.073172,-0.119691,-0.047225,-0.653209,0.078498,-0.753086,0.042537,-0.035362,0.041782,-10.306061,-25.302914,21.626892,,,,,,,
1523694778.390528,-0.714950,-0.076052,1.904832,0.053631,0.085217,-0.014419,-0.653679,0.075978,-0.752937,0.013008,-0.009908,0.052314,-10.310410,-25.378506,21.027161,,,,,,,
1523694778.420496,-0.710578,-0.075762,1.904469,-0.034794,0.122621,-0.015575,-0.650395,0.075690,-0.755804,0.007161,-0.024084,-0.075952,-11.210663,-25.673992,21.477905,,,,,,,
1523694778.450464,-0.711323,-0.075534,1.903862,0.007048,-0.096218,-0.038765,-0.650969,0.075462,-0.755332,0.012801,0.001183,0.013145,-10.907822,-25.525127,21.702515,,,,,,,
1523694778.480432,-0.712482,-0.073592,1.904249,0.052469,0.016392,-0.051628,-0.651939,0.073526,-0.754687,-0.004479,-0.003488,-0.043104,-11.512009,-25.672863,21.252747,,,,,,,
1523694778.510401,-0.711416,-0.071756,1.904147,0.032028,0.020463,-0.018617,-0.651221,0.071695,-0.755483,0.004416,-0.006753,-0.050517,-11.366791,-26.198437,21.329956,,,,,,,
1523694778.540369,-0.713141,-0.071241,1.904779,0.031302,-0.098803,0.017731,-0.652547,0.071181,-0.754386,0.034978,-0.017439,0.068518,-10.392731,-26.202969,21.180420,,,,,,,
1523694778.570337,-0.716421,-0.069853,1.905956,0.081675,-0.096568,-0.016327,-0.655082,0.069796,-0.752315,0.079505,-0.020404,0.134838,-11.284302,-25.673443,21.702881,,,,,,,
1523694778.600305,-0.717400,-0.066764,1.907132,0.120600,-0.017815,-0.045159,-0.655957,0.066714,-0.751832,0.076001,-0.021655,0.142381,-11.139114,-25.749767,21.028198,,,,,,,
1523694778.630274,-0.712506,-0.063662,1.908846,0.094236,0.328413,-0.011422,-0.652402,0.063619,-0.755186,-0.019198,0.008006,-0.025560,-10.841232,-25.826336,20.803711,,,,,,,
1523694778.660242,-0.701765,-0.064598,1.909349,-0.132501,0.276715,0.017225,-0.644214,0.064553,-0.762105,-0.081036,-0.051904,-0.259746,-10.686584,-25.676510,21.328186,,,,,,,
1523694778.690210,-0.702766,-0.068061,1.908821,-0.099500,-0.224873,0.011359,-0.644829,0.068009,-0.761284,0.001885,-0.085633,-0.105995,-11.515152,-25.898006,21.103638,,,,,,,
1523694778.720179,-0.711175,-0.067599,1.909739,0.107728,-0.246382,-0.025757,-0.651228,0.067547,-0.755859,0.035063,-0.041745,0.080627,-10.922806,-26.351192,20.580811,,,,,,,
1523694778.750147,-0.715329,-0.062118,1.915160,0.253662,-0.077839,-0.019422,-0.654595,0.062078,-0.753415,0.068810,-0.026326,0.111173,-11.447647,-26.199047,20.354858,,,,,,,
1523694778.780116,-0.712229,-0.059211,1.918171,0.011325,0.213635,0.021656,-0.652371,0.059176,-0.755574,-0.002841,0.003919,-0.035533,-11.894485,-25.971889,20.503784,,,,,,,
1523694778.810084,-0.705821,-0.063239,1.915919,-0.228108,0.149412,0.020484,-0.647357,0.063197,-0.759551,-0.058942,-0.018458,-0.187959,-12.425034,-25.670925,19.077332,,,,,,,
1523694778.840053,-0.705813,-0.067472,1.912604,-0.140681,-0.138612,-0.001543,-0.647172,0.067420,-0.759346,-0.068084,-0.057151,-0.224220,-13.176025,-26.266720,19.904297,,,,,,,
1523694778.870021,-0.714456,-0.068617,1.911437,0.010131,-0.309042,0.004068,-0.653659,0.068563,-0.753666,-0.034513,-0.056478,0.047626,-13.474213,-26.265087,20.204163,,,,,,,
1523694778.899989,-0.720829,-0.068335,1.913007,0.024578,-0.116121,0.064630,-0.658461,0.068282,-0.749499,-0.008363,-0.076797,0.087420,-12.272614,-26.195339,20.354431,,,,,,,
1523694778.929957,-0.719701,-0.071770,1.914672,-0.099739,0.109955,0.145293,-0.657457,0.071709,-0.750060,-0.010298,-0.116539,-0.016175,-12.504959,-26.794521,20.131775,,,,,,,
1523694778.959926,-0.716109,-0.077333,1.915367,-0.121075,0.089984,0.122914,-0.654487,0.077256,-0.752104,-0.013757,-0.099214,-0.093294,-12.577713,-26.569195,20.130798,,,,,,,
