timestamp(unix),attitude_roll(radians),attitude_pitch(radians),attitude_yaw(radians),rotation_rate_x(radians/s),rotation_rate_y(radians/s),rotation_rate_z(radians/s),gravity_x(G),gravity_y(G),gravity_z(G),user_acc_x(G),user_acc_y(G),user_acc_z(G),magnetic_field_x(microteslas),magnetic_field_y(microteslas),magnetic_field_z(microteslas),latitude(degree),longitude(degree),altitude(meter),speed(m/s),course(degree),timestamp(unix),User Mark
1523695623.346636,-0.688534,-0.033047,-1.067667,-0.179945,-0.013165,-0.055699,-0.635059,0.033041,-0.771756,-0.034207,0.025843,0.081830,4.908981,25.842325,-28.905273,,,,,,,
,,,,,,,,,,,,,,,,25.305232,51.439207,12.658138,5.820000,63.984375,1523695622.999070,
1523695623.376604,-0.686068,-0.035451,-1.070074,-0.110103,0.187927,0.033657,-0.633102,0.035443,-0.773256,-0.063325,-0.002637,0.041521,5.587830,26.139414,-28.756165,,,,,,,
1523695623.406573,-0.679134,-0.039919,-1.070845,-0.113427,0.223682,0.087961,-0.627619,0.039909,-0.777497,-0.115790,-0.080802,-0.059798,4.912735,25.768061,-28.154968,,,,,,,
1523695623.436541,-0.673002,-0.042714,-1.070685,-0.025822,0.153845,0.015636,-0.622768,0.042701,-0.781241,-0.067494,-0.113502,-0.130396,4.839523,25.993311,-28.230896,,,,,,,
1523695623.466509,-0.676295,-0.039875,-1.071124,0.100140,-0.223939,-0.101097,-0.625410,0.039865,-0.779277,0.039945,-0.034494,0.039638,4.169357,26.296625,-27.932434,,,,,,,
1523695623.496463,-0.683602,-0.036097,-1.073089,-0.002192,-0.212885,-0.124632,-0.631179,0.036089,-0.774797,0.017653,0.030638,0.183504,4.467972,26.295053,-28.157288,,,,,,,
1523695623.526432,-0.686446,-0.035182,-1.076860,-0.090750,0.055001,-0.108984,-0.633400,0.035175,-0.773024,-0.032020,0.015850,0.167174,4.313782,26.145304,-28.606750,,,,,,,
1523695623.556400,-0.678667,-0.035395,-1.080017,-0.064051,0.345766,-0.063437,-0.627363,0.035387,-0.777923,-0.081378,-0.038332,-0.008073,4.989517,26.217264,-28.606750,,,,,,,
1523695623.586368,-0.670647,-0.036454,-1.082381,-0.098221,0.136319,-0.036604,-0.621080,0.036446,-0.782899,-0.079817,-0.027611,-0.102462,4.909286,25.692621,-28.604675,,,,,,,
1523695623.616337,-0.672366,-0.038915,-1.084649,-0.115569,-0.133687,-0.015038,-0.622367,0.038905,-0.781758,-0.040703,0.000341,0.025395,4.535950,25.769449,-28.455200,,,,,,,
1523695623.646305,-0.672272,-0.041240,-1.085599,-0.064482,0.123015,0.031620,-0.622235,0.041228,-0.781744,-0.048205,-0.009734,0.030004,5.891418,26.138651,-28.155945,,,,,,,
1523695623.676273,-0.666701,-0.043048,-1.085724,-0.066248,0.201703,0.026202,-0.617824,0.043034,-0.785138,-0.084263,-0.042226,-0.089267,4.541199,25.845179,-27.705505,,,,,,,
1523695623.706241,-0.662493,-0.045919,-1.087393,-0.137474,0.024463,0.019939,-0.614436,0.045903,-0.787630,-0.045537,-0.048909,-0.116469,3.867126,26.072992,-27.931702,,,,,,,
1523695623.736210,-0.667853,-0.049042,-1.089824,-0.113939,-0.243129,-0.014936,-0.618557,0.049022,-0.784209,0.008892,-0.014339,0.073562,4.085205,25.696482,-28.455139,,,,,,,
1523695623.766178,-0.675962,-0.050263,-1.091497,-0.030761,-0.268867,-0.013766,-0.624858,0.050241,-0.779120,0.020457,-0.020609,0.189002,3.709030,25.398478,-28.154053,,,,,,,
1523695623.796177,-0.679727,-0.049525,-1.091670,0.057037,0.013669,-0.025720,-0.627810,0.049504,-0.776791,0.019716,-0.050221,0.181317,4.235382,25.396341,-27.928833,,,,,,,
1523695623.826145,-0.674758,-0.047245,-1.091843,0.027386,0.251038,-0.072867,-0.624011,0.047227,-0.779987,-0.042538,-0.086580,0.050571,5.069168,25.918177,-27.330505,,,,,,,
1523695623.856113,-0.668152,-0.046174,-1.095077,-0.077313,0.170899,-0.126129,-0.618876,0.046158,-0.784131,-0.042760,-0.050232,-0.053989,4.394211,25.696589,-26.954956,,,,,,,
1523695623.886081,-0.665649,-0.046594,-1.100544,-0.146042,0.106134,-0.108009,-0.616899,0.046578,-0.785663,-0.076796,0.002571,-0.061368,3.647827,25.925180,-26.731201,,,,,,,
1523695623.916050,-0.662710,-0.048609,-1.104943,-0.116519,0.104528,-0.039798,-0.614529,0.048589,-0.787396,-0.099277,0.015391,-0.096820,4.473541,25.996454,-26.731079,,,,,,,
1523695623.946018,-0.660918,-0.049568,-1.106554,-0.003034,-0.006624,0.010483,-0.613088,0.049547,-0.788459,-0.036479,0.008085,-0.085289,4.698242,25.920527,-26.655640,,,,,,,
1523695623.975986,-0.665473,-0.050080,-1.105261,0.013951,-0.193055,0.072483,-0.616657,0.050059,-0.785638,0.033543,0.028234,0.113885,4.925339,26.219355,-26.806763,,,,,,,
1523695624.005954,-0.671332,-0.050705,-1.102842,0.063197,-0.178211,0.059717,-0.621230,0.050684,-0.781988,0.055022,-0.003549,0.211767,5.751205,26.215784,-26.656311,,,,,,,
1523695624.035923,-0.671050,-0.048469,-1.099814,0.159070,0.180040,0.002960,-0.621079,0.048450,-0.782249,0.010773,-0.070148,0.163368,5.299118,26.142588,-26.881287,,,,,,,
,,,,,,,,,,,,,,,,25.305248,51.439280,12.430752,6.720000,66.796875,1523695623.999059,
1523695624.065891,-0.661600,-0.043582,-1.097866,0.133637,0.355010,-0.087807,-0.613797,0.043568,-0.788261,-0.076770,-0.101674,-0.119683,5.310059,27.192621,-26.810486,,,,,,,
1523695624.095859,-0.653042,-0.040997,-1.100794,-0.089942,0.184912,-0.149596,-0.607095,0.040986,-0.793572,-0.106589,-0.043732,-0.221901,4.928635,26.818888,-27.259155,,,,,,,
1523695624.125827,-0.655473,-0.043531,-1.107673,-0.255442,-0.241081,-0.106671,-0.608957,0.043517,-0.792009,-0.073660,-0.010100,-0.081404,4.699570,26.594614,-27.558411,,,,,,,
1523695624.155796,-0.663711,-0.047976,-1.112157,-0.153674,-0.242280,0.029785,-0.615335,0.047958,-0.786805,-0.071570,-0.012969,0.031297,5.529495,26.591700,-26.732971,,,,,,,
1523695624.185764,-0.668788,-0.051220,-1.110898,0.002124,-0.145614,0.129967,-0.619223,0.051197,-0.783544,-0.038965,-0.044346,0.053366,5.679352,26.890512,-27.259094,,,,,,,
1523695624.215732,-0.673946,-0.051408,-1.105822,0.171592,-0.205574,0.134416,-0.623250,0.051385,-0.780333,0.018864,-0.063455,0.121474,5.004532,26.818689,-27.109131,,,,,,,
1523695624.245701,-0.679221,-0.047645,-1.098878,0.276931,-0.130939,0.061958,-0.627474,0.047627,-0.777179,0.054995,-0.080800,0.160663,5.154205,26.743097,-27.033752,,,,,,,
1523695624.275669,-0.677955,-0.042374,-1.094850,0.154909,0.147477,-0.048162,-0.626639,0.042361,-0.778158,0.003653,-0.070422,0.056188,4.326981,26.971064,-27.785034,,,,,,,
1523695624.305637,-0.671880,-0.039401,-1.096337,-0.045085,0.218640,-0.125096,-0.621975,0.039390,-0.782046,-0.063801,-0.061638,-0.096754,4.775314,26.893900,-27.934570,,,,,,,
1523695624.335605,-0.668230,-0.040224,-1.101987,-0.216839,0.020339,-0.120770,-0.619096,0.040213,-0.784285,-0.105132,-0.027686,-0.184526,5.451950,26.741373,-27.408569,,,,,,,
1523695624.365574,-0.673748,-0.045528,-1.108853,-0.295489,-0.268103,-0.026762,-0.623273,0.045512,-0.780679,-0.100024,-0.009410,-0.045844,4.848663,26.369165,-27.332458,,,,,,,
1523695624.395542,-0.680668,-0.051336,-1.111296,-0.112205,-0.191906,0.105416,-0.628483,0.051314,-0.776129,-0.074138,-0.031691,0.075994,5.075455,26.368448,-27.032288,,,,,,,
1523695624.425510,-0.683858,-0.053438,-1.107922,0.096328,-0.054681,0.160846,-0.630886,0.053413,-0.774034,-0.062122,-0.111885,0.098696,5.459885,27.266794,-26.960693,,,,,,,
1523695624.455478,-0.684388,-0.052438,-1.101068,0.200158,-0.025019,0.136389,-0.631330,0.052414,-0.773741,0.005750,-0.149719,0.054365,4.474426,26.670481,-27.708801,,,,,,,
1523695624.485447,-0.683434,-0.050239,-1.096129,0.102737,0.048114,0.045675,-0.630663,0.050218,-0.774430,0.010195,-0.147783,0.003755,4.398392,26.520899,-27.633240,,,,,,,
1523695624.515404,-0.682612,-0.048368,-1.095604,-0.011030,0.066998,-0.030085,-0.630084,0.048349,-0.775020,-0.009961,-0.102121,-0.008946,5.674988,26.814920,-27.858765,,,,,,,
1523695624.545372,-0.680889,-0.047947,-1.097682,-0.099687,0.052395,-0.036536,-0.628761,0.047929,-0.776120,-0.062081,-0.060212,-0.021274,5.299866,26.666834,-27.633362,,,,,,,
1523695624.575340,-0.680375,-0.049326,-1.100688,-0.128764,0.014095,-0.020531,-0.628319,0.049306,-0.776391,-0.086280,-0.025625,0.028818,5.450607,26.516535,-27.257690,,,,,,,
1523695624.605309,-0.679299,-0.049560,-1.102189,-0.003650,0.071094,-0.009844,-0.627476,0.049539,-0.777058,-0.055827,-0.028711,0.023076,5.309311,27.117624,-26.810181,,,,,,,
1523695624.635277,-0.676562,-0.047764,-1.100979,0.107340,0.083450,0.008333,-0.625402,0.047746,-0.778841,-0.018092,-0.051896,-0.040862,5.156143,27.117777,-27.335266,,,,,,,
1523695624.665245,-0.674907,-0.045180,-1.098521,0.106151,0.057918,0.011563,-0.624187,0.045164,-0.779969,-0.012807,-0.060576,-0.059021,5.525742,26.665979,-27.483276,,,,,,,
1523695624.695213,-0.674129,-0.043480,-1.097184,0.035547,0.004018,-0.006542,-0.623627,0.043467,-0.780513,-0.017547,-0.049830,-0.062123,6.050278,26.663538,-27.557983,,,,,,,
1523695624.725182,-0.675864,-0.043110,-1.097773,-0.037354,-0.088052,-0.032089,-0.624990,0.043097,-0.779442,-0.010279,-0.014929,-0.001091,5.303619,26.817194,-27.258972,,,,,,,
1523695624.755150,-0.678387,-0.043484,-1.099456,-0.053341,-0.068983,-0.019327,-0.626945,0.043470,-0.777850,-0.018776,0.001299,0.058062,5.755997,26.965311,-27.109314,,,,,,,
1523695624.785118,-0.678573,-0.043999,-1.099535,-0.003000,0.034618,0.039210,-0.627075,0.043985,-0.777716,-0.025467,-0.046594,0.031485,5.457794,26.966944,-26.809509,,,,,,,
1523695624.815086,-0.676770,-0.043987,-1.097532,0.072606,0.010910,0.058475,-0.625673,0.043973,-0.778845,-0.005690,-0.092694,-0.033761,4.849121,26.369242,-27.257446,,,,,,,
1523695624.845085,-0.678981,-0.043594,-1.094905,0.031658,-0.070827,0.060660,-0.627404,0.043580,-0.777473,0.031365,-0.082307,0.030739,5.073364,26.517862,-27.632935,,,,,,,
1523695624.875054,-0.680772,-0.043986,-1.093641,-0.007679,-0.055692,0.039296,-0.628784,0.043971,-0.776336,0.027298,-0.068675,0.064925,6.575699,26.661249,-27.482727,,,,,,,
1523695624.905022,-0.680878,-0.044395,-1.093787,-0.042207,0.050953,-0.003457,-0.628855,0.044380,-0.776255,-0.030721,-0.069298,0.052454,5.450607,26.516535,-27.257690,,,,,,,
1523695624.934990,-0.676894,-0.044456,-1.095000,-0.020360,0.118058,-0.036526,-0.625756,0.044442,-0.778752,-0.058738,-0.068200,-0.026805,5.455551,26.741968,-26.808594,,,,,,,
1523695624.964958,-0.675337,-0.043184,-1.096156,-0.003557,0.054340,-0.043931,-0.624577,0.043171,-0.779769,-0.035381,-0.060810,0.026259,5.683990,27.041010,-26.734680,,,,,,,
1523695624.994927,-0.674159,-0.041711,-1.096104,0.032589,0.073006,0.006173,-0.623698,0.041699,-0.780553,-0.036977,-0.055920,0.034718,5.147003,26.292673,-27.481934,,,,,,,
1523695625.024895,-0.670148,-0.042142,-1.095555,-0.033379,0.166443,0.041185,-0.620550,0.042129,-0.783034,-0.056253,-0.078582,-0.050904,4.996567,26.293283,-27.557007,,,,,,,
1523695625.054862,-0.666995,-0.042241,-1.095165,0.018720,0.068825,0.000841,-0.618076,0.042228,-0.784983,-0.045224,-0.079368,-0.080648,5.520645,26.066141,-27.330872,,,,,,,
,,,,,,,,,,,,,,,,25.305278,51.439358,12.538815,7.200000,67.500000,1523695624.999048,
1523695625.084831,-0.666633,-0.042437,-1.095524,-0.055349,-0.022335,-0.003392,-0.617786,0.042424,-0.785201,-0.042095,-0.044942,-0.063188,5.148056,26.217981,-27.181641,,,,,,,
1523695625.114799,-0.668994,-0.043133,-1.096404,-0.024739,-0.084139,0.010544,-0.619620,0.043120,-0.783716,-0.033334,-0.023680,0.001536,5.756897,26.965464,-26.959351,,,,,,,
1523695625.144768,-0.670210,-0.044224,-1.095967,-0.023572,-0.015368,0.052035,-0.620543,0.044210,-0.782925,-0.038072,-0.039311,0.020596,4.852280,26.594385,-27.108276,,,,,,,
1523695625.174736,-0.671253,-0.044635,-1.094601,0.044521,-0.080245,0.038286,-0.621348,0.044620,-0.782263,-0.019155,-0.060871,0.031683,4.846863,26.593500,-28.008301,,,,,,,
1523695625.204704,-0.673909,-0.043439,-1.092940,0.069194,-0.080174,0.018067,-0.623457,0.043426,-0.780651,0.007536,-0.091613,0.074352,5.291321,25.991571,-27.930664,,,,,,,
1523695625.234673,-0.676428,-0.041986,-1.091245,0.055353,-0.070597,0.020183,-0.625459,0.041974,-0.779127,0.016435,-0.080395,0.089475,6.047272,26.363550,-27.556763,,,,,,,
1523695625.264641,-0.676906,-0.040967,-1.090444,0.029225,0.026327,-0.003372,-0.625859,0.040956,-0.778860,0.001393,-0.065904,0.070990,5.227707,26.592768,-27.033081,,,,,,,
1523695625.294609,-0.675442,-0.039452,-1.090222,0.030486,0.050902,-0.021519,-0.624756,0.039442,-0.779823,-0.025589,-0.042097,-0.015663,5.156143,27.117777,-27.335266,,,,,,,
1523695625.324577,-0.674306,-0.038582,-1.090789,-0.002628,0.046719,-0.020468,-0.623891,0.038573,-0.780559,-0.042262,-0.032881,-0.037831,5.071716,26.442713,-27.782593,,,,,,,
1523695625.354546,-0.674757,-0.037964,-1.090917,-0.001999,-0.012986,0.009417,-0.624258,0.037955,-0.780296,-0.032282,-0.020942,-0.013207,4.994324,26.292917,-27.932007,,,,,,,
1523695625.384514,-0.675219,-0.038357,-1.089823,0.015779,-0.028333,0.069122,-0.624609,0.038348,-0.779996,-0.014368,-0.024493,0.009366,5.970612,26.288752,-27.706543,,,,,,,
1523695625.414482,-0.674502,-0.039427,-1.087795,0.004405,0.061951,0.077553,-0.624023,0.039417,-0.780411,-0.019318,-0.053592,-0.007034,5.299408,26.666773,-27.708374,,,,,,,
1523695625.444451,-0.673410,-0.039356,-1.086260,0.053569,0.003839,0.014771,-0.623173,0.039346,-0.781094,-0.012829,-0.075922,-0.023777,5.302414,26.742121,-27.333679,,,,,,,
1523695625.474419,-0.673236,-0.038133,-1.085409,0.028196,0.036989,-0.005530,-0.623066,0.038124,-0.781240,-0.023510,-0.081688,-0.039332,5.075150,26.742777,-27.708801,,,,,,,
1523695625.504369,-0.672676,-0.037581,-1.085430,-0.009324,0.004119,-0.003388,-0.622642,0.037572,-0.781605,-0.044427,-0.072301,-0.047772,5.895630,26.513712,-28.082520,,,,,,,
1523695625.534337,-0.671469,-0.038682,-1.085774,-0.067026,0.040094,0.038094,-0.621671,0.038672,-0.782323,-0.042986,-0.078559,-0.087428,5.293411,26.066797,-27.705994,,,,,,,
1523695625.564306,-0.673216,-0.040459,-1.085744,-0.034510,-0.082210,0.042497,-0.622993,0.040448,-0.781181,-0.030312,-0.046032,-0.008904,5.894272,26.288874,-27.931580,,,,,,,
1523695625.594274,-0.674763,-0.040104,-1.084659,0.072632,-0.027073,0.020153,-0.624210,0.040094,-0.780227,0.003162,-0.056772,0.042404,5.830536,26.740274,-26.808411,,,,,,,
1523695625.624242,-0.674478,-0.037313,-1.082343,0.108203,0.029269,0.004139,-0.624055,0.037304,-0.780489,-0.005690,-0.037792,0.015673,5.455246,26.891657,-27.109192,,,,,,,
1523695625.654210,-0.672286,-0.036184,-1.081809,-0.005749,0.071142,-0.016237,-0.622368,0.036176,-0.781888,-0.002281,-0.041776,-0.023242,5.742035,26.289179,-28.306641,,,,,,,
1523695625.684179,-0.673572,-0.035835,-1.082888,-0.036213,-0.064736,-0.024648,-0.623382,0.035828,-0.781097,-0.006700,-0.026550,0.016799,5.293716,26.141718,-27.781250,,,,,,,
1523695625.714147,-0.674505,-0.036680,-1.083857,-0.041558,-0.025653,0.010472,-0.624091,0.036671,-0.780491,-0.030786,-0.032033,0.009311,5.746094,26.289835,-27.631653,,,,,,,
1523695625.744115,-0.675574,-0.037140,-1.084329,-0.017942,-0.016037,-0.005503,-0.624914,0.037132,-0.779810,-0.028574,-0.029335,0.040171,6.644241,26.285486,-27.931152,,,,,,,
1523695625.774083,-0.674691,-0.036219,-1.084368,0.031571,0.058301,-0.017258,-0.624247,0.036211,-0.780388,-0.022314,-0.038805,0.011436,4.554840,26.895639,-27.184692,,,,,,,
1523695625.804052,-0.672493,-0.035335,-1.084644,-0.019517,0.080816,-0.027972,-0.622549,0.035327,-0.781783,-0.048212,-0.036777,-0.072877,4.545395,26.220240,-27.631958,,,,,,,
1523695625.834020,-0.672430,-0.035068,-1.085942,-0.016759,-0.026412,-0.039600,-0.622506,0.035060,-0.781830,-0.018943,-0.016643,-0.058167,6.417618,26.211359,-28.080994,,,,,,,
1523695625.863988,-0.672850,-0.035028,-1.087039,-0.038050,0.019100,-0.008748,-0.622835,0.035021,-0.781569,-0.004515,-0.005450,-0.017839,5.594284,26.290216,-27.931702,,,,,,,
1523695625.893987,-0.672363,-0.035884,-1.087631,-0.018101,-0.034181,0.007294,-0.622435,0.035877,-0.781848,-0.015199,0.010449,0.004001,5.144455,26.217386,-27.781616,,,,,,,
1523695625.923955,-0.672116,-0.035420,-1.087234,0.046332,0.041112,0.004081,-0.622252,0.035413,-0.782015,0.007567,-0.004315,0.037417,6.051941,26.738672,-27.408264,,,,,,,
1523695625.953923,-0.670415,-0.033880,-1.086031,0.063607,0.075137,-0.004468,-0.620955,0.033874,-0.783114,-0.014192,-0.030700,0.018099,4.701385,26.594904,-27.258423,,,,,,,
1523695625.983892,-0.667977,-0.032507,-1.085075,0.045464,0.080485,-0.002360,-0.619072,0.032502,-0.784661,-0.018913,-0.064713,-0.045753,5.215408,25.991770,-28.080750,,,,,,,
1523695626.013860,-0.666711,-0.032342,-1.084593,-0.014773,-0.002395,0.015808,-0.618081,0.032337,-0.785449,-0.004752,-0.046573,-0.018704,5.895172,26.289011,-27.781555,,,,,,,
1523695626.043828,-0.669540,-0.033652,-1.084477,-0.059266,-0.124645,0.042515,-0.620274,0.033646,-0.783663,0.006154,-0.031555,0.079943,5.220047,26.142282,-27.556335,,,,,,,
,,,,,,,,,,,,,,,,25.305302,51.439448,12.299221,7.880000,67.148438,1523695625.999038,
1523695626.073797,-0.671773,-0.035697,-1.084715,-0.067325,-0.016308,0.048814,-0.621978,0.035690,-0.782221,0.000961,-0.044723,0.084772,5.751038,26.739878,-27.558472,,,,,,,
1523695626.103765,-0.668308,-0.036595,-1.083825,0.028683,0.203444,0.046520,-0.619244,0.036587,-0.784346,-0.029468,-0.090832,0.006834,4.619797,26.070047,-27.481323,,,,,,,
1523695626.133733,-0.661899,-0.036425,-1.082844,0.004281,0.186808,0.002833,-0.614208,0.036417,-0.788303,-0.049672,-0.115626,-0.105923,4.990585,25.917933,-27.930542,,,,,,,
1523695626.163701,-0.660583,-0.036286,-1.083710,-0.050679,0.034141,-0.029010,-0.613174,0.036278,-0.789115,-0.032914,-0.077965,-0.117883,5.742050,26.064554,-27.930725,,,,,,,
1523695626.193670,-0.660943,-0.037834,-1.086122,-0.120716,-0.090090,-0.016159,-0.613422,0.037825,-0.788849,-0.023953,-0.053267,-0.091720,6.341553,26.061777,-28.005432,,,,,,,
1523695626.223638,-0.665150,-0.039951,-1.088197,-0.085726,-0.115827,0.006261,-0.616685,0.039940,-0.786196,-0.008193,-0.011315,0.015170,5.446701,26.216410,-27.406494,,,,,,,
1523695626.253606,-0.667028,-0.040684,-1.088071,0.024406,-0.048316,0.036120,-0.618142,0.040672,-0.785014,0.001977,-0.023338,0.047037,4.549454,26.445520,-27.332886,,,,,,,
1523695626.283574,-0.665536,-0.041154,-1.086442,-0.008173,0.098223,0.062583,-0.616958,0.041143,-0.785920,-0.030335,-0.072332,-0.059860,5.596695,26.440348,-27.782288,,,,,,,
1523695626.313543,-0.665872,-0.041973,-1.085881,0.003958,-0.113943,0.008459,-0.617201,0.041961,-0.785686,-0.012544,-0.077544,-0.057408,5.819443,25.989725,-27.405396,,,,,,,
1523695626.343511,-0.669764,-0.041039,-1.085746,0.024361,-0.122297,-0.020284,-0.620278,0.041028,-0.783308,0.014687,-0.067456,0.005598,5.816879,25.914438,-27.705139,,,,,,,
1523695626.373479,-0.674022,-0.039969,-1.086468,-0.021601,-0.147591,-0.033082,-0.623635,0.039958,-0.780694,0.013131,-0.035594,0.109749,5.524689,26.291437,-27.031738,,,,,,,
1523695626.403447,-0.676961,-0.038861,-1.087624,0.010933,-0.049843,-0.043806,-0.625954,0.038851,-0.778891,0.006722,-0.039034,0.127676,5.079208,26.743433,-27.033752,,,,,,,
1523695626.433416,-0.674921,-0.037502,-1.088209,0.011733,0.142436,-0.034422,-0.624396,0.037493,-0.780208,-0.024545,-0.053225,0.029094,4.922180,26.443460,-27.707703,,,,,,,
1523695626.463384,-0.669398,-0.036396,-1.088677,0.010915,0.193425,-0.034459,-0.620103,0.036388,-0.783676,-0.028304,-0.037182,-0.040329,6.341858,25.912073,-27.704834,,,,,,,
1523695626.493352,-0.664498,-0.036429,-1.089620,-0.058734,0.168998,-0.009988,-0.616255,0.036421,-0.786704,-0.021334,-0.027876,-0.052850,5.524536,26.366282,-27.182068,,,,,,,
1523695626.523318,-0.661721,-0.038078,-1.091376,-0.092278,0.072356,-0.006715,-0.614030,0.038069,-0.788364,-0.041274,0.002123,-0.029096,5.300018,26.591990,-27.483093,,,,,,,
1523695626.553287,-0.660438,-0.038576,-1.093035,-0.016411,0.050079,-0.038604,-0.613007,0.038566,-0.789136,-0.020630,-0.010780,-0.005740,6.053741,26.738977,-27.108276,,,,,,,
1523695626.583255,-0.657622,-0.037860,-1.092812,0.031603,0.106938,0.017852,-0.610798,0.037851,-0.790881,-0.021862,-0.019525,-0.046201,4.848221,26.144480,-27.031494,,,,,,,
1523695626.613223,-0.655158,-0.037944,-1.091609,0.023818,0.061136,0.037068,-0.608846,0.037935,-0.792381,-0.011744,-0.047304,-0.040948,5.067215,25.992731,-27.780762,,,,,,,
1523695626.643191,-0.655468,-0.037147,-1.090027,0.053319,-0.042980,0.023346,-0.609110,0.037139,-0.792216,-0.004003,-0.070357,-0.005422,5.296127,26.067240,-27.255981,,,,,,,
1523695626.673160,-0.657028,-0.037284,-1.090084,-0.046931,-0.062651,-0.015068,-0.610342,0.037275,-0.791261,-0.012431,-0.048658,0.032273,5.749405,26.215494,-26.956360,,,,,,,
1523695626.703128,-0.659583,-0.037794,-1.091899,-0.051238,-0.101796,-0.039530,-0.612349,0.037785,-0.789684,0.003539,-0.016423,0.059886,5.752243,26.814951,-27.483704,,,,,,,
1523695626.733096,-0.660837,-0.037463,-1.093471,-0.026117,0.027786,-0.038587,-0.613347,0.037454,-0.788925,-0.020274,-0.014871,0.027832,5.223801,26.292627,-27.181946,,,,,,,
1523695626.763065,-0.663589,-0.035818,-1.094343,0.042233,-0.242079,-0.069159,-0.615553,0.035810,-0.787282,-0.046404,-0.048521,-0.056972,5.446091,26.291178,-27.631836,,,,,,,
1523695626.793033,-0.674095,-0.032400,-1.094785,0.082545,-0.316469,-0.082903,-0.623862,0.032395,-0.780862,-0.016946,-0.039261,-0.045752,6.122116,26.438059,-27.707092,,,,,,,
1523695626.823001,-0.682166,-0.029700,-1.095494,0.043006,-0.285734,-0.054212,-0.630198,0.029696,-0.775866,0.013789,-0.006670,0.052401,5.149414,26.442820,-27.332581,,,,,,,
1523695626.852969,-0.689067,-0.027630,-1.095533,0.043457,-0.148908,-0.020244,-0.635575,0.027626,-0.771545,0.021057,0.006447,0.131485,5.079514,26.818354,-27.109070,,,,,,,
1523695626.882938,-0.688542,-0.027196,-1.094922,0.003843,0.108089,0.016756,-0.635177,0.027193,-0.771887,-0.040161,-0.011461,0.052451,5.740097,26.139109,-28.381042,,,,,,,
1523695626.912906,-0.684098,-0.026739,-1.094021,0.036095,0.142087,0.005031,-0.631748,0.026735,-0.774713,-0.064602,-0.053286,-0.094565,4.843262,26.143671,-27.856506,,,,,,,
1523695626.942874,-0.682005,-0.026857,-1.094027,-0.022137,0.004152,-0.003398,-0.630123,0.026854,-0.776030,-0.048862,-0.049117,-0.129609,5.594131,26.140436,-27.706177,,,,,,,
1523695626.972873,-0.684829,-0.028198,-1.095074,-0.086961,-0.157246,0.003107,-0.632289,0.028194,-0.774219,-0.042806,-0.028042,-0.048077,6.352203,26.812250,-27.483398,,,,,,,
1523695627.002841,-0.691010,-0.029790,-1.096403,-0.044411,-0.192433,0.004246,-0.637033,0.029786,-0.770261,0.010095,-0.000519,0.098187,5.303619,26.817194,-27.258972,,,,,,,
1523695627.032809,-0.693688,-0.029682,-1.096008,0.042801,-0.021633,0.012666,-0.639095,0.029678,-0.768554,0.017926,-0.021896,0.132965,5.742340,26.139475,-28.006042,,,,,,,
,,,,,,,,,,,,,,,,25.305353,51.439597,12.047482,10.610000,67.500000,1523695626.999027,
1523695627.062778,-0.692149,-0.027964,-1.094498,0.082971,0.104894,-0.009823,-0.637944,0.027960,-0.769575,-0.003170,-0.044623,0.086149,5.892914,26.288645,-28.156555,,,,,,,
1523695627.092746,-0.686086,-0.026986,-1.094051,-0.022088,0.246456,-0.007903,-0.633283,0.026983,-0.773450,-0.029788,-0.073644,-0.049030,5.743393,26.064768,-27.705750,,,,,,,
1523695627.122714,-0.681812,-0.029312,-1.096993,-0.173180,0.073934,-0.051529,-0.629930,0.029307,-0.776099,-0.063857,-0.015925,-0.130869,5.598038,26.215952,-27.181396,,,,,,,
1523695627.152682,-0.683928,-0.030660,-1.100793,-0.057668,-0.153551,-0.081044,-0.631545,0.030655,-0.774733,-0.032197,0.013962,0.006376,5.595032,26.140589,-27.556152,,,,,,,
1523695627.182651,-0.687566,-0.029321,-1.102237,0.024604,-0.097676,-0.045882,-0.634385,0.029317,-0.772461,0.003678,0.010325,0.053467,4.917389,25.918558,-27.630615,,,,,,,
1523695627.212619,-0.689368,-0.027759,-1.101021,0.078930,-0.047301,0.023374,-0.635805,0.027755,-0.771351,0.016817,-0.025878,0.069614,5.740860,25.764856,-27.629578,,,,,,,
1523695627.242587,-0.689449,-0.028200,-1.099048,-0.033145,0.021678,0.076496,-0.635859,0.028196,-0.771290,0.010279,-0.052275,0.013005,6.345749,26.212214,-27.556030,,,,,,,
1523695627.272556,-0.689755,-0.031587,-1.099659,-0.103561,-0.027699,0.022143,-0.636031,0.031582,-0.771017,-0.006242,-0.031917,-0.003977,5.526947,26.516413,-27.032654,,,,,,,
1523695627.302524,-0.691368,-0.031779,-1.101078,0.002514,-0.036967,-0.057683,-0.637269,0.031774,-0.769986,-0.007811,-0.015508,0.008740,5.521698,25.991449,-27.030518,,,,,,,
1523695627.332492,-0.691583,-0.028993,-1.101829,0.083988,0.020270,-0.068322,-0.637489,0.028988,-0.769913,-0.025337,-0.011975,0.010560,5.816437,25.914362,-27.780090,,,,,,,
1523695627.362460,-0.690386,-0.026525,-1.101628,0.017796,0.084890,-0.015167,-0.636610,0.026522,-0.770729,-0.058488,-0.038333,-0.014000,5.518845,26.065851,-27.630859,,,,,,,
1523695627.392429,-0.687151,-0.027933,-1.102348,-0.082788,0.089072,0.030569,-0.634090,0.027930,-0.772755,-0.049611,-0.066901,-0.086834,5.817627,25.989435,-27.705444,,,,,,,
1523695627.422397,-0.688179,-0.030436,-1.103360,-0.075067,-0.103223,0.022246,-0.634837,0.030431,-0.772046,-0.024434,-0.024587,-0.046756,4.926834,26.593973,-27.183289,,,,,,,
1523695627.452365,-0.691623,-0.031279,-1.103264,0.013538,-0.093956,0.032959,-0.637476,0.031274,-0.769835,0.009470,0.003379,0.021468,4.847763,26.369028,-27.482422,,,,,,,
1523695627.482333,-0.693981,-0.031270,-1.101519,0.037986,-0.089915,0.055342,-0.639289,0.031265,-0.768330,0.032691,0.016465,0.077870,5.667801,26.139887,-27.931091,,,,,,,
1523695627.512297,-0.694240,-0.030756,-1.099179,0.064262,0.048170,0.052035,-0.639499,0.030751,-0.768177,0.001849,-0.057912,0.087589,6.343643,26.361612,-28.156616,,,,,,,
1523695627.542265,-0.690510,-0.031445,-1.097886,-0.023701,0.171779,0.033733,-0.636615,0.031440,-0.770540,-0.051541,-0.088767,-0.025862,4.998077,26.218653,-27.181763,,,,,,,
1523695627.572233,-0.687322,-0.031891,-1.098965,-0.030175,0.055557,-0.056737,-0.634147,0.031886,-0.772555,-0.054757,-0.089655,-0.066205,5.000641,26.518564,-27.257935,,,,,,,
1523695627.602201,-0.686954,-0.030823,-1.101372,-0.033375,0.025963,-0.080140,-0.633883,0.030818,-0.772814,-0.061185,-0.032665,-0.071378,5.818817,26.289133,-28.006592,,,,,,,
1523695627.632170,-0.687583,-0.030223,-1.103563,-0.040334,-0.048694,-0.038515,-0.634381,0.030218,-0.772430,-0.027561,-0.004568,-0.033738,4.991501,25.693460,-27.404602,,,,,,,
1523695627.662138,-0.688839,-0.031061,-1.103879,-0.045051,-0.028130,0.062678,-0.635335,0.031056,-0.771612,-0.000408,-0.015752,0.002722,5.442352,25.916193,-27.630310,,,,,,,
1523695627.692106,-0.689299,-0.034918,-1.102929,-0.094368,-0.005050,0.122289,-0.635609,0.034911,-0.771221,-0.000362,-0.012984,0.038433,5.747757,25.915735,-26.730164,,,,,,,
1523695627.722074,-0.688460,-0.037823,-1.101396,0.006448,0.043866,0.079703,-0.634894,0.037814,-0.771673,0.002204,-0.033526,0.032004,5.149414,26.218195,-26.956665,,,,,,,
1523695627.752043,-0.686049,-0.036700,-1.099219,0.111583,0.071778,0.004088,-0.633058,0.036692,-0.773234,-0.000884,-0.041666,-0.011144,5.440094,25.915842,-28.005310,,,,,,,
1523695627.782011,-0.686589,-0.032978,-1.097333,0.130545,-0.034244,-0.037343,-0.633558,0.032972,-0.772992,-0.004442,-0.059309,0.022046,6.269257,26.062555,-27.555481,,,,,,,
1523695627.811979,-0.686147,-0.031174,-1.097020,-0.021937,0.032954,-0.018350,-0.633253,0.031169,-0.773317,-0.040667,-0.079493,-0.017378,5.667374,25.690561,-27.254272,,,,,,,
1523695627.841947,-0.685988,-0.032177,-1.099109,-0.086191,-0.029497,-0.032175,-0.633110,0.032171,-0.773393,-0.045021,-0.061865,-0.033858,5.447449,26.291407,-27.406799,,,,,,,
1523695627.871916,-0.687484,-0.032971,-1.101070,-0.068069,-0.010550,-0.011942,-0.634250,0.032965,-0.772425,-0.030285,-0.025549,-0.001272,4.688782,25.694361,-27.854797,,,,,,,
1523695627.901884,-0.687583,-0.033685,-1.101434,-0.005391,-0.032262,0.030752,-0.634311,0.033679,-0.772344,-0.011121,0.007093,-0.010249,4.989838,25.618311,-27.554321,,,,,,,
1523695627.931852,-0.688917,-0.032617,-1.099617,0.097237,-0.010170,0.025482,-0.635363,0.032611,-0.771524,-0.010114,-0.026187,-0.000448,5.216156,25.842142,-27.705139,,,,,,,
1523695627.961821,-0.687202,-0.031104,-1.097750,0.033592,0.060258,0.006182,-0.634070,0.031099,-0.772650,-0.039331,-0.033449,-0.080865,5.219025,25.767725,-27.104797,,,,,,,
1523695627.991789,-0.687790,-0.031883,-1.098836,-0.070408,-0.071038,-0.023598,-0.634509,0.031878,-0.772258,-0.009245,-0.026476,-0.036748,4.617416,25.695292,-27.254822,,,,,,,
1523695628.021757,-0.691359,-0.032564,-1.100023,-0.027117,-0.147818,0.001012,-0.637247,0.032559,-0.769972,0.022317,-0.003597,0.076124,5.210175,25.466791,-28.078674,,,,,,,
1523695628.051756,-0.694430,-0.032656,-1.099238,0.042372,-0.079210,0.042548,-0.639606,0.032650,-0.768009,0.024830,-0.015041,0.132648,5.736984,25.240107,-27.402405,,,,,,,
,,,,,,,,,,,,,,,,25.305400,51.439684,11.511837,11.290000,66.796875,1523695627.999016,
1523695628.081724,-0.694758,-0.031791,-1.096535,0.073786,0.033237,0.056323,-0.639876,0.031786,-0.767820,0.013228,-0.063204,0.125593,5.289688,25.467188,-27.328613,,,,,,,
1523695628.111692,-0.691723,-0.031347,-1.095163,0.025433,0.129422,-0.005608,-0.637552,0.031342,-0.769770,-0.006400,-0.081925,0.060205,6.199661,26.288401,-27.031372,,,,,,,
1523695628.141661,-0.687399,-0.030027,-1.095783,0.005793,0.211707,-0.062193,-0.634243,0.030022,-0.772551,-0.047291,-0.069970,-0.018221,5.070969,26.143091,-27.406372,,,,,,,
1523695628.171629,-0.681250,-0.029564,-1.098109,-0.062694,0.171550,-0.068603,-0.629489,0.029560,-0.776447,-0.050900,-0.032963,-0.140835,5.293579,25.767328,-27.179810,,,,,,,
1523695628.201596,-0.680331,-0.029563,-1.100122,-0.038214,-0.047669,-0.034250,-0.628776,0.029559,-0.777025,-0.044503,0.010984,-0.103072,6.344269,25.837595,-27.179565,,,,,,,
1523695628.231565,-0.682983,-0.031314,-1.101107,-0.080473,-0.087469,0.049934,-0.630800,0.031309,-0.775313,0.014360,0.022951,0.003783,5.524399,26.216501,-26.956482,,,,,,,
1523695628.261533,-0.684093,-0.033714,-1.100057,-0.018325,0.005627,0.087178,-0.631611,0.033708,-0.774552,0.023823,0.016341,0.069657,5.075607,26.293604,-26.882019,,,,,,,
1523695628.291502,-0.682077,-0.034103,-1.097524,0.092126,0.071505,0.049893,-0.630040,0.034096,-0.775814,0.026112,-0.046059,0.022640,6.340515,25.911860,-27.929810,,,,,,,
1523695628.321470,-0.680328,-0.031709,-1.095042,0.099903,0.057100,-0.020411,-0.628732,0.031704,-0.776975,-0.027259,-0.062481,-0.047014,5.520050,25.916300,-27.180237,,,,,,,
1523695628.351438,-0.680193,-0.029475,-1.095644,-0.002716,-0.047383,-0.086442,-0.628670,0.029471,-0.777113,-0.049675,-0.059607,-0.069520,5.447449,26.066782,-27.030884,,,,,,,
1523695628.381407,-0.683297,-0.028960,-1.099078,-0.103424,-0.124705,-0.086437,-0.631088,0.028956,-0.775170,-0.055908,-0.017085,-0.028343,5.826782,26.589914,-27.182800,,,,,,,
1523695628.411375,-0.686294,-0.030541,-1.102169,-0.091927,-0.073332,0.007293,-0.633379,0.030537,-0.773238,-0.053740,-0.006748,-0.010834,5.514221,25.466105,-27.403442,,,,,,,
1523695628.441343,-0.687695,-0.033495,-1.101793,-0.071008,-0.029557,0.124458,-0.634401,0.033489,-0.772277,-0.038115,-0.017528,-0.020539,5.591751,25.765680,-27.479614,,,,,,,
1523695628.471311,-0.688652,-0.036969,-1.099354,0.011112,-0.034137,0.140516,-0.635063,0.036960,-0.771575,0.001045,-0.052891,0.016113,6.422729,25.912683,-26.729797,,,,,,,
1523695628.501275,-0.690261,-0.037137,-1.095761,0.110611,-0.082699,0.059660,-0.636299,0.037129,-0.770548,0.030616,-0.042530,0.059366,5.899689,26.065119,-26.655640,,,,,,,
1523695628.531243,-0.693097,-0.033783,-1.093296,0.147546,-0.067150,-0.049014,-0.638558,0.033776,-0.768832,0.034676,-0.020440,0.138750,5.817490,25.839670,-27.479797,,,,,,,
1523695628.561211,-0.690566,-0.028348,-1.092533,0.129940,0.208578,-0.117489,-0.636718,0.028344,-0.770575,-0.001008,-0.017389,0.071982,7.015488,25.908823,-27.929504,,,,,,,
1523695628.591180,-0.682396,-0.024678,-1.094574,-0.012703,0.294019,-0.127278,-0.630462,0.024676,-0.775827,-0.063706,-0.043215,-0.083548,5.971069,26.288828,-27.631531,,,,,,,
1523695628.621148,-0.675119,-0.024603,-1.098573,-0.119252,0.165364,-0.077154,-0.624800,0.024600,-0.780396,-0.083314,-0.045963,-0.204421,5.745667,25.840509,-26.954895,,,,,,,
1523695628.651116,-0.675705,-0.027884,-1.102695,-0.186018,-0.121840,-0.010850,-0.625204,0.027881,-0.779962,-0.053934,0.011258,-0.089835,6.203415,26.663370,-27.032898,,,,,,,
1523695628.681084,-0.680497,-0.031295,-1.104198,-0.047723,-0.151354,0.058536,-0.628871,0.031290,-0.776879,0.013988,0.031042,0.053933,5.517502,25.841013,-27.479980,,,,,,,
1523695628.711053,-0.683719,-0.031487,-1.101052,0.121270,-0.049997,0.090533,-0.631367,0.031482,-0.774844,0.049153,-0.001498,0.107074,5.741608,25.839853,-27.629883,,,,,,,
1523695628.741021,-0.681446,-0.028842,-1.095741,0.202252,0.118963,0.061650,-0.629654,0.028838,-0.776339,0.017166,-0.061553,0.029239,6.116440,25.688395,-27.404053,,,,,,,
1523695628.770989,-0.676821,-0.026149,-1.092913,0.067128,0.122024,-0.024757,-0.626104,0.026146,-0.779301,0.003911,-0.064293,-0.072491,5.824692,26.514704,-27.407471,,,,,,,
1523695628.800957,-0.677722,-0.024296,-1.094442,-0.024145,-0.083375,-0.100263,-0.626834,0.024293,-0.778773,-0.027356,-0.006044,-0.035680,5.218552,26.216913,-27.931641,,,,,,,
1523695628.830926,-0.680221,-0.024119,-1.098449,-0.101105,-0.082236,-0.083276,-0.628782,0.024116,-0.777207,-0.048648,0.025490,-0.006942,6.644699,26.060938,-27.480286,,,,,,,
1523695628.860894,-0.680991,-0.024362,-1.100686,-0.032799,0.010530,-0.000214,-0.629376,0.024359,-0.776718,-0.070850,-0.014868,-0.032745,5.448196,26.141779,-27.031189,,,,,,,
1523695628.890862,-0.680737,-0.025156,-1.100427,0.027612,-0.027200,0.054216,-0.629167,0.025153,-0.776863,-0.016311,-0.064002,-0.038445,5.450302,26.216990,-26.806519,,,,,,,
1523695628.920830,-0.684685,-0.024488,-1.098174,0.068820,-0.149362,0.033066,-0.632239,0.024486,-0.774386,0.029319,-0.023754,0.088625,5.740555,25.914560,-27.930176,,,,,,,
1523695628.950799,-0.686413,-0.022872,-1.095941,0.117519,-0.033490,0.008481,-0.633600,0.022870,-0.773322,0.069666,-0.002241,0.105399,5.440399,25.766138,-27.704712,,,,,,,
1523695628.980767,-0.685918,-0.018967,-1.094047,0.106727,0.101981,-0.059868,-0.633269,0.018966,-0.773699,0.038100,0.028474,0.143739,5.589188,25.915018,-28.155212,,,,,,,
1523695629.010735,-0.679502,-0.016141,-1.094296,0.025125,0.221308,-0.074972,-0.628323,0.016140,-0.777784,-0.018970,-0.003857,-0.007830,5.070969,26.143091,-27.406372,,,,,,,
1523695629.040703,-0.672667,-0.016795,-1.097418,-0.153285,0.199422,-0.072951,-0.622986,0.016794,-0.782052,-0.084259,-0.053568,-0.163306,5.299561,26.367289,-27.182190,,,,,,,
,,,,,,,,,,,,,,,,25.305463,51.439845,11.314449,12.880000,66.445312,1523695628.999005,
1523695629.070672,-0.669891,-0.019754,-1.101187,-0.146041,-0.017832,-0.008783,-0.620779,0.019753,-0.783736,-0.061472,-0.036263,-0.148377,5.742950,26.064692,-27.780701,,,,,,,
1523695629.100640,-0.675054,-0.023332,-1.102026,-0.108835,-0.202259,0.064941,-0.624769,0.023330,-0.780460,-0.011598,-0.016921,0.064411,5.894730,26.064310,-27.480652,,,,,,,
1523695629.130639,-0.677242,-0.026087,-1.099763,0.002810,-0.014776,0.110653,-0.626433,0.026084,-0.779038,0.013808,-0.045554,0.031831,5.301376,26.142954,-26.506287,,,,,,,
1523695629.160607,-0.677117,-0.027526,-1.097662,0.002163,0.028036,0.066923,-0.626311,0.027523,-0.779087,0.024245,-0.056286,0.017444,5.076508,26.293741,-26.731995,,,,,,,
1523695629.190575,-0.675625,-0.027645,-1.097133,0.001712,0.058419,-0.023673,-0.625146,0.027641,-0.780018,0.015099,-0.046013,-0.065059,5.367233,25.766764,-27.404724,,,,,,,
1523695629.220544,-0.674901,-0.025834,-1.097847,0.017760,-0.019754,-0.096032,-0.624612,0.025831,-0.780508,-0.028663,-0.009916,-0.082529,5.595352,25.990885,-27.255554,,,,,,,
1523695629.250512,-0.675039,-0.023910,-1.099065,-0.047276,0.006938,-0.090781,-0.624749,0.023907,-0.780459,-0.065391,0.001102,-0.095105,6.125275,26.438578,-27.182068,,,,,,,
1523695629.280480,-0.677675,-0.024699,-1.101703,-0.105105,-0.205810,-0.037337,-0.626792,0.024696,-0.778795,-0.026894,0.012001,-0.011565,4.778336,26.520014,-26.808044,,,,,,,
1523695629.310448,-0.684488,-0.026623,-1.103665,-0.051911,-0.182950,0.018084,-0.632052,0.026620,-0.774468,0.005755,-0.015435,0.134194,4.472488,26.295786,-27.407288,,,,,,,
1523695629.340417,-0.686284,-0.026343,-1.101858,0.103549,-0.001828,0.047843,-0.633447,0.026340,-0.773338,0.016824,-0.027911,0.106346,5.743835,26.289469,-28.006653,,,,,,,
1523695629.370385,-0.683682,-0.023434,-1.099143,0.161341,0.186564,-0.018358,-0.631478,0.023432,-0.775039,0.014001,-0.059671,0.051178,5.589645,25.690470,-27.704346,,,,,,,
1523695629.400353,-0.679182,-0.018264,-1.097142,0.129454,0.149848,-0.075877,-0.628052,0.018263,-0.777957,-0.029663,-0.024885,-0.067883,4.853470,26.669443,-27.033569,,,,,,,
1523695629.430321,-0.676995,-0.016146,-1.099560,-0.053439,0.031586,-0.117454,-0.626372,0.016145,-0.779357,0.017089,0.018370,-0.081391,5.666000,25.914972,-27.855164,,,,,,,
1523695629.460290,-0.679043,-0.014631,-1.102376,-0.016965,-0.132344,-0.088496,-0.627981,0.014630,-0.778091,0.015448,0.045810,0.094192,4.990143,25.693232,-27.629639,,,,,,,
1523695629.490258,-0.680534,-0.014888,-1.103298,-0.030571,0.067667,0.032767,-0.629138,0.014888,-0.777150,0.016056,0.015401,0.099386,4.990433,25.992777,-28.080872,,,,,,,
1523695629.520236,-0.675190,-0.017219,-1.101299,-0.029379,0.193529,0.116815,-0.624953,0.017218,-0.780473,-0.042940,-0.072058,-0.044402,5.524994,26.590982,-27.482971,,,,,,,
1523695629.550204,-0.671448,-0.020893,-1.099427,-0.052453,0.026853,0.100994,-0.621984,0.020892,-0.782751,-0.001231,-0.095401,-0.070704,4.317841,25.921335,-27.555908,,,,,,,
1523695629.580173,-0.673166,-0.023159,-1.098392,-0.023729,-0.065222,0.039300,-0.623297,0.023157,-0.781642,-0.000940,-0.051477,-0.025197,5.214661,25.692148,-27.704529,,,,,,,
1523695629.610141,-0.674709,-0.022505,-1.098072,0.039881,0.003033,-0.019323,-0.624512,0.022503,-0.780691,0.015945,-0.036785,0.024084,5.893524,26.213877,-27.931274,,,,,,,
1523695629.640109,-0.673428,-0.021302,-1.097526,-0.013420,0.065616,0.016795,-0.623528,0.021301,-0.781511,0.012673,-0.066985,0.020357,5.598495,26.216028,-27.106384,,,,,,,
1523695629.670077,-0.671790,-0.024578,-1.098707,-0.179360,-0.003250,0.045516,-0.622200,0.024576,-0.782472,-0.020912,-0.043558,-0.043211,4.993896,25.843592,-27.255249,,,,,,,
1523695629.700046,-0.672245,-0.028052,-1.101374,-0.060495,0.001152,-0.018331,-0.622499,0.028048,-0.782117,0.011308,-0.048144,-0.030215,5.738754,25.689646,-27.854248,,,,,,,
1523695629.730014,-0.673471,-0.025286,-1.100205,0.085706,-0.063733,-0.060778,-0.623504,0.025284,-0.781411,-0.005754,-0.006622,0.009958,5.440109,25.691217,-27.629395,,,,,,,
1523695629.759982,-0.673489,-0.022102,-1.099252,0.069903,0.010500,-0.035284,-0.623565,0.022101,-0.781459,-0.005342,-0.017477,-0.012807,5.667221,25.765421,-27.404541,,,,,,,
1523695629.789951,-0.674568,-0.021531,-1.100213,-0.086341,-0.066680,-0.034264,-0.624415,0.021529,-0.780795,-0.020314,0.012971,0.014087,5.442490,26.065973,-27.855896,,,,,,,
1523695629.819919,-0.675234,-0.023479,-1.101751,-0.067253,-0.020416,0.029631,-0.624908,0.023477,-0.780345,0.006530,0.016456,0.030056,4.989532,25.768015,-27.854919,,,,,,,
1523695629.849887,-0.677238,-0.024988,-1.101192,-0.005541,-0.040925,0.053141,-0.626448,0.024986,-0.779063,0.019850,-0.003211,0.088572,5.664658,25.690119,-27.704285,,,,,,,
1523695629.879855,-0.675261,-0.024549,-1.098907,0.104073,0.109739,0.046677,-0.624913,0.024546,-0.780308,-0.036815,-0.062373,-0.005428,6.496490,26.286539,-27.556274,,,,,,,
1523695629.909824,-0.671927,-0.023795,-1.097528,-0.011971,0.123108,-0.002426,-0.622319,0.023792,-0.782402,-0.050044,-0.067478,-0.097374,4.395691,26.071207,-27.331482,,,,,,,
1523695629.939792,-0.670018,-0.024351,-1.099308,-0.050625,0.031054,-0.042862,-0.620816,0.024348,-0.783578,-0.045078,-0.042735,-0.151557,5.065125,25.692896,-27.629639,,,,,,,
1523695629.969760,-0.672076,-0.024530,-1.101558,-0.055558,-0.105017,-0.033138,-0.622424,0.024528,-0.782295,-0.025403,0.012581,-0.058815,5.067230,25.543497,-27.028992,,,,,,,
1523695629.999728,-0.675460,-0.024916,-1.102023,-0.000513,-0.124795,0.040443,-0.625062,0.024914,-0.780177,0.020783,0.009022,0.045695,5.226669,26.442850,-26.957520,,,,,,,
1523695630.029697,-0.677535,-0.026122,-1.100509,-0.007753,-0.024143,0.084029,-0.626660,0.026119,-0.778854,0.019177,0.008060,0.084411,4.852264,26.369761,-26.732422,,,,,,,
1523695630.059665,-0.674859,-0.027435,-1.099028,0.012532,0.169477,0.045486,-0.624552,0.027432,-0.780501,-0.002599,-0.037365,-0.005037,4.615448,25.769846,-27.705139,,,,,,,
,,,,,,,,,,,,,,,,25.305514,51.440006,10.818539,14.050000,66.796875,1523695629.998996,
1523695630.089633,-0.671758,-0.025476,-1.098491,0.093724,0.039424,-0.075792,-0.622161,0.025473,-0.782474,-0.025361,-0.033164,-0.051297,5.440109,25.691217,-27.629395,,,,,,,
1523695630.119601,-0.670584,-0.022002,-1.099606,0.034078,0.046108,-0.098221,-0.621293,0.022000,-0.783269,-0.040100,-0.038098,-0.103602,5.898331,26.514154,-27.632507,,,,,,,
1523695630.149570,-0.671656,-0.022295,-1.102477,-0.137663,-0.088840,-0.038539,-0.622128,0.022293,-0.782597,-0.029651,0.006302,-0.066051,5.597733,26.365656,-27.481995,,,,,,,
1523695630.179538,-0.674496,-0.025639,-1.104790,-0.101762,-0.064127,0.060561,-0.624298,0.025636,-0.780765,0.006638,0.004912,0.028934,4.770233,26.069452,-27.406250,,,,,,,
1523695630.209537,-0.674402,-0.028336,-1.103655,-0.019270,0.048033,0.100990,-0.624179,0.028332,-0.780766,-0.009426,-0.009244,-0.017665,5.520203,26.066080,-27.405823,,,,,,,
1523695630.239505,-0.672659,-0.028162,-1.100908,0.118760,0.021656,0.023346,-0.622821,0.028158,-0.781857,0.013674,-0.054190,-0.038471,4.701828,26.370356,-26.807495,,,,,,,
1523695630.269473,-0.674344,-0.024737,-1.099561,0.068592,-0.081700,-0.069293,-0.624193,0.024735,-0.780878,0.028612,-0.012619,0.012140,5.148804,26.292978,-27.181946,,,,,,,
1523695630.299441,-0.676407,-0.023664,-1.101983,-0.061463,-0.061046,-0.089654,-0.625819,0.023662,-0.779608,0.028255,0.029164,0.036551,5.890381,25.764109,-27.704468,,,,,,,
1523695630.329410,-0.677651,-0.022893,-1.105056,-0.046399,-0.022880,-0.081165,-0.626800,0.022891,-0.778843,0.003417,0.046415,0.089497,5.219299,26.067286,-27.556030,,,,,,,
1523695630.359378,-0.674687,-0.023116,-1.106976,-0.037392,0.159390,-0.013148,-0.624486,0.023114,-0.780693,-0.025813,-0.012372,-0.025001,4.847473,26.069483,-27.031189,,,,,,,
1523695630.389346,-0.672633,-0.024046,-1.107300,-0.022272,-0.019298,0.005161,-0.622867,0.024044,-0.781957,-0.039334,-0.019405,-0.048426,4.995667,26.293131,-27.707031,,,,,,,
1523695630.419315,-0.673238,-0.023726,-1.106743,0.086863,0.022971,-0.001188,-0.623345,0.023724,-0.781586,0.003503,-0.039029,-0.037201,5.068573,25.768335,-27.179871,,,,,,,
1523695630.449283,-0.673589,-0.021396,-1.105390,0.061157,-0.022494,-0.024602,-0.623652,0.021394,-0.781409,-0.017919,0.016127,-0.012338,4.844177,25.919199,-27.330627,,,,,,,
1523695630.479251,-0.672234,-0.020025,-1.105201,0.013424,0.053060,-0.021526,-0.622610,0.020024,-0.782275,0.005713,-0.002827,-0.078168,5.670654,26.065470,-27.330811,,,,,,,
1523695630.509223,-0.670925,-0.021500,-1.106124,-0.152099,0.067174,-0.004621,-0.621567,0.021498,-0.783065,-0.044983,0.025453,-0.092255,4.391800,25.771082,-27.480225,,,,,,,
1523695630.539192,-0.669107,-0.025564,-1.108801,-0.123700,0.008407,0.029567,-0.620083,0.025562,-0.784119,0.023113,0.003125,-0.084457,5.589966,25.540766,-27.403687,,,,,,,
1523695630.569160,-0.671501,-0.028399,-1.109622,-0.092243,-0.094898,0.051008,-0.621911,0.028395,-0.782573,0.012795,0.006548,0.090052,6.195923,26.138041,-27.405762,,,,,,,
1523695630.599128,-0.670560,-0.030917,-1.109442,-0.011480,0.071651,0.062620,-0.621127,0.030912,-0.783099,0.005084,-0.050383,0.048175,5.298676,25.917902,-26.580383,,,,,,,
1523695630.629096,-0.669156,-0.031455,-1.108067,0.014015,0.009105,0.032865,-0.620017,0.031449,-0.783957,0.005134,-0.038667,0.032370,4.766937,25.694544,-27.329773,,,,,,,
1523695630.659065,-0.668930,-0.031496,-1.108186,0.012255,0.031752,-0.016161,-0.619839,0.031491,-0.784096,0.019375,-0.037564,0.022408,5.289230,25.691736,-27.779480,,,,,,,
1523695630.689033,-0.668544,-0.030225,-1.108621,0.021848,0.005332,-0.038513,-0.619561,0.030221,-0.784366,0.009057,0.006553,0.069049,4.917404,25.693933,-27.254700,,,,,,,
1523695630.719001,-0.666772,-0.028123,-1.108771,0.072476,0.110366,-0.033252,-0.618207,0.028119,-0.785511,0.014264,-0.018125,0.036778,4.924286,26.069437,-26.731140,,,,,,,
1523695630.748969,-0.662069,-0.027310,-1.108830,-0.043677,0.196514,-0.002528,-0.614521,0.027306,-0.788427,-0.041775,-0.011407,-0.061884,5.223053,26.217630,-27.181641,,,,,,,
1523695630.778938,-0.656599,-0.029988,-1.110418,-0.093360,0.107154,0.029490,-0.610152,0.029984,-0.791716,-0.003831,-0.021958,-0.146623,4.841049,25.469431,-27.103821,,,,,,,
1523695630.808906,-0.659691,-0.031537,-1.110586,-0.037952,-0.157563,0.027670,-0.612568,0.031532,-0.789788,0.014072,0.003105,0.024758,5.146118,25.843287,-26.880188,,,,,,,
1523695630.838874,-0.661054,-0.032607,-1.109335,0.020086,-0.017745,0.072315,-0.613622,0.032601,-0.788926,0.021673,-0.009758,0.046189,5.376511,26.292398,-26.731812,,,,,,,
1523695630.868842,-0.660498,-0.033724,-1.107571,-0.027702,0.027054,0.063718,-0.613161,0.033718,-0.789238,0.015871,-0.027446,0.026695,4.622803,25.920786,-26.730713,,,,,,,
1523695630.898811,-0.657240,-0.035243,-1.105806,-0.010128,0.088912,0.024249,-0.610554,0.035236,-0.791190,-0.005245,-0.061222,-0.097238,4.994492,25.768824,-27.029907,,,,,,,
1523695630.928779,-0.659201,-0.034567,-1.105137,0.020172,-0.128562,-0.037313,-0.612119,0.034560,-0.790010,0.007520,-0.025801,-0.034270,5.898788,26.064966,-26.805664,,,,,,,
1523695630.958747,-0.660668,-0.033139,-1.104392,0.003413,-0.042502,-0.027833,-0.613308,0.033133,-0.789149,0.014217,-0.043951,0.004358,4.626694,26.220926,-26.581970,,,,,,,
1523695630.988716,-0.662112,-0.034410,-1.105307,-0.139764,-0.046577,-0.005540,-0.614420,0.034403,-0.788229,0.001047,-0.017725,0.010473,5.144318,25.842997,-27.180176,,,,,,,
1523695631.018684,-0.662058,-0.036917,-1.107198,-0.069143,-0.016930,-0.012990,-0.614322,0.036908,-0.788191,0.008991,-0.016629,-0.051256,5.071274,25.768778,-26.729858,,,,,,,
1523695631.048652,-0.664679,-0.037092,-1.108187,-0.028750,-0.077499,-0.028873,-0.616382,0.037084,-0.786573,-0.006665,0.002192,0.018126,5.303329,26.293024,-26.431885,,,,,,,
,,,,,,,,,,,,,,,,25.305573,51.440165,10.707119,15.040000,67.500000,1523695630.998984,
1523695631.078620,-0.665175,-0.035463,-1.108175,0.085666,-0.031061,-0.023511,-0.616809,0.035455,-0.786314,0.062640,-0.020776,0.001585,4.706497,26.520853,-26.283081,,,,,,,
1523695631.108589,-0.665451,-0.035526,-1.107847,-0.078590,0.061475,0.023150,-0.617024,0.035519,-0.786142,-0.001460,0.011310,0.009332,5.223816,26.068003,-26.806030,,,,,,,
1523695631.138557,-0.662305,-0.037244,-1.108498,-0.007968,0.079458,0.009335,-0.614509,0.037236,-0.788030,0.003288,-0.001774,-0.082225,4.775620,26.294947,-26.882141,,,,,,,
1523695631.168525,-0.661169,-0.036038,-1.107843,0.038107,0.074271,-0.025784,-0.613641,0.036030,-0.788762,-0.018485,-0.037510,-0.060740,4.929688,26.294931,-26.207092,,,,,,,
1523695631.198493,-0.659675,-0.035654,-1.107071,-0.007361,-0.016240,0.016897,-0.612470,0.035647,-0.789689,-0.031130,-0.040591,-0.092132,5.158401,26.893518,-26.584351,,,,,,,
1523695631.228462,-0.660236,-0.038341,-1.106580,-0.118489,-0.001294,0.046633,-0.612852,0.038332,-0.789267,-0.021608,-0.030199,-0.066309,4.627151,26.220987,-26.506958,,,,,,,
1523695631.258430,-0.660433,-0.039926,-1.105934,0.027865,-0.010008,0.024379,-0.612970,0.039915,-0.789097,-0.002814,-0.014631,-0.031505,5.076508,26.293741,-26.731995,,,,,,,
1523695631.288429,-0.660267,-0.038341,-1.104693,0.071989,0.029444,-0.009730,-0.612877,0.038332,-0.789248,0.000862,-0.015490,-0.011594,4.936142,26.894983,-26.134460,,,,,,,
1523695631.318397,-0.658409,-0.036454,-1.103767,0.039924,0.026305,-0.005487,-0.611452,0.036446,-0.790441,-0.018446,-0.010369,-0.086970,4.707382,26.745630,-26.508972,,,,,,,
1523695631.348365,-0.658180,-0.037256,-1.105071,-0.097681,0.035272,-0.022650,-0.611253,0.037247,-0.790558,-0.010680,-0.016221,-0.093201,5.676056,26.515604,-27.182556,,,,,,,
1523695631.378333,-0.658730,-0.038112,-1.106592,-0.004326,-0.098867,-0.021372,-0.611669,0.038103,-0.790196,-0.036189,0.001661,-0.065212,5.006638,26.669291,-26.508545,,,,,,,
1523695631.408302,-0.661619,-0.036841,-1.106914,0.052488,-0.058545,-0.032034,-0.613978,0.036832,-0.788463,-0.006200,-0.021146,0.000560,5.608093,26.816568,-26.508850,,,,,,,
1523695631.438270,-0.663838,-0.034740,-1.105011,0.075408,-0.118527,0.026654,-0.615772,0.034733,-0.787158,0.009495,-0.006535,0.038424,5.526505,26.516352,-27.107666,,,,,,,
1523695631.468238,-0.665119,-0.035501,-1.103760,-0.026587,0.020795,0.047736,-0.616764,0.035493,-0.786347,0.021046,-0.019029,0.057786,6.190979,25.687983,-27.479004,,,,,,,
1523695631.498199,-0.664109,-0.035610,-1.102866,0.046169,0.012326,0.014783,-0.615967,0.035602,-0.786967,0.025895,-0.021244,0.031107,5.444016,25.766718,-27.104675,,,,,,,
1523695631.528168,-0.660973,-0.034329,-1.102302,0.043859,0.170900,-0.019476,-0.613524,0.034322,-0.788930,-0.026262,-0.046896,-0.060908,5.299133,25.917963,-26.505371,,,,,,,
1523695631.558136,-0.656969,-0.033411,-1.102650,-0.044000,0.095735,-0.026931,-0.610379,0.033404,-0.791405,-0.053546,-0.018313,-0.167778,4.987167,24.944010,-26.876648,,,,,,,
1523695631.588104,-0.657620,-0.034552,-1.104702,-0.046043,-0.126320,-0.030968,-0.610870,0.034545,-0.790977,0.006164,-0.016982,-0.073846,5.061707,24.943598,-26.951599,,,,,,,
1523695631.618073,-0.663943,-0.033705,-1.103928,0.050434,-0.223564,0.013946,-0.615877,0.033699,-0.787121,0.043352,0.005028,0.105465,5.886963,25.239435,-27.402344,,,,,,,
1523695631.648041,-0.664383,-0.034087,-1.101384,0.008976,0.128860,0.079627,-0.616215,0.034081,-0.786840,0.024434,-0.036690,0.071965,4.316071,25.471796,-27.104065,,,,,,,
1523695631.678009,-0.655761,-0.036189,-1.099717,-0.072361,0.321391,0.079376,-0.609363,0.036181,-0.792065,-0.016187,-0.050677,-0.104175,4.079254,24.422647,-27.325012,,,,,,,
1523695631.707977,-0.647346,-0.039465,-1.100819,-0.087495,0.202902,0.011285,-0.602602,0.039455,-0.797066,-0.002714,-0.033992,-0.218498,2.729782,24.428782,-27.250732,,,,,,,
1523695631.737946,-0.650518,-0.038331,-1.101900,0.083738,-0.296276,-0.086106,-0.605154,0.038322,-0.795185,0.078420,-0.000342,0.082493,4.614304,24.796274,-26.276184,,,,,,,
1523695631.767914,-0.658739,-0.033666,-1.100626,0.161602,-0.238446,-0.024317,-0.611773,0.033659,-0.790316,0.078829,-0.000395,0.201373,3.722702,25.550440,-26.129700,,,,,,,
1523695631.797882,-0.662508,-0.032196,-1.098306,0.022318,-0.006026,0.065920,-0.614777,0.032191,-0.788043,0.037400,-0.016810,0.142963,4.162048,25.022562,-27.027344,,,,,,,
1523695631.827850,-0.657457,-0.034142,-1.097100,-0.039727,0.199205,0.064613,-0.610749,0.034136,-0.791087,-0.016799,-0.073839,-0.072682,5.223984,25.768534,-26.279785,,,,,,,
1523695631.857819,-0.653044,-0.035616,-1.097577,-0.057812,0.125433,-0.014185,-0.607222,0.035608,-0.793734,-0.030901,-0.067942,-0.154157,5.075485,25.919199,-26.280457,,,,,,,
1523695631.887787,-0.653161,-0.035845,-1.098853,-0.024654,-0.124171,-0.039493,-0.607309,0.035837,-0.793656,0.001047,-0.027552,-0.128875,5.297775,26.142374,-27.106262,,,,,,,
1523695631.917755,-0.659485,-0.035824,-1.099380,-0.007066,-0.218991,-0.011674,-0.612317,0.035816,-0.789800,0.052213,0.011394,-0.000803,5.071869,25.918619,-26.880493,,,,,,,
1523695631.947723,-0.663422,-0.035361,-1.097022,0.042541,-0.055815,0.036154,-0.615431,0.035354,-0.787397,0.029356,0.014924,-0.004763,5.675003,26.141047,-26.731079,,,,,,,
1523695631.977692,-0.662489,-0.034814,-1.095095,0.047425,0.045341,0.005153,-0.614708,0.034807,-0.787986,0.022530,-0.040925,-0.073144,5.756607,26.665903,-26.508179,,,,,,,
1523695632.007660,-0.663228,-0.033786,-1.093714,-0.016998,-0.075401,-0.028868,-0.615312,0.033779,-0.787559,-0.003020,-0.036083,-0.072808,4.845078,25.919336,-27.180603,,,,,,,
1523695632.037628,-0.664933,-0.034560,-1.095577,-0.057288,-0.055924,-0.065141,-0.616638,0.034553,-0.786488,-0.003204,-0.015907,-0.089046,5.072769,26.143381,-27.106384,,,,,,,
,,,,,,,,,,,,,,,,25.305641,51.440335,10.478786,16.870001,66.445312,1523695631.998974,
1523695632.067596,-0.669577,-0.032232,-1.095949,0.072402,-0.183745,-0.067048,-0.620332,0.032226,-0.783677,-0.008971,0.015122,0.030305,5.602249,26.590998,-27.107910,,,,,,,
1523695632.097565,-0.670492,-0.030384,-1.094191,0.031182,0.009148,0.019035,-0.621084,0.030379,-0.783154,-0.017069,-0.034560,-0.028690,4.177917,26.522638,-26.883362,,,,,,,
1523695632.127533,-0.671019,-0.032016,-1.093040,-0.065323,-0.021778,0.070133,-0.621465,0.032011,-0.782787,0.007467,-0.033552,-0.004841,3.943024,25.848169,-27.405762,,,,,,,
1523695632.157501,-0.670865,-0.033538,-1.092396,0.038574,0.010070,0.036090,-0.621314,0.033532,-0.782844,0.036414,-0.043603,-0.028588,5.522446,26.291071,-27.406738,,,,,,,
1523695632.187469,-0.671638,-0.031253,-1.090621,0.089015,0.009255,-0.016089,-0.621965,0.031248,-0.782421,0.008256,-0.028044,-0.000095,5.226059,26.292994,-26.806946,,,,,,,
1523695632.217438,-0.669222,-0.029004,-1.090121,0.024198,0.065798,-0.025780,-0.620115,0.029000,-0.783975,0.005826,-0.030373,-0.080588,4.699722,26.295145,-27.032166,,,,,,,
1523695632.247406,-0.668615,-0.030532,-1.091502,-0.134165,0.027697,0.008239,-0.619610,0.030528,-0.784315,-0.028629,-0.021830,-0.091936,5.370972,26.141748,-27.406189,,,,,,,
1523695632.277374,-0.667660,-0.032550,-1.092926,-0.009399,-0.026667,-0.010797,-0.618822,0.032544,-0.784856,-0.005796,-0.035520,-0.095881,5.079224,26.518808,-26.657898,,,,,,,
1523695632.307343,-0.670215,-0.030327,-1.092023,0.094054,-0.060867,-0.019211,-0.620869,0.030323,-0.783327,0.014424,-0.030918,0.020113,4.779984,26.595148,-26.658325,,,,,,,
1523695632.337341,-0.670575,-0.029415,-1.090792,-0.012929,-0.040834,0.040363,-0.621168,0.029411,-0.783125,0.041822,-0.025367,0.002532,5.218719,25.917429,-27.405396,,,,,,,
1523695632.367310,-0.671061,-0.031991,-1.090661,-0.095863,0.025326,0.030641,-0.621499,0.031985,-0.782761,0.043649,-0.013980,0.016266,4.393311,25.696451,-27.104919,,,,,,,
1523695632.397278,-0.669561,-0.031532,-1.089873,0.061677,0.062691,-0.050258,-0.620333,0.031527,-0.783704,0.026263,-0.012805,-0.008364,5.753906,26.440851,-26.582275,,,,,,,
1523695632.427246,-0.666260,-0.027808,-1.089455,0.093062,0.111774,-0.089712,-0.617811,0.027804,-0.785835,-0.017031,-0.026568,-0.118081,5.454941,26.816736,-27.033875,,,,,,,
1523695632.457214,-0.665093,-0.025401,-1.090524,-0.021968,-0.031601,-0.060879,-0.616933,0.025398,-0.786605,-0.024714,-0.000374,-0.151139,4.474442,26.221231,-26.957031,,,,,,,
1523695632.487183,-0.666553,-0.027306,-1.092990,-0.122905,-0.083873,0.004096,-0.618050,0.027303,-0.785664,0.019738,0.003124,-0.116542,4.850021,26.144770,-26.731506,,,,,,,
1523695632.517136,-0.672840,-0.029155,-1.093786,-0.012691,-0.235236,0.032036,-0.622945,0.029151,-0.781722,0.058003,0.021447,0.093200,5.450897,26.366831,-26.957153,,,,,,,
1523695632.547104,-0.675532,-0.029033,-1.091771,0.059794,0.019364,0.068056,-0.625049,0.029029,-0.780045,0.030154,-0.015784,0.050111,4.848373,26.294245,-27.257141,,,,,,,
1523695632.577072,-0.670276,-0.030183,-1.090223,-0.037275,0.253516,0.048569,-0.620919,0.030179,-0.783293,-0.036017,-0.035413,-0.148485,4.543915,25.845621,-27.255493,,,,,,,
1523695632.607041,-0.663994,-0.031240,-1.091373,-0.031069,0.100076,-0.045037,-0.615966,0.031235,-0.787153,-0.026170,-0.055649,-0.273745,5.000336,26.219019,-26.806763,,,,,,,
1523695632.637009,-0.665809,-0.030825,-1.092935,-0.038507,-0.146342,-0.058640,-0.617402,0.030820,-0.786044,-0.037780,-0.024518,-0.187482,4.555450,26.371607,-26.207581,,,,,,,
1523695632.666977,-0.673609,-0.030243,-1.091875,0.055396,-0.293843,0.030022,-0.623526,0.030238,-0.781218,0.063055,0.005116,0.048307,4.923386,26.293909,-27.257080,,,,,,,
1523695632.696945,-0.677269,-0.031546,-1.089446,-0.020761,-0.027572,0.121327,-0.626355,0.031541,-0.778899,0.056317,0.015319,0.079207,5.148056,26.217981,-27.181641,,,,,,,
1523695632.726914,-0.675150,-0.033888,-1.087268,0.012357,0.154423,0.068953,-0.624655,0.033881,-0.780165,0.066947,-0.014426,0.029997,5.006638,26.669291,-26.508545,,,,,,,
1523695632.756882,-0.669894,-0.031750,-1.085941,0.124002,0.172885,-0.029001,-0.620590,0.031744,-0.783492,0.054885,-0.053503,-0.017457,4.030014,26.598536,-26.658691,,,,,,,
1523695632.786849,-0.665264,-0.029367,-1.085863,-0.005199,0.147877,-0.051461,-0.617000,0.029362,-0.786414,0.021160,-0.030675,-0.119149,5.223206,26.367411,-27.407166,,,,,,,
1523695632.816819,-0.663118,-0.030098,-1.089484,-0.130336,0.055977,-0.086615,-0.615298,0.030094,-0.787719,-0.001279,-0.017536,-0.126832,4.773834,26.070032,-26.806274,,,,,,,
1523695632.846786,-0.659876,-0.032079,-1.094385,-0.175057,0.097453,-0.074973,-0.612704,0.032073,-0.789661,-0.028852,0.012650,-0.169476,4.326401,26.147348,-26.506775,,,,,,,
1523695632.876755,-0.660144,-0.033225,-1.098082,0.004413,-0.103901,-0.063984,-0.612892,0.033219,-0.789468,0.064552,-0.013535,-0.058753,3.799484,26.224268,-26.957397,,,,,,,
1523695632.906723,-0.667396,-0.028255,-1.097193,0.218237,-0.269185,-0.057264,-0.618695,0.028251,-0.785122,0.125821,0.039940,0.158337,3.875671,26.299006,-26.882629,,,,,,,
1523695632.936692,-0.668189,-0.026251,-1.094328,-0.016347,0.195857,0.080609,-0.619352,0.026248,-0.784674,0.077100,0.015485,0.031790,5.224548,26.367624,-27.182190,,,,,,,
1523695632.966660,-0.659336,-0.028785,-1.093719,-0.051932,0.259213,-0.001525,-0.612338,0.028781,-0.790072,0.020495,-0.025287,-0.156980,4.259369,26.673090,-26.058899,,,,,,,
1523695632.996628,-0.654312,-0.026519,-1.093402,0.077013,0.090606,-0.098214,-0.608400,0.026516,-0.793187,-0.048262,0.014499,-0.266368,3.505356,26.451197,-26.358398,,,,,,,
1523695633.026596,-0.657709,-0.023868,-1.096750,-0.035197,-0.285618,-0.200216,-0.611131,0.023866,-0.791169,0.000077,0.030348,-0.125747,4.478348,26.521357,-26.808228,,,,,,,
1523695633.056565,-0.668154,-0.019006,-1.098344,0.140146,-0.352628,-0.100927,-0.619426,0.019005,-0.784825,0.095683,0.044457,0.134785,4.258316,26.747797,-26.359192,,,,,,,
,,,,,,,,,,,,,,,,25.305711,51.440487,10.416103,17.120001,65.742188,1523695632.998962,
1523695633.086533,-0.673505,-0.020003,-1.097305,-0.180686,0.046030,0.139239,-0.623604,0.020001,-0.781484,0.056633,0.012546,0.165441,4.561295,27.046442,-26.360229,,,,,,,
1523695633.116501,-0.666108,-0.029236,-1.096735,-0.184112,0.291151,0.189070,-0.617666,0.029232,-0.785896,0.022909,-0.042598,-0.038933,3.805618,26.974009,-27.185364,,,,,,,
1523695633.146469,-0.659209,-0.030900,-1.092812,0.133224,0.183997,0.051963,-0.612199,0.030895,-0.790099,0.033281,-0.078472,-0.132096,4.706482,26.745478,-26.658936,,,,,,,
1523695633.176438,-0.657788,-0.026641,-1.089215,0.161264,-0.099122,-0.042566,-0.611151,0.026638,-0.791065,0.062582,-0.043789,-0.098217,4.853622,26.369974,-26.507446,,,,,,,
1523695633.206406,-0.661790,-0.023741,-1.088064,0.011932,-0.077475,-0.048015,-0.614357,0.023739,-0.788671,0.084129,0.005848,0.043691,5.001831,26.593637,-27.183228,,,,,,,
1523695633.236374,-0.658447,-0.026644,-1.089937,-0.233759,0.226496,0.031402,-0.611672,0.026641,-0.790662,-0.021766,-0.010802,-0.128115,4.997787,26.143732,-27.106445,,,,,,,
1523695633.266342,-0.651406,-0.033086,-1.092381,-0.190176,0.177531,0.027226,-0.605973,0.033080,-0.794797,-0.012100,-0.031783,-0.242465,5.442795,25.916269,-27.555298,,,,,,,
1523695633.296311,-0.651329,-0.033684,-1.092843,0.047943,-0.115951,-0.027712,-0.605900,0.033678,-0.794827,0.028904,-0.029299,-0.161914,5.217056,25.842295,-27.555115,,,,,,,
1523695633.326279,-0.657639,-0.031935,-1.091040,0.059943,-0.263878,0.000149,-0.610938,0.031930,-0.791034,0.094931,0.040595,-0.020627,3.935684,25.247980,-27.628418,,,,,,,
1523695633.356278,-0.664903,-0.031255,-1.089718,0.006105,-0.118239,0.009557,-0.616681,0.031250,-0.786592,0.080991,0.045120,0.093981,3.265060,25.551218,-27.404907,,,,,,,
1523695633.386245,-0.661754,-0.031876,-1.089868,-0.029763,0.191214,-0.011027,-0.614189,0.031871,-0.788515,0.005363,0.015630,-0.078245,4.852264,26.369761,-26.732422,,,,,,,
1523695633.416214,-0.655866,-0.031903,-1.091440,-0.033799,0.186241,-0.058968,-0.609536,0.031898,-0.792116,-0.039924,-0.045707,-0.236112,4.030899,26.823298,-26.884644,,,,,,,
1523695633.446182,-0.654136,-0.031861,-1.093786,-0.069101,-0.068661,-0.063006,-0.608165,0.031856,-0.793171,-0.043767,-0.003276,-0.274105,3.795425,26.223612,-27.632385,,,,,,,
1523695633.476151,-0.661353,-0.032197,-1.096532,-0.041365,-0.315238,-0.065931,-0.613866,0.032191,-0.788753,0.019445,0.021978,-0.072804,4.401978,26.970728,-27.785034,,,,,,,
