timestamp(unix),attitude_roll(radians),attitude_pitch(radians),attitude_yaw(radians),rotation_rate_x(radians/s),rotation_rate_y(radians/s),rotation_rate_z(radians/s),gravity_x(G),gravity_y(G),gravity_z(G),user_acc_x(G),user_acc_y(G),user_acc_z(G),magnetic_field_x(microteslas),magnetic_field_y(microteslas),magnetic_field_z(microteslas),latitude(degree),longitude(degree),altitude(meter),speed(m/s),course(degree),timestamp(unix),User Mark
,,,,,,,,,,,,,,,,25.318904,51.453115,16.037075,7.850000,272.109375,1523522858.996643,
1523522859.787912,-0.618548,-0.049944,1.531703,0.025811,0.068769,0.053682,-0.579130,0.049923,-0.813705,0.040647,-0.047345,-0.055664,-4.460098,-27.505077,-9.420654,,,,,,,
1523522859.817880,-0.616017,-0.051340,1.533024,-0.079044,0.068733,0.096224,-0.577028,0.051318,-0.815110,0.035570,-0.061938,-0.079024,-5.210968,-27.501842,-9.571045,,,,,,,
1523522859.847849,-0.614397,-0.053624,1.533522,-0.034360,-0.024526,0.045202,-0.575637,0.053599,-0.815946,0.048583,-0.065272,-0.103533,-5.285065,-27.501354,-9.421082,,,,,,,
1523522859.877817,-0.615197,-0.053089,1.535446,0.095711,-0.061010,0.049599,-0.576306,0.053064,-0.815509,0.061551,-0.041361,-0.070172,-5.812271,-27.499371,-9.796387,,,,,,,
1523522859.907785,-0.616631,-0.050670,1.539017,0.133979,-0.079280,0.065627,-0.577548,0.050649,-0.814784,0.078570,-0.037816,-0.047597,-5.362289,-27.726009,-9.420227,,,,,,,
1523522859.937753,-0.616857,-0.048528,1.543201,0.109730,0.018348,0.092154,-0.577793,0.048509,-0.814740,0.069736,-0.068513,-0.025470,-6.111053,-27.647579,-9.345947,,,,,,,
1523522859.967722,-0.614819,-0.049770,1.546829,-0.036794,0.034247,0.151688,-0.576096,0.049750,-0.815866,0.061646,-0.115378,-0.039404,-4.834610,-27.727947,-8.969971,,,,,,,
1523522859.997690,-0.612745,-0.055516,1.549233,-0.158624,0.060779,0.198461,-0.574229,0.055487,-0.816812,0.034388,-0.140753,-0.054892,-6.033524,-27.123379,-9.797974,,,,,,,
1523522860.027658,-0.610731,-0.062258,1.551326,-0.134309,-0.000872,0.192151,-0.572355,0.062218,-0.817642,0.010817,-0.134682,-0.094727,-6.109863,-27.347881,-9.647095,,,,,,,
,,,,,,,,,,,,,,,,25.318909,51.453057,16.136654,6.600000,272.460938,1523522859.996630,
1523522860.057626,-0.612319,-0.065881,1.554795,-0.020442,-0.098815,0.178479,-0.573520,0.065833,-0.816542,-0.003720,-0.134727,-0.112306,-6.563293,-27.645916,-9.721130,,,,,,,
1523522860.087595,-0.614505,-0.068383,1.558730,-0.023362,-0.054077,0.163517,-0.575207,0.068329,-0.815149,-0.010029,-0.103837,-0.057684,-7.161011,-27.642849,-9.346497,,,,,,,
1523522860.117563,-0.614164,-0.071022,1.562137,-0.009052,0.020398,0.145339,-0.574822,0.070963,-0.815195,-0.008826,-0.122690,-0.020132,-7.013275,-27.643887,-9.721375,,,,,,,
1523522860.147531,-0.611833,-0.073465,1.565298,-0.030140,0.068336,0.135684,-0.572820,0.073399,-0.816388,-0.001857,-0.136311,-0.046542,-7.384811,-27.342144,-9.647766,,,,,,,
1523522860.177499,-0.611351,-0.075252,1.567723,0.008134,-0.028079,0.082529,-0.572350,0.075181,-0.816556,-0.004737,-0.126725,-0.054035,-7.690659,-27.566372,-10.247009,,,,,,,
1523522860.207468,-0.614605,-0.074325,1.569495,0.093284,-0.165955,0.014540,-0.575043,0.074256,-0.814746,0.014100,-0.079490,0.027270,-6.786346,-27.270214,-10.022766,,,,,,,
1523522860.237436,-0.617144,-0.069783,1.572044,0.150623,-0.035181,-0.016448,-0.577300,0.069726,-0.813550,0.003920,-0.054391,0.039899,-7.158035,-27.118237,-9.723572,,,,,,,
1523522860.267404,-0.615821,-0.066292,1.573043,0.042309,0.093684,-0.018793,-0.576360,0.066243,-0.814506,0.016317,-0.054860,-0.010521,-7.532715,-27.041622,-9.799072,,,,,,,
1523522860.297372,-0.613050,-0.064684,1.572923,0.033530,0.042682,-0.016614,-0.574162,0.064639,-0.816186,0.024616,-0.054385,-0.046042,-6.483505,-27.121349,-9.798218,,,,,,,
1523522860.327341,-0.613598,-0.061794,1.574697,0.153765,-0.008874,0.018693,-0.574714,0.061755,-0.816021,0.008567,-0.037340,0.015774,-7.235275,-27.342892,-9.722717,,,,,,,
1523522860.357309,-0.611454,-0.058345,1.578478,0.132630,0.083368,0.055875,-0.573082,0.058312,-0.817421,-0.004372,-0.049767,-0.032570,-7.014160,-27.868664,-9.495483,,,,,,,
1523522860.387277,-0.609260,-0.056450,1.582431,0.109747,0.026844,0.094268,-0.571349,0.056420,-0.818766,-0.002397,-0.079736,-0.016104,-6.481400,-27.270763,-9.197571,,,,,,,
1523522860.417245,-0.608731,-0.055621,1.587224,0.102996,0.016894,0.151812,-0.570942,0.055593,-0.819106,0.015919,-0.114308,-0.004243,-7.158905,-27.567623,-9.121704,,,,,,,
1523522860.447244,-0.606798,-0.058082,1.593180,-0.029754,0.064285,0.260345,-0.569278,0.058049,-0.820093,-0.017086,-0.121510,-0.065741,-7.684052,-27.490414,-9.272339,,,,,,,
1523522860.477213,-0.605405,-0.064419,1.599126,-0.073059,-0.018776,0.301947,-0.567915,0.064374,-0.820566,-0.006731,-0.111539,-0.073202,-7.382126,-27.117092,-9.573669,,,,,,,
1523522860.507181,-0.605787,-0.066970,1.607498,0.180094,-0.017167,0.284030,-0.568133,0.066920,-0.820211,0.016086,-0.134745,-0.020792,-8.133881,-27.338619,-9.498108,,,,,,,
1523522860.537149,-0.605496,-0.064532,1.619577,0.301753,-0.008044,0.303293,-0.567985,0.064487,-0.820509,0.033592,-0.170993,-0.015246,-8.580704,-27.336086,-8.973389,,,,,,,
1523522860.567117,-0.604028,-0.064179,1.631503,0.146896,0.025021,0.340439,-0.566793,0.064135,-0.821360,0.038167,-0.184252,-0.019902,-8.278336,-26.962673,-9.199707,,,,,,,
1523522860.597086,-0.603039,-0.067129,1.642105,0.056880,-0.008972,0.372363,-0.565870,0.067079,-0.821761,0.046583,-0.226457,0.015090,-9.482483,-27.332317,-9.273865,,,,,,,
1523522860.627054,-0.601008,-0.072512,1.651358,-0.075167,0.081588,0.384961,-0.563988,0.072449,-0.822599,0.016548,-0.248734,-0.014147,-9.707016,-27.331249,-9.198975,,,,,,,
1523522860.657022,-0.597424,-0.080283,1.659169,-0.112533,0.074247,0.381760,-0.560703,0.080197,-0.824124,-0.011135,-0.238080,-0.057605,-9.405685,-27.107754,-9.349731,,,,,,,
1523522860.686990,-0.594416,-0.084899,1.667745,0.051095,0.085852,0.337109,-0.558008,0.084797,-0.825491,-0.026037,-0.254475,-0.021616,-10.531403,-26.953060,-9.725891,,,,,,,
1523522860.716959,-0.590644,-0.086055,1.677246,0.118547,0.083804,0.300940,-0.554835,0.085949,-0.827508,-0.054631,-0.267086,-0.042685,-10.984222,-27.101254,-9.950500,,,,,,,
1523522860.746921,-0.588927,-0.087510,1.686068,0.075547,0.003303,0.282856,-0.553343,0.087399,-0.828355,-0.020463,-0.260922,-0.064559,-10.381989,-26.878963,-9.951111,,,,,,,
1523522860.776889,-0.587476,-0.089988,1.694615,0.068158,0.039307,0.300941,-0.552019,0.089866,-0.828975,-0.014509,-0.218879,-0.091252,-11.656509,-26.873150,-9.876770,,,,,,,
1523522860.806857,-0.586204,-0.093685,1.703252,0.069964,-0.031859,0.298868,-0.550777,0.093548,-0.829393,0.005336,-0.176587,-0.133253,-11.579849,-26.798351,-9.727051,,,,,,,
1523522860.836826,-0.587161,-0.093940,1.712841,0.247248,-0.070282,0.258558,-0.551557,0.093802,-0.828846,0.032026,-0.184470,-0.083477,-11.126266,-26.575161,-9.502686,,,,,,,
1523522860.866794,-0.588647,-0.090230,1.724100,0.326306,-0.080970,0.239447,-0.552977,0.090107,-0.828310,0.041869,-0.220814,-0.047926,-12.176376,-26.944836,-8.901733,,,,,,,
1523522860.896762,-0.588417,-0.088017,1.734925,0.190883,0.003052,0.277615,-0.552896,0.087903,-0.828600,0.036463,-0.241178,-0.082761,-12.400620,-26.868816,-8.902161,,,,,,,
1523522860.926730,-0.587765,-0.090603,1.744108,0.045426,-0.024421,0.305250,-0.552228,0.090479,-0.828769,0.029966,-0.237497,-0.094983,-12.173218,-26.719692,-8.752625,,,,,,,
1523522860.956699,-0.588584,-0.093567,1.753091,0.120016,-0.056483,0.305335,-0.552755,0.093430,-0.828090,0.016561,-0.240128,-0.080693,-13.222870,-26.640057,-8.828491,,,,,,,
1523522860.986667,-0.588118,-0.093292,1.764114,0.215173,-0.029064,0.302177,-0.552384,0.093157,-0.828368,0.003479,-0.256426,-0.076691,-13.373306,-26.864071,-8.527649,,,,,,,
1523522861.016635,-0.588574,-0.092096,1.775159,0.202239,-0.073558,0.287296,-0.552823,0.091965,-0.828209,-0.008411,-0.258546,-0.033135,-13.292480,-26.414211,-8.304443,,,,,,,
1523522861.046603,-0.590148,-0.092202,1.785179,0.113605,-0.088145,0.277654,-0.554120,0.092071,-0.827329,0.035169,-0.260727,-0.009737,-14.271774,-26.710033,-8.528748,,,,,,,
,,,,,,,,,,,,,,,,25.318908,51.453005,16.035458,6.030000,261.914062,1523522860.996616,
1523522861.076572,-0.590743,-0.094913,1.793565,-0.003661,0.002152,0.322231,-0.554471,0.094771,-0.826789,0.004194,-0.242613,-0.063928,-14.644669,-26.633129,-8.304260,,,,,,,
1523522861.106540,-0.589079,-0.101650,1.801574,-0.066845,0.010517,0.364791,-0.552728,0.101475,-0.827161,-0.010108,-0.209599,-0.165698,-14.793900,-26.557461,-8.304626,,,,,,,
1523522861.136508,-0.587604,-0.106879,1.811659,0.097593,0.023836,0.375565,-0.551206,0.106676,-0.827522,-0.027820,-0.176347,-0.150856,-15.090744,-26.330975,-8.155640,,,,,,,
1523522861.166477,-0.587581,-0.110790,1.823904,0.113884,-0.094496,0.424708,-0.550950,0.110564,-0.827182,-0.018157,-0.198012,-0.182859,-15.691483,-26.178646,-8.531555,,,,,,,
1523522861.196445,-0.588545,-0.115086,1.838031,0.142554,-0.063094,0.482237,-0.551479,0.114833,-0.826247,-0.001209,-0.232676,-0.164155,-16.436951,-25.949917,-8.157837,,,,,,,
1523522861.226413,-0.587464,-0.120645,1.852542,0.070099,-0.001451,0.506626,-0.550223,0.120352,-0.826299,0.011099,-0.261847,-0.217402,-16.737106,-25.873714,-8.308350,,,,,,,
1523522861.256381,-0.587493,-0.128302,1.866605,0.052449,-0.127810,0.502463,-0.549720,0.127951,-0.825492,0.029106,-0.266409,-0.162546,-17.257294,-25.346447,-8.385681,,,,,,,
1523522861.286350,-0.592569,-0.130745,1.881718,0.347048,-0.253299,0.411181,-0.553727,0.130373,-0.822429,0.084977,-0.271959,0.018580,-17.173920,-25.171127,-7.687805,,,,,,,
1523522861.316318,-0.596041,-0.123694,1.899526,0.605460,-0.151089,0.289807,-0.557081,0.123379,-0.821242,0.137648,-0.287182,0.088652,-18.291824,-25.090042,-6.638733,,,,,,,
1523522861.346286,-0.597062,-0.112998,1.916867,0.584601,-0.072216,0.263074,-0.558630,0.112758,-0.821717,0.125982,-0.282588,0.135209,-18.439880,-25.163925,-6.188477,,,,,,,
1523522861.376254,-0.598047,-0.104895,1.932643,0.439473,-0.070691,0.249109,-0.559935,0.104703,-0.821894,0.139921,-0.238278,0.171305,-18.735321,-25.386475,-5.062744,,,,,,,
1523522861.406223,-0.596759,-0.098748,1.945852,0.398539,0.056029,0.224448,-0.559227,0.098588,-0.823132,0.047111,-0.188370,0.148815,-19.102081,-24.784454,-4.690308,,,,,,,
1523522861.436191,-0.592648,-0.093867,1.957790,0.271950,0.138307,0.205086,-0.556100,0.093729,-0.825813,-0.030615,-0.172282,0.066169,-18.422623,-24.562134,-4.315857,,,,,,,
1523522861.466159,-0.587903,-0.093984,1.965362,0.036927,0.114440,0.208123,-0.552170,0.093846,-0.828433,-0.053330,-0.125492,-0.010754,-19.128433,-24.774925,-4.343323,,,,,,,
1523522861.496127,-0.585204,-0.096695,1.972507,0.097217,0.043782,0.259399,-0.549789,0.096545,-0.829705,-0.047974,-0.079424,-0.071601,-19.352051,-24.773689,-4.118408,,,,,,,
1523522861.526096,-0.584408,-0.096160,1.984480,0.319452,-0.062533,0.340647,-0.549157,0.096012,-0.830186,-0.022468,-0.090671,-0.126540,-18.900711,-24.775490,-3.893188,,,,,,,
1523522861.556064,-0.584910,-0.092140,2.001261,0.429147,-0.034641,0.416348,-0.549782,0.092010,-0.830225,0.025475,-0.133437,-0.122045,-19.046051,-24.399681,-3.744751,,,,,,,
1523522861.586032,-0.583876,-0.090365,2.019143,0.292261,-0.024077,0.471656,-0.549013,0.090242,-0.830928,0.049058,-0.191621,-0.158025,-20.019821,-24.544868,-3.294617,,,,,,,
1523522861.616031,-0.583523,-0.094627,2.036249,0.117292,-0.061837,0.616466,-0.548502,0.094486,-0.830793,-0.007208,-0.261951,-0.241091,-20.462769,-23.792946,-3.372864,,,,,,,
1523522861.645999,-0.583265,-0.104487,2.058323,0.186995,-0.025042,0.797633,-0.547748,0.104297,-0.830117,0.036625,-0.235644,-0.250144,-21.281754,-23.189247,-3.375671,,,,,,,
1523522861.675968,-0.581505,-0.107774,2.083324,0.482011,-0.039029,0.719009,-0.546095,0.107565,-0.830789,-0.053529,-0.412299,-0.230323,-22.330353,-23.184319,-3.151245,,,,,,,
1523522861.705936,-0.583677,-0.103810,2.109869,0.594768,-0.291215,0.578688,-0.548129,0.103624,-0.829950,-0.037870,-0.456132,-0.156302,-21.611862,-22.270195,-2.150330,,,,,,,
1523522861.735904,-0.591611,-0.099330,2.131416,0.435259,-0.282587,0.464555,-0.554950,0.099167,-0.825952,-0.020917,-0.419861,-0.059974,-22.506699,-22.115562,-1.551453,,,,,,,
1523522861.765869,-0.593564,-0.100586,2.148223,0.138551,-0.022582,0.465142,-0.556492,0.100417,-0.824763,0.002903,-0.357940,-0.111181,-22.807281,-22.039436,-1.776855,,,,,,,
1523522861.795838,-0.591855,-0.109168,2.161361,-0.066606,0.035823,0.544837,-0.554580,0.108952,-0.824967,-0.018845,-0.341770,-0.209137,-22.804749,-21.514900,-2.228943,,,,,,,
1523522861.825806,-0.591302,-0.120510,2.175206,-0.045019,-0.112171,0.578038,-0.553400,0.120218,-0.824194,-0.005789,-0.330530,-0.208047,-24.076401,-21.358879,-1.930237,,,,,,,
1523522861.855774,-0.593958,-0.127614,2.190569,0.182468,-0.178106,0.505812,-0.555094,0.127268,-0.821993,0.025004,-0.304620,-0.159406,-24.299896,-21.207878,-1.930969,,,,,,,
1523522861.885742,-0.596934,-0.127041,2.206508,0.388301,-0.154267,0.366361,-0.557579,0.126700,-0.820398,0.061348,-0.281134,-0.112998,-23.769974,-20.760185,-1.857483,,,,,,,
1523522861.915711,-0.600500,-0.120188,2.223839,0.566575,-0.222346,0.313287,-0.560979,0.119899,-0.819101,0.094914,-0.277172,-0.053549,-25.115128,-20.678459,-1.183472,,,,,,,
1523522861.945679,-0.605808,-0.110650,2.242813,0.626126,-0.234442,0.349575,-0.565944,0.110425,-0.817015,0.120952,-0.277707,0.042830,-24.885773,-20.603889,-0.583618,,,,,,,
1523522861.975647,-0.608803,-0.102111,2.263072,0.544929,-0.168816,0.415508,-0.568907,0.101933,-0.816060,0.126479,-0.244145,0.075322,-24.019318,-19.992382,-0.033020,,,,,,,
1523522862.005615,-0.610361,-0.096492,2.283383,0.440073,-0.109704,0.509135,-0.570497,0.096343,-0.815629,0.107271,-0.215575,0.021928,-24.989471,-19.912350,0.641235,,,,,,,
1523522862.035584,-0.610525,-0.095139,2.304114,0.379161,-0.072686,0.553814,-0.570705,0.094995,-0.815642,0.066814,-0.189905,-0.020143,-25.282104,-19.535427,1.239563,,,,,,,
,,,,,,,,,,,,,,,,25.318883,51.452962,15.890438,4.720000,235.546875,1523522861.996604,
1523522862.065552,-0.610707,-0.095281,2.324354,0.386736,-0.078897,0.528250,-0.570846,0.095137,-0.815527,0.060882,-0.180114,-0.069437,-25.352310,-19.010189,1.162415,,,,,,,
1523522862.095520,-0.612682,-0.092794,2.344835,0.463582,-0.137209,0.482546,-0.572589,0.092661,-0.814589,0.052524,-0.211634,-0.057863,-26.699112,-19.003597,1.686707,,,,,,,
1523522862.125488,-0.613144,-0.087935,2.365175,0.486382,-0.061755,0.473958,-0.573218,0.087822,-0.814683,0.051200,-0.261162,-0.079619,-26.547913,-18.929211,1.761536,,,,,,,
1523522862.155457,-0.610722,-0.084933,2.385647,0.368938,0.023031,0.547308,-0.571392,0.084831,-0.816281,0.031566,-0.277764,-0.108035,-26.464233,-18.329128,2.209106,,,,,,,
1523522862.185425,-0.608762,-0.086749,2.405342,0.245638,-0.019597,0.609057,-0.569702,0.086640,-0.817272,0.050613,-0.291199,-0.146641,-27.287994,-18.250362,2.283386,,,,,,,
1523522862.215393,-0.608291,-0.090960,2.425340,0.257201,-0.053679,0.615497,-0.569104,0.090834,-0.817233,0.037838,-0.301375,-0.134198,-27.883331,-17.872524,2.431580,,,,,,,
1523522862.245361,-0.608053,-0.095541,2.445313,0.250657,-0.069693,0.628296,-0.568665,0.095396,-0.817018,-0.000686,-0.301557,-0.136641,-27.390579,-17.252422,2.368774,,,,,,,
1523522862.275330,-0.608797,-0.099124,2.464897,0.286158,-0.076829,0.571861,-0.569074,0.098961,-0.816310,0.028836,-0.318169,-0.114461,-28.055511,-16.648769,3.041077,,,,,,,
1523522862.305298,-0.608024,-0.101078,2.483838,0.301649,-0.030716,0.506826,-0.568331,0.100906,-0.816589,0.045473,-0.300201,-0.124146,-28.798752,-15.970425,3.037964,,,,,,,
1523522862.335266,-0.607896,-0.101871,2.501610,0.319693,-0.063627,0.497276,-0.568180,0.101695,-0.816596,0.050541,-0.309993,-0.135537,-28.499512,-16.046764,3.038452,,,,,,,
1523522862.365235,-0.608100,-0.102375,2.520297,0.339912,-0.055346,0.519669,-0.568318,0.102196,-0.816438,0.071782,-0.282646,-0.159591,-29.914276,-15.289959,3.484619,,,,,,,
1523522862.395203,-0.608695,-0.103036,2.540072,0.357654,-0.090743,0.563389,-0.568764,0.102854,-0.816044,0.053826,-0.247141,-0.164669,-29.233597,-14.767941,3.557922,,,,,,,
1523522862.425171,-0.609360,-0.103526,2.560423,0.386663,-0.080048,0.541036,-0.569279,0.103341,-0.815624,0.065937,-0.215691,-0.163304,-30.126358,-14.313488,4.005676,,,,,,,
1523522862.455139,-0.608727,-0.102272,2.581004,0.439055,-0.076897,0.528282,-0.568836,0.102094,-0.816090,0.041385,-0.199963,-0.167843,-30.273422,-14.292019,4.349426,,,,,,,
1523522862.485108,-0.610289,-0.099612,2.602444,0.509248,-0.142900,0.522000,-0.570263,0.099448,-0.815420,0.080807,-0.213553,-0.125544,-29.517166,-13.620510,4.272156,,,,,,,
1523522862.515076,-0.611738,-0.095102,2.624905,0.556353,-0.100631,0.536922,-0.571696,0.094959,-0.814951,0.091380,-0.239932,-0.103979,-29.510437,-13.170162,4.645325,,,,,,,
1523522862.545044,-0.612113,-0.091953,2.647832,0.485801,-0.090008,0.562431,-0.572171,0.091824,-0.814978,0.104779,-0.257214,-0.116266,-30.099930,-12.566769,5.392639,,,,,,,
1523522862.575012,-0.613149,-0.090387,2.670019,0.462147,-0.113372,0.570949,-0.573097,0.090264,-0.814501,0.091499,-0.242181,-0.101255,-30.844803,-11.963558,5.239807,,,,,,,
1523522862.604981,-0.614821,-0.088061,2.692906,0.513264,-0.133754,0.579536,-0.574577,0.087947,-0.813712,0.090263,-0.244228,-0.075220,-29.938263,-11.442425,5.463196,,,,,,,
1523522862.634949,-0.615885,-0.084289,2.716789,0.522857,-0.114796,0.599772,-0.575630,0.084189,-0.813365,0.096535,-0.272971,-0.057607,-31.206589,-11.136105,6.061340,,,,,,,
1523522862.664917,-0.615879,-0.082520,2.740671,0.412739,-0.085126,0.651864,-0.575711,0.082426,-0.813488,0.085461,-0.284514,-0.075916,-30.933167,-10.749710,6.059204,,,,,,,
1523522862.694885,-0.615787,-0.084093,2.763667,0.345413,-0.063926,0.682696,-0.575560,0.083994,-0.813435,0.079634,-0.289545,-0.105480,-31.599289,-9.996490,6.280884,,,,,,,
1523522862.724854,-0.615405,-0.084644,2.786627,0.413894,-0.070234,0.648656,-0.575223,0.084543,-0.813616,0.097913,-0.281061,-0.114591,-31.216965,-9.397995,6.503662,,,,,,,
1523522862.754816,-0.615688,-0.083121,2.810339,0.482145,-0.116990,0.624249,-0.575526,0.083025,-0.813558,0.085948,-0.288622,-0.096110,-31.061279,-8.873627,6.576660,,,,,,,
1523522862.784784,-0.616630,-0.080329,2.834021,0.461915,-0.113676,0.614634,-0.576424,0.080243,-0.813201,0.104561,-0.283932,-0.069840,-31.050491,-8.197998,7.248962,,,,,,,
1523522862.814752,-0.616326,-0.080198,2.856255,0.349020,-0.042260,0.623003,-0.576183,0.080112,-0.813385,0.117092,-0.287464,-0.106568,-32.317368,-7.292450,7.094727,,,,,,,
1523522862.844751,-0.615426,-0.081000,2.877974,0.387327,-0.068950,0.626261,-0.575413,0.080912,-0.813851,0.103749,-0.286463,-0.124489,-32.317368,-7.292450,7.094727,,,,,,,
1523522862.874719,-0.616200,-0.080076,2.901578,0.461682,-0.126669,0.648746,-0.576086,0.079991,-0.813466,0.100653,-0.264134,-0.123210,-32.827072,-5.939865,7.389038,,,,,,,
1523522862.904688,-0.617332,-0.078983,2.925349,0.441646,-0.086138,0.634835,-0.577057,0.078901,-0.812883,0.097565,-0.230558,-0.095610,-32.821228,-5.633770,7.848389,,,,,,,
1523522862.934656,-0.616945,-0.078312,2.948315,0.407669,-0.045692,0.635843,-0.576773,0.078232,-0.813150,0.082541,-0.250015,-0.100653,-32.441895,-4.885998,7.320557,,,,,,,
1523522862.964624,-0.616604,-0.078192,2.970455,0.419391,-0.092208,0.598599,-0.576501,0.078112,-0.813354,0.109262,-0.221042,-0.139313,-33.183182,-4.506847,8.143677,,,,,,,
1523522862.994593,-0.617329,-0.077158,2.992686,0.451414,-0.073290,0.616720,-0.577137,0.077082,-0.813002,0.078754,-0.223536,-0.156633,-32.807297,-4.283764,7.917969,,,,,,,
1523522863.024561,-0.618073,-0.079075,3.016090,0.346285,-0.092722,0.696582,-0.577655,0.078992,-0.812450,0.079333,-0.202299,-0.228749,-32.271545,-3.161251,7.838745,,,,,,,
1523522863.054529,-0.619464,-0.083866,3.038909,0.319377,-0.117199,0.713622,-0.578558,0.083768,-0.811328,0.070730,-0.184079,-0.215314,-33.238098,-2.631374,8.361206,,,,,,,
,,,,,,,,,,,,,,,,25.318859,51.452924,16.004177,4.470000,197.226562,1523522862.996592,
1523522863.084497,-0.621241,-0.086024,3.063473,0.498748,-0.138775,0.695666,-0.579892,0.085918,-0.810150,0.068708,-0.233410,-0.187332,-33.293503,-1.583214,8.815735,,,,,,,
1523522863.114466,-0.623157,-0.083640,3.089986,0.600339,-0.145191,0.662732,-0.581562,0.083542,-0.809201,0.081379,-0.260605,-0.156329,-32.166473,-1.063805,8.289246,,,,,,,
1523522863.144434,-0.626164,-0.081502,3.115395,0.505314,-0.174500,0.634976,-0.584095,0.081412,-0.807592,0.110996,-0.286764,-0.065653,-32.526016,0.213249,8.733948,,,,,,,
1523522863.174402,-0.627996,-0.082676,3.139027,0.381718,-0.088310,0.661439,-0.585518,0.082582,-0.806442,0.118095,-0.241655,-0.068664,-32.822556,0.514656,8.807617,,,,,,,
1523522863.204370,-0.628791,-0.086423,-3.121906,0.315331,-0.088384,0.696546,-0.585972,0.086315,-0.805721,0.097431,-0.227276,-0.116627,-32.141922,1.261299,8.504944,,,,,,,
1523522863.234339,-0.628414,-0.089601,-3.099964,0.343456,-0.079548,0.636899,-0.585505,0.089481,-0.805716,0.099039,-0.193988,-0.170328,-33.035110,1.715691,8.877686,,,,,,,
1523522863.264307,-0.629053,-0.089494,-3.077540,0.464993,-0.140282,0.617868,-0.586025,0.089374,-0.805349,0.085186,-0.201633,-0.127955,-32.647552,2.679123,8.887329,,,,,,,
1523522863.294275,-0.630848,-0.086101,-3.054307,0.533697,-0.128315,0.555034,-0.587645,0.085995,-0.804536,0.143553,-0.204952,-0.096633,-31.588486,3.499496,9.034546,,,,,,,
1523522863.324243,-0.630712,-0.082920,-3.032353,0.456213,-0.050422,0.535723,-0.587694,0.082825,-0.804833,0.129594,-0.207779,-0.086280,-32.035919,3.801437,8.958191,,,,,,,
1523522863.354212,-0.631129,-0.080643,-3.011755,0.446399,-0.102404,0.528302,-0.588139,0.080556,-0.804738,0.140797,-0.192219,-0.059382,-31.955078,4.251297,9.181396,,,,,,,
1523522863.384180,-0.630520,-0.078172,-2.990763,0.430575,-0.041922,0.545283,-0.587765,0.078093,-0.805254,0.123821,-0.166548,-0.093092,-31.199280,5.147369,8.653198,,,,,,,
1523522863.414148,-0.628767,-0.077045,-2.970281,0.375915,-0.066374,0.565518,-0.586403,0.076969,-0.806354,0.086876,-0.124805,-0.135541,-31.863770,5.975739,9.024536,,,,,,,
1523522863.444116,-0.629699,-0.076380,-2.950546,0.368406,-0.120261,0.525073,-0.587184,0.076306,-0.805848,0.082271,-0.110211,-0.109862,-31.716614,5.824844,8.800232,,,,,,,
1523522863.474085,-0.630352,-0.074307,-2.931137,0.449845,-0.089415,0.493129,-0.587802,0.074239,-0.805591,0.064197,-0.118672,-0.123319,-30.901245,6.180920,9.173706,,,,,,,
1523522863.504053,-0.630348,-0.069515,-2.910379,0.569640,-0.066225,0.475094,-0.588002,0.069459,-0.805871,0.116887,-0.123948,-0.115699,-31.725769,6.184704,9.248291,,,,,,,
1523522863.534021,-0.630803,-0.062922,-2.888320,0.601367,-0.107866,0.494327,-0.588626,0.062881,-0.805956,0.134494,-0.135589,-0.074232,-31.039886,7.456310,8.943542,,,,,,,
1523522863.563990,-0.632601,-0.058094,-2.864557,0.545213,-0.112811,0.612568,-0.590247,0.058061,-0.805132,0.156897,-0.163195,-0.061201,-29.984848,8.051418,8.791687,,,,,,,
1523522863.593958,-0.632460,-0.059757,-2.840557,0.316225,-0.055893,0.759386,-0.590076,0.059721,-0.805136,0.117068,-0.185866,-0.117014,-30.725220,8.879971,9.013062,,,,,,,
1523522863.623926,-0.632086,-0.066745,-2.816489,0.267703,-0.097590,0.813729,-0.589513,0.066696,-0.805000,0.103323,-0.232086,-0.156151,-30.196945,9.252514,8.936829,,,,,,,
1523522863.653894,-0.633187,-0.073058,-2.792251,0.281758,-0.115358,0.765813,-0.590138,0.072993,-0.803996,0.085591,-0.230968,-0.196340,-29.666321,10.224453,8.258179,,,,,,,
1523522863.683863,-0.635447,-0.077952,-2.770007,0.308719,-0.150956,0.681685,-0.591735,0.077873,-0.802362,0.054229,-0.237312,-0.177206,-30.335449,10.677685,8.481018,,,,,,,
1523522863.713831,-0.637599,-0.081322,-2.748236,0.365714,-0.118871,0.631618,-0.593301,0.081232,-0.800872,0.085244,-0.249140,-0.218705,-29.878433,11.425549,8.403259,,,,,,,
1523522863.743793,-0.639983,-0.082459,-2.726720,0.426715,-0.136803,0.590132,-0.595153,0.082366,-0.799380,0.100356,-0.227568,-0.198987,-29.048965,12.096432,8.026001,,,,,,,
1523522863.773761,-0.642537,-0.082338,-2.704988,0.446927,-0.165431,0.576311,-0.597199,0.082245,-0.797866,0.102783,-0.208114,-0.144807,-29.645370,12.324352,8.249817,,,,,,,
1523522863.803730,-0.645223,-0.082275,-2.683704,0.414020,-0.135559,0.568810,-0.599342,0.082182,-0.796263,0.107551,-0.190932,-0.114427,-29.038498,12.921764,8.397705,,,,,,,
1523522863.833698,-0.646828,-0.083542,-2.663916,0.338613,-0.071463,0.547377,-0.600556,0.083445,-0.795216,0.111710,-0.174906,-0.134883,-28.282532,13.742977,8.019775,,,,,,,
1523522863.863666,-0.647316,-0.084610,-2.644476,0.398316,-0.086470,0.547422,-0.600890,0.084509,-0.794851,0.085983,-0.168234,-0.156321,-28.576233,14.194607,8.317810,,,,,,,
1523522863.893634,-0.649300,-0.084574,-2.623984,0.414123,-0.137511,0.545363,-0.602468,0.084474,-0.793660,0.106603,-0.158174,-0.169292,-28.275055,14.492947,8.016785,,,,,,,
1523522863.923603,-0.651585,-0.084986,-2.602812,0.429856,-0.129498,0.608240,-0.604259,0.084884,-0.792254,0.032619,-0.145583,-0.101789,-27.887665,15.691280,8.087158,,,,,,,
1523522863.953571,-0.654633,-0.084840,-2.578609,0.540411,-0.186388,0.650997,-0.606678,0.084738,-0.790418,0.041996,-0.149695,0.006803,-27.811310,15.915783,7.936279,,,,,,,
1523522863.983539,-0.655769,-0.081462,-2.552391,0.647688,-0.095122,0.630734,-0.607747,0.081372,-0.789951,0.042027,-0.175671,0.046116,-26.904495,16.961102,7.332581,,,,,,,
1523522864.013507,-0.654618,-0.076092,-2.526033,0.652388,-0.042828,0.595531,-0.607094,0.076018,-0.790985,0.038140,-0.196410,0.054032,-26.477493,17.085464,7.337708,,,,,,,
1523522864.043476,-0.655044,-0.071074,-2.500295,0.631738,-0.112953,0.603038,-0.607656,0.071014,-0.791019,0.057760,-0.211425,0.094546,-26.850845,17.386917,7.111328,,,,,,,
,,,,,,,,,,,,,,,,25.318809,51.452911,15.822414,4.630000,154.687500,1523522863.996580,
1523522864.073444,-0.657042,-0.067758,-2.474825,0.551399,-0.119467,0.649876,-0.609376,0.067706,-0.789985,0.008042,-0.228335,0.099769,-26.472717,17.834991,6.884705,,,,,,,
1523522864.103412,-0.657247,-0.068018,-2.450985,0.420472,-0.036213,0.644362,-0.609527,0.067965,-0.789846,-0.008225,-0.213519,-0.008890,-25.341476,18.504822,6.807556,,,,,,,
1523522864.133411,-0.657317,-0.069063,-2.428152,0.428729,-0.068285,0.669968,-0.609538,0.069008,-0.789747,-0.037740,-0.195396,-0.063829,-25.489075,18.880264,6.580994,,,,,,,
1523522864.163379,-0.658956,-0.071116,-2.403953,0.386427,-0.141964,0.735014,-0.610744,0.071056,-0.788633,-0.027165,-0.196301,-0.132875,-25.115463,19.102982,5.980347,,,,,,,
1523522864.193348,-0.662354,-0.075986,-2.379369,0.356054,-0.164688,0.805332,-0.613200,0.075913,-0.786272,-0.035512,-0.192261,-0.145217,-24.578369,20.225708,6.126038,,,,,,,
1523522864.223316,-0.663883,-0.080737,-2.351978,0.515364,-0.078191,0.838403,-0.614173,0.080649,-0.785040,-0.018640,-0.248450,-0.162607,-24.204590,20.373581,5.675659,,,,,,,
1523522864.253284,-0.663873,-0.080305,-2.320371,0.753491,-0.099858,0.813029,-0.614186,0.080219,-0.785073,0.008321,-0.285038,-0.119330,-22.999405,21.342392,4.922363,,,,,,,
1523522864.283252,-0.665071,-0.077621,-2.286832,0.749936,-0.141518,0.845036,-0.615257,0.077543,-0.784504,-0.005517,-0.337996,-0.040341,-23.146866,21.642990,4.846130,,,,,,,
1523522864.313221,-0.665405,-0.078226,-2.254680,0.542913,-0.057407,0.895938,-0.615490,0.078146,-0.784261,0.013241,-0.386770,-0.029399,-22.988358,22.766815,4.391724,,,,,,,
1523522864.343189,-0.663217,-0.085552,-2.225083,0.355193,0.034135,0.939396,-0.613404,0.085447,-0.785133,-0.000640,-0.358106,-0.082008,-21.596756,23.033707,3.952942,,,,,,,
1523522864.373157,-0.661425,-0.094848,-2.196960,0.344038,-0.084766,0.927785,-0.611481,0.094705,-0.785571,-0.034591,-0.343302,-0.119489,-20.919556,23.480286,3.576477,,,,,,,
1523522864.403125,-0.661360,-0.102520,-2.169180,0.390162,-0.093059,0.880949,-0.610966,0.102340,-0.785014,-0.066814,-0.348343,-0.166051,-20.917328,23.929901,3.199707,,,,,,,
1523522864.433094,-0.662036,-0.107319,-2.142123,0.461067,-0.134883,0.759569,-0.611187,0.107113,-0.784205,-0.037586,-0.395703,-0.177831,-20.616913,24.377869,2.523071,,,,,,,
1523522864.463062,-0.662415,-0.108114,-2.116788,0.519543,-0.088528,0.643429,-0.611432,0.107903,-0.783905,-0.006091,-0.371255,-0.166076,-19.687943,25.029732,2.006836,,,,,,,
1523522864.493030,-0.664282,-0.107434,-2.092811,0.508727,-0.169991,0.597677,-0.612940,0.107228,-0.782820,0.044489,-0.320836,-0.094148,-18.709976,25.325325,2.006165,,,,,,,
1523522864.522998,-0.664809,-0.105752,-2.069475,0.543455,-0.059499,0.586942,-0.613462,0.105555,-0.782638,0.072004,-0.325983,-0.089448,-17.206924,25.992958,1.404236,,,,,,,
1523522864.552967,-0.663000,-0.103783,-2.042766,0.632747,-0.025386,0.691395,-0.612172,0.103597,-0.783909,0.091207,-0.320867,-0.080181,-17.811691,25.695381,1.105164,,,,,,,
1523522864.582935,-0.661738,-0.100635,-2.013477,0.714482,-0.089591,0.726681,-0.611380,0.100465,-0.784934,0.094732,-0.357225,-0.059914,-16.687958,26.064507,0.279236,,,,,,,
1523522864.612903,-0.662377,-0.097597,-1.981998,0.688384,-0.122925,0.790635,-0.612066,0.097442,-0.784780,0.074545,-0.355072,-0.020533,-15.860336,26.735100,-0.398010,,,,,,,
1523522864.642871,-0.663467,-0.096693,-1.952019,0.536627,-0.153352,0.790544,-0.612975,0.096543,-0.784182,0.075286,-0.373764,-0.021452,-15.557358,27.033730,-0.399048,,,,,,,
1523522864.672840,-0.664585,-0.098911,-1.924312,0.456522,-0.152146,0.797945,-0.613718,0.098750,-0.783326,0.049600,-0.381175,-0.068115,-15.559006,27.183220,-0.924683,,,,,,,
1523522864.702808,-0.666669,-0.102173,-1.896593,0.419992,-0.162917,0.832024,-0.615147,0.101995,-0.781787,0.034764,-0.374746,-0.139996,-14.208908,27.551537,-1.525452,,,,,,,
1523522864.732776,-0.668025,-0.107872,-1.869701,0.360280,-0.133089,0.842603,-0.615836,0.107663,-0.780484,0.008048,-0.386639,-0.179950,-13.981537,27.925285,-1.751892,,,,,,,
1523522864.762758,-0.668810,-0.114602,-1.842597,0.413735,-0.126772,0.833041,-0.615985,0.114352,-0.779414,0.014911,-0.411654,-0.185415,-13.082031,28.145790,-2.202332,,,,,,,
1523522864.792727,-0.669564,-0.118357,-1.815666,0.492037,-0.161340,0.734041,-0.616302,0.118080,-0.778607,0.026352,-0.413429,-0.125507,-11.282578,28.362251,-2.652283,,,,,,,
1523522864.822695,-0.673641,-0.118935,-1.789983,0.503794,-0.254295,0.651031,-0.619429,0.118655,-0.776034,0.012358,-0.422839,-0.082517,-11.956940,28.515129,-2.803223,,,,,,,
1523522864.852663,-0.676795,-0.121707,-1.767101,0.330261,-0.149712,0.647607,-0.621665,0.121406,-0.773818,0.028159,-0.372581,-0.070863,-10.757309,28.659431,-3.103210,,,,,,,
1523522864.882632,-0.677630,-0.127413,-1.746933,0.244094,-0.095242,0.636843,-0.621867,0.127069,-0.772745,0.018397,-0.308694,-0.107534,-10.158401,28.956062,-3.779053,,,,,,,
1523522864.912600,-0.676484,-0.132902,-1.728268,0.256462,-0.033138,0.567516,-0.620534,0.132511,-0.772902,0.010686,-0.264134,-0.156190,-9.482971,28.953102,-3.703796,,,,,,,
1523522864.942568,-0.676254,-0.136577,-1.710168,0.276545,-0.128530,0.525010,-0.620047,0.136153,-0.772660,-0.026620,-0.223372,-0.215484,-9.106964,29.325951,-4.155029,,,,,,,
1523522864.972536,-0.679650,-0.137694,-1.691731,0.468926,-0.150922,0.467639,-0.622572,0.137259,-0.770431,-0.022112,-0.227225,-0.108994,-7.381897,29.692589,-4.755676,,,,,,,
1523522865.002505,-0.680391,-0.134471,-1.672569,0.477899,-0.113377,0.415389,-0.623418,0.134066,-0.770309,0.005574,-0.199206,-0.140305,-8.057312,29.470924,-4.455139,,,,,,,
1523522865.032473,-0.682611,-0.130832,-1.654432,0.465007,-0.168366,0.382400,-0.625430,0.130459,-0.769297,0.027697,-0.212781,-0.102727,-6.864700,29.089973,-5.052979,,,,,,,
,,,,,,,,,,,,,,,,25.318803,51.452957,15.673702,2.800000,104.414062,1523522864.996567,
1523522865.062440,-0.684303,-0.126899,-1.636802,0.488927,-0.101347,0.361053,-0.627050,0.126559,-0.768629,0.063283,-0.182391,-0.023042,-5.810410,29.610069,-5.204590,,,,,,,
