timestamp(unix),attitude_roll(radians),attitude_pitch(radians),attitude_yaw(radians),rotation_rate_x(radians/s),rotation_rate_y(radians/s),rotation_rate_z(radians/s),gravity_x(G),gravity_y(G),gravity_z(G),user_acc_x(G),user_acc_y(G),user_acc_z(G),magnetic_field_x(microteslas),magnetic_field_y(microteslas),magnetic_field_z(microteslas),latitude(degree),longitude(degree),altitude(meter),speed(m/s),course(degree),timestamp(unix),User Mark
1522315579.448133,-0.213112,-0.056845,-0.149715,0.160174,0.212473,-0.119047,-0.211161,0.056814,-0.975799,-0.089590,-0.027746,0.049407,10.564316,7.039242,-3.143677,,,,,,,1
1522315579.478101,-0.205315,-0.052791,-0.151920,0.003390,0.274338,-0.096849,-0.203591,0.052767,-0.977633,-0.096305,-0.003694,-0.076719,10.789459,6.963390,-2.993286,,,,,,,1
,,,,,,,,,,,,,,,,25.306378,51.442259,11.798360,8.640000,83.320312,1522315578.996746,1
1522315579.508069,-0.202404,-0.055808,-0.154656,-0.134601,0.042651,-0.042377,-0.200711,0.055779,-0.978061,-0.038623,-0.013833,0.027362,10.713562,6.963573,-3.143311,,,,,,,1
1522315579.538038,-0.201387,-0.056940,-0.157059,-0.040143,0.105396,-0.083921,-0.199704,0.056909,-0.978202,-0.057498,-0.055825,0.028907,10.416122,7.040218,-2.843750,,,,,,,1
1522315579.568006,-0.198984,-0.058939,-0.159176,-0.106672,0.091379,-0.031744,-0.197331,0.058905,-0.978566,-0.052532,-0.014151,0.000508,10.942886,7.262768,-2.919434,,,,,,,1
1522315579.597974,-0.199167,-0.061814,-0.161099,-0.125269,-0.015844,-0.039111,-0.197475,0.061775,-0.978360,-0.062366,-0.019066,0.016659,10.567017,7.039684,-2.693726,,,,,,,1
1522315579.627943,-0.201334,-0.065487,-0.162561,-0.151260,-0.056388,-0.004999,-0.199548,0.065440,-0.977700,-0.058951,-0.043147,0.008905,10.566269,6.964687,-2.693420,,,,,,,1
1522315579.657911,-0.203562,-0.068935,-0.163698,-0.101992,-0.030958,-0.012445,-0.201679,0.068881,-0.977027,-0.077633,-0.063693,0.013617,10.721802,7.339291,-2.394775,,,,,,,1
1522315579.687879,-0.202603,-0.070027,-0.164887,-0.015699,0.114719,-0.056219,-0.200726,0.069970,-0.977145,-0.062656,-0.053323,-0.074780,10.498444,7.415447,-2.245239,,,,,,,1
1522315579.717847,-0.200350,-0.068643,-0.166611,0.037522,0.059438,-0.072104,-0.198544,0.068589,-0.977689,-0.031971,-0.037797,-0.136752,9.971527,7.267742,-2.319946,,,,,,,1
1522315579.747817,-0.201826,-0.068268,-0.169092,-0.066670,-0.087967,-0.078422,-0.199992,0.068215,-0.977420,-0.034475,-0.011025,-0.087750,10.725861,7.339947,-1.719788,,,,,,,1
1522315579.777785,-0.205855,-0.071990,-0.172183,-0.201329,-0.124778,-0.084878,-0.203874,0.071927,-0.976351,-0.053114,0.021792,0.010439,9.373077,6.971188,-1.569031,,,,,,,1
1522315579.807753,-0.210474,-0.077218,-0.176106,-0.189794,-0.162063,-0.076304,-0.208301,0.077141,-0.975018,-0.071133,0.014289,0.078595,9.668411,6.819332,-2.093262,,,,,,,1
1522315579.837721,-0.213051,-0.080293,-0.177617,-0.045339,0.010172,0.011002,-0.210762,0.080207,-0.974241,-0.060433,-0.020774,0.052427,10.569427,6.965206,-2.168396,,,,,,,1
1522315579.867690,-0.214302,-0.077819,-0.176745,0.181428,-0.123278,0.019828,-0.212022,0.077740,-0.974168,-0.044600,-0.047498,-0.003127,9.589981,6.519604,-2.167114,,,,,,,1
1522315579.897658,-0.220890,-0.071017,-0.174456,0.262254,-0.191520,0.023161,-0.218546,0.070957,-0.973243,-0.061224,-0.042561,0.052971,9.592514,6.819515,-2.243347,,,,,,,1
1522315579.927626,-0.223854,-0.064130,-0.173035,0.199277,-0.000826,-0.021841,-0.221533,0.064086,-0.973045,-0.097285,-0.030181,0.020881,9.670197,7.268871,-2.545044,,,,,,,1
1522315579.957594,-0.222351,-0.059416,-0.173750,0.108083,0.076268,-0.074192,-0.220134,0.059381,-0.973661,-0.082143,-0.037576,-0.062762,9.817200,6.968212,-2.543823,,,,,,,1
1522315579.987563,-0.222615,-0.055655,-0.175685,0.102344,-0.025644,-0.085816,-0.220439,0.055627,-0.973813,-0.082998,-0.059670,-0.110491,10.115677,6.816860,-2.543030,,,,,,,1
1522315580.017531,-0.225740,-0.053006,-0.176926,0.043865,-0.148064,-0.033526,-0.223513,0.052981,-0.973260,-0.081617,-0.051272,-0.066062,10.268524,7.191036,-2.694458,,,,,,,1
1522315580.047499,-0.232025,-0.052892,-0.176947,-0.037712,-0.199147,0.005892,-0.229627,0.052867,-0.971842,-0.066851,0.011677,0.109934,9.364960,6.969875,-2.919006,,,,,,,1
,,,,,,,,,,,,,,,,25.306403,51.442313,11.950436,8.340000,80.156250,1522315579.996732,1
1522315580.077467,-0.234998,-0.054985,-0.176555,-0.080817,-0.000624,0.048277,-0.232489,0.054957,-0.971045,-0.056207,0.007100,0.135748,9.438461,6.819546,-2.918396,,,,,,,1
1522315580.107436,-0.230890,-0.054640,-0.176047,0.100835,0.211772,0.000257,-0.228502,0.054612,-0.972010,-0.043303,-0.035585,0.022975,9.818390,7.267910,-2.844971,,,,,,,1
1522315580.137404,-0.226780,-0.048300,-0.175302,0.275689,0.104346,-0.046391,-0.224579,0.048281,-0.973259,-0.046844,-0.056322,-0.038017,9.516312,6.969418,-2.693970,,,,,,,1
1522315580.167372,-0.226536,-0.040717,-0.174917,0.197261,0.010942,-0.033569,-0.224417,0.040706,-0.973643,-0.050195,-0.055690,-0.023855,9.739944,6.968182,-2.918823,,,,,,,1
1522315580.197341,-0.227210,-0.038498,-0.175033,-0.025283,-0.044061,0.008944,-0.225093,0.038488,-0.973577,-0.071279,-0.025290,-0.018656,10.337982,6.815411,-2.992920,,,,,,,1
1522315580.227309,-0.229546,-0.042290,-0.174903,-0.210356,-0.067328,0.058909,-0.227332,0.042278,-0.972899,-0.048013,-0.034023,-0.022828,9.812256,6.742779,-2.992920,,,,,,,1
1522315580.257277,-0.231566,-0.049499,-0.174923,-0.244395,-0.051244,0.049283,-0.229221,0.049479,-0.972116,-0.020489,-0.054515,0.017358,9.138031,6.820812,-2.993530,,,,,,,1
1522315580.287245,-0.233861,-0.054483,-0.176138,-0.138269,-0.041411,-0.025243,-0.231392,0.054456,-0.971335,-0.032646,-0.046613,0.066978,9.215271,7.045467,-2.994446,,,,,,,1
1522315580.317214,-0.232822,-0.055587,-0.177628,0.002336,0.097572,-0.045515,-0.230368,0.055558,-0.971516,-0.035150,-0.022325,0.036305,8.917236,6.972256,-2.544250,,,,,,,1
1522315580.347182,-0.230799,-0.051731,-0.178285,0.150531,0.050477,-0.047499,-0.228449,0.051708,-0.972182,-0.049856,-0.009746,-0.039720,9.439362,6.819683,-2.768372,,,,,,,1
1522315580.377150,-0.230866,-0.047004,-0.179076,0.093802,0.009222,-0.054953,-0.228568,0.046987,-0.972393,-0.051782,-0.015248,-0.056385,9.516769,6.744869,-2.243042,,,,,,,1
1522315580.407118,-0.232167,-0.045921,-0.180093,-0.017613,-0.050143,-0.034736,-0.229844,0.045905,-0.972144,-0.056868,0.001672,-0.016381,9.589218,6.669231,-2.542725,,,,,,,1
1522315580.437087,-0.234072,-0.047278,-0.181086,-0.075438,-0.050233,-0.001745,-0.231681,0.047260,-0.971643,-0.040871,-0.009571,-0.027258,9.668701,7.118877,-2.544495,,,,,,,1
1522315580.467055,-0.236671,-0.049447,-0.180921,-0.054491,-0.114213,0.021781,-0.234181,0.049427,-0.970936,-0.033397,-0.029148,-0.024868,9.971100,7.043041,-2.018982,,,,,,,1
1522315580.497023,-0.241295,-0.050010,-0.180618,0.006207,-0.182182,-0.005806,-0.238662,0.049989,-0.969815,-0.060212,-0.017259,0.005719,9.136688,6.595974,-2.842651,,,,,,,1
1522315580.526991,-0.246138,-0.049006,-0.181414,0.035585,-0.110739,-0.050613,-0.243368,0.048987,-0.968696,-0.058146,-0.025259,0.049964,8.689407,6.598431,-2.392883,,,,,,,1
1522315580.556990,-0.248046,-0.046609,-0.182635,0.080991,0.002913,-0.060282,-0.245243,0.046592,-0.968341,-0.075146,-0.031150,0.032810,8.913498,6.597271,-2.542786,,,,,,,1
1522315580.586958,-0.246392,-0.043060,-0.183395,0.120750,0.079187,-0.042210,-0.243681,0.043046,-0.968900,-0.072436,-0.019517,-0.044864,8.914383,6.822048,-2.768616,,,,,,,1
1522315580.616927,-0.246673,-0.040057,-0.183693,0.048625,-0.032329,-0.025102,-0.243983,0.040046,-0.968952,-0.063970,-0.033393,-0.041301,9.591599,7.044003,-2.769165,,,,,,,1
1522315580.646895,-0.248479,-0.040379,-0.184076,-0.060419,-0.032239,0.001452,-0.245729,0.040368,-0.968498,-0.064131,-0.007546,0.004936,9.145660,7.271313,-2.470337,,,,,,,1
1522315580.676863,-0.248651,-0.042702,-0.184451,-0.086939,0.027193,0.020556,-0.245872,0.042689,-0.968362,-0.051796,-0.012889,-0.004066,8.844482,7.197582,-2.545227,,,,,,,1
1522315580.706831,-0.249327,-0.044177,-0.184218,-0.021028,-0.034610,0.021733,-0.246511,0.044163,-0.968133,-0.047373,-0.026035,0.029580,7.868912,7.276745,-2.770996,,,,,,,1
1522315580.736800,-0.250247,-0.043365,-0.183516,0.048574,0.017235,0.028129,-0.247411,0.043351,-0.967940,-0.042430,-0.032746,0.018554,9.513611,6.744350,-2.768005,,,,,,,1
1522315580.766767,-0.250528,-0.042266,-0.182541,0.020646,-0.030409,0.016419,-0.247695,0.042254,-0.967916,-0.034547,-0.043779,-0.000498,8.316360,6.974804,-2.694580,,,,,,,1
1522315580.796735,-0.252215,-0.041416,-0.182449,0.021008,0.012299,-0.014515,-0.249336,0.041404,-0.967532,-0.050347,-0.036216,0.038409,9.140274,7.045803,-2.994446,,,,,,,1
1522315580.826704,-0.250248,-0.041087,-0.182557,-0.022424,0.120603,0.013045,-0.247435,0.041076,-0.968033,-0.049059,-0.041533,0.000855,8.839539,6.972164,-2.994324,,,,,,,1
1522315580.856672,-0.247875,-0.041854,-0.182713,-0.037710,0.029352,-0.000725,-0.245130,0.041841,-0.968587,-0.042514,-0.027330,-0.020213,8.767380,7.122707,-2.769897,,,,,,,1
1522315580.886640,-0.249713,-0.042582,-0.182992,-0.040372,-0.063242,0.020680,-0.246902,0.042569,-0.968105,-0.014069,-0.040006,-0.013417,9.142227,6.971249,-2.544128,,,,,,,1
1522315580.916608,-0.253281,-0.043625,-0.182584,-0.051286,-0.115295,0.021792,-0.250343,0.043612,-0.967174,-0.031929,-0.032991,0.014751,8.913788,6.896832,-2.993958,,,,,,,1
1522315580.946577,-0.255584,-0.044742,-0.182588,-0.030483,-0.024872,0.000404,-0.252558,0.044727,-0.966547,-0.031240,-0.020130,0.033625,8.990280,7.046474,-2.994507,,,,,,,1
1522315580.976545,-0.255740,-0.043849,-0.182491,0.044375,-0.001658,-0.002761,-0.252719,0.043835,-0.966546,-0.025037,-0.027966,0.000528,9.143265,7.121166,-2.619751,,,,,,,1
1522315581.006513,-0.256354,-0.041724,-0.182903,0.055098,-0.036487,-0.041073,-0.253334,0.041712,-0.966479,-0.034874,-0.018824,-0.044965,8.690887,6.973049,-2.769348,,,,,,,1
1522315581.036481,-0.259498,-0.040151,-0.183767,0.024901,-0.105480,-0.042088,-0.256389,0.040140,-0.965740,-0.039021,-0.014384,-0.004795,9.139984,6.746258,-2.543274,,,,,,,1
1522315581.066450,-0.262090,-0.039679,-0.185380,-0.034575,-0.044710,-0.049652,-0.258896,0.039668,-0.965090,-0.067185,-0.007106,0.023883,9.367966,7.045223,-2.544312,,,,,,,1
,,,,,,,,,,,,,,,,25.306428,51.442399,12.124022,8.480000,79.101562,1522315580.996719,1
1522315581.096418,-0.262011,-0.040402,-0.186550,-0.024938,0.014482,-0.006029,-0.258812,0.040391,-0.965083,-0.039299,-0.014680,-0.027089,8.769928,7.197994,-2.470215,,,,,,,1
1522315581.126386,-0.264196,-0.039696,-0.186398,0.039755,-0.081342,-0.003745,-0.260928,0.039686,-0.964542,-0.047849,-0.028455,-0.007549,8.692093,7.048122,-2.694702,,,,,,,1
1522315581.156354,-0.265578,-0.038757,-0.186297,0.019760,-0.021724,-0.010224,-0.262270,0.038747,-0.964216,-0.039015,-0.011663,-0.020357,9.446259,7.195171,-2.244873,,,,,,,1
1522315581.186323,-0.266865,-0.038070,-0.187381,0.004995,-0.036255,-0.056030,-0.263518,0.038060,-0.963903,-0.050767,-0.016439,0.006231,8.391205,6.824703,-2.468933,,,,,,,1
1522315581.216291,-0.267599,-0.037074,-0.188836,0.016891,0.002991,-0.050730,-0.264235,0.037065,-0.963746,-0.046907,-0.017427,-0.006728,8.388962,6.824337,-2.843933,,,,,,,1
1522315581.246259,-0.267353,-0.036516,-0.189896,0.000849,0.019902,-0.031582,-0.264004,0.036508,-0.963831,-0.049427,-0.000360,-0.043311,9.146713,7.421230,-2.545959,,,,,,,1
1522315581.276227,-0.269208,-0.036148,-0.190581,0.005532,-0.109848,-0.017594,-0.265794,0.036140,-0.963352,-0.044310,0.016350,0.024418,8.395691,7.274685,-2.470703,,,,,,,1
1522315581.306196,-0.272648,-0.035650,-0.191002,0.006829,-0.045112,-0.005940,-0.269111,0.035642,-0.962449,-0.050820,-0.028806,0.059389,8.094360,7.275814,-2.695923,,,,,,,1
1522315581.336164,-0.271676,-0.035554,-0.190132,0.024196,0.069291,0.038712,-0.268176,0.035547,-0.962714,-0.024548,-0.043390,0.017325,8.018463,7.051373,-2.470032,,,,,,,1
1522315581.366132,-0.270702,-0.033596,-0.188786,0.111753,0.031053,0.004722,-0.267257,0.033590,-0.963040,-0.051484,-0.054586,-0.020801,8.470535,7.349194,-2.621033,,,,,,,1
1522315581.396100,-0.270284,-0.030257,-0.187980,0.079783,0.034379,-0.003828,-0.266883,0.030253,-0.963254,-0.018701,-0.054346,-0.076953,8.017715,6.976376,-2.469727,,,,,,,1
1522315581.426069,-0.270186,-0.029467,-0.188902,-0.047207,0.003097,-0.043318,-0.266795,0.029463,-0.963303,-0.022390,-0.026182,-0.064392,8.547043,7.723476,-2.997437,,,,,,,1
1522315581.456037,-0.270916,-0.032503,-0.190432,-0.159539,-0.011703,-0.013556,-0.267472,0.032497,-0.963017,-0.012954,-0.003017,-0.015697,8.246750,7.425274,-2.546387,,,,,,,1
1522315581.486005,-0.271436,-0.036674,-0.191324,-0.121311,-0.005765,0.033359,-0.267934,0.036666,-0.962739,-0.014643,-0.001983,0.018785,8.097198,7.426022,-2.471497,,,,,,,1
1522315581.515974,-0.271571,-0.038174,-0.190494,-0.001841,-0.005133,0.053686,-0.268050,0.038165,-0.962649,0.030120,-0.054552,-0.005338,9.072601,7.646328,-2.771851,,,,,,,1
1522315581.545942,-0.271731,-0.037581,-0.188338,0.052528,-0.022295,0.055882,-0.268210,0.037572,-0.962627,0.009314,-0.055760,-0.026493,8.169952,7.425320,-2.846436,,,,,,,1
1522315581.575910,-0.272991,-0.036767,-0.187963,-0.011216,-0.039637,-0.021944,-0.269431,0.036758,-0.962318,-0.003946,-0.039963,-0.027291,8.468887,7.274044,-2.770691,,,,,,,1
1522315581.605878,-0.273659,-0.038063,-0.189901,-0.117621,-0.018859,-0.071044,-0.270060,0.038054,-0.962091,-0.004506,-0.027831,-0.020758,7.798111,7.652142,-2.697571,,,,,,,1
1522315581.635847,-0.273604,-0.041183,-0.193203,-0.169874,0.010959,-0.059404,-0.269974,0.041171,-0.961987,0.016312,-0.011310,-0.025608,8.244049,7.424831,-2.996399,,,,,,,1
1522315581.665815,-0.274223,-0.045653,-0.195965,-0.173403,-0.039125,-0.039106,-0.270517,0.045637,-0.961633,0.003564,0.004976,0.024682,9.001816,8.021725,-2.698425,,,,,,,1
1522315581.695783,-0.275445,-0.048783,-0.197713,-0.084911,-0.034225,-0.011343,-0.271652,0.048763,-0.961159,-0.003433,0.008167,0.052071,8.553040,7.874187,-2.248047,,,,,,,1
1522315581.725751,-0.274842,-0.049166,-0.197674,0.042289,0.037491,0.021706,-0.271067,0.049146,-0.961305,0.023219,-0.028287,0.019059,8.398834,7.499813,-2.321655,,,,,,,1
1522315581.755707,-0.274972,-0.046036,-0.196193,0.144593,-0.027482,0.004812,-0.271232,0.046019,-0.961413,0.009696,-0.020644,0.008883,8.022354,7.576138,-2.697144,,,,,,,1
1522315581.785675,-0.274123,-0.042775,-0.195469,0.071428,0.066342,-0.012394,-0.270455,0.042762,-0.961783,0.022789,-0.021461,-0.040796,8.923828,7.722073,-2.697266,,,,,,,1
1522315581.815643,-0.273407,-0.042230,-0.196626,-0.038602,0.006332,-0.052906,-0.269773,0.042218,-0.961998,0.019376,-0.014981,0.011589,8.172668,7.201138,-2.020508,,,,,,,1
1522315581.845611,-0.272056,-0.043748,-0.198405,-0.075886,0.059329,-0.022080,-0.268456,0.043734,-0.962299,0.031838,-0.009280,0.049732,7.946899,7.576397,-2.772156,,,,,,,1
1522315581.875580,-0.269002,-0.044671,-0.198467,-0.002185,0.106698,0.014163,-0.265505,0.044656,-0.963075,0.037691,-0.007791,-0.026290,8.772034,7.273205,-2.245544,,,,,,,1
1522315581.905548,-0.266461,-0.042631,-0.196912,0.126553,0.039272,0.039886,-0.263080,0.042618,-0.963832,0.068835,-0.041962,-0.064824,8.320404,7.200100,-2.395447,,,,,,,1
1522315581.935516,-0.265160,-0.039471,-0.194747,0.101976,0.039302,0.044131,-0.261859,0.039461,-0.964299,0.071887,-0.036607,-0.081508,9.441757,7.194454,-2.994873,,,,,,,1
1522315581.965484,-0.265798,-0.037988,-0.192830,0.027886,-0.062487,0.037791,-0.262490,0.037978,-0.964187,0.066552,-0.018188,-0.010758,8.318161,6.975109,-2.394531,,,,,,,1
1522315581.995453,-0.265018,-0.038942,-0.192490,-0.080450,0.046261,0.023753,-0.261728,0.038932,-0.964356,0.081644,-0.000480,-0.011520,8.619034,7.198528,-2.620300,,,,,,,1
1522315582.025421,-0.263592,-0.040702,-0.192725,-0.036742,0.003839,-0.001753,-0.260334,0.040691,-0.964661,0.073002,-0.007518,-0.033966,9.216614,7.045681,-2.769409,,,,,,,1
1522315582.055389,-0.263897,-0.040257,-0.192747,0.032344,-0.060085,0.000479,-0.260633,0.040246,-0.964599,0.078550,-0.017861,-0.026383,8.471756,7.199642,-2.170410,,,,,,,1
,,,,,,,,,,,,,,,,25.306434,51.442438,12.265499,7.600000,78.398438,1522315581.996705,1
1522315582.085358,-0.265388,-0.039224,-0.192406,0.031337,-0.046298,0.002606,-0.262082,0.039213,-0.964249,0.050778,-0.016798,-0.009659,8.246307,7.200573,-2.245544,,,,,,,1
1522315582.115326,-0.265774,-0.038663,-0.191657,0.013046,-0.053847,0.023915,-0.262460,0.038654,-0.964168,0.043115,-0.018741,-0.063038,8.544495,7.198940,-2.545349,,,,,,,1
1522315582.145294,-0.267963,-0.038499,-0.190917,-0.004376,-0.140876,0.014404,-0.264572,0.038490,-0.963598,0.045211,-0.035987,-0.061686,8.546432,7.348995,-2.470947,,,,,,,1
1522315582.175262,-0.272648,-0.039286,-0.191402,-0.055542,-0.156473,-0.015457,-0.269075,0.039275,-0.962318,0.048387,-0.041473,0.002021,8.390762,6.824627,-2.543945,,,,,,,1
1522315582.205231,-0.274707,-0.041164,-0.192721,-0.075143,-0.039328,-0.045423,-0.271035,0.041152,-0.961689,0.037957,-0.006179,0.013829,8.393143,7.199398,-2.770386,,,,,,,1
1522315582.235199,-0.274796,-0.041220,-0.194395,0.019018,0.010360,-0.042208,-0.271120,0.041209,-0.961663,0.045107,-0.013346,0.007180,7.942871,7.126492,-2.695374,,,,,,,1
1522315582.265198,-0.273563,-0.037931,-0.194820,0.115926,-0.026103,-0.027191,-0.269969,0.037922,-0.962122,0.040797,-0.035099,-0.051977,7.870712,7.277050,-2.471008,,,,,,,1
1522315582.295166,-0.274561,-0.034914,-0.194387,0.080506,-0.052670,-0.014404,-0.270959,0.034907,-0.961958,0.023126,-0.024562,-0.041002,8.617691,7.198299,-2.845276,,,,,,,1
1522315582.325134,-0.276180,-0.033965,-0.194512,-0.008180,-0.054690,-0.000603,-0.272525,0.033958,-0.961549,0.030795,-0.026771,-0.019820,7.796463,7.352383,-2.471313,,,,,,,1
1522315582.355102,-0.276307,-0.034467,-0.194519,-0.037882,0.016423,0.022739,-0.272642,0.034460,-0.961498,0.044661,-0.036307,-0.011372,7.565491,6.978039,-2.844971,,,,,,,1
1522315582.385071,-0.275318,-0.034862,-0.194411,-0.006791,0.021788,0.003581,-0.271688,0.034855,-0.961754,0.060980,-0.041920,-0.004951,8.245392,7.425060,-2.771362,,,,,,,1
1522315582.415039,-0.274061,-0.034452,-0.193906,0.026383,0.023935,-0.010254,-0.270482,0.034445,-0.962109,0.056127,-0.028311,-0.006947,7.196640,7.280224,-2.321350,,,,,,,1
1522315582.445007,-0.271790,-0.032615,-0.193514,0.066022,0.072623,0.004636,-0.268313,0.032609,-0.962780,0.065356,-0.017976,-0.048939,7.796768,7.427303,-2.546631,,,,,,,1
1522315582.474975,-0.270230,-0.030398,-0.193482,0.046801,0.034623,-0.026232,-0.266830,0.030393,-0.963264,0.046264,-0.018263,-0.068505,8.621872,7.573360,-2.771790,,,,,,,1
1522315582.504944,-0.269095,-0.029404,-0.194022,0.010266,-0.015231,-0.025148,-0.265744,0.029400,-0.963595,0.059110,-0.016476,-0.101896,7.421478,7.354061,-2.471497,,,,,,,1
1522315582.534912,-0.269899,-0.029962,-0.194327,-0.057102,-0.002528,0.005690,-0.266515,0.029958,-0.963365,0.065633,-0.001119,-0.065901,7.350082,7.579601,-2.247498,,,,,,,1
1522315582.564880,-0.270440,-0.032098,-0.195177,-0.088379,-0.076816,0.002548,-0.267017,0.032092,-0.963157,0.067677,0.011823,-0.003563,8.623077,7.648434,-2.697144,,,,,,,1
1522315582.594848,-0.271890,-0.033564,-0.196104,-0.029287,-0.030005,-0.027286,-0.268401,0.033558,-0.962723,0.059478,0.000164,0.042999,7.047256,7.206127,-2.096130,,,,,,,1
1522315582.624817,-0.270924,-0.032248,-0.195954,0.105372,0.019487,-0.010189,-0.267483,0.032242,-0.963023,0.052075,-0.028153,-0.048894,7.193954,7.055157,-2.395447,,,,,,,1
1522315582.654785,-0.271112,-0.027704,-0.195560,0.164991,-0.060120,-0.045221,-0.267701,0.027701,-0.963104,0.033219,-0.024298,-0.061203,8.095856,7.201183,-2.320618,,,,,,,1
1522315582.684753,-0.274742,-0.023766,-0.195398,0.092712,-0.196120,-0.020635,-0.271222,0.023764,-0.962223,0.045117,-0.042715,-0.032054,7.272232,7.429729,-2.471924,,,,,,,1
1522315582.714722,-0.279820,-0.022680,-0.195456,-0.015023,-0.161909,-0.011165,-0.276111,0.022678,-0.960858,0.016834,-0.052921,-0.021701,7.572372,7.578152,-2.697388,,,,,,,1
1522315582.744687,-0.281606,-0.024130,-0.196115,-0.063544,-0.017356,0.000375,-0.277818,0.024127,-0.960331,0.024980,-0.044696,-0.015225,7.870407,7.426739,-2.771606,,,,,,,1
1522315582.774655,-0.282080,-0.024282,-0.195195,0.025727,-0.065672,0.038854,-0.278272,0.024280,-0.960195,0.046964,-0.019595,0.011251,6.967010,7.130733,-2.845886,,,,,,,1
1522315582.804623,-0.283844,-0.022644,-0.194377,0.057001,-0.037864,0.002619,-0.279976,0.022642,-0.959740,0.037376,-0.014845,0.004814,7.269836,7.279598,-2.621338,,,,,,,1
1522315582.834592,-0.283794,-0.021095,-0.193804,0.048560,-0.009188,0.007910,-0.279937,0.021093,-0.959787,0.057952,-0.002539,-0.006308,8.390442,7.198956,-3.220398,,,,,,,1
1522315582.864560,-0.283238,-0.018012,-0.193487,0.127845,0.034282,-0.006989,-0.279421,0.018011,-0.960000,0.038866,-0.049261,-0.065406,7.343933,7.279110,-2.771240,,,,,,,1
1522315582.894528,-0.281567,-0.015364,-0.192611,0.057319,0.033321,0.003615,-0.277828,0.015364,-0.960508,0.053234,-0.036909,-0.099383,7.416382,7.203487,-3.070984,,,,,,,1
1522315582.924496,-0.282812,-0.015169,-0.192640,-0.035051,-0.093937,-0.000585,-0.279025,0.015169,-0.960164,0.057132,-0.017686,0.015523,7.040054,6.980328,-2.920227,,,,,,,1
1522315582.954465,-0.283167,-0.016954,-0.192986,-0.085811,0.024065,0.008854,-0.279358,0.016953,-0.960037,0.066132,-0.009736,0.044434,7.190506,6.979733,-2.845154,,,,,,,1
1522315582.984433,-0.281189,-0.017895,-0.193505,-0.006597,0.024190,-0.033726,-0.277453,0.017894,-0.960572,0.047442,-0.010570,0.008989,7.414139,6.978497,-3.070068,,,,,,,1
1522315583.014401,-0.280503,-0.016314,-0.194851,0.044699,0.013546,-0.050719,-0.276802,0.016313,-0.960789,0.075737,-0.040254,-0.036267,7.713089,6.827221,-2.994324,,,,,,,1
1522315583.044369,-0.279417,-0.014076,-0.196084,0.054415,0.015802,-0.070969,-0.275768,0.014075,-0.961121,0.017788,-0.018745,-0.068344,6.742310,7.206676,-2.921265,,,,,,,1
1522315583.074338,-0.278579,-0.014409,-0.197325,-0.100802,0.006108,0.000328,-0.274961,0.014408,-0.961348,0.055936,-0.015339,-0.094469,6.817001,7.356030,-3.221863,,,,,,,1
,,,,,,,,,,,,,,,,25.306420,51.442580,12.276297,10.100000,86.132812,1522315582.996693,1
1522315583.104306,-0.279345,-0.018914,-0.198156,-0.183239,-0.041519,0.002446,-0.275677,0.018912,-0.961064,0.010434,-0.008628,-0.042552,7.795410,7.427074,-2.771606,,,,,,,1
1522315583.134274,-0.280520,-0.023712,-0.199770,-0.149288,-0.066174,0.021673,-0.276778,0.023710,-0.960641,0.082991,-0.018125,0.014551,7.197983,7.505062,-2.472229,,,,,,,1
1522315583.164242,-0.281513,-0.025117,-0.200616,0.002954,-0.029814,-0.066682,-0.277722,0.025115,-0.960333,0.038754,-0.032683,0.070013,6.217789,7.209103,-2.846558,,,,,,,1
1522315583.194211,-0.280968,-0.022780,-0.200457,0.118344,0.048194,-0.016605,-0.277214,0.022778,-0.960538,0.050270,0.009922,0.070066,6.516129,7.132610,-2.996094,,,,,,,1
1522315583.224179,-0.277050,-0.016652,-0.201087,0.207707,0.141897,-0.077361,-0.273482,0.016651,-0.961733,0.015883,-0.035831,-0.024992,6.291733,7.058849,-2.770874,,,,,,,1
1522315583.254147,-0.274177,-0.011378,-0.200584,0.132234,0.023872,-0.038943,-0.270738,0.011378,-0.962586,0.042466,-0.029047,-0.076873,7.116852,7.204906,-2.996094,,,,,,,1
1522315583.284116,-0.274623,-0.010114,-0.201091,-0.049770,-0.040783,0.001480,-0.271170,0.010114,-0.962478,0.026709,-0.019483,-0.043992,6.217484,7.134182,-2.771240,,,,,,,1
1522315583.314084,-0.275482,-0.015030,-0.201826,-0.217460,-0.025652,0.025841,-0.271980,0.015030,-0.962186,0.025978,0.003967,-0.016712,6.443680,7.208233,-2.696472,,,,,,,1
1522315583.344052,-0.274896,-0.020545,-0.202779,-0.165095,0.009130,0.047159,-0.271390,0.020543,-0.962250,0.058118,-0.039556,-0.002624,7.196930,7.579769,-2.772522,,,,,,,1
1522315583.374020,-0.273389,-0.023052,-0.202503,-0.014229,0.047237,0.016324,-0.269924,0.023050,-0.962606,0.042568,-0.034555,0.020589,6.068390,7.135006,-2.621338,,,,,,,1
1522315583.403989,-0.272278,-0.020523,-0.202206,0.110895,0.024988,-0.040021,-0.268870,0.020521,-0.962958,0.049616,-0.051512,0.036246,6.670456,7.432140,-2.772217,,,,,,,1
1522315583.433957,-0.269847,-0.016402,-0.201963,0.131425,0.090756,-0.030485,-0.266548,0.016402,-0.963682,0.035026,-0.066985,-0.068056,6.520325,7.283047,-2.546692,,,,,,,1
1522315583.463925,-0.267233,-0.012870,-0.201637,0.062793,0.034553,-0.021958,-0.264042,0.012869,-0.964425,0.017689,-0.041937,-0.150977,6.073181,7.435284,-2.322571,,,,,,,1
1522315583.493893,-0.267651,-0.013434,-0.201836,-0.088385,-0.058874,0.019581,-0.264443,0.013434,-0.964308,0.035652,-0.025870,-0.073763,6.448486,7.283886,-2.021729,,,,,,,1
1522315583.523862,-0.270302,-0.018159,-0.202638,-0.203979,-0.089593,0.047227,-0.266978,0.018158,-0.963531,0.053645,-0.006897,0.020752,6.675720,7.732494,-2.398376,,,,,,,1
1522315583.553830,-0.270752,-0.023825,-0.203089,-0.170392,0.007100,0.036497,-0.267380,0.023823,-0.963297,0.059891,-0.031605,0.017374,5.854050,7.886486,-2.099426,,,,,,,1
1522315583.583798,-0.271665,-0.026084,-0.203649,-0.004922,-0.075733,-0.030420,-0.268245,0.026081,-0.962998,0.055140,-0.040455,0.029160,5.546417,7.212719,-2.246948,,,,,,,1
1522315583.613766,-0.272393,-0.022935,-0.204434,0.127094,0.015695,-0.083689,-0.268967,0.022933,-0.962876,0.019699,-0.052124,0.004518,4.797638,7.515789,-2.548523,,,,,,,1
1522315583.643735,-0.270501,-0.019056,-0.206361,0.060062,0.040486,-0.108280,-0.267165,0.019055,-0.963462,0.002746,-0.007688,-0.067025,5.554825,7.738201,-1.723999,,,,,,,1
1522315583.673703,-0.269231,-0.017826,-0.208807,-0.019260,0.028627,-0.057175,-0.265948,0.017825,-0.963823,0.030596,-0.017947,-0.070143,5.850006,7.436581,-2.022644,,,,,,,1
1522315583.703671,-0.270289,-0.019083,-0.209801,-0.093735,-0.084217,-0.000646,-0.266961,0.019082,-0.963518,0.012674,0.011329,-0.051466,6.677505,7.957409,-2.474304,,,,,,,1
1522315583.733639,-0.272408,-0.022274,-0.210377,-0.099103,-0.064214,0.024917,-0.268985,0.022272,-0.962887,0.040103,0.000982,0.013760,5.553162,7.887691,-2.249634,,,,,,,1
1522315583.763607,-0.272227,-0.023072,-0.210470,0.023159,0.033413,0.002524,-0.268806,0.023070,-0.962918,0.041282,-0.029341,-0.002231,5.557816,8.038189,-1.725220,,,,,,,1
1522315583.793575,-0.270996,-0.020640,-0.210149,0.117136,0.008904,-0.021884,-0.267634,0.020638,-0.963300,0.047129,-0.035134,0.012097,6.452988,7.733868,-2.023499,,,,,,,1
1522315583.823543,-0.271129,-0.016809,-0.209779,0.119332,0.016406,-0.029361,-0.267781,0.016808,-0.963333,0.008764,-0.023903,-0.016251,6.003906,7.736034,-1.873779,,,,,,,1
1522315583.853511,-0.268648,-0.014810,-0.209710,0.006183,0.062133,0.005672,-0.265399,0.014810,-0.964025,0.037876,-0.042520,-0.093302,6.076340,7.435787,-1.797546,,,,,,,1
1522315583.883480,-0.267532,-0.015397,-0.209429,-0.040058,-0.002623,0.013161,-0.264321,0.015396,-0.964312,0.019646,-0.057541,-0.079755,6.752518,7.732449,-2.098389,,,,,,,1
1522315583.913448,-0.268316,-0.017766,-0.209092,-0.106602,-0.046240,0.042995,-0.265066,0.017765,-0.964067,0.047507,-0.045002,-0.062758,6.081146,7.960690,-1.874634,,,,,,,1
1522315583.943416,-0.268969,-0.022123,-0.208952,-0.159884,-0.024846,0.041867,-0.265673,0.022121,-0.963809,0.045565,-0.034329,-0.038876,5.711563,8.187878,-1.350708,,,,,,,1
1522315583.973415,-0.269483,-0.026330,-0.208726,-0.118182,-0.005853,0.046141,-0.266140,0.026327,-0.963575,0.062970,-0.036383,-0.006793,6.914185,8.632168,-1.651855,,,,,,,1
1522315584.003383,-0.269817,-0.028467,-0.209107,-0.052884,-0.038531,-0.014512,-0.266447,0.028464,-0.963429,0.055647,-0.028540,0.084019,6.082642,7.886059,-1.499329,,,,,,,1
1522315584.033352,-0.269054,-0.027325,-0.210252,0.077019,0.067733,-0.060344,-0.265721,0.027322,-0.963663,0.060551,-0.020898,0.099512,6.152100,7.735073,-2.173706,,,,,,,1
1522315584.063320,-0.264039,-0.021589,-0.209863,0.234250,0.157514,-0.037947,-0.260920,0.021587,-0.965119,0.059749,-0.035183,-0.075058,6.678268,7.807781,-2.098694,,,,,,,1
,,,,,,,,,,,,,,,,25.306428,51.442717,12.213418,11.440000,88.242188,1522315583.996679,1
1522315584.093288,-0.261874,-0.016119,-0.209302,0.113940,0.001556,-0.031479,-0.258858,0.016119,-0.965781,0.052086,-0.030843,-0.138513,6.232040,7.960155,-1.724548,,,,,,,1
1522315584.123256,-0.263565,-0.016002,-0.210014,-0.101325,-0.109700,-0.000627,-0.260490,0.016002,-0.965344,0.052574,-0.005015,-0.106632,6.080399,7.885693,-1.874329,,,,,,,1
1522315584.153225,-0.265886,-0.022166,-0.211765,-0.285876,-0.076291,-0.001864,-0.262700,0.022164,-0.964623,0.049473,-0.017480,-0.015235,7.061340,8.481274,-1.876221,,,,,,,1
1522315584.183193,-0.266472,-0.030576,-0.213423,-0.232418,-0.004503,0.046053,-0.263206,0.030572,-0.964255,0.084571,-0.025002,-0.032754,6.313171,8.484951,-1.576660,,,,,,,1
1522315584.213161,-0.266487,-0.032396,-0.213396,0.049544,-0.025159,0.011128,-0.263206,0.032390,-0.964196,0.046714,-0.033931,-0.065345,5.783554,8.112179,-1.725403,,,,,,,1
1522315584.243129,-0.267309,-0.029100,-0.213158,0.107337,-0.046210,-0.035702,-0.264025,0.029096,-0.964077,0.076159,-0.037260,-0.037205,5.928452,7.736309,-1.948853,,,,,,,1
1522315584.273098,-0.268548,-0.026348,-0.214262,0.050891,-0.055401,-0.069827,-0.265240,0.026345,-0.963822,0.048992,-0.002144,0.079042,6.306137,7.959682,-1.874512,,,,,,,1
1522315584.303066,-0.267727,-0.025026,-0.216202,0.005367,0.051900,-0.050788,-0.264457,0.025023,-0.964073,0.044837,0.018282,0.070167,6.905060,8.031689,-2.174500,,,,,,,1
1522315584.333034,-0.264383,-0.023522,-0.217832,0.049538,0.125216,-0.064687,-0.261241,0.023520,-0.964987,0.047755,0.000528,-0.005457,6.677216,7.657864,-2.023071,,,,,,,1
1522315584.363002,-0.261481,-0.020206,-0.218722,0.130504,0.064587,-0.083750,-0.258458,0.020205,-0.965811,0.030324,0.003401,-0.071497,6.455231,7.734234,-1.648499,,,,,,,1
1522315584.392971,-0.262113,-0.015648,-0.220179,0.093467,-0.075732,-0.063389,-0.259090,0.015648,-0.965726,0.067623,-0.002159,-0.033694,6.303894,7.734692,-1.873657,,,,,,,1
1522315584.422939,-0.262201,-0.015733,-0.221812,-0.074989,0.002099,-0.041215,-0.259175,0.015732,-0.965702,0.035038,0.006393,-0.021877,6.301636,7.509701,-1.872742,,,,,,,1
1522315584.452907,-0.262733,-0.017923,-0.223555,-0.082601,-0.029769,-0.041181,-0.259679,0.017922,-0.965529,0.008015,0.016563,-0.049211,5.623215,7.212673,-1.946899,,,,,,,1
1522315584.482875,-0.261794,-0.019375,-0.224077,-0.005749,0.003811,-0.008126,-0.258765,0.019374,-0.965746,0.022467,-0.025783,-0.118879,6.074997,7.435574,-2.022522,,,,,,,1
1522315584.512844,-0.264391,-0.017351,-0.222815,0.116199,-0.133852,0.032591,-0.261283,0.017350,-0.965106,0.029456,-0.017152,0.009265,6.302826,7.584774,-1.798035,,,,,,,1
1522315584.542812,-0.267708,-0.015523,-0.221321,0.027584,-0.111452,0.051683,-0.264490,0.015523,-0.964263,0.053156,0.000468,0.079971,5.773956,7.286999,-1.947144,,,,,,,1
1522315584.572780,-0.269041,-0.015601,-0.219667,0.003503,-0.016764,0.043049,-0.265775,0.015601,-0.963909,0.009259,-0.011786,0.093685,6.675110,7.582638,-2.247864,,,,,,,1
1522315584.602749,-0.267638,-0.013644,-0.218897,0.127833,0.056464,0.013227,-0.264430,0.013644,-0.964309,0.040843,-0.069628,0.032180,5.625015,7.437603,-2.022766,,,,,,,1
1522315584.632717,-0.265675,-0.007456,-0.217446,0.243179,0.019263,-0.026075,-0.262553,0.007456,-0.964889,0.029216,-0.093714,-0.109559,5.699265,7.362255,-2.022400,,,,,,,1
1522315584.662685,-0.267576,-0.001437,-0.216074,0.137847,-0.110273,-0.003645,-0.264395,0.001437,-0.964414,0.016607,-0.072085,-0.070773,4.718155,7.066158,-2.546753,,,,,,,1
1522315584.692653,-0.271523,-0.002122,-0.217030,-0.194129,-0.114623,-0.022008,-0.268198,0.002122,-0.963361,0.006937,-0.029390,0.009245,5.473663,7.438046,-2.247864,,,,,,,1
1522315584.722622,-0.271915,-0.011044,-0.219336,-0.375158,0.032211,0.013940,-0.268560,0.011044,-0.963200,0.004873,-0.003597,0.023350,5.247787,7.214291,-2.022034,,,,,,,1
1522315584.752601,-0.270724,-0.019204,-0.221184,-0.220484,0.011562,0.023670,-0.267380,0.019203,-0.963400,0.043671,-0.035942,-0.009867,6.295029,7.209133,-2.471497,,,,,,,1
1522315584.782569,-0.271358,-0.021091,-0.221750,0.022762,-0.057930,-0.001655,-0.267980,0.021090,-0.963194,0.051397,-0.051012,0.026975,5.321426,7.213741,-2.247009,,,,,,,1
1522315584.812537,-0.271872,-0.017378,-0.220972,0.173770,0.031045,-0.014420,-0.268495,0.017377,-0.963124,0.014054,-0.033902,0.041600,6.069901,7.060375,-2.246033,,,,,,,1
1522315584.842506,-0.270606,-0.012876,-0.219559,0.114892,0.032021,0.017508,-0.267293,0.012876,-0.963529,0.005498,-0.044080,-0.009020,6.074844,7.510418,-2.172852,,,,,,,1
1522315584.872474,-0.269192,-0.011091,-0.218922,0.001825,0.044072,0.006752,-0.265936,0.011091,-0.963927,0.012701,-0.081189,-0.047594,4.946304,7.065655,-2.021606,,,,,,,1
1522315584.902442,-0.267896,-0.012172,-0.219864,-0.092931,0.043602,-0.044461,-0.264683,0.012172,-0.964259,-0.004970,-0.064113,-0.095846,5.392227,6.838345,-2.320496,,,,,,,1
1522315584.932410,-0.266744,-0.015556,-0.222028,-0.164633,0.021361,-0.030635,-0.263560,0.015556,-0.964518,0.023371,-0.052558,-0.059256,6.219147,6.984692,-2.245667,,,,,,,1
1522315584.962379,-0.266321,-0.020000,-0.224263,-0.172247,0.018033,-0.007199,-0.263131,0.019999,-0.964553,0.043481,0.007009,-0.039079,4.947342,7.215572,-2.097229,,,,,,,1
1522315584.992347,-0.266232,-0.023314,-0.225651,-0.095431,-0.006523,-0.017774,-0.263026,0.023312,-0.964507,0.033458,-0.004590,-0.093003,4.944061,6.840664,-2.020691,,,,,,,1
1522315585.022315,-0.265838,-0.024658,-0.226631,-0.015185,0.010406,-0.035845,-0.262638,0.024655,-0.964579,0.034855,-0.016675,-0.101552,5.920807,7.061184,-2.096130,,,,,,,1
1522315585.052283,-0.266437,-0.023771,-0.228186,0.020003,-0.018245,-0.052844,-0.263222,0.023769,-0.964442,0.047508,0.002232,-0.051152,4.871002,6.991070,-1.946411,,,,,,,1
,,,,,,,,,,,,,,,,25.306427,51.442804,12.198998,11.120000,90.351562,1522315584.996666,1
1522315585.082252,-0.266601,-0.023371,-0.230296,-0.039749,-0.030720,-0.070990,-0.263382,0.023369,-0.964409,0.038406,0.022743,-0.013191,4.796906,6.991543,-1.796387,,,,,,,1
1522315585.112220,-0.267803,-0.024961,-0.232822,-0.080200,-0.016733,-0.081688,-0.264531,0.024958,-0.964054,0.035085,0.053091,0.068943,5.169052,6.839642,-2.020569,,,,,,,1
1522315585.142188,-0.265553,-0.024962,-0.235902,0.033663,0.119087,-0.095586,-0.262361,0.024959,-0.964647,0.042650,0.026906,-0.001875,4.274048,7.069118,-1.572021,,,,,,,1
1522315585.172157,-0.262247,-0.021581,-0.238184,0.119073,0.088268,-0.123206,-0.259191,0.021579,-0.965585,0.018911,0.012875,-0.078467,4.200974,7.444149,-1.873535,,,,,,,1
1522315585.202125,-0.261998,-0.017360,-0.241748,0.104542,-0.091104,-0.150725,-0.258972,0.017359,-0.965729,0.000732,0.013815,-0.042496,5.169189,6.989422,-2.246216,,,,,,,1
1522315585.232093,-0.262623,-0.016772,-0.245014,-0.073264,0.062128,-0.115863,-0.259578,0.016771,-0.965577,0.035228,0.040892,0.011536,4.501266,7.293102,-1.572754,,,,,,,1
1522315585.262061,-0.260189,-0.019734,-0.249225,-0.144830,0.053812,-0.116973,-0.257213,0.019733,-0.966153,0.015132,0.066098,0.015302,4.497665,7.067898,-1.796875,,,,,,,1
1522315585.292030,-0.259920,-0.022449,-0.251612,-0.049668,-0.041690,-0.019834,-0.256938,0.022448,-0.966167,0.001201,0.032637,0.012020,4.875793,7.291348,-1.647522,,,,,,,1
1522315585.321998,-0.260934,-0.021343,-0.251367,0.123273,-0.028389,-0.005877,-0.257924,0.021341,-0.965929,0.015920,0.003943,0.016695,3.971054,6.770489,-1.570923,,,,,,,1
1522315585.351966,-0.262114,-0.016604,-0.249384,0.220086,-0.054424,0.036836,-0.259087,0.016603,-0.965711,0.046456,-0.020143,0.066984,4.495575,6.768047,-1.645630,,,,,,,1
1522315585.381934,-0.262791,-0.010797,-0.247453,0.177900,-0.008225,-0.021839,-0.259762,0.010797,-0.965612,0.000973,0.012488,0.057928,5.097046,7.139980,-2.021790,,,,,,,1
1522315585.411903,-0.262197,-0.007933,-0.246940,0.048924,0.048352,-0.013466,-0.259195,0.007933,-0.965792,0.020288,-0.002089,-0.016919,3.975540,7.220470,-1.572754,,,,,,,1
1522315585.441871,-0.259133,-0.007263,-0.247726,0.005532,0.111260,-0.030599,-0.256236,0.007263,-0.966587,0.051128,-0.037140,-0.056408,4.047989,7.144848,-1.872375,,,,,,,1
1522315585.471839,-0.257889,-0.006781,-0.248672,0.009351,-0.003404,-0.044341,-0.255034,0.006781,-0.966908,0.041640,0.002191,-0.013179,4.197235,7.069164,-1.872009,,,,,,,1
1522315585.501807,-0.258445,-0.008641,-0.249185,-0.130970,-0.029027,0.021648,-0.255568,0.008640,-0.966752,0.071455,0.007305,0.009202,4.496765,7.067745,-1.946899,,,,,,,1
1522315585.531776,-0.258886,-0.013218,-0.250195,-0.155487,-0.042631,0.001393,-0.255981,0.013218,-0.966591,0.036697,0.018536,0.010537,4.424622,7.218304,-1.722473,,,,,,,1
1522315585.561744,-0.259864,-0.015510,-0.250691,-0.027148,-0.022559,-0.025181,-0.256918,0.015509,-0.966309,0.048041,-0.002494,-0.035110,4.347229,7.068493,-1.871948,,,,,,,1
1522315585.591712,-0.258893,-0.015074,-0.251844,0.013731,0.007293,-0.056069,-0.255982,0.015073,-0.966564,0.044754,-0.009107,-0.065144,4.201416,7.444225,-1.798523,,,,,,,1
1522315585.621680,-0.260072,-0.015567,-0.253571,-0.065707,-0.084967,-0.053907,-0.257119,0.015566,-0.966254,0.043390,0.020796,-0.017816,4.650497,7.442059,-1.948303,,,,,,,1
1522315585.651649,-0.262923,-0.018694,-0.256139,-0.153499,-0.123102,-0.040081,-0.259859,0.018693,-0.965466,0.027391,0.011839,0.010555,4.426865,7.443279,-1.723389,,,,,,,1
1522315585.681617,-0.265284,-0.022430,-0.258281,-0.113763,-0.077486,-0.044354,-0.262117,0.022428,-0.964775,0.007189,-0.018842,-0.028114,4.201874,7.444302,-1.723511,,,,,,,1
1522315585.711585,-0.267246,-0.023496,-0.260348,-0.010132,-0.081871,-0.061324,-0.264003,0.023494,-0.964236,0.034755,-0.045619,-0.031004,3.828384,7.371349,-1.348389,,,,,,,1
1522315585.741584,-0.267899,-0.022682,-0.262391,0.012979,0.026728,-0.099776,-0.264638,0.022680,-0.964081,-0.012797,-0.012335,-0.056412,3.902359,7.221096,-1.272766,,,,,,,1
1522315585.771550,-0.266920,-0.022580,-0.265485,-0.065077,0.017264,-0.085974,-0.263694,0.022578,-0.964342,0.006080,0.021917,-0.073256,3.374069,7.073177,-1.572449,,,,,,,1
1522315585.801519,-0.267201,-0.024836,-0.268603,-0.136994,-0.033792,-0.055066,-0.263951,0.024834,-0.964216,0.018956,0.030571,-0.028490,4.202927,7.369595,-1.423218,,,,,,,1
1522315585.831487,-0.268661,-0.027892,-0.270522,-0.089142,-0.057380,-0.040099,-0.265338,0.027888,-0.963752,0.008700,0.029576,-0.002999,3.304611,7.448788,-1.273926,,,,,,,1
1522315585.861455,-0.270542,-0.028160,-0.270586,0.063251,-0.071863,0.001583,-0.267148,0.028157,-0.963244,0.007825,-0.001347,0.010836,3.305511,7.448925,-1.123962,,,,,,,1
1522315585.891423,-0.271469,-0.024374,-0.269196,0.173408,-0.020141,0.011206,-0.268067,0.024372,-0.963092,0.012742,-0.037967,-0.023236,4.053070,7.520046,-1.648865,,,,,,,1
1522315585.921392,-0.272448,-0.019600,-0.268248,0.142576,-0.039952,-0.031420,-0.269038,0.019599,-0.962930,0.002330,-0.037223,-0.019858,3.978836,7.370754,-1.273315,,,,,,,1
1522315585.951360,-0.272412,-0.018232,-0.269247,-0.045080,-0.002182,-0.047580,-0.269011,0.018231,-0.962965,0.000243,-0.012646,-0.032870,3.530518,7.447918,-1.123840,,,,,,,1
1522315585.981328,-0.272503,-0.020983,-0.271588,-0.147593,0.004392,-0.039141,-0.269083,0.020981,-0.962888,0.011927,-0.023804,-0.014162,3.304153,7.448711,-1.348938,,,,,,,1
1522315586.011296,-0.272084,-0.024536,-0.273641,-0.128388,0.012779,-0.029546,-0.268659,0.024533,-0.962923,0.008206,-0.002667,-0.010557,2.702545,7.151653,-1.123108,,,,,,,1
1522315586.041265,-0.272083,-0.026681,-0.274599,-0.047566,-0.015296,0.006764,-0.268642,0.026678,-0.962870,0.025249,-0.012166,-0.022054,3.303253,7.448574,-1.498962,,,,,,,1
1522315586.071233,-0.272444,-0.026877,-0.274715,0.003827,0.007973,0.001464,-0.268989,0.026874,-0.962768,0.034950,-0.032703,-0.019059,3.830032,7.671124,-1.574646,,,,,,,1
,,,,,,,,,,,,,,,,25.306432,51.442926,12.244180,11.020000,90.703125,1522315585.996653,1
1522315586.101201,-0.271858,-0.026474,-0.274778,0.013505,-0.001450,-0.020901,-0.268427,0.026471,-0.962936,0.007792,-0.030499,-0.017502,2.782211,7.751064,-1.350403,,,,,,,1
1522315586.131169,-0.271060,-0.026012,-0.275196,0.006128,0.022982,-0.017731,-0.267662,0.026009,-0.963162,0.016319,-0.034966,-0.047031,3.305496,7.673550,-1.499878,,,,,,,1
1522315586.161138,-0.269926,-0.025714,-0.276227,-0.022536,0.040179,-0.034822,-0.266572,0.025712,-0.963472,0.031419,-0.017411,-0.082152,4.055176,7.819881,-1.800110,,,,,,,1
1522315586.191106,-0.270697,-0.026624,-0.277399,-0.064737,-0.065037,-0.017697,-0.267308,0.026621,-0.963243,0.028050,-0.009943,-0.042372,2.929916,7.525402,-1.349426,,,,,,,1
1522315586.221074,-0.272881,-0.029162,-0.278830,-0.127697,-0.069064,-0.027328,-0.269392,0.029158,-0.962589,0.037031,-0.001158,0.028004,2.925125,7.225124,-1.648254,,,,,,,1
1522315586.251042,-0.274482,-0.032327,-0.280138,-0.090491,-0.077805,-0.004923,-0.270907,0.032322,-0.962063,0.034548,-0.010883,0.079189,2.927216,7.524960,-1.799438,,,,,,,1
1522315586.281011,-0.274957,-0.032861,-0.280571,0.019979,0.027142,-0.009204,-0.271359,0.032855,-0.961917,0.017239,-0.038287,0.033390,2.482956,7.827404,-1.350891,,,,,,,1
1522315586.310979,-0.273597,-0.030935,-0.280662,0.074562,0.021919,-0.040065,-0.270067,0.030930,-0.962344,-0.004240,-0.049897,-0.073331,2.404953,7.527752,-1.349731,,,,,,,1
1522315586.340947,-0.275040,-0.029507,-0.281729,-0.011249,-0.085083,-0.056002,-0.271468,0.029502,-0.961995,-0.003679,-0.048408,-0.046168,3.381561,7.823132,-1.575439,,,,,,,1
1522315586.370915,-0.276635,-0.032146,-0.284322,-0.196824,-0.030516,-0.045529,-0.272979,0.032140,-0.961483,0.020156,-0.004033,0.043056,3.005829,7.749828,-1.575378,,,,,,,1
1522315586.400884,-0.276682,-0.037263,-0.287127,-0.171060,0.008714,-0.040232,-0.272976,0.037254,-0.961299,0.006832,0.012184,0.072734,3.007767,7.675274,-1.125061,,,,,,,1
1522315586.430852,-0.275394,-0.038186,-0.288345,0.039478,0.069718,-0.026281,-0.271728,0.038177,-0.961617,0.012023,0.006501,0.022606,3.008682,7.900036,-1.350891,,,,,,,1
1522315586.460820,-0.272797,-0.033519,-0.288937,0.194443,0.062136,-0.061317,-0.269274,0.033512,-0.962480,0.019641,-0.004261,-0.010252,2.706131,7.601482,-1.274841,,,,,,,1
1522315586.490789,-0.272121,-0.027387,-0.288671,0.179213,0.027998,-0.036787,-0.268675,0.027383,-0.962842,0.006407,-0.020090,-0.008853,3.079178,7.449718,-1.349060,,,,,,,1
1522315586.520757,-0.271363,-0.025788,-0.287686,-0.020994,0.007703,0.050452,-0.267956,0.025785,-0.963086,0.010281,-0.017789,-0.034183,3.154190,7.449383,-1.349060,,,,,,,1
1522315586.550725,-0.272188,-0.028990,-0.286511,-0.120642,-0.051678,0.067488,-0.268726,0.028986,-0.962780,0.006290,-0.042383,-0.006092,3.006119,7.600124,-1.274719,,,,,,,1
1522315586.580693,-0.272418,-0.032062,-0.285706,-0.077481,0.016427,0.038680,-0.268923,0.032056,-0.962628,0.017412,-0.067365,-0.024173,3.076920,7.224743,-1.348206,,,,,,,1
1522315586.610662,-0.272180,-0.033372,-0.285839,-0.032418,0.002869,-0.014545,-0.268682,0.033366,-0.962651,0.022253,-0.075434,-0.013378,3.231262,7.748882,-1.500244,,,,,,,1
1522315586.640630,-0.271510,-0.033673,-0.287209,-0.045927,0.045646,-0.048695,-0.268034,0.033666,-0.962821,0.004301,-0.056371,-0.023309,2.632187,7.527111,-0.974609,,,,,,,1
1522315586.670598,-0.269773,-0.034233,-0.289101,-0.052295,0.056288,-0.047650,-0.266357,0.034226,-0.963267,0.006027,-0.042969,-0.069662,2.629196,7.451748,-1.349304,,,,,,,1
1522315586.700566,-0.268758,-0.035031,-0.290363,-0.061179,0.016782,-0.016721,-0.265371,0.035024,-0.963510,0.022146,-0.030446,-0.057959,3.378250,7.448223,-1.498962,,,,,,,1
1522315586.730535,-0.268662,-0.036912,-0.291425,-0.085813,0.005112,-0.011396,-0.265261,0.036904,-0.963470,0.039324,0.000969,0.005783,2.778610,7.301235,-1.198669,,,,,,,1
1522315586.760509,-0.267553,-0.037771,-0.292078,0.001923,0.045249,-0.010293,-0.264184,0.037762,-0.963733,0.027810,0.001484,-0.061032,3.078278,7.224957,-1.123230,,,,,,,1
1522315586.790477,-0.267317,-0.035819,-0.292017,0.086953,-0.042049,-0.014418,-0.263975,0.035812,-0.963864,0.022475,-0.018859,-0.116900,2.704193,7.226788,-0.973389,,,,,,,1
1522315586.820445,-0.270520,-0.033761,-0.292020,0.028845,-0.149195,-0.019678,-0.267080,0.033755,-0.963083,0.019460,-0.040072,-0.045859,2.404663,7.452831,-1.274414,,,,,,,1
1522315586.850414,-0.274795,-0.035167,-0.293426,-0.110778,-0.130577,-0.049633,-0.271182,0.035160,-0.961886,0.006045,-0.028446,0.002367,2.856583,7.600872,-1.199829,,,,,,,1
1522315586.880382,-0.277018,-0.038371,-0.295362,-0.109525,-0.064831,-0.029460,-0.273287,0.038361,-0.961167,-0.000334,-0.031068,-0.005736,2.633545,7.751949,-1.125549,,,,,,,1
1522315586.910350,-0.279408,-0.039717,-0.297275,-0.038013,-0.085113,-0.042170,-0.275569,0.039707,-0.960461,0.000071,-0.037662,0.001232,1.651108,7.006374,-1.123047,,,,,,,1
1522315586.940318,-0.280090,-0.039128,-0.298884,0.022264,-0.005411,-0.065641,-0.276231,0.039118,-0.960295,-0.017653,-0.038508,-0.023241,1.730591,7.456020,-1.124817,,,,,,,1
1522315586.970287,-0.280914,-0.037263,-0.300580,0.039344,-0.014951,-0.074147,-0.277041,0.037255,-0.960136,-0.011106,-0.032387,0.013221,2.477539,7.377285,-1.499084,,,,,,,1
1522315587.000255,-0.280637,-0.035493,-0.301901,0.027614,0.024196,-0.044368,-0.276794,0.035486,-0.960274,-0.023530,-0.002329,-0.019768,2.106461,7.454479,-0.974609,,,,,,,1
1522315587.030223,-0.280053,-0.034290,-0.302295,0.027285,0.014236,0.011056,-0.276244,0.034283,-0.960476,0.002562,-0.014539,-0.054111,1.279114,7.308056,-1.124451,,,,,,,1
1522315587.060192,-0.280333,-0.033680,-0.301676,0.000333,-0.017749,0.034516,-0.276519,0.033674,-0.960418,0.005187,-0.004087,-0.023087,2.030289,7.379742,-1.049316,,,,,,,1
,,,,,,,,,,,,,,,,25.306402,51.443067,12.209797,10.650000,95.976562,1522315586.996639,1
1522315587.090160,-0.280847,-0.034637,-0.301167,-0.043259,0.003737,0.017410,-0.277004,0.034630,-0.960245,0.010036,-0.022697,0.027139,1.727905,7.230953,-1.198914,,,,,,,1
1522315587.120128,-0.280100,-0.035200,-0.300857,0.009246,0.040828,0.013149,-0.276280,0.035192,-0.960433,0.003453,-0.025671,0.048552,2.402405,7.452465,-1.649414,,,,,,,1
1522315587.150096,-0.278519,-0.033481,-0.301135,0.072504,0.060036,-0.020920,-0.274778,0.033475,-0.960925,0.050886,-0.031613,0.045062,1.353226,7.082943,-0.898438,,,,,,,1
1522315587.180065,-0.276297,-0.030498,-0.300630,0.097125,0.083301,-0.013467,-0.272668,0.030493,-0.961625,-0.004904,-0.045691,0.026124,2.100479,6.854504,-0.972168,,,,,,,1
1522315587.210033,-0.272897,-0.028392,-0.300049,0.042713,0.113047,0.005648,-0.269414,0.028388,-0.962606,-0.000178,-0.044471,-0.043559,1.727737,7.305813,-1.349182,,,,,,,1
1522315587.240001,-0.270752,-0.028414,-0.299760,-0.047492,0.012250,0.017397,-0.267348,0.028410,-0.963181,0.025954,-0.077269,-0.044296,1.578049,7.156780,-1.048645,,,,,,,1
1522315587.269969,-0.270434,-0.031452,-0.299667,-0.144719,0.018730,0.036500,-0.267017,0.031446,-0.963179,0.011448,-0.055525,-0.001543,1.954224,7.230160,-0.973755,,,,,,,1
1522315587.299938,-0.269619,-0.036530,-0.300174,-0.187370,0.022089,0.027937,-0.266187,0.036522,-0.963229,0.020383,-0.018394,0.027026,1.875946,6.855587,-0.897278,,,,,,,1
1522315587.329906,-0.267479,-0.039995,-0.300479,-0.083407,0.106846,0.025804,-0.264090,0.039984,-0.963669,0.043676,-0.047339,0.000199,1.505142,7.232327,-0.824036,,,,,,,1
1522315587.359874,-0.265133,-0.038744,-0.300487,0.083069,0.032393,-0.023012,-0.261841,0.038734,-0.964333,0.025879,-0.045509,-0.065497,1.877136,6.930660,-0.822632,,,,,,,1
1522315587.389842,-0.264118,-0.035298,-0.301117,0.089609,0.023039,-0.056025,-0.260896,0.035290,-0.964722,0.034196,-0.034711,-0.088928,2.474258,7.002377,-1.422607,,,,,,,1
1522315587.419811,-0.265034,-0.033976,-0.302579,-0.050592,-0.036172,-0.045430,-0.261791,0.033970,-0.964527,0.026134,-0.017460,-0.037777,1.276428,6.858364,-0.822632,,,,,,,1
1522315587.449779,-0.265052,-0.037115,-0.304197,-0.153254,-0.027696,-0.006087,-0.261779,0.037106,-0.964414,0.031616,0.013370,-0.058459,1.654114,7.081738,-0.748352,,,,,,,1
1522315587.479747,-0.267150,-0.040391,-0.304926,-0.076726,-0.087502,0.008950,-0.263769,0.040380,-0.963740,0.013891,-0.012747,-0.039739,2.479797,7.377651,-1.124084,,,,,,,1
1522315587.509715,-0.269433,-0.041441,-0.305206,-0.012619,-0.101306,-0.013373,-0.265957,0.041429,-0.963094,0.019252,-0.059663,-0.032267,1.954529,7.305080,-1.049072,,,,,,,1
1522315587.539684,-0.272811,-0.040735,-0.306066,0.031364,-0.107515,-0.055939,-0.269216,0.040724,-0.962218,0.005117,-0.048201,-0.002763,1.656052,7.456432,-1.049805,,,,,,,1
1522315587.569652,-0.275579,-0.040004,-0.307879,-0.037974,-0.089308,-0.051746,-0.271887,0.039994,-0.961498,0.011602,-0.017899,0.022518,1.951523,7.229733,-1.423767,,,,,,,1
1522315587.599651,-0.277004,-0.040759,-0.310230,-0.067446,-0.024214,-0.078483,-0.273248,0.040748,-0.961080,-0.024115,0.001931,0.036520,1.051575,7.009151,-1.048340,,,,,,,1
1522315587.629619,-0.276455,-0.040763,-0.312577,0.004286,0.031834,-0.066758,-0.272720,0.040751,-0.961230,-0.017105,-0.019114,-0.019452,1.053207,7.308926,-1.274536,,,,,,,1
1522315587.659587,-0.276518,-0.038514,-0.314116,0.071294,-0.017274,-0.059194,-0.272805,0.038504,-0.961298,0.004296,-0.043265,-0.006902,2.181015,7.454067,-1.049561,,,,,,,1
1522315587.689556,-0.277147,-0.036934,-0.314144,0.034603,-0.033532,0.000459,-0.273426,0.036926,-0.961184,-0.023601,-0.003128,0.001391,1.280624,7.233425,-0.749146,,,,,,,1
1522315587.719524,-0.278407,-0.037445,-0.313631,-0.056317,-0.027188,0.037676,-0.274632,0.037436,-0.960820,0.000050,-0.002524,0.048406,1.581482,7.456844,-0.974854,,,,,,,1
1522315587.749478,-0.277404,-0.039428,-0.312879,-0.046249,0.066353,0.030128,-0.273647,0.039418,-0.961022,-0.022297,-0.021947,0.047784,2.033890,7.829571,-1.201172,,,,,,,1
1522315587.779446,-0.274951,-0.037973,-0.311722,0.125855,0.111625,0.029144,-0.271304,0.037964,-0.961745,0.022342,-0.082550,-0.009264,1.888229,7.905834,-0.601501,,,,,,,1
1522315587.809415,-0.273109,-0.033605,-0.310596,0.130078,0.031269,-0.030438,-0.269574,0.033599,-0.962393,-0.010012,-0.066863,-0.028131,1.136307,7.759136,-0.676270,,,,,,,1
1522315587.839383,-0.271529,-0.031869,-0.311469,-0.021251,0.089046,-0.033802,-0.268069,0.031864,-0.962873,0.007601,-0.027866,-0.008197,2.030884,7.754223,-1.575867,,,,,,,1
1522315587.869351,-0.268770,-0.033862,-0.312012,-0.134869,0.063403,0.027933,-0.265393,0.033855,-0.963546,0.004148,-0.012051,0.064269,1.359360,7.608059,-0.750610,,,,,,,1
1522315587.899318,-0.266350,-0.037854,-0.311728,-0.117755,0.124647,0.075838,-0.263023,0.037845,-0.964047,0.029747,-0.019534,0.042370,0.834366,7.610424,-0.750854,,,,,,,1
1522315587.929288,-0.262514,-0.038094,-0.310040,0.081914,0.103031,0.055770,-0.259321,0.038085,-0.965040,0.039136,-0.082443,-0.047991,2.107666,7.529552,-0.899841,,,,,,,1
1522315587.959255,-0.260803,-0.033894,-0.307749,0.154348,0.022382,0.016471,-0.257708,0.033887,-0.965628,0.023043,-0.083203,-0.089898,1.584183,7.681896,-0.900757,,,,,,,1
1522315587.989223,-0.261160,-0.033418,-0.307629,-0.118021,-0.029907,-0.007120,-0.258057,0.033412,-0.965552,0.032593,-0.039866,-0.037271,1.064011,7.984539,-0.602234,,,,,,,1
1522315588.019192,-0.262346,-0.039302,-0.309849,-0.269624,-0.035859,-0.013621,-0.259147,0.039291,-0.965038,0.036155,-0.003571,0.088329,1.507690,7.532253,-0.900208,,,,,,,1
1522315588.049160,-0.260771,-0.044225,-0.312291,-0.143941,0.100039,-0.042430,-0.257574,0.044210,-0.965247,0.016790,-0.012685,-0.013193,0.462692,7.762402,-0.451660,,,,,,,1
1522315588.079129,-0.259023,-0.044651,-0.313511,0.054134,-0.026821,-0.053877,-0.255881,0.044636,-0.965677,0.024375,-0.043462,-0.059042,1.358170,7.308376,-0.449402,,,,,,,1
1522315588.109097,-0.261493,-0.040639,-0.315131,0.120261,-0.077759,-0.085749,-0.258310,0.040628,-0.965208,0.013116,-0.006372,0.006971,1.434494,7.532879,-0.600220,,,,,,,1
,,,,,,,,,,,,,,,,25.306376,51.443186,12.204467,10.540000,97.031250,1522315587.996626,1
1522315588.139065,-0.263545,-0.038526,-0.316686,-0.010079,-0.058557,-0.051760,-0.260311,0.038516,-0.964756,-0.001438,-0.000598,0.030445,0.757431,7.236065,-0.449402,,,,,,,1
1522315588.169034,-0.262761,-0.039457,-0.317198,-0.040924,0.043061,0.014182,-0.259545,0.039447,-0.964925,-0.007987,-0.017566,-0.063487,0.980637,7.234768,-0.749268,,,,,,,1
1522315588.199002,-0.265110,-0.040523,-0.317342,-0.044994,-0.170357,-0.005862,-0.261800,0.040512,-0.964271,0.004125,-0.041916,-0.046394,1.732239,7.531155,-0.975098,,,,,,,1
1522315588.228970,-0.269474,-0.043326,-0.318355,-0.137571,-0.103177,-0.007062,-0.265975,0.043312,-0.963006,-0.005860,-0.023522,0.059762,0.832718,7.310665,-0.524658,,,,,,,1
1522315588.258939,-0.269251,-0.045464,-0.320093,-0.080015,0.076466,-0.037032,-0.265735,0.045448,-0.962974,-0.008755,-0.071907,-0.091835,0.609695,7.461742,-0.450378,,,,,,,1
1522315588.288907,-0.269281,-0.047651,-0.321363,-0.086093,-0.088229,-0.036867,-0.265736,0.047633,-0.962868,-0.036403,-0.056177,-0.029472,0.307144,7.387798,-0.750244,,,,,,,1
1522315588.318875,-0.271165,-0.049131,-0.321639,-0.037050,-0.008179,0.046203,-0.267531,0.049112,-0.962297,-0.007967,-0.063089,-0.009795,0.834671,7.460720,-0.450256,,,,,,,1
1522315588.348843,-0.270758,-0.050630,-0.320296,-0.074373,0.005705,0.049358,-0.267119,0.050609,-0.962334,-0.028764,-0.045817,0.001686,1.057709,7.534267,-0.900391,,,,,,,1
1522315588.378812,-0.271356,-0.052620,-0.320101,-0.048547,0.013319,0.016332,-0.267667,0.052596,-0.962075,0.020475,-0.051482,0.060280,1.209656,7.459042,-0.450073,,,,,,,1
1522315588.408780,-0.268346,-0.050012,-0.320250,0.135874,0.131146,-0.031598,-0.264806,0.049992,-0.963005,0.004964,-0.040226,-0.026222,1.136902,7.684368,-0.451050,,,,,,,1
1522315588.438748,-0.265458,-0.044157,-0.319717,0.194459,0.083285,-0.046422,-0.262095,0.044143,-0.964032,-0.018819,-0.039977,-0.101215,1.510849,7.757381,-0.751099,,,,,,,1
1522315588.468716,-0.264948,-0.039459,-0.320831,0.046592,-0.065981,-0.074086,-0.261655,0.039449,-0.964355,0.028135,-0.016362,-0.087250,1.582687,7.531902,-0.900146,,,,,,,1
1522315588.498685,-0.267294,-0.041659,-0.320787,-0.126857,-0.047195,0.035518,-0.263894,0.041647,-0.963652,0.020638,-0.018469,0.042357,0.683319,7.461178,-0.675354,,,,,,,1
1522315588.528653,-0.267130,-0.046172,-0.320256,-0.150344,0.025774,0.096151,-0.263683,0.046156,-0.963505,0.004863,0.024477,0.045902,0.756531,7.235928,-0.599365,,,,,,,1
1522315588.558621,-0.265412,-0.048138,-0.319441,0.011288,0.015319,0.011057,-0.262003,0.048119,-0.963867,0.015131,-0.064248,-0.028992,0.906235,7.384945,-0.899902,,,,,,,1
1522315588.588588,-0.266275,-0.044689,-0.318989,0.163988,-0.017755,-0.022899,-0.262877,0.044674,-0.963795,0.036559,-0.089046,-0.032650,0.831665,7.385357,-0.824951,,,,,,,1
1522315588.618558,-0.266967,-0.040709,-0.319703,0.054089,-0.044846,-0.060249,-0.263589,0.040698,-0.963776,-0.022681,-0.016070,-0.055648,1.281219,7.383266,-0.899719,,,,,,,1
1522315588.648525,-0.268322,-0.042468,-0.321853,-0.186325,-0.033928,-0.015691,-0.264875,0.042455,-0.963348,0.000059,-0.041784,-0.010773,0.234711,7.463421,-0.450562,,,,,,,1
1522315588.678493,-0.268427,-0.047621,-0.323358,-0.166039,-0.005443,0.007731,-0.264914,0.047603,-0.963096,0.005560,-0.048442,0.006874,0.685425,7.536388,-0.450684,,,,,,,1
1522315588.708462,-0.268972,-0.049809,-0.323405,-0.004806,-0.017464,-0.003849,-0.265411,0.049789,-0.962849,-0.005966,-0.037490,0.020374,1.806335,7.306057,-0.749146,,,,,,,1
1522315588.738431,-0.269362,-0.046901,-0.323668,0.106529,0.005886,-0.040014,-0.265823,0.046884,-0.962881,0.013947,-0.034998,0.004309,0.608810,7.236965,-0.224487,,,,,,,1
1522315588.768393,-0.267940,-0.043520,-0.324211,0.067419,0.065667,-0.064615,-0.264495,0.043506,-0.963405,-0.017106,-0.021411,-0.037373,0.157471,7.238766,-0.449707,,,,,,,1
1522315588.798361,-0.267649,-0.042096,-0.324838,0.014439,-0.014280,-0.008111,-0.264231,0.042083,-0.963541,0.007410,-0.001220,-0.007178,0.755325,7.160854,-0.674072,,,,,,,1
1522315588.828329,-0.267765,-0.041521,-0.324927,0.001677,0.004807,0.000394,-0.264349,0.041509,-0.963533,0.010107,-0.017797,-0.012129,0.380646,7.237469,-0.749573,,,,,,,1
1522315588.858298,-0.267891,-0.041069,-0.323920,0.044124,-0.022068,0.028163,-0.264475,0.041057,-0.963518,0.009638,-0.027798,-0.013899,0.231430,7.088512,-0.374084,,,,,,,1
1522315588.888266,-0.268489,-0.039888,-0.323215,0.018555,-0.027197,0.012160,-0.265064,0.039877,-0.963406,-0.004498,-0.029944,-0.032749,1.059357,7.609417,-0.750732,,,,,,,1
1522315588.918234,-0.269070,-0.041244,-0.323285,-0.084922,-0.008865,0.010998,-0.265609,0.041233,-0.963199,-0.005082,-0.052677,-0.035458,0.605652,7.236462,-0.749512,,,,,,,1
1522315588.948203,-0.269339,-0.043466,-0.323951,-0.068981,-0.031164,0.004631,-0.265843,0.043452,-0.963036,-0.003093,-0.045298,-0.017326,0.834229,7.236034,-0.149353,,,,,,,1
1522315588.978171,-0.270144,-0.044579,-0.323764,-0.022029,-0.015482,0.023834,-0.266606,0.044564,-0.962775,-0.001140,-0.057916,0.038764,1.056961,7.459270,-0.900085,,,,,,,1
1522315589.008139,-0.270062,-0.044322,-0.323058,0.006960,0.018436,0.023831,-0.266530,0.044307,-0.962808,0.002812,-0.054699,0.025888,0.454895,7.162136,-0.749268,,,,,,,1
1522315589.038107,-0.268551,-0.042913,-0.322847,0.055415,0.060071,-0.019867,-0.265090,0.042899,-0.963269,-0.007538,-0.071159,-0.011798,0.302795,7.087597,-0.973999,,,,,,,1
1522315589.068076,-0.266600,-0.040059,-0.322961,0.078985,0.071738,-0.025189,-0.263242,0.040049,-0.963898,-0.002063,-0.066629,-0.090194,1.057556,7.384502,-0.674866,,,,,,,1
,,,,,,,,,,,,,,,,25.306367,51.443289,12.075574,10.030000,99.843750,1522315588.996614,1
1522315589.098044,-0.266036,-0.038794,-0.323588,-0.036809,-0.025776,-0.017725,-0.262711,0.038785,-0.964095,0.005463,-0.019360,-0.052125,0.006561,7.239300,-0.599792,,,,,,,1
1522315589.128012,-0.267927,-0.041531,-0.324829,-0.164107,-0.044806,0.013102,-0.264505,0.041519,-0.963490,0.018884,-0.005127,0.050343,0.604446,7.161388,-0.824219,,,,,,,1
1522315589.157980,-0.267429,-0.045713,-0.324831,-0.129757,0.017648,0.033319,-0.263977,0.045697,-0.963446,0.003845,-0.009381,0.060629,1.282257,7.533184,-0.975281,,,,,,,1
1522315589.187949,-0.266034,-0.047382,-0.323867,0.030641,0.079899,0.039768,-0.262612,0.047364,-0.963738,0.011849,-0.063386,0.046212,0.459534,7.537258,-0.600708,,,,,,,1
1522315589.217917,-0.264624,-0.043203,-0.322169,0.197045,-0.009455,-0.006895,-0.261303,0.043189,-0.964290,-0.011753,-0.087333,-0.060460,0.683640,7.311474,-0.374756,,,,,,,1
1522315589.247885,-0.265575,-0.038759,-0.322108,0.065846,-0.027936,-0.049610,-0.262267,0.038749,-0.964217,0.002547,-0.084068,-0.059892,0.980179,7.234692,-0.824280,,,,,,,1
1522315589.277853,-0.266013,-0.040066,-0.324571,-0.171913,0.027984,-0.062617,-0.262676,0.040056,-0.964052,-0.009221,-0.008317,0.019732,0.607452,7.236752,-0.449524,,,,,,,1
1522315589.307822,-0.263817,-0.044726,-0.327724,-0.172872,0.092604,-0.030733,-0.260506,0.044711,-0.964436,0.012185,-0.004398,0.031132,0.231110,7.238216,-0.674683,,,,,,,1
1522315589.337790,-0.261552,-0.045329,-0.328487,0.051039,0.050422,-0.007069,-0.258315,0.045314,-0.964998,0.023390,0.000752,-0.033416,0.313736,7.688366,-0.151428,,,,,,,1
1522315589.367758,-0.261291,-0.040570,-0.328358,0.185461,-0.015531,-0.044198,-0.258116,0.040559,-0.965262,0.008177,0.001632,-0.092080,0.158218,7.313763,-0.450012,,,,,,,1
1522315589.397726,-0.262149,-0.036931,-0.328472,0.047595,-0.022739,-0.026189,-0.258980,0.036923,-0.965177,-0.006614,-0.024502,-0.091662,0.085464,7.314480,-0.075073,,,,,,,1
1522315589.427725,-0.263262,-0.038873,-0.328611,-0.121533,-0.050396,0.035525,-0.260035,0.038863,-0.964817,-0.001409,-0.010024,-0.062618,1.060562,7.459866,-0.300110,,,,,,,1
1522315589.457693,-0.265099,-0.042773,-0.327568,-0.093184,-0.082779,0.098440,-0.261765,0.042760,-0.964184,0.025574,-0.046300,-0.045872,-0.063492,7.465069,-0.150696,,,,,,,1
1522315589.487662,-0.268471,-0.044142,-0.325014,0.015655,-0.135955,0.065548,-0.265000,0.044128,-0.963238,-0.005630,-0.045455,0.009259,0.232468,7.238430,-0.449707,,,,,,,1
1522315589.517630,-0.271391,-0.042743,-0.324533,0.062506,-0.040813,-0.032541,-0.267827,0.042730,-0.962519,0.020909,-0.070073,0.056711,0.830780,7.160595,-0.599060,,,,,,,1
1522315589.547598,-0.269875,-0.039499,-0.325942,0.095367,0.071123,-0.095497,-0.266403,0.039489,-0.963053,-0.012711,-0.064056,-0.022970,0.380661,7.012844,-0.373718,,,,,,,1
1522315589.577567,-0.267795,-0.036352,-0.327442,0.064183,0.068807,-0.056099,-0.264430,0.036344,-0.963720,-0.018986,-0.020826,-0.118647,0.382889,7.237835,-0.374573,,,,,,,1
1522315589.607535,-0.267763,-0.035369,-0.328642,-0.027180,-0.031069,-0.025166,-0.264409,0.035362,-0.963762,-0.017314,-0.022407,-0.124983,0.007477,7.014828,-0.073914,,,,,,,1
1522315589.637503,-0.270108,-0.037357,-0.329385,-0.117534,-0.127872,0.020689,-0.266650,0.037348,-0.963070,0.018038,-0.012477,-0.045582,-0.141632,7.464886,-0.675781,,,,,,,1
