timestamp(unix),attitude_roll(radians),attitude_pitch(radians),attitude_yaw(radians),rotation_rate_x(radians/s),rotation_rate_y(radians/s),rotation_rate_z(radians/s),gravity_x(G),gravity_y(G),gravity_z(G),user_acc_x(G),user_acc_y(G),user_acc_z(G),magnetic_field_x(microteslas),magnetic_field_y(microteslas),magnetic_field_z(microteslas),latitude(degree),longitude(degree),altitude(meter),speed(m/s),course(degree),timestamp(unix),User Mark
1522138857.039291,0.019362,0.006493,-2.164472,-0.050652,-0.027829,0.121468,0.019360,-0.006493,-0.999792,0.006366,-0.052360,0.035940,-2.278061,3.592146,-45.426208,,,,,,,
,,,,,,,,,,,,,,,,25.301194,51.439203,10.928950,-1.000000,-1.000000,1522138852.202567,
1522138857.069259,0.017739,0.005955,-2.160602,-0.000682,-0.060960,0.132189,0.017738,-0.005954,-0.999825,-0.028953,-0.089108,0.044426,-1.143982,4.412184,-45.278870,,,,,,,
1522138857.099228,0.015848,0.006189,-2.156769,-0.007017,-0.074594,0.107695,0.015847,-0.006189,-0.999855,0.001975,0.048029,0.143090,-1.294724,4.337873,-45.278625,,,,,,,
1522138857.129196,0.014593,0.006225,-2.152800,-0.010920,-0.012834,0.090583,0.014592,-0.006225,-0.999874,-0.030278,-0.174851,0.040768,-1.895294,4.190718,-45.128418,,,,,,,
1522138857.159164,0.013272,0.004865,-2.149574,-0.066503,-0.034969,0.084172,0.013271,-0.004865,-0.999900,-0.122875,-0.076678,0.056800,-0.997131,4.186384,-45.427917,,,,,,,
1522138857.189132,0.012602,0.003797,-2.145444,-0.019386,0.003138,0.089492,0.012601,-0.003797,-0.999913,-0.149015,-0.014330,0.103170,-1.522095,3.964125,-45.052307,,,,,,,
1522138857.219101,0.011693,0.002144,-2.142045,-0.089911,-0.018952,0.082005,0.011693,-0.002144,-0.999929,-0.056905,-0.110786,0.051626,-1.819839,4.190458,-45.053345,,,,,,,
1522138857.249069,0.011275,0.000506,-2.138141,-0.013918,-0.006190,0.055402,0.011275,-0.000506,-0.999936,-0.085844,0.066073,0.121106,-1.144424,4.187498,-44.977966,,,,,,,
1522138857.279037,0.010750,0.000367,-2.135205,-0.040921,-0.048798,0.078870,0.010750,-0.000367,-0.999942,-0.047234,-0.060012,0.196857,-1.141129,4.337782,-44.678589,,,,,,,
1522138857.309005,0.010538,-0.000686,-2.131000,-0.011796,0.009601,0.073512,0.010538,0.000686,-0.999944,-0.088968,0.189682,0.051931,-0.317215,4.408766,-44.978455,,,,,,,
1522138857.338974,0.010351,0.000090,-2.128431,0.023617,0.021392,0.047946,0.010351,-0.000090,-0.999946,-0.145971,-0.041903,-0.122032,-0.545792,3.959944,-44.826721,,,,,,,
1522138857.368942,0.010181,0.000428,-2.126103,0.010419,-0.044578,0.065052,0.010181,-0.000428,-0.999948,-0.081012,-0.022430,-0.026877,-0.845627,3.886442,-44.676636,,,,,,,
1522138857.398910,0.010712,0.001182,-2.123383,0.039844,0.050138,0.033018,0.010712,-0.001182,-0.999942,-0.019196,0.016029,0.077609,-1.743637,4.040556,-44.602661,,,,,,,
1522138857.428848,0.010875,0.001510,-2.121727,-0.011728,-0.024101,0.030923,0.010874,-0.001510,-0.999940,-0.072627,0.014770,-0.028762,-0.846970,3.886229,-44.901611,,,,,,,
1522138857.458816,0.011493,0.001153,-2.118775,0.000401,0.055607,0.025520,0.011493,-0.001153,-0.999933,-0.092273,-0.043952,-0.018774,-0.769135,4.036100,-44.677185,,,,,,,
1522138857.488785,0.011547,0.001119,-2.117383,-0.022221,-0.013271,0.005333,0.011546,-0.001119,-0.999933,-0.061824,0.011052,0.012567,-0.768082,4.186018,-44.752808,,,,,,,
1522138857.518753,0.012170,0.001078,-2.114800,0.014316,0.042935,0.008499,0.012169,-0.001078,-0.999925,-0.105782,-0.007040,0.108537,-0.695786,4.185240,-45.202698,,,,,,,
1522138857.548721,0.012939,0.000948,-2.113308,-0.025373,0.004768,0.010637,0.012939,-0.000948,-0.999916,-0.065597,-0.043257,-0.134011,-0.993530,4.411589,-45.203796,,,,,,,
1522138857.578689,0.013225,0.000849,-2.110488,0.021662,0.027973,0.019170,0.013224,-0.000849,-0.999912,-0.110240,0.056742,0.010639,-0.165421,4.633009,-45.054260,,,,,,,
1522138857.608658,0.013419,0.001503,-2.108987,-0.000879,-0.005928,0.012793,0.013418,-0.001503,-0.999909,-0.109305,-0.059135,0.049866,-0.168259,4.258177,-44.902771,,,,,,,
1522138857.638626,0.014006,0.000737,-2.105920,-0.032706,0.069405,0.039335,0.014006,-0.000737,-0.999902,-0.049910,-0.073847,0.155755,-0.617050,4.559889,-45.204163,,,,,,,
1522138857.668594,0.013872,0.000859,-2.104052,0.032024,-0.046403,0.014988,0.013871,-0.000859,-0.999903,-0.084108,0.126728,0.013575,-0.089233,4.707747,-44.979553,,,,,,,
1522138857.698562,0.013445,0.001830,-2.102412,0.013879,-0.041082,0.019236,0.013445,-0.001830,-0.999908,-0.033297,-0.076264,0.148284,-0.092072,4.557524,-45.203918,,,,,,,
1522138857.728531,0.013554,0.001116,-2.099080,-0.022260,0.005694,0.028753,0.013554,-0.001116,-0.999907,-0.070316,0.081316,0.077285,-0.397003,4.108824,-45.277283,,,,,,,
1522138857.758499,0.013719,0.002262,-2.097473,0.076283,0.043897,0.001084,0.013719,-0.002262,-0.999903,-0.027787,-0.001430,-0.016302,-0.470947,4.259092,-45.352905,,,,,,,
1522138857.788467,0.013282,0.003563,-2.094936,-0.010659,-0.052626,0.006447,0.013282,-0.003563,-0.999905,-0.085181,0.029076,-0.042804,-0.325287,3.733580,-45.200745,,,,,,,
1522138857.818435,0.013148,0.003466,-2.093760,0.019580,0.034363,0.015974,0.013148,-0.003466,-0.999908,-0.094202,0.054018,-0.061723,-0.024414,3.956999,-45.426514,,,,,,,
1522138857.848404,0.012444,0.004984,-2.090978,0.069489,-0.047444,-0.003089,0.012444,-0.004984,-0.999910,0.001686,0.034799,0.079088,-0.016769,4.407484,-44.903259,,,,,,,
1522138857.878341,0.012702,0.006261,-2.089801,0.024028,0.049398,-0.006423,0.012702,-0.006261,-0.999900,-0.025290,-0.064998,-0.074273,-0.019775,4.332136,-45.277954,,,,,,,
1522138857.908284,0.012295,0.006118,-2.087232,-0.009437,-0.051345,-0.023396,0.012294,-0.006118,-0.999906,-0.128276,-0.079652,-0.249164,-0.469147,4.259382,-45.052917,,,,,,,
1522138857.938252,0.011933,0.005861,-2.086276,0.007791,-0.018458,-0.022348,0.011932,-0.005861,-0.999912,-0.084945,0.061937,-0.111798,-0.019180,4.481977,-45.428589,,,,,,,
1522138857.968220,0.011626,0.006479,-2.084702,0.013278,0.006021,-0.029828,0.011625,-0.006479,-0.999911,0.023256,-0.057272,0.112842,-0.921829,4.260969,-45.503174,,,,,,,
1522138857.998188,0.010888,0.005713,-2.083929,-0.029754,-0.056611,-0.022343,0.010888,-0.005713,-0.999924,-0.001077,0.013403,0.057679,-0.469620,4.483931,-45.503845,,,,,,,
1522138858.028157,0.010722,0.006233,-2.084111,0.059184,-0.013123,-0.044687,0.010721,-0.006233,-0.999923,-0.102335,0.075996,-0.026749,-1.668076,4.639326,-45.505066,,,,,,,
1522138858.058125,0.010497,0.007201,-2.085014,-0.006105,-0.033216,-0.033005,0.010497,-0.007201,-0.999919,-0.072677,-0.124833,0.073176,-0.697144,4.185026,-45.427734,,,,,,,
1522138858.088093,0.009936,0.005680,-2.085484,-0.024588,-0.087486,-0.015914,0.009936,-0.005680,-0.999934,-0.078051,0.086918,0.035060,-0.769440,4.410429,-45.353699,,,,,,,
1522138858.118062,0.010074,0.006677,-2.086175,0.051810,0.034571,-0.023434,0.010073,-0.006677,-0.999927,-0.026980,-0.048331,-0.084515,0.505356,4.479536,-45.503357,,,,,,,
1522138858.148030,0.009806,0.007332,-2.086824,-0.005817,0.043200,-0.021355,0.009806,-0.007332,-0.999925,-0.072123,0.058312,-0.058364,-0.400146,3.883696,-45.426392,,,,,,,
1522138858.177998,0.009637,0.008026,-2.087517,0.050511,-0.022770,-0.028705,0.009637,-0.008026,-0.999921,-0.102258,-0.064743,-0.068392,-0.849380,3.960722,-45.426941,,,,,,,
1522138858.207966,0.009525,0.009472,-2.087939,0.031432,0.033436,-0.006398,0.009524,-0.009472,-0.999910,0.048169,0.070156,-0.034636,-0.022919,4.106993,-45.427124,,,,,,,
,,,,,,,,,,,,,,,,25.301287,51.439181,10.946044,-1.000000,-1.000000,1522138858.207732,
1522138858.237935,0.009515,0.009894,-2.088448,0.010002,-0.004656,-0.023417,0.009515,-0.009894,-0.999906,-0.125466,-0.043420,-0.261828,-0.697281,4.035261,-45.202148,,,,,,,
1522138858.267903,0.009565,0.009672,-2.088749,-0.032709,0.020818,-0.002173,0.009564,-0.009672,-0.999907,-0.294904,-0.014849,-0.196366,-0.922134,4.186033,-45.427856,,,,,,,
1522138858.297841,0.009293,0.010199,-2.088302,0.066639,0.014305,-0.018074,0.009293,-0.010199,-0.999905,0.127502,0.173743,0.096325,-0.324417,4.182981,-45.802551,,,,,,,
1522138858.327809,0.009477,0.011988,-2.086344,-0.003732,0.041004,-0.012823,0.009476,-0.011988,-0.999883,-0.071167,-0.128882,-0.061793,-0.396698,4.183744,-45.352600,,,,,,,
1522138858.357777,0.009251,0.011018,-2.085179,0.006717,-0.012123,-0.015963,0.009251,-0.011017,-0.999897,-0.132267,0.036896,0.027774,-0.096283,4.407103,-45.653320,,,,,,,
1522138858.387745,0.009879,0.012253,-2.082946,0.033561,0.026030,-0.011717,0.009878,-0.012253,-0.999876,-0.059256,-0.033112,0.021269,-0.918991,4.411177,-45.278748,,,,,,,
1522138858.417714,0.010638,0.012610,-2.082419,-0.006784,0.073965,-0.013927,0.010637,-0.012610,-0.999864,-0.007952,-0.023279,0.028138,-0.922882,4.111052,-45.427551,,,,,,,
1522138858.447682,0.010906,0.013005,-2.080342,0.031542,0.019855,-0.039417,0.010905,-0.013005,-0.999856,-0.031672,-0.062496,0.082040,0.201019,4.180693,-45.727295,,,,,,,
1522138858.477650,0.011170,0.012760,-2.079829,-0.048387,0.076235,-0.019291,0.011169,-0.012760,-0.999856,-0.079284,-0.161129,-0.064856,0.202820,4.180983,-45.427307,,,,,,,
1522138858.507618,0.011198,0.011397,-2.077655,-0.015510,0.033612,-0.013896,0.011197,-0.011397,-0.999872,-0.066388,0.169432,-0.055456,-0.324844,3.958281,-45.501648,,,,,,,
1522138858.537587,0.011110,0.012056,-2.077569,-0.000686,-0.001466,-0.019169,0.011109,-0.012056,-0.999866,-0.220917,-0.132643,-0.096417,-0.699234,3.885191,-45.276550,,,,,,,
1522138858.567555,0.010540,0.010576,-2.076477,-0.050716,0.024205,-0.025625,0.010539,-0.010575,-0.999889,-0.026484,0.026841,0.105815,-0.847275,4.035933,-45.202209,,,,,,,
1522138858.597523,0.009801,0.010674,-2.075976,0.026882,-0.048271,-0.022295,0.009800,-0.010674,-0.999895,0.007152,0.000573,0.110170,-1.148621,4.037062,-45.427368,,,,,,,
1522138858.627491,0.009083,0.009872,-2.074184,-0.052226,-0.054515,-0.010639,0.009082,-0.009872,-0.999910,-0.143726,-0.115861,-0.016203,-0.098221,4.257032,-45.727722,,,,,,,
1522138858.657460,0.008434,0.008618,-2.073543,-0.012506,-0.017351,-0.020239,0.008433,-0.008618,-0.999927,0.012563,0.130826,0.109150,-0.546692,4.184431,-45.352661,,,,,,,
1522138858.687428,0.007852,0.009800,-2.073695,0.050514,-0.032275,-0.037219,0.007851,-0.009800,-0.999921,0.018470,0.019733,-0.001101,-1.297867,4.112730,-45.427795,,,,,,,
1522138858.717396,0.007129,0.010091,-2.072677,-0.024447,-0.073585,-0.029773,0.007128,-0.010091,-0.999924,-0.170840,-0.029186,-0.174637,-0.770508,4.485136,-45.653992,,,,,,,
1522138858.747334,0.007145,0.009091,-2.071995,-0.004855,0.022999,-0.019207,0.007144,-0.009091,-0.999933,-0.150974,0.141568,-0.142202,0.205963,4.406111,-45.278137,,,,,,,
1522138858.777302,0.006675,0.009838,-2.070709,0.019399,-0.050362,-0.023370,0.006675,-0.009837,-0.999929,-0.099540,-0.014256,0.010000,-1.301468,3.887526,-45.651855,,,,,,,
1522138858.807271,0.007281,0.008472,-2.070583,-0.062386,0.051795,-0.016071,0.007281,-0.008472,-0.999938,-0.088641,-0.055004,0.171553,-1.144135,4.487043,-45.429199,,,,,,,
1522138858.837239,0.007950,0.008353,-2.069505,0.040035,0.017673,-0.033021,0.007949,-0.008353,-0.999934,-0.230545,0.025138,-0.195471,-0.475754,3.958815,-45.651733,,,,,,,
1522138858.867207,0.008449,0.009717,-2.069111,0.021941,0.034703,-0.029859,0.008448,-0.009716,-0.999917,-0.095546,-0.097904,-0.092872,-0.252090,3.732954,-45.500732,,,,,,,
1522138858.897160,0.008744,0.009207,-2.068626,-0.012403,-0.002451,-0.025572,0.008744,-0.009207,-0.999919,-0.159196,0.031668,-0.017781,-0.548935,3.959440,-45.351746,,,,,,,
1522138858.927129,0.009353,0.010366,-2.068963,0.057312,0.046397,-0.044754,0.009352,-0.010366,-0.999903,-0.027403,-0.041163,-0.022177,-0.852982,3.735502,-45.651001,,,,,,,
1522138858.957097,0.009399,0.010279,-2.068441,-0.021293,-0.088433,-0.034022,0.009398,-0.010279,-0.999903,0.023408,-0.024709,-0.064413,-1.450851,3.813429,-45.426636,,,,,,,
1522138858.987065,0.009288,0.009905,-2.068656,-0.018476,0.064557,-0.032040,0.009288,-0.009905,-0.999908,-0.041896,-0.034529,0.110351,-0.322311,4.258192,-45.577820,,,,,,,
1522138859.017033,0.009318,0.009132,-2.068711,-0.015695,-0.032154,-0.032997,0.009317,-0.009132,-0.999915,0.063925,0.051322,0.003852,-1.524353,3.963758,-45.427307,,,,,,,
1522138859.047002,0.009300,0.008865,-2.068482,-0.020924,-0.001360,-0.027706,0.009300,-0.008864,-0.999917,-0.181266,0.029189,-0.065238,-1.374649,3.888151,-45.351868,,,,,,,
1522138859.076970,0.009169,0.008288,-2.068584,0.002457,-0.024775,-0.028739,0.009169,-0.008288,-0.999924,-0.003966,0.027835,0.026977,-0.699081,4.034956,-45.502197,,,,,,,
1522138859.106938,0.009360,0.008967,-2.068070,0.004679,0.003847,-0.020240,0.009359,-0.008966,-0.999916,-0.104055,0.050699,-0.030266,-1.298019,4.187590,-45.578003,,,,,,,
1522138859.136906,0.009174,0.008977,-2.068035,0.008982,0.013401,-0.019187,0.009174,-0.008977,-0.999918,-0.022373,-0.015865,0.187387,-1.371521,4.337919,-45.578674,,,,,,,
1522138859.166875,0.008950,0.009111,-2.067291,0.009632,-0.084317,-0.024421,0.008949,-0.009111,-0.999918,-0.044518,0.048005,-0.074239,-0.622162,4.409315,-45.803589,,,,,,,
1522138859.196812,0.008766,0.009563,-2.067650,-0.003592,0.057048,-0.026696,0.008766,-0.009563,-0.999916,-0.187904,-0.030141,0.061348,-1.298904,3.738188,-44.976257,,,,,,,
1522138859.226781,0.008774,0.009281,-2.067001,-0.015480,0.034700,-0.018156,0.008773,-0.009281,-0.999918,0.059708,-0.125408,0.231867,-1.150558,3.886992,-45.501831,,,,,,,
1522138859.256749,0.007535,0.009565,-2.066965,0.044568,-0.142910,-0.016870,0.007534,-0.009564,-0.999926,-0.044446,0.128797,0.260363,-0.771240,4.185514,-45.277771,,,,,,,
1522138859.286717,0.007299,0.010680,-2.067068,0.015581,0.049564,-0.025615,0.007299,-0.010679,-0.999916,-0.183080,-0.061464,0.021813,-1.524643,3.888823,-45.351990,,,,,,,
1522138859.316685,0.006996,0.010467,-2.067071,-0.015916,-0.066212,-0.022321,0.006995,-0.010467,-0.999921,-0.191367,-0.067307,-0.076221,-1.447113,4.188398,-45.428162,,,,,,,
1522138859.346654,0.006648,0.009753,-2.067297,-0.017640,0.030447,-0.017088,0.006647,-0.009753,-0.999930,-0.086054,-0.036878,0.093970,-1.821198,4.190229,-45.278320,,,,,,,
1522138859.376622,0.006589,0.009019,-2.067309,-0.037144,-0.031139,-0.015978,0.006589,-0.009019,-0.999938,-0.123456,-0.033294,0.106642,-1.747696,4.039900,-45.277649,,,,,,,
1522138859.406590,0.007292,0.007728,-2.067507,-0.017553,0.024214,-0.038387,0.007292,-0.007728,-0.999944,-0.041838,0.059714,0.125737,-1.298477,4.187513,-45.653015,,,,,,,
1522138859.436558,0.007002,0.007490,-2.067694,-0.021378,-0.097006,-0.024420,0.007002,-0.007490,-0.999947,-0.109755,-0.083162,-0.019080,-1.298615,4.037733,-45.427490,,,,,,,
1522138859.466527,0.007280,0.006142,-2.067789,-0.028326,0.029418,-0.017100,0.007280,-0.006142,-0.999955,0.166106,0.094078,0.400330,-1.150726,3.961851,-45.652039,,,,,,,
1522138859.496495,0.007652,0.005820,-2.067515,-0.013706,-0.058731,-0.029783,0.007651,-0.005820,-0.999954,-0.085395,-0.052758,-0.218613,-1.820297,4.415007,-45.504272,,,,,,,
1522138859.526463,0.007905,0.004234,-2.067423,-0.068894,0.033730,-0.012865,0.007905,-0.004234,-0.999960,-0.119599,0.061805,0.031545,-0.920502,4.485807,-45.654053,,,,,,,
1522138859.556432,0.008176,0.003320,-2.067149,-0.020069,-0.029079,-0.012771,0.008176,-0.003320,-0.999961,-0.033689,-0.018378,-0.143197,-1.522842,3.889128,-45.052002,,,,,,,
1522138859.586400,0.007771,0.002254,-2.067410,-0.051903,0.019839,-0.007513,0.007771,-0.002254,-0.999967,-0.102421,-0.022267,0.053953,-2.050217,3.741346,-45.201599,,,,,,,
1522138859.616338,0.007867,0.001483,-2.067677,0.003543,-0.018419,-0.026613,0.007867,-0.001483,-0.999968,-0.036004,0.014407,0.089079,-1.818497,4.190672,-44.828308,,,,,,,
1522138859.646306,0.007928,0.001731,-2.068195,-0.000696,0.003821,-0.013855,0.007928,-0.001731,-0.999967,-0.070138,0.092353,-0.166461,-1.895737,3.966017,-44.827454,,,,,,,
1522138859.676274,0.007401,0.002440,-2.068181,0.042073,-0.003599,-0.031928,0.007401,-0.002440,-0.999970,-0.044602,-0.012880,-0.030456,-0.698792,4.109892,-45.577393,,,,,,,
1522138859.706242,0.007092,0.002827,-2.069111,-0.023071,0.008166,-0.019205,0.007092,-0.002827,-0.999971,-0.134381,-0.013653,0.067186,-2.644958,4.269011,-45.204041,,,,,,,
1522138859.736211,0.006812,0.002111,-2.069895,-0.001662,0.016652,-0.023465,0.006812,-0.002111,-0.999975,-0.121513,0.039129,0.053029,-1.968948,4.415907,-45.279297,,,,,,,
1522138859.766179,0.006376,0.001796,-2.070235,-0.060552,-0.021462,-0.023466,0.006376,-0.001796,-0.999978,0.076586,-0.055211,0.122903,-1.145630,4.337049,-45.428589,,,,,,,
1522138859.796147,0.005807,-0.000460,-2.070598,-0.038226,-0.045950,-0.025551,0.005807,0.000460,-0.999983,-0.066628,0.044187,0.150572,-1.290817,4.413374,-44.753967,,,,,,,
1522138859.826115,0.005884,-0.000638,-2.070350,0.005671,-0.022643,-0.029809,0.005884,0.000638,-0.999982,-0.012964,-0.007459,0.032880,-1.668945,4.189924,-44.903259,,,,,,,
1522138859.856084,0.005798,-0.002166,-2.070841,-0.074590,-0.050169,-0.017049,0.005798,0.002166,-0.999981,-0.125686,-0.128204,0.077343,-1.743942,4.190260,-44.903259,,,,,,,
1522138859.886055,0.008008,-0.005619,-2.070913,-0.119606,0.133853,-0.028986,0.008008,0.005619,-0.999952,0.023670,-0.029255,-0.081331,-1.593658,4.264509,-44.978516,,,,,,,
1522138859.916023,0.007742,-0.007543,-2.071019,-0.027413,-0.007779,-0.018119,0.007742,0.007543,-0.999942,0.032038,0.054896,0.082431,-1.820145,4.115538,-44.978027,,,,,,,
1522138859.945991,0.009097,-0.008522,-2.071857,-0.037750,0.049744,-0.034171,0.009097,0.008522,-0.999922,-0.124667,0.019860,0.035094,-1.294876,4.412718,-45.428955,,,,,,,
1522138859.975960,0.009696,-0.010823,-2.072549,-0.092489,0.001966,-0.020312,0.009696,0.010823,-0.999894,-0.023368,-0.050191,-0.078215,-1.518356,4.339094,-45.053772,,,,,,,
1522138860.005928,0.010649,-0.012869,-2.072780,-0.028190,0.068671,-0.008612,0.010648,0.012869,-0.999861,-0.092587,0.018045,-0.091524,-1.967590,4.416121,-45.054321,,,,,,,
1522138860.035896,0.010630,-0.012719,-2.073113,-0.007378,-0.043028,0.000049,0.010629,0.012718,-0.999863,-0.106408,0.032326,0.041641,-1.218079,4.412672,-45.128967,,,,,,,
1522138860.065834,0.011036,-0.013844,-2.073269,-0.011488,-0.029065,-0.019151,0.011034,0.013843,-0.999843,-0.021746,0.069210,0.028988,-1.814896,4.415876,-44.604248,,,,,,,
1522138860.095802,0.010829,-0.013556,-2.074109,-0.008499,-0.057874,-0.003138,0.010827,0.013556,-0.999849,-0.024255,-0.124182,-0.034910,-2.116684,4.416945,-44.904358,,,,,,,
1522138860.125770,0.009888,-0.015257,-2.074148,-0.045718,-0.045968,-0.021289,0.009887,0.015257,-0.999835,0.005753,0.167864,0.331134,-2.489883,4.643538,-44.980469,,,,,,,
1522138860.155739,0.010369,-0.014805,-2.074586,0.014993,-0.033617,0.016028,0.010368,0.014805,-0.999837,-0.099784,-0.057682,-0.255672,-1.816544,4.340742,-44.753967,,,,,,,
1522138860.185707,0.009304,-0.016262,-2.074472,-0.040948,-0.156576,-0.008392,0.009303,0.016261,-0.999825,-0.121165,0.156087,0.048424,-2.110245,4.792356,-44.455872,,,,,,,
1522138860.215675,0.008759,-0.015598,-2.075373,0.044898,-0.075945,-0.021194,0.008758,0.015597,-0.999840,-0.074386,-0.136279,0.125313,-1.290375,4.413450,-44.678955,,,,,,,
1522138860.245644,0.007018,-0.017039,-2.076181,-0.108105,-0.124568,-0.002086,0.007017,0.017038,-0.999830,-0.092222,-0.297235,0.047606,-2.038239,4.492033,-44.454590,,,,,,,
1522138860.275612,0.006463,-0.018569,-2.076656,0.036626,0.003653,-0.004231,0.006462,0.018568,-0.999807,0.135475,0.317842,0.048086,-2.113098,4.642149,-44.680298,,,,,,,
1522138860.305580,0.004785,-0.015918,-2.077354,0.098626,-0.229125,-0.015677,0.004784,0.015917,-0.999862,-0.332421,-0.126666,-0.754670,-1.440674,4.563826,-44.979614,,,,,,,
1522138860.335548,0.003117,-0.016455,-2.077651,-0.028890,-0.084379,-0.005253,0.003117,0.016454,-0.999860,-0.081547,-0.091146,-0.197589,-2.266235,4.417692,-44.829407,,,,,,,
1522138860.365517,0.002917,-0.015834,-2.077474,0.034768,0.073755,0.002083,0.002917,0.015833,-0.999870,0.222608,-0.007258,0.448982,-2.114899,4.641859,-44.980286,,,,,,,
1522138860.395485,0.001568,-0.015714,-2.077495,0.021432,-0.068480,-0.018015,0.001568,0.015713,-0.999875,0.134784,-0.050213,0.322522,-1.441422,4.488829,-44.979309,,,,,,,
1522138860.425453,0.001709,-0.015320,-2.077674,-0.010384,-0.014207,-0.014912,0.001709,0.015319,-0.999881,-0.107132,-0.122588,0.047992,-1.812057,4.790724,-44.755737,,,,,,,
1522138860.455421,0.001664,-0.016778,-2.077162,-0.013977,-0.108730,-0.021210,0.001664,0.016777,-0.999858,-0.103135,0.035041,0.055034,-1.965347,4.416487,-44.679321,,,,,,,
1522138860.485359,0.002395,-0.015945,-2.077308,0.014120,-0.003794,0.005347,0.002395,0.015944,-0.999870,0.139420,-0.150130,0.202705,-1.812347,4.491163,-44.304565,,,,,,,
1522138860.515327,0.003175,-0.018711,-2.077269,-0.101972,0.043349,-0.008640,0.003174,0.018710,-0.999820,-0.288819,0.093214,-0.252683,-2.414276,4.568434,-44.755188,,,,,,,
1522138860.545296,0.003669,-0.018125,-2.077230,0.037613,0.001460,0.007481,0.003669,0.018124,-0.999829,0.204553,-0.018261,0.228238,-2.266678,4.417616,-44.904419,,,,,,,
1522138860.575264,0.004302,-0.018860,-2.077670,-0.016472,0.044312,-0.024561,0.004301,0.018859,-0.999813,-0.073454,0.100510,0.151592,-1.361938,4.938475,-44.981079,,,,,,,
1522138860.605232,0.004443,-0.015956,-2.078113,0.133474,-0.060377,0.000168,0.004443,0.015956,-0.999863,-0.211383,-0.104213,0.024460,-2.565918,4.493956,-44.904907,,,,,,,
1522138860.635200,0.005007,-0.016242,-2.077962,-0.083474,-0.083353,0.020273,0.005006,0.016241,-0.999856,0.211608,0.079782,-0.136985,-1.963409,4.791182,-44.980774,,,,,,,
1522138860.665169,0.005233,-0.015336,-2.077919,0.108999,-0.036964,0.004386,0.005232,0.015336,-0.999869,-0.105147,0.133392,0.062170,-2.415482,4.493361,-44.829834,,,,,,,
1522138860.695137,0.006952,-0.013603,-2.077790,-0.039569,0.160011,0.000881,0.006951,0.013602,-0.999883,-0.032891,-0.142386,0.067434,-2.566513,4.344114,-44.754333,,,,,,,
1522138860.725105,0.007393,-0.014680,-2.077534,0.022693,0.008894,0.010671,0.007392,0.014679,-0.999865,0.156106,0.086914,0.153918,-1.659821,5.015028,-44.756592,,,,,,,
1522138860.755073,0.008093,-0.013216,-2.076868,0.007138,0.117319,0.013733,0.008092,0.013216,-0.999880,-0.146321,-0.000215,0.209475,-2.636581,4.794508,-44.681152,,,,,,,
1522138860.785042,0.007471,-0.012740,-2.076708,0.053316,-0.083506,-0.005203,0.007471,0.012740,-0.999891,0.075735,-0.033415,0.090482,-2.565018,4.494108,-44.754944,,,,,,,
1522138860.815010,0.007259,-0.011405,-2.076581,0.018374,-0.013345,0.001103,0.007258,0.011405,-0.999909,-0.020564,0.123209,0.103394,-1.364929,4.638487,-44.979919,,,,,,,
1522138860.844978,0.006718,-0.010001,-2.076789,0.109278,-0.000694,-0.016956,0.006717,0.010001,-0.999927,0.048275,-0.130744,0.074863,-1.290527,4.488295,-44.829224,,,,,,,
1522138860.874946,0.005804,-0.007571,-2.076754,-0.003781,0.026182,-0.018148,0.005804,0.007571,-0.999955,0.136530,-0.047336,0.040161,-2.489883,4.643538,-44.980469,,,,,,,
1522138860.904916,0.004611,-0.008192,-2.076415,0.032038,-0.025266,0.030952,0.004611,0.008192,-0.999956,-0.157000,0.169039,-0.355803,-1.741257,4.639952,-45.205078,,,,,,,
1522138860.934854,0.003294,-0.004806,-2.076170,0.066927,-0.109241,0.023600,0.003294,0.004806,-0.999983,-0.402296,0.065613,-0.169878,-2.487167,4.643980,-44.530457,,,,,,,
1522138860.964822,0.001719,-0.005946,-2.076038,-0.045090,-0.098301,0.017119,0.001719,0.005946,-0.999981,0.323217,-0.076792,0.798733,-2.044983,4.266325,-45.203735,,,,,,,
1522138860.994790,0.002784,-0.006964,-2.074924,-0.050534,0.134304,0.033930,0.002784,0.006964,-0.999972,-0.007804,0.068186,0.245989,-1.289032,4.862913,-45.205750,,,,,,,
1522138861.024758,0.001883,-0.008353,-2.074538,-0.035576,-0.120632,0.016083,0.001883,0.008353,-0.999963,-0.258994,-0.143835,-0.322974,-1.813553,4.640730,-44.755127,,,,,,,
1522138861.054727,0.001259,-0.010023,-2.074025,-0.073139,0.065480,0.008403,0.001259,0.010023,-0.999949,0.150063,-0.063429,0.422984,-1.963699,4.716246,-44.905518,,,,,,,
1522138861.084695,0.000655,-0.011347,-2.073641,-0.000007,-0.049501,0.012839,0.000655,0.011346,-0.999935,0.023225,0.049124,-0.129276,-1.441269,4.638609,-45.204895,,,,,,,
1522138861.114663,0.001301,-0.010889,-2.073285,-0.018905,0.001672,-0.004275,0.001301,0.010889,-0.999940,-0.332966,-0.084985,-0.432586,-1.811157,4.790861,-44.605713,,,,,,,
1522138861.144631,0.001837,-0.011989,-2.072725,-0.018499,0.151126,0.047791,0.001837,0.011989,-0.999926,-0.174536,0.119695,0.068545,-1.963104,4.641478,-44.680237,,,,,,,
1522138861.174600,0.001583,-0.010336,-2.072156,0.038954,0.093689,0.036167,0.001583,0.010336,-0.999945,-0.043026,0.012003,0.182273,-1.738876,5.014708,-45.431580,,,,,,,
1522138861.204568,0.002274,-0.012022,-2.071296,-0.041961,-0.105797,0.024586,0.002274,0.012022,-0.999925,0.000854,-0.020460,0.062501,-1.961441,4.716612,-44.530518,,,,,,,
1522138861.234536,0.003759,-0.011464,-2.070452,0.014519,0.075952,-0.002190,0.003759,0.011464,-0.999927,0.021357,0.029155,-0.271878,-1.961609,5.016096,-45.056702,,,,,,,
1522138861.264504,0.004506,-0.011591,-2.070036,-0.016065,-0.064310,0.008582,0.004506,0.011591,-0.999923,-0.148396,-0.085673,-0.382722,-1.439468,4.638899,-44.904907,,,,,,,
1522138861.294473,0.004791,-0.012809,-2.069638,-0.051642,0.095181,0.007328,0.004791,0.012809,-0.999906,-0.151672,-0.061271,0.083021,-1.739456,4.640242,-44.905090,,,,,,,
1522138861.324441,0.005563,-0.014018,-2.068605,-0.033094,-0.035668,0.022389,0.005562,0.014018,-0.999886,-0.002144,-0.054911,-0.104102,-1.886612,4.791136,-44.680786,,,,,,,
1522138861.354379,0.006090,-0.015691,-2.068074,-0.056252,0.020799,0.008467,0.006089,0.015690,-0.999858,-0.009110,-0.027516,0.149364,-1.058502,5.237181,-44.907104,,,,,,,
1522138861.384347,0.006796,-0.016191,-2.067911,-0.009255,0.005912,-0.007462,0.006795,0.016191,-0.999846,-0.035207,0.108626,-0.082918,-1.510284,5.014280,-44.831421,,,,,,,
1522138861.414315,0.006962,-0.016342,-2.068128,-0.004946,0.012311,-0.010670,0.006961,0.016341,-0.999842,-0.082019,-0.164626,-0.022390,-2.034653,4.941862,-44.606445,,,,,,,
1522138861.444283,0.006913,-0.017262,-2.068358,-0.023971,0.049593,-0.016053,0.006912,0.017261,-0.999827,0.181412,0.068051,0.383540,-1.061493,4.937193,-44.905945,,,,,,,
1522138861.474252,0.006424,-0.017065,-2.069258,0.019112,-0.110957,-0.020110,0.006423,0.017064,-0.999834,0.060289,-0.101293,-0.098738,-2.190781,4.417418,-44.754456,,,,,,,
1522138861.504220,0.005942,-0.018354,-2.069462,-0.070351,-0.053408,-0.012774,0.005941,0.018353,-0.999814,-0.140859,0.029956,-0.051273,-1.885864,4.866133,-44.681091,,,,,,,
1522138861.534188,0.006018,-0.019076,-2.069778,-0.000905,-0.032383,-0.004223,0.006017,0.019075,-0.999800,-0.079473,-0.007295,-0.045046,-1.661621,4.790113,-44.680664,,,,,,,
1522138861.564156,0.005469,-0.019411,-2.069994,-0.011350,0.007038,-0.014928,0.005468,0.019410,-0.999797,-0.041357,0.012664,0.126719,-1.886307,4.866056,-44.756104,,,,,,,
1522138861.594125,0.004945,-0.019475,-2.070371,-0.001819,-0.008966,-0.011695,0.004944,0.019474,-0.999798,-0.145096,-0.048816,0.027981,-1.813705,4.715574,-44.905396,,,,,,,
1522138861.624093,0.004932,-0.019973,-2.070608,0.000603,0.052696,-0.014962,0.004931,0.019971,-0.999788,-0.070758,-0.037778,0.069048,-1.286484,4.938200,-44.906067,,,,,,,
1522138861.654061,0.004916,-0.019735,-2.071055,0.007657,-0.045051,-0.019121,0.004915,0.019733,-0.999793,-0.093492,-0.046116,0.107597,-2.787903,4.570326,-44.530334,,,,,,,
1522138861.684030,0.005785,-0.019269,-2.071683,0.018748,0.042089,-0.023465,0.005784,0.019268,-0.999798,0.007079,0.033970,0.005367,-1.584381,5.014769,-44.681519,,,,,,,
1522138861.713998,0.006822,-0.018765,-2.072024,0.030381,0.020765,-0.019164,0.006821,0.018764,-0.999801,-0.052719,0.020832,-0.111680,-1.736755,4.640684,-44.455078,,,,,,,
1522138861.743966,0.007426,-0.017758,-2.072983,0.030635,0.081332,-0.017103,0.007425,0.017757,-0.999815,-0.069558,0.044560,0.005872,-2.266235,4.417692,-44.829407,,,,,,,
1522138861.773934,0.007562,-0.017088,-2.073364,0.020575,-0.011133,-0.010625,0.007561,0.017088,-0.999825,-0.034951,0.008334,0.014947,-2.037491,4.567030,-44.454895,,,,,,,
1522138861.803872,0.008435,-0.016406,-2.073819,0.030110,-0.032380,-0.014859,0.008433,0.016405,-0.999830,-0.061687,0.076292,-0.237597,-2.183899,5.017546,-44.606812,,,,,,,
1522138861.833840,0.008802,-0.015773,-2.074586,0.005818,0.028215,-0.011733,0.008801,0.015773,-0.999837,0.015110,-0.110927,0.070973,-2.636719,4.644728,-44.455505,,,,,,,
1522138861.863809,0.009561,-0.016215,-2.074572,-0.010085,0.051638,-0.012833,0.009559,0.016215,-0.999823,-0.082115,0.073476,0.080343,-1.211639,5.012709,-45.056335,,,,,,,
1522138861.893769,0.009838,-0.015302,-2.075220,0.024977,0.014381,-0.013844,0.009837,0.015301,-0.999835,-0.178355,0.051914,-0.110792,-1.439774,4.563963,-44.829590,,,,,,,
1522138861.923737,0.010160,-0.015554,-2.075819,-0.041276,0.017619,0.001027,0.010159,0.015554,-0.999827,-0.263897,0.047496,-0.212682,-1.664169,4.714827,-44.980347,,,,,,,
1522138861.953705,0.009472,-0.015653,-2.076470,0.035657,0.020704,-0.009584,0.009470,0.015652,-0.999833,-0.118189,0.004673,0.099900,-2.412781,4.718428,-44.755737,,,,,,,
1522138861.983674,0.009904,-0.015068,-2.076926,0.004767,0.037758,-0.007486,0.009903,0.015067,-0.999837,-0.015106,-0.020209,-0.007960,-1.814606,4.490812,-44.679565,,,,,,,
1522138862.013642,0.008869,-0.014884,-2.077331,0.016950,-0.115206,-0.019044,0.008868,0.014884,-0.999850,0.078626,0.067208,0.238223,-2.263840,4.567823,-44.680054,,,,,,,
1522138862.043610,0.009202,-0.014455,-2.077777,0.020796,0.025048,-0.020242,0.009201,0.014454,-0.999853,0.045715,-0.120701,-0.099604,-1.664612,4.714750,-45.055359,,,,,,,
1522138862.073578,0.009073,-0.014266,-2.078023,-0.014584,0.009121,-0.007475,0.009072,0.014266,-0.999857,-0.099938,0.146867,-0.169485,-2.337631,4.643232,-44.605408,,,,,,,
1522138862.103547,0.009255,-0.013811,-2.078607,0.009110,0.049470,-0.011760,0.009254,0.013811,-0.999862,-0.119926,-0.129549,-0.088929,-1.890793,4.416075,-44.754272,,,,,,,
1522138862.133515,0.008783,-0.014856,-2.078778,-0.042795,-0.088585,-0.005266,0.008782,0.014856,-0.999851,-0.063240,-0.017267,0.020634,-1.663269,4.939604,-45.206238,,,,,,,
1522138862.163483,0.009719,-0.015404,-2.079067,-0.005736,0.087661,0.002045,0.009717,0.015403,-0.999834,-0.049039,0.007485,0.074419,-2.340179,4.567945,-44.905090,,,,,,,
1522138862.193451,0.009919,-0.016500,-2.079438,-0.048880,-0.026892,-0.012788,0.009917,0.016499,-0.999815,-0.122619,-0.151402,-0.237337,-2.111435,4.717299,-44.530579,,,,,,,
1522138862.223420,0.010119,-0.017915,-2.079580,-0.047494,0.054859,-0.003279,0.010117,0.017914,-0.999788,-0.074051,0.095383,0.049746,-1.436188,5.013807,-44.981445,,,,,,,
1522138862.253357,0.010056,-0.018472,-2.080149,-0.021829,0.065416,-0.002207,0.010054,0.018471,-0.999779,-0.167449,-0.096199,0.159355,-2.258591,4.868177,-44.306274,,,,,,,
1522138862.283326,0.010514,-0.019745,-2.080175,-0.057207,0.045237,0.008444,0.010512,0.019743,-0.999750,-0.063277,0.022157,0.201944,-2.788055,4.420561,-44.304749,,,,,,,
1522138862.313294,0.010961,-0.019486,-2.081053,0.046543,0.071634,-0.004291,0.010959,0.019484,-0.999750,0.020398,0.087449,0.261469,-2.040497,4.491667,-44.829590,,,,,,,
1522138862.343262,0.011065,-0.019443,-2.081252,-0.041654,-0.063167,0.004308,0.011063,0.019442,-0.999750,0.020706,-0.131869,-0.068716,-2.114288,4.567076,-44.755005,,,,,,,
1522138862.373231,0.011418,-0.020259,-2.081217,0.012336,0.080102,0.011661,0.011415,0.020258,-0.999730,-0.077730,0.034338,-0.069683,-2.340332,4.418165,-44.679504,,,,,,,
1522138862.403199,0.011532,-0.019733,-2.081461,-0.022438,-0.064265,0.003256,0.011530,0.019732,-0.999739,-0.240961,-0.020250,-0.175600,-1.366119,4.563414,-45.054626,,,,,,,
1522138862.433167,0.011112,-0.020611,-2.081676,-0.022193,0.000482,0.012783,0.011109,0.020609,-0.999726,-0.060105,0.007558,0.400254,-2.410675,4.793638,-44.531006,,,,,,,
1522138862.463135,0.012324,-0.021092,-2.081790,-0.023794,0.110019,0.003070,0.012321,0.021090,-0.999702,-0.020957,-0.008594,0.140311,-2.036606,4.791807,-44.680847,,,,,,,
1522138862.493104,0.012850,-0.021407,-2.081915,0.003711,0.041989,-0.005355,0.012847,0.021405,-0.999688,0.037217,-0.006024,0.002496,-1.434830,5.014021,-44.756470,,,,,,,
1522138862.523072,0.013085,-0.021842,-2.082682,-0.011361,0.011204,-0.006391,0.013082,0.021840,-0.999676,-0.199605,-0.199223,0.016537,-2.037491,4.567030,-44.454895,,,,,,,
1522138862.553040,0.013811,-0.023061,-2.082766,-0.031474,0.038987,-0.018170,0.013807,0.023059,-0.999639,-0.272398,-0.013889,0.172994,-2.033890,4.792234,-44.230835,,,,,,,
1522138862.583008,0.015241,-0.024252,-2.083012,-0.076746,0.204699,0.004013,0.015235,0.024249,-0.999590,0.161965,-0.056781,0.391207,-1.058487,5.012556,-44.531250,,,,,,,
1522138862.612977,0.015463,-0.025448,-2.082909,-0.013560,0.006933,-0.000008,0.015457,0.025445,-0.999557,0.079483,0.094336,0.091247,-2.036896,4.716887,-44.605530,,,,,,,
1522138862.642945,0.015978,-0.025715,-2.083530,-0.001655,0.033518,-0.007483,0.015972,0.025712,-0.999542,-0.251262,-0.095460,-0.125489,-2.330429,5.318266,-44.533081,,,,,,,
1522138862.672883,0.016387,-0.026202,-2.083331,-0.025301,0.027029,0.017013,0.016380,0.026199,-0.999523,-0.144844,0.035355,-0.054371,-1.354721,5.388884,-44.532898,,,,,,,
1522138862.702851,0.017307,-0.025918,-2.083694,0.020562,0.009930,0.012811,0.017301,0.025915,-0.999514,-0.073575,0.039805,-0.126569,-2.032700,5.091932,-44.532043,,,,,,,
1522138862.732819,0.017480,-0.025881,-2.083787,-0.028662,-0.013315,0.012791,0.017473,0.025878,-0.999512,-0.019381,0.051804,0.136735,-2.105606,5.167494,-44.307373,,,,,,,
1522138862.762787,0.017716,-0.025992,-2.084151,0.047377,0.022739,-0.002112,0.017709,0.025989,-0.999505,0.162635,0.078915,0.261514,-1.356232,5.238890,-44.532288,,,,,,,
1522138862.792756,0.018811,-0.025148,-2.084668,-0.031337,0.091986,0.000954,0.018804,0.025145,-0.999507,-0.061620,-0.014327,-0.382390,-2.108597,4.867506,-44.306213,,,,,,,
1522138862.822724,0.018219,-0.025869,-2.085042,-0.017093,-0.059004,0.007522,0.018212,0.025866,-0.999499,0.009529,0.004926,-0.150388,-2.408875,4.793928,-44.231018,,,,,,,
1522138862.852692,0.018108,-0.026532,-2.085481,0.016490,0.025017,-0.013854,0.018101,0.026529,-0.999484,0.244350,-0.170282,0.154452,-1.507874,4.939802,-44.306152,,,,,,,
1522138862.882660,0.018193,-0.028162,-2.085463,-0.119076,0.076094,0.024351,0.018185,0.028158,-0.999438,-0.116849,0.052409,-0.332410,-2.254990,5.318007,-44.458008,,,,,,,
1522138862.912627,0.017803,-0.029660,-2.085585,-0.037833,0.080225,0.010565,0.017794,0.029656,-0.999402,-0.298983,0.189567,-0.217838,-2.258606,5.092802,-44.682190,,,,,,,
1522138862.942595,0.017924,-0.028667,-2.086208,0.030477,0.070519,0.006365,0.017916,0.028663,-0.999429,-0.049669,-0.128776,0.170205,-1.060303,5.012266,-44.831238,,,,,,,
1522138862.972563,0.017764,-0.029848,-2.086208,-0.029243,-0.152476,0.005481,0.017755,0.029843,-0.999397,0.050315,-0.062543,-0.208992,-2.107544,5.017424,-44.381775,,,,,,,
1522138863.002531,0.018781,-0.029895,-2.086427,0.056204,0.070620,-0.014937,0.018771,0.029890,-0.999377,-0.048800,0.126162,0.152896,-1.956802,5.316359,-44.757935,,,,,,,
1522138863.032500,0.020526,-0.027895,-2.086881,0.015639,0.070711,-0.014961,0.020516,0.027892,-0.999400,-0.054269,-0.153182,-0.184621,-1.954849,5.017179,-43.931702,,,,,,,
1522138863.062468,0.020082,-0.028776,-2.087076,-0.028719,-0.077837,-0.030824,0.020073,0.028772,-0.999384,0.043053,0.201620,-0.023748,-1.653366,5.390455,-44.308044,,,,,,,
1522138863.092436,0.021898,-0.027326,-2.087596,0.084247,0.131118,-0.016037,0.021888,0.027322,-0.999387,0.094124,-0.156778,-0.183871,-2.030304,5.017454,-44.006775,,,,,,,
1522138863.122374,0.022320,-0.028036,-2.088102,-0.090329,0.035776,0.005234,0.022310,0.028033,-0.999358,0.248106,-0.003878,0.126052,-1.578812,5.390043,-44.383057,,,,,,,
1522138863.152342,0.024073,-0.028098,-2.088729,0.064674,0.043033,-0.024489,0.024061,0.028095,-0.999316,-0.243833,0.070035,-0.492826,-1.803207,5.540892,-44.533691,,,,,,,
1522138863.182311,0.023844,-0.027489,-2.090138,-0.068747,0.080372,0.000950,0.023833,0.027485,-0.999338,-0.093977,-0.233281,0.117334,-1.356537,5.163969,-44.456970,,,,,,,
1522138863.212279,0.025121,-0.029062,-2.090755,0.009258,0.070769,-0.020296,0.025108,0.029058,-0.999262,-0.065910,0.116526,-0.006673,-1.127487,5.388227,-44.157776,,,,,,,
1522138863.242247,0.025444,-0.028094,-2.091614,0.024493,-0.107764,-0.024364,0.025432,0.028090,-0.999282,0.041661,-0.124968,0.148559,-1.880768,5.241331,-44.457520,,,,,,,
1522138863.272215,0.026264,-0.030089,-2.092199,-0.053112,-0.042703,-0.031943,0.026249,0.030084,-0.999203,-0.160603,-0.043100,-0.113850,-1.803970,5.241285,-44.157532,,,,,,,
1522138863.302184,0.026077,-0.029818,-2.092780,0.030375,0.017580,-0.020223,0.026062,0.029813,-0.999216,0.170654,0.047976,0.511636,-1.428986,5.239592,-44.157288,,,,,,,
1522138863.332152,0.026234,-0.030439,-2.093402,-0.040136,0.008197,-0.020269,0.026219,0.030435,-0.999193,0.141628,-0.002725,0.113954,-2.257233,4.868391,-44.081238,,,,,,,
1522138863.362120,0.025427,-0.030403,-2.093840,0.054216,-0.147130,-0.026440,0.025413,0.030398,-0.999215,-0.119559,-0.021273,-0.395286,-1.054581,5.312681,-44.382446,,,,,,,
1522138863.392088,0.024376,-0.029997,-2.094003,0.002661,0.047299,-0.004297,0.024363,0.029992,-0.999253,-0.168863,0.020423,0.290986,-1.950806,5.467085,-44.008545,,,,,,,
1522138863.422057,0.024297,-0.028800,-2.094073,0.017637,0.064176,0.006361,0.024284,0.028796,-0.999290,-0.019661,-0.026644,-0.006447,-1.879410,5.241545,-44.232544,,,,,,,
1522138863.452025,0.023283,-0.028569,-2.094194,0.002123,-0.062209,0.004337,0.023271,0.028565,-0.999321,-0.077867,-0.100159,0.049156,-0.906708,5.236799,-44.607056,,,,,,,
1522138863.481993,0.023416,-0.028412,-2.094016,0.002405,0.017379,0.019177,0.023405,0.028409,-0.999322,-0.003065,-0.088559,-0.055747,-2.402878,5.393904,-44.233459,,,,,,,
1522138863.511961,0.023592,-0.028282,-2.093822,0.005461,-0.024018,0.011762,0.023580,0.028278,-0.999322,-0.100363,0.034100,-0.022727,-1.956207,5.241590,-44.532593,,,,,,,
1522138863.541930,0.023237,-0.028487,-2.094068,0.040755,-0.068367,-0.039319,0.023225,0.028483,-0.999324,0.205794,-0.024592,0.167583,-1.128235,5.537855,-44.533386,,,,,,,
1522138863.571867,0.023544,-0.028191,-2.094559,-0.048208,0.132426,-0.003354,0.023532,0.028188,-0.999326,-0.067600,-0.202199,-0.222415,-1.882706,5.091261,-44.531921,,,,,,,
1522138863.601836,0.023484,-0.029986,-2.094429,-0.020225,-0.073683,-0.019106,0.023471,0.029981,-0.999275,-0.268192,0.022356,-0.309960,-1.954697,4.942335,-43.781372,,,,,,,
1522138863.631804,0.023298,-0.029117,-2.094848,-0.001671,0.044049,0.005297,0.023286,0.029113,-0.999305,0.168441,0.027162,0.555106,-1.503815,5.389708,-44.382996,,,,,,,
1522138863.661772,0.025401,-0.029568,-2.095110,-0.006748,0.103563,0.006297,0.025387,0.029563,-0.999240,-0.074566,0.102822,-0.147580,-2.105453,5.092634,-44.157043,,,,,,,
1522138863.691740,0.025976,-0.028700,-2.095573,0.017312,-0.017550,-0.004225,0.025963,0.028696,-0.999251,-0.061272,-0.037516,0.103926,-2.029999,5.316999,-44.457886,,,,,,,
1522138863.721709,0.028322,-0.029137,-2.095342,-0.027105,0.105621,0.022266,0.028306,0.029133,-0.999175,0.043746,-0.147175,-0.113588,-0.980194,5.387129,-44.607666,,,,,,,
1522138863.751677,0.029198,-0.030056,-2.095331,-0.003872,0.022819,0.001063,0.029181,0.030052,-0.999122,-0.138525,0.040383,-0.086144,-1.580780,5.239973,-44.457397,,,,,,,
1522138863.781645,0.030338,-0.030256,-2.095484,-0.046410,0.052722,-0.005391,0.030319,0.030251,-0.999082,-0.139984,-0.044777,-0.169237,-1.803513,5.465971,-44.458374,,,,,,,
1522138863.811614,0.030947,-0.030930,-2.095689,0.015534,0.068475,0.002084,0.030927,0.030925,-0.999043,0.108783,0.062261,0.268910,-0.902496,5.611845,-44.533569,,,,,,,
1522138863.841582,0.031483,-0.030023,-2.096311,0.011844,-0.043083,0.000068,0.031464,0.030019,-0.999054,-0.004456,-0.031651,-0.159210,-2.026550,5.392424,-44.008240,,,,,,,
1522138863.871550,0.031890,-0.029952,-2.096534,0.009034,0.026094,-0.014918,0.031871,0.029948,-0.999043,0.104238,0.059103,0.087468,-1.727463,5.390928,-44.158081,,,,,,,
1522138863.901515,0.032233,-0.029458,-2.097270,0.010993,-0.000551,-0.004235,0.032214,0.029454,-0.999047,-0.133654,-0.007481,-0.141334,-1.356079,5.164045,-44.382019,,,,,,,
1522138863.931484,0.032094,-0.028786,-2.097521,0.025771,-0.032491,0.000067,0.032075,0.028782,-0.999071,-0.034868,0.203228,0.059328,-1.725662,5.615858,-44.234009,,,,,,,
1522138863.961452,0.031317,-0.028019,-2.098045,0.000164,-0.029243,0.000047,0.031299,0.028015,-0.999117,0.085797,-0.063919,0.118243,-1.505783,5.239637,-44.457336,,,,,,,
1522138863.991390,0.030684,-0.029284,-2.098133,-0.087212,0.025071,0.013779,0.030666,0.029280,-0.999101,0.015218,0.063250,-0.002929,-0.905807,5.236937,-44.457031,,,,,,,
1522138864.021358,0.029257,-0.031069,-2.098574,-0.030144,-0.106818,0.011822,0.029238,0.031064,-0.999090,-0.274752,-0.170835,-0.098322,-1.881058,5.166395,-44.382263,,,,,,,
1522138864.051326,0.028719,-0.032431,-2.098292,-0.077586,0.032444,0.018049,0.028700,0.032425,-0.999062,0.059374,0.103820,0.188027,-1.277634,5.463758,-44.308167,,,,,,,
1522138864.081294,0.027855,-0.033089,-2.098805,0.023570,-0.058989,-0.009494,0.027836,0.033083,-0.999065,0.007503,-0.032503,0.054454,-1.503220,5.314924,-44.157654,,,,,,,
1522138864.111263,0.027545,-0.033896,-2.099117,-0.014708,-0.017505,-0.003165,0.027526,0.033889,-0.999046,0.151735,0.025864,0.135201,-2.255142,4.943617,-43.856567,,,,,,,
1522138864.141231,0.027454,-0.033546,-2.099205,0.018315,-0.026145,0.004330,0.027435,0.033540,-0.999061,-0.085098,0.098311,-0.136575,-1.729858,5.016172,-43.931580,,,,,,,
1522138864.171199,0.027408,-0.033146,-2.099697,-0.022009,0.037713,0.008477,0.027390,0.033140,-0.999075,-0.094055,0.039232,0.020712,-2.178940,5.018339,-43.781799,,,,,,,
1522138864.201167,0.027388,-0.032686,-2.100070,0.019558,0.021636,0.010668,0.027370,0.032680,-0.999091,-0.143673,-0.047436,0.049201,-1.956207,5.016966,-44.156677,,,,,,,
1522138864.231136,0.027140,-0.032757,-2.100257,-0.014882,-0.022986,0.023466,0.027122,0.032752,-0.999095,-0.112892,-0.063284,0.058101,-2.104401,5.242552,-44.232666,,,,,,,
1522138864.261104,0.027232,-0.031955,-2.100513,0.048311,0.010897,0.016031,0.027215,0.031949,-0.999119,-0.062234,-0.043287,-0.201809,-1.051437,5.537809,-44.233337,,,,,,,
1522138864.291072,0.027445,-0.031189,-2.101290,0.002542,0.026001,0.001058,0.027428,0.031184,-0.999137,0.010123,-0.001094,-0.146935,-2.177002,5.168409,-43.707397,,,,,,,
1522138864.321040,0.026901,-0.030151,-2.102151,0.076920,-0.094011,-0.033930,0.026885,0.030147,-0.999184,0.202470,-0.070491,0.295448,-1.650223,5.615583,-44.158936,,,,,,,
1522138864.351009,0.027046,-0.028714,-2.102955,0.035745,0.024992,-0.019157,0.027031,0.028710,-0.999222,0.019554,0.006828,-0.167694,-1.803818,5.166426,-44.007263,,,,,,,
1522138864.380977,0.027418,-0.028094,-2.103620,0.044114,-0.023839,-0.028694,0.027404,0.028091,-0.999230,-0.176330,0.048737,-0.530357,-1.802917,5.166578,-43.857239,,,,,,,
1522138864.410945,0.025936,-0.026460,-2.104670,-0.012502,-0.008962,-0.009567,0.025924,0.026457,-0.999314,0.000611,-0.090956,0.060914,-0.978241,5.537184,-44.533264,,,,,,,
1522138864.440883,0.025507,-0.028094,-2.104911,-0.027422,-0.001476,-0.009593,0.025494,0.028091,-0.999280,-0.125286,0.113618,-0.024585,-2.403625,5.318907,-44.233154,,,,,,,
1522138864.470851,0.024442,-0.027386,-2.105250,0.028919,-0.030467,0.012856,0.024430,0.027382,-0.999326,-0.040406,-0.000161,0.006407,-1.581665,5.015211,-44.231506,,,,,,,
1522138864.500820,0.024419,-0.027790,-2.105636,-0.015710,0.011126,0.007452,0.024408,0.027786,-0.999316,0.096640,-0.022553,0.010516,-1.278534,5.463621,-44.458130,,,,,,,
1522138864.530788,0.023180,-0.027607,-2.105662,0.008550,-0.063265,0.000086,0.023169,0.027604,-0.999350,-0.043906,0.015090,0.038871,-2.029099,5.317137,-44.307922,,,,,,,
1522138864.560756,0.023188,-0.027785,-2.105933,0.016194,-0.037738,-0.008447,0.023177,0.027781,-0.999345,0.077149,-0.030466,-0.022215,-2.105148,5.167555,-44.232361,,,,,,,
1522138864.590724,0.022800,-0.028008,-2.105738,-0.001977,-0.019727,0.008556,0.022789,0.028005,-0.999348,-0.018792,-0.051106,-0.206203,-3.153305,5.397200,-44.308838,,,,,,,
1522138864.620693,0.022502,-0.028373,-2.105855,0.022561,-0.046220,-0.010578,0.022491,0.028369,-0.999344,0.092850,0.113675,0.065064,-2.629074,5.095213,-43.932373,,,,,,,
1522138864.650661,0.022823,-0.027818,-2.105563,0.018361,-0.031339,-0.010592,0.022812,0.027815,-0.999353,-0.215729,-0.110334,-0.101844,-2.405289,5.019133,-44.006958,,,,,,,
1522138864.680629,0.023793,-0.028314,-2.104759,-0.056278,0.048208,0.038281,0.023782,0.028310,-0.999316,-0.083276,0.047892,-0.277142,-1.730316,5.240721,-44.382507,,,,,,,
1522138864.710597,0.024979,-0.027923,-2.104300,0.086980,0.056532,0.010685,0.024967,0.027919,-0.999298,0.044705,0.047505,-0.190902,-1.954407,5.241880,-44.232605,,,,,,,
1522138864.740566,0.025442,-0.025649,-2.104461,0.013185,0.028054,0.008518,0.025431,0.025646,-0.999348,-0.348521,-0.190136,-0.139370,-1.958603,4.866835,-44.306091,,,,,,,
1522138864.770534,0.025503,-0.025686,-2.104354,0.044852,-0.070734,-0.007343,0.025492,0.025683,-0.999345,-0.208826,0.198453,0.089692,-1.355026,5.313963,-44.457581,,,,,,,
1522138864.800502,0.026324,-0.023505,-2.104751,0.087665,0.162034,-0.030986,0.026314,0.023503,-0.999377,0.519599,-0.136906,0.528934,-1.805908,5.315840,-44.607849,,,,,,,
1522138864.830470,0.026936,-0.023312,-2.104800,-0.065955,0.006927,0.017013,0.026925,0.023310,-0.999366,-0.040170,-0.201151,-0.153665,-2.033142,4.867231,-44.231140,,,,,,,
1522138864.860439,0.025942,-0.025686,-2.104695,-0.031066,-0.070725,0.016053,0.025931,0.025683,-0.999334,-0.089544,0.059567,-0.026499,-3.155716,5.247068,-44.458191,,,,,,,
1522138864.890376,0.025879,-0.024050,-2.104975,0.061459,0.034564,-0.028741,0.025868,0.024048,-0.999376,0.300807,0.019074,0.307375,-1.808609,4.866148,-44.306030,,,,,,,
1522138864.920330,0.025055,-0.024242,-2.105528,-0.032832,-0.016348,-0.008515,0.025045,0.024240,-0.999392,0.174906,-0.130716,-0.078061,-2.033600,4.867170,-44.306152,,,,,,,
1522138864.950298,0.023114,-0.024362,-2.105728,-0.002180,-0.081281,-0.004160,0.023105,0.024360,-0.999436,-0.268436,0.068261,-0.154784,-1.582718,5.314528,-44.907715,,,,,,,
1522138864.980266,0.021059,-0.023362,-2.106178,0.087925,0.018344,0.001133,0.021052,0.023359,-0.999505,0.123785,-0.104612,0.400796,-1.960251,4.791685,-44.455750,,,,,,,
1522138865.010234,0.019260,-0.022757,-2.106587,-0.033282,-0.120467,-0.011604,0.019254,0.022755,-0.999556,0.248721,0.156978,-0.140123,-2.184189,4.942610,-44.531494,,,,,,,
1522138865.040203,0.018025,-0.023397,-2.106895,0.009810,-0.046105,-0.022309,0.018019,0.023395,-0.999564,-0.321715,-0.007403,-0.273874,-1.581970,5.164900,-44.532104,,,,,,,
1522138865.070171,0.016945,-0.024007,-2.106668,-0.047287,-0.123770,0.009701,0.016940,0.024005,-0.999568,-0.302035,-0.065005,-0.264226,-1.580475,5.090269,-44.156799,,,,,,,
1522138865.100139,0.015307,-0.025990,-2.106229,-0.027311,0.048305,0.012736,0.015301,0.025987,-0.999545,0.013065,0.141173,0.185458,-2.180740,5.018049,-44.081787,,,,,,,
1522138865.130107,0.015117,-0.026482,-2.106254,-0.011012,0.059219,-0.033085,0.015111,0.026479,-0.999535,0.059871,-0.019658,-0.071418,-1.658310,4.940397,-44.381287,,,,,,,
1522138865.160076,0.014602,-0.026585,-2.106882,0.023135,-0.149366,-0.003003,0.014597,0.026582,-0.999540,-0.342371,0.035277,-0.355166,-2.401535,5.394117,-44.008484,,,,,,,
1522138865.190044,0.015111,-0.025173,-2.107212,0.041490,0.136426,-0.001152,0.015105,0.025170,-0.999569,0.320634,0.098274,0.218746,-2.404984,5.318678,-44.458130,,,,,,,
1522138865.220012,0.015521,-0.024037,-2.107364,0.054675,-0.024009,-0.007379,0.015516,0.024035,-0.999591,0.052950,-0.031008,0.002230,-1.282135,5.013777,-44.306335,,,,,,,
1522138865.249981,0.015552,-0.023973,-2.107128,-0.009509,-0.054656,-0.009523,0.015547,0.023971,-0.999592,-0.111860,0.045564,0.060505,-2.030151,5.167219,-44.232361,,,,,,,
1522138865.279949,0.017171,-0.024217,-2.106961,-0.065125,0.225615,0.046627,0.017165,0.024215,-0.999559,-0.150680,-0.023467,0.009340,-1.583633,5.089766,-44.681824,,,,,,,
1522138865.309887,0.016361,-0.025070,-2.106984,-0.040512,-0.046181,0.005362,0.016356,0.025067,-0.999552,0.230013,-0.031476,0.114634,-0.835007,5.086164,-44.906433,,,,,,,
1522138865.339855,0.016071,-0.025519,-2.106516,0.022689,0.005689,0.010686,0.016065,0.025516,-0.999545,-0.174283,-0.038120,0.233325,-1.807114,5.016142,-44.306641,,,,,,,
1522138865.369823,0.017214,-0.025429,-2.106869,0.012134,0.014313,-0.004242,0.017207,0.025426,-0.999529,-0.015681,-0.128346,-0.124647,-1.803207,5.316267,-44.157837,,,,,,,
1522138865.399791,0.016971,-0.024071,-2.107235,0.040091,0.067343,0.002109,0.016965,0.024068,-0.999566,0.243625,0.027003,0.240060,-1.733459,4.790968,-44.155701,,,,,,,
1522138865.429760,0.016726,-0.023051,-2.107324,0.032175,-0.042038,-0.006303,0.016720,0.023049,-0.999595,-0.032849,-0.025658,0.014777,-1.730911,5.090879,-44.231873,,,,,,,
1522138865.459728,0.015628,-0.022682,-2.107092,0.019996,-0.132369,-0.000893,0.015624,0.022680,-0.999621,-0.003249,-0.067984,-0.264051,-1.052795,5.537596,-44.458313,,,,,,,
1522138865.489696,0.015188,-0.022272,-2.106682,-0.001488,0.081281,0.000990,0.015183,0.022271,-0.999637,0.111281,0.008796,-0.017102,-1.951859,5.541792,-44.308838,,,,,,,
1522138865.519664,0.014746,-0.022459,-2.106270,-0.017979,0.000381,0.024513,0.014742,0.022457,-0.999639,-0.024813,0.027378,-0.208613,-1.732117,5.015806,-44.306580,,,,,,,
1522138865.549633,0.013627,-0.021718,-2.105756,0.020154,-0.087802,0.007589,0.013623,0.021716,-0.999671,-0.168561,0.007642,0.030403,-0.981400,5.312056,-44.682434,,,,,,,
1522138865.579601,0.013916,-0.021881,-2.105280,0.014164,0.004681,0.006417,0.013912,0.021879,-0.999664,0.127567,-0.078291,0.115966,-0.901138,5.387434,-43.932678,,,,,,,
1522138865.609569,0.014123,-0.022210,-2.104641,-0.014660,0.002656,0.003197,0.014119,0.022208,-0.999654,-0.053609,0.111199,-0.122142,-1.503372,5.165159,-43.932068,,,,,,,
1522138865.639537,0.014097,-0.021242,-2.104668,0.036619,0.021580,0.013871,0.014094,0.021240,-0.999675,-0.042216,-0.003098,-0.024297,-1.656662,5.015547,-44.231567,,,,,,,
1522138865.669506,0.013722,-0.020643,-2.104385,0.015069,-0.028273,0.008579,0.013719,0.020642,-0.999693,-0.008745,0.024097,-0.011522,-2.179245,5.168043,-44.082397,,,,,,,
1522138865.699474,0.013069,-0.019282,-2.104216,0.055320,-0.115428,-0.004083,0.013066,0.019281,-0.999729,-0.007695,-0.052041,-0.081982,-1.579559,5.315046,-44.382751,,,,,,,
1522138865.729442,0.013233,-0.018872,-2.103758,-0.001578,0.075826,0.016998,0.013230,0.018871,-0.999734,0.073699,0.018361,0.210229,-0.906250,5.236860,-44.532043,,,,,,,
1522138865.759380,0.013366,-0.018191,-2.103613,0.028992,-0.039889,-0.008440,0.013363,0.018190,-0.999745,0.029224,-0.050386,-0.356715,-1.803360,5.391127,-44.308105,,,,,,,
1522138865.789348,0.011650,-0.018375,-2.103135,-0.020736,-0.164150,0.001233,0.011648,0.018374,-0.999763,-0.124929,-0.143863,-0.237557,-1.355789,5.238966,-44.457275,,,,,,,
1522138865.819316,0.011151,-0.019067,-2.102710,0.005716,0.025957,0.006387,0.011149,0.019066,-0.999756,-0.127054,0.043999,0.010163,-0.904160,5.536711,-44.683289,,,,,,,
1522138865.849285,0.010047,-0.018796,-2.102503,-0.022092,0.001652,-0.004259,0.010045,0.018795,-0.999773,0.108561,0.044102,-0.040434,-1.428665,5.314512,-44.232605,,,,,,,
1522138865.879253,0.008521,-0.018811,-2.102302,0.007293,-0.116359,-0.007308,0.008519,0.018810,-0.999787,0.206385,-0.043026,0.324540,-2.104538,5.317411,-44.382996,,,,,,,
1522138865.909200,0.007415,-0.019494,-2.101949,-0.043818,-0.050551,0.022418,0.007413,0.019493,-0.999783,0.009768,0.140648,-0.012074,-1.279282,5.388624,-44.457825,,,,,,,
1522138865.939169,0.006779,-0.019429,-2.101677,0.037651,0.003554,0.006439,0.006778,0.019428,-0.999788,-0.120929,0.071652,-0.281279,-1.950653,5.616865,-44.234070,,,,,,,
1522138865.969137,0.005185,-0.018825,-2.101903,-0.008482,-0.060010,-0.005249,0.005184,0.018824,-0.999809,-0.051540,0.002096,-0.049477,-1.949158,5.766859,-44.234680,,,,,,,
1522138865.999105,0.004421,-0.018323,-2.102001,0.048094,-0.080224,-0.021172,0.004420,0.018322,-0.999822,0.151967,0.053257,-0.120249,-1.499176,5.764830,-44.234436,,,,,,,
1522138866.029073,0.003324,-0.016873,-2.102274,0.054536,-0.073860,-0.022238,0.003323,0.016872,-0.999852,-0.010922,0.030155,0.009175,-1.877762,5.541304,-44.458740,,,,,,,
1522138866.059042,0.003502,-0.016052,-2.102895,-0.002902,-0.025899,-0.022329,0.003502,0.016051,-0.999865,-0.047707,-0.025191,-0.368772,-2.625473,5.545042,-44.084106,,,,,,,
1522138866.089010,0.002834,-0.016524,-2.103239,-0.018849,-0.003591,-0.015969,0.002833,0.016524,-0.999859,-0.073344,-0.028059,0.072934,-1.278824,5.388685,-44.382874,,,,,,,
1522138866.118978,0.003028,-0.016223,-2.103862,0.041817,-0.058910,-0.027593,0.003027,0.016223,-0.999864,0.135934,0.046674,0.013887,-2.251846,5.543150,-44.308960,,,,,,,
1522138866.148946,0.003204,-0.015551,-2.104711,-0.003605,0.037965,-0.037312,0.003203,0.015550,-0.999874,0.007325,-0.057786,0.009777,-2.100357,5.692457,-44.309509,,,,,,,
1522138866.178915,0.002868,-0.016906,-2.105368,-0.024421,-0.059845,-0.021253,0.002868,0.016906,-0.999853,-0.098953,0.020906,-0.140009,-1.729874,5.240797,-44.307495,,,,,,,
1522138866.208852,0.002584,-0.016934,-2.106260,-0.017625,0.017742,-0.027711,0.002584,0.016933,-0.999853,0.010569,-0.002864,0.054602,-2.704971,5.320036,-44.458252,,,,,,,
1522138866.238821,0.002132,-0.018156,-2.107061,-0.056123,0.010364,-0.022406,0.002132,0.018155,-0.999833,0.137822,0.072574,0.107209,-1.951859,5.541792,-44.308838,,,,,,,
1522138866.268789,0.001680,-0.020424,-2.107679,-0.067305,-0.110714,-0.028677,0.001679,0.020422,-0.999790,-0.018235,-0.064413,0.168674,-1.274048,5.913588,-44.459900,,,,,,,
1522138866.298757,0.001408,-0.023428,-2.107824,-0.100225,-0.035368,-0.000021,0.001408,0.023426,-0.999725,0.007046,0.042263,-0.036424,-2.024155,5.767195,-44.234741,,,,,,,
1522138866.328725,0.000627,-0.025224,-2.108365,-0.030623,-0.015204,-0.021299,0.000626,0.025221,-0.999682,0.260925,0.087145,0.218996,-1.122391,5.763441,-43.934265,,,,,,,
1522138866.358694,-0.000065,-0.026222,-2.109126,-0.046718,-0.052233,-0.038324,-0.000065,0.026219,-0.999656,-0.197490,0.006176,-0.146706,-1.271942,5.988813,-44.235229,,,,,,,
1522138866.388662,-0.000481,-0.026902,-2.109953,0.006846,-0.020449,-0.044706,-0.000481,0.026899,-0.999638,0.005135,-0.087995,0.041462,-2.020096,5.767851,-43.559753,,,,,,,
1522138866.418630,-0.001060,-0.028142,-2.110899,-0.074116,0.031743,-0.034161,-0.001060,0.028138,-0.999604,0.108253,0.105132,0.211228,-2.098251,5.543058,-43.708862,,,,,,,
1522138866.448598,-0.001455,-0.027783,-2.111887,0.055928,-0.044894,-0.060631,-0.001454,0.027780,-0.999613,0.109471,0.094840,-0.150457,-2.321594,5.843840,-43.935181,,,,,,,
1522138866.478567,-0.002236,-0.027628,-2.113300,-0.019742,-0.009698,-0.054320,-0.002235,0.027624,-0.999616,0.033210,0.027903,0.060254,-2.019211,5.992628,-43.785645,,,,,,,
1522138866.508535,-0.002521,-0.027772,-2.115403,0.022384,0.072173,-0.076746,-0.002520,0.027769,-0.999611,-0.042142,0.169558,0.233361,-2.992676,6.147001,-43.786743,,,,,,,
1522138866.538503,-0.003850,-0.027008,-2.117842,-0.011712,-0.132906,-0.063786,-0.003849,0.027005,-0.999628,-0.032162,-0.178037,-0.232977,-2.171463,5.992933,-44.160706,,,,,,,
1522138866.568471,-0.003823,-0.029331,-2.120119,-0.058929,0.022527,-0.088486,-0.003821,0.029327,-0.999563,0.206138,0.027223,0.089956,-2.843124,6.146254,-43.861633,,,,,,,
1522138866.598440,-0.004127,-0.030517,-2.122510,-0.017453,-0.026385,-0.099059,-0.004125,0.030512,-0.999526,0.124715,0.045583,0.021361,-1.937180,6.517546,-43.487671,,,,,,,
1522138866.628408,-0.004329,-0.032346,-2.125132,-0.085575,0.028974,-0.090636,-0.004326,0.032340,-0.999468,0.036431,0.103509,0.000658,-2.166824,6.368055,-44.012207,,,,,,,
1522138866.658346,-0.004406,-0.032587,-2.127291,0.036883,-0.028789,-0.078770,-0.004404,0.032581,-0.999459,0.130014,0.038952,0.063150,-3.439972,6.374083,-43.712830,,,,,,,
1522138866.688314,-0.004198,-0.032731,-2.129506,-0.038633,0.034101,-0.079955,-0.004195,0.032725,-0.999456,0.116454,-0.014033,0.023671,-3.139511,6.148191,-43.261841,,,,,,,
1522138866.718282,-0.003956,-0.034377,-2.131395,-0.035619,0.006354,-0.066063,-0.003953,0.034371,-0.999401,0.284990,0.171577,0.178066,-2.990433,6.371992,-43.787598,,,,,,,
1522138866.748251,-0.002793,-0.034718,-2.133404,-0.013993,0.078495,-0.056533,-0.002792,0.034711,-0.999393,-0.039200,0.145571,-0.478451,-3.292221,6.148420,-43.711853,,,,,,,
1522138866.778219,-0.003462,-0.034263,-2.135409,0.017619,-0.014012,-0.057490,-0.003460,0.034256,-0.999407,-0.012775,0.104904,-0.004896,-2.767242,6.146055,-43.711609,,,,,,,
1522138866.808187,-0.003057,-0.033947,-2.137516,0.013604,0.021187,-0.075639,-0.003055,0.033940,-0.999419,0.335682,0.044276,0.426299,-3.213303,6.448225,-43.563049,,,,,,,
1522138866.838155,-0.001897,-0.033880,-2.139535,0.009488,0.064717,-0.068231,-0.001896,0.033874,-0.999424,0.098591,0.152879,0.081120,-3.439499,6.149534,-43.262024,,,,,,,
1522138866.868124,-0.000468,-0.033204,-2.141763,0.025742,0.101933,-0.079966,-0.000468,0.033198,-0.999449,0.476344,-0.088908,0.044325,-2.689087,6.370863,-43.562500,,,,,,,
1522138866.898106,-0.000247,-0.033827,-2.144062,-0.028477,-0.095468,-0.092607,-0.000247,0.033820,-0.999428,-0.062649,0.092050,-0.498848,-3.583649,6.600401,-43.038818,,,,,,,
1522138866.928074,0.000207,-0.034132,-2.146839,-0.019700,0.204078,-0.082237,0.000207,0.034125,-0.999418,0.032935,0.080895,0.508893,-3.964920,6.151823,-43.337219,,,,,,,
1522138866.958042,0.001107,-0.033419,-2.149563,0.057241,-0.048816,-0.109633,0.001106,0.033413,-0.999441,0.317726,0.005878,0.075796,-3.438156,6.374372,-43.412842,,,,,,,
1522138866.988011,0.001785,-0.033445,-2.152632,-0.032038,0.068146,-0.087447,0.001784,0.033439,-0.999439,0.259218,0.016976,0.179462,-3.962219,6.376890,-43.263184,,,,,,,
1522138867.017979,0.002836,-0.033278,-2.155417,0.032765,-0.015902,-0.096899,0.002834,0.033272,-0.999442,0.103840,0.108833,-0.177209,-4.038437,6.302153,-43.337830,,,,,,,
1522138867.047947,0.003383,-0.032743,-2.158783,0.009313,-0.016874,-0.103300,0.003381,0.032737,-0.999458,0.106863,0.022531,-0.173714,-3.588898,6.524687,-43.788513,,,,,,,
1522138867.077915,0.003178,-0.032894,-2.161882,0.017590,-0.065802,-0.096863,0.003176,0.032888,-0.999454,0.185346,0.036952,0.250492,-4.039932,6.152159,-43.337280,,,,,,,
1522138867.107853,0.004640,-0.032689,-2.164720,0.003297,0.066066,-0.107658,0.004638,0.032683,-0.999455,0.092469,0.167955,-0.184871,-4.333313,6.678709,-43.114563,,,,,,,
1522138867.137821,0.004496,-0.031627,-2.167896,0.037922,-0.058403,-0.098984,0.004494,0.031621,-0.999490,0.217613,-0.041601,-0.154838,-3.656570,6.900587,-43.190125,,,,,,,
1522138867.167790,0.004252,-0.032287,-2.170467,-0.043817,0.059669,-0.087443,0.004250,0.032282,-0.999470,0.027458,0.199988,0.032688,-4.035889,6.602064,-43.414062,,,,,,,
1522138867.197758,0.003555,-0.032134,-2.173572,0.027326,-0.027647,-0.087300,0.003553,0.032129,-0.999477,0.240252,0.035071,0.186108,-4.559967,6.379957,-42.888489,,,,,,,
1522138867.227726,0.003146,-0.033082,-2.176358,-0.055297,-0.107216,-0.076623,0.003144,0.033076,-0.999448,0.154586,-0.029750,-0.072604,-4.561768,6.379652,-43.188477,,,,,,,
1522138867.257694,0.002593,-0.034509,-2.179538,0.000084,0.091415,-0.084246,0.002591,0.034502,-0.999401,0.284259,0.245054,0.501721,-4.934052,6.606413,-43.114563,,,,,,,
1522138867.287663,0.002205,-0.033593,-2.182690,0.022751,-0.120989,-0.109585,0.002203,0.033586,-0.999433,0.101617,0.007445,-0.233095,-5.315765,5.933134,-43.112061,,,,,,,
1522138867.317631,0.000777,-0.034133,-2.186238,-0.010140,-0.062536,-0.099014,0.000777,0.034126,-0.999417,0.202485,0.106896,0.024793,-4.933914,6.756178,-43.340149,,,,,,,
1522138867.347600,0.000251,-0.033184,-2.189592,0.053188,0.008526,-0.102237,0.000251,0.033178,-0.999449,0.218057,0.200877,0.165297,-4.933456,6.531630,-42.889282,,,,,,,
1522138867.377568,-0.000681,-0.032201,-2.193240,-0.020558,-0.005129,-0.099080,-0.000681,0.032195,-0.999481,0.196909,-0.038177,-0.110672,-5.311279,6.383101,-43.113831,,,,,,,
1522138867.407537,-0.001850,-0.032651,-2.196512,-0.000443,-0.044490,-0.100090,-0.001849,0.032645,-0.999465,-0.014448,0.144205,-0.304505,-4.557419,6.679869,-42.964600,,,,,,,
1522138867.437505,-0.003376,-0.030841,-2.200123,0.074288,-0.044684,-0.098968,-0.003374,0.030836,-0.999519,0.116899,0.105639,0.031989,-5.828903,6.761030,-42.515625,,,,,,,
