timestamp(unix),attitude_roll(radians),attitude_pitch(radians),attitude_yaw(radians),rotation_rate_x(radians/s),rotation_rate_y(radians/s),rotation_rate_z(radians/s),gravity_x(G),gravity_y(G),gravity_z(G),user_acc_x(G),user_acc_y(G),user_acc_z(G),magnetic_field_x(microteslas),magnetic_field_y(microteslas),magnetic_field_z(microteslas),latitude(degree),longitude(degree),altitude(meter),speed(m/s),course(degree),timestamp(unix),User Mark
1523694858.129199,-0.726022,-0.018965,-1.372075,0.020565,0.004631,-0.052576,-0.663780,0.018964,-0.747687,0.010689,0.003024,-0.025583,-17.737778,28.439823,30.933167,,,,,,,
,,,,,,,,,,,,,,,,25.299913,51.431683,20.663114,12.900000,100.546875,1523694857.997921,
1523694858.159167,-0.726583,-0.018773,-1.376266,-0.032097,-0.011568,0.001751,-0.664203,0.018772,-0.747317,0.019366,-0.007862,0.019946,-17.294250,28.062382,30.484924,,,,,,,
1523694858.189136,-0.724973,-0.020598,-1.379822,-0.097881,0.066262,-0.011168,-0.662975,0.020597,-0.748358,0.023906,0.020114,0.006674,-16.323044,27.458378,30.862854,,,,,,,
1523694858.219104,-0.721520,-0.021500,-1.384892,-0.007951,0.124447,-0.006894,-0.660374,0.021498,-0.750629,0.004063,0.020220,-0.069683,-16.853714,26.935703,30.789673,,,,,,,
1523694858.249072,-0.721392,-0.020518,-1.385910,0.081812,-0.080930,0.004030,-0.660292,0.020517,-0.750729,0.005781,-0.014993,-0.039417,-16.403275,26.933750,30.864929,,,,,,,
1523694858.279040,-0.723147,-0.018326,-1.387113,0.101153,-0.031193,0.025312,-0.661636,0.018325,-0.749601,0.008499,-0.037200,-0.032794,-15.363663,26.478092,29.892212,,,,,,,
1523694858.309009,-0.723518,-0.020005,-1.388270,-0.122225,-0.034112,0.066701,-0.661893,0.020004,-0.749331,0.002652,-0.057540,-0.066480,-14.542892,26.099323,29.819153,,,,,,,
1523694858.338977,-0.725318,-0.024103,-1.394006,-0.119867,-0.046495,0.013439,-0.663180,0.024100,-0.748071,0.006839,-0.015021,-0.026801,-12.972748,25.791965,29.521179,,,,,,,
1523694858.368945,-0.726319,-0.024848,-1.396860,-0.006671,-0.074189,-0.016290,-0.663917,0.024846,-0.747393,0.018790,-0.031498,-0.010267,-12.526688,26.163685,28.244934,,,,,,,
1523694858.398913,-0.728081,-0.024080,-1.400253,0.017052,0.008461,0.009214,-0.665245,0.024077,-0.746236,0.014931,-0.030318,0.005285,-12.750961,26.913563,27.116821,,,,,,,
1523694858.428882,-0.724663,-0.025653,-1.402417,-0.110548,0.146775,0.029226,-0.662665,0.025650,-0.748476,-0.006753,-0.042038,-0.092237,-12.381104,27.210545,25.765747,,,,,,,
1523694858.458850,-0.723749,-0.028425,-1.408300,-0.098408,-0.074888,-0.034477,-0.661931,0.028421,-0.749025,-0.000377,-0.006479,-0.024138,-12.149841,28.333683,24.936401,,,,,,,
1523694858.488818,-0.726478,-0.028502,-1.411534,-0.016328,-0.094318,-0.022663,-0.663971,0.028499,-0.747215,0.038833,0.034734,0.035438,-12.445343,29.009632,24.558533,,,,,,,
1523694858.518786,-0.729299,-0.027865,-1.411229,0.062741,-0.045805,0.003972,-0.666088,0.027861,-0.745352,0.037075,-0.021788,0.086371,-12.282639,30.059269,24.929443,,,,,,,
1523694858.548755,-0.724701,-0.024710,-1.408684,0.155954,0.244141,-0.010092,-0.662709,0.024707,-0.748469,-0.024639,-0.047916,-0.066442,-12.870316,31.112202,25.224976,,,,,,,
1523694858.578723,-0.719025,-0.023173,-1.406771,-0.005992,0.116832,0.018682,-0.658474,0.023171,-0.752246,-0.030567,-0.050073,-0.170697,-12.273346,31.034153,24.850586,,,,,,,
1523694858.608691,-0.719163,-0.025110,-1.408528,-0.085700,-0.101500,-0.034429,-0.658547,0.025107,-0.752120,-0.027106,0.027109,-0.124955,-11.957916,31.858921,26.047363,,,,,,,
1523694858.638659,-0.726351,-0.023252,-1.410200,0.065222,-0.309789,-0.084194,-0.663966,0.023250,-0.747401,0.066096,-0.022151,0.091303,-12.177658,31.935658,26.796936,,,,,,,
1523694858.668628,-0.734310,-0.020399,-1.410312,0.103742,-0.183030,0.009475,-0.669935,0.020397,-0.742139,0.086928,-0.009716,0.166501,-11.871078,32.459507,27.020081,,,,,,,
1523694858.698596,-0.733838,-0.019834,-1.409313,0.045084,0.134409,0.068789,-0.669593,0.019833,-0.742463,0.050833,-0.052075,0.084458,-10.377289,32.152256,26.497009,,,,,,,
1523694858.728564,-0.726181,-0.021665,-1.410914,-0.054513,0.322668,0.081298,-0.663863,0.021664,-0.747540,-0.006532,-0.044399,-0.047290,-9.628967,31.849125,26.723633,,,,,,,
1523694858.758532,-0.715698,-0.024404,-1.412362,-0.073416,0.355831,0.053563,-0.655948,0.024401,-0.754411,-0.063381,-0.063616,-0.200378,-9.703812,31.999226,26.497986,,,,,,,
1523694858.788501,-0.710841,-0.026454,-1.416881,-0.065132,-0.024019,-0.025984,-0.652243,0.026451,-0.757548,-0.057993,-0.068016,-0.151449,-9.541245,33.123722,26.718567,,,,,,,
1523694858.818469,-0.715618,-0.026354,-1.418927,0.009811,-0.175373,0.011528,-0.655855,0.026351,-0.754426,0.002947,-0.055129,-0.014053,-9.397095,32.897465,26.119507,,,,,,,
1523694858.848429,-0.718585,-0.028029,-1.419526,-0.040222,-0.063099,0.080639,-0.658061,0.028026,-0.752442,0.038143,-0.027186,0.027558,-9.254608,32.371464,25.746704,,,,,,,
1523694858.878398,-0.719113,-0.028618,-1.420527,0.095991,0.026138,0.036955,-0.658448,0.028614,-0.752081,0.053299,0.010601,-0.001947,-9.169693,32.821980,26.644958,,,,,,,
1523694858.908366,-0.717498,-0.025365,-1.418670,0.165589,0.027252,0.002921,-0.657290,0.025363,-0.753210,0.034167,-0.055514,-0.061625,-9.616989,33.049061,26.718811,,,,,,,
1523694858.938334,-0.717229,-0.022762,-1.419186,0.068276,0.004074,0.010323,-0.657128,0.022760,-0.753434,-0.020866,-0.041513,-0.126616,-10.069214,32.826099,26.719482,,,,,,,
1523694858.968302,-0.719536,-0.023773,-1.420623,-0.114067,-0.207850,-0.010906,-0.658849,0.023771,-0.751899,-0.013224,-0.052946,-0.115670,-8.420013,32.519047,27.096558,,,,,,,
1523694858.998271,-0.731159,-0.024848,-1.423811,-0.056154,-0.461487,-0.076677,-0.667526,0.024846,-0.744171,0.063690,-0.018208,0.095306,-6.928604,31.612415,27.175903,,,,,,,
1523694859.028239,-0.743139,-0.021251,-1.424160,0.182703,-0.306866,-0.088370,-0.676449,0.021249,-0.736182,0.066037,0.010642,0.233847,-6.263245,31.008823,26.578674,,,,,,,
,,,,,,,,,,,,,,,,25.299891,51.431804,20.785773,12.870000,101.250000,1523694858.997906,
1523694859.058207,-0.741691,-0.014968,-1.419778,0.268551,0.375503,0.007969,-0.675460,0.014967,-0.737244,-0.030061,-0.042219,0.041992,-6.490524,32.581852,23.572266,,,,,,,
1523694859.088175,-0.717713,-0.013702,-1.414660,-0.016828,0.975389,0.177643,-0.657601,0.013702,-0.753241,-0.137382,-0.072616,-0.419168,-7.554749,32.509388,21.322021,,,,,,,
1523694859.118144,-0.699201,-0.024290,-1.416462,-0.436535,0.158727,0.106759,-0.643416,0.024288,-0.765130,-0.089601,-0.045375,-0.400626,-11.449097,33.800709,20.114868,,,,,,,
1523694859.148112,-0.714358,-0.031915,-1.423530,-0.230561,-0.766122,-0.062647,-0.654799,0.031909,-0.755129,0.027983,0.013333,0.085497,-12.562515,34.556385,20.786255,,,,,,,
1523694859.178080,-0.732168,-0.031677,-1.424632,0.148838,-0.398646,-0.020107,-0.668148,0.031672,-0.743353,0.120159,0.033331,0.233755,-13.749847,35.013081,22.133911,,,,,,,
1523694859.208048,-0.736008,-0.024045,-1.418578,0.384628,0.067085,0.004104,-0.671140,0.024042,-0.740939,0.107648,-0.010065,0.173160,-15.170151,35.169987,22.657532,,,,,,,
1523694859.238017,-0.726113,-0.019057,-1.412237,0.124553,0.480603,0.072755,-0.663847,0.019056,-0.747624,-0.006380,-0.054319,-0.069041,-14.569717,35.167362,22.732849,,,,,,,
1523694859.267985,-0.709494,-0.023802,-1.412980,-0.296970,0.531555,0.077721,-0.651265,0.023799,-0.758476,-0.157146,-0.047771,-0.369469,-15.843903,34.798847,23.483704,,,,,,,
1523694859.297953,-0.704961,-0.032688,-1.420197,-0.382852,-0.187801,-0.046293,-0.647657,0.032682,-0.761230,-0.089296,-0.040845,-0.358125,-15.918442,34.350010,24.310486,,,,,,,
1523694859.327921,-0.723976,-0.037133,-1.428982,-0.171846,-0.805363,-0.094527,-0.661912,0.037124,-0.748661,-0.017516,-0.047500,0.068928,-15.688187,34.424732,25.060303,,,,,,,
1523694859.357890,-0.743876,-0.036998,-1.432454,0.049071,-0.488822,-0.006235,-0.676681,0.036989,-0.735345,0.058090,-0.009722,0.260858,-16.442932,33.678577,25.512878,,,,,,,
1523694859.387858,-0.747231,-0.035252,-1.431148,0.197668,0.174067,0.118935,-0.679187,0.035245,-0.733117,0.064502,-0.095212,0.215448,-16.378281,33.002689,24.915588,,,,,,,
1523694859.417857,-0.735502,-0.032340,-1.425952,0.226845,0.439937,0.077135,-0.670608,0.032335,-0.741106,0.045837,-0.081590,-0.025969,-15.774841,33.075413,25.365601,,,,,,,
1523694859.447825,-0.723915,-0.030044,-1.425758,0.031218,0.299646,0.000404,-0.662024,0.030040,-0.748880,-0.017084,-0.064799,-0.129569,-17.128082,32.931217,25.065552,,,,,,,
1523694859.477793,-0.717622,-0.031361,-1.430164,-0.163309,0.179418,-0.061414,-0.657272,0.031356,-0.753000,-0.053605,0.006745,-0.157995,-17.738388,32.033726,24.843811,,,,,,,
1523694859.507762,-0.716622,-0.033942,-1.438214,-0.197284,-0.112113,-0.146393,-0.656463,0.033936,-0.753594,0.025436,0.017868,0.005074,-17.067764,31.505878,24.996277,,,,,,,
1523694859.537730,-0.722380,-0.032153,-1.446959,0.015164,-0.148566,-0.174970,-0.660830,0.032148,-0.749846,0.053530,0.044009,0.193846,-17.681046,30.083790,25.151672,,,,,,,
1523694859.567698,-0.723326,-0.027447,-1.448277,0.172519,0.053281,-0.074882,-0.661632,0.027443,-0.749325,0.031139,0.075325,0.167096,-18.579819,29.938282,25.601807,,,,,,,
1523694859.597666,-0.715163,-0.020706,-1.443332,0.321126,0.436970,0.012211,-0.655600,0.020704,-0.754824,0.002051,0.027590,-0.047895,-18.733109,30.013294,24.926392,,,,,,,
1523694859.627635,-0.702992,-0.016420,-1.438004,0.093806,0.269379,0.051626,-0.646416,0.016420,-0.762808,-0.019874,-0.026658,-0.239817,-19.042542,29.339237,24.478943,,,,,,,
1523694859.657603,-0.705306,-0.018678,-1.439189,-0.151779,-0.289537,-0.016181,-0.648153,0.018677,-0.761280,-0.009028,0.000122,-0.121502,-17.847214,28.734089,24.706970,,,,,,,
1523694859.687571,-0.716829,-0.019961,-1.442725,-0.053751,-0.406204,-0.080996,-0.656866,0.019960,-0.753742,0.025274,0.014784,0.068805,-17.993454,28.885120,25.081299,,,,,,,
1523694859.717539,-0.725674,-0.018518,-1.444404,0.036764,-0.137054,-0.006608,-0.663525,0.018517,-0.747923,0.011731,-0.010567,0.152983,-18.445969,28.587223,25.157288,,,,,,,
1523694859.747508,-0.722274,-0.020199,-1.444717,-0.062729,0.206561,0.124033,-0.660957,0.020197,-0.750151,-0.038368,-0.069193,-0.025637,-17.925659,28.434361,24.633118,,,,,,,
1523694859.777476,-0.718846,-0.026164,-1.447034,-0.142835,0.005688,0.159332,-0.658291,0.026161,-0.752308,-0.040852,-0.085655,-0.107464,-17.551407,28.133060,25.009521,,,,,,,
1523694859.807444,-0.723963,-0.029025,-1.446912,0.061443,-0.261958,0.067058,-0.662080,0.029021,-0.748871,0.052125,-0.049528,0.032486,-17.027618,28.055622,24.935059,,,,,,,
1523694859.837412,-0.730679,-0.026316,-1.446970,0.154042,-0.150263,0.015876,-0.667144,0.026313,-0.744463,0.031615,-0.050757,0.067980,-16.643799,28.804127,25.157288,,,,,,,
1523694859.867363,-0.728088,-0.024576,-1.446621,-0.003346,0.227352,0.016442,-0.665242,0.024573,-0.746222,-0.036509,-0.075660,-0.085825,-17.324615,28.356968,24.933716,,,,,,,
1523694859.897331,-0.720750,-0.028259,-1.451220,-0.261814,0.186683,-0.001825,-0.659684,0.028255,-0.751011,-0.064025,-0.037594,-0.152401,-16.728394,27.979282,24.935486,,,,,,,
1523694859.927299,-0.720105,-0.033420,-1.461304,-0.247487,-0.040192,-0.080441,-0.659095,0.033413,-0.751316,-0.040597,0.034381,-0.018825,-15.901459,28.125629,25.010376,,,,,,,
1523694859.957267,-0.723184,-0.034097,-1.467169,-0.000292,-0.148178,-0.074813,-0.661390,0.034090,-0.749266,0.010755,0.032194,0.066405,-16.652161,27.829380,25.386169,,,,,,,
1523694859.987236,-0.727814,-0.029257,-1.468190,0.247446,-0.087476,-0.029939,-0.664954,0.029252,-0.746310,0.052711,0.001570,0.120837,-16.725403,28.503895,24.558411,,,,,,,
1523694860.017204,-0.723466,-0.025150,-1.465352,0.121527,0.252335,0.046344,-0.661777,0.025148,-0.749278,-0.025082,-0.045045,-0.073918,-15.826492,28.574543,24.258606,,,,,,,
1523694860.047172,-0.716367,-0.026313,-1.468012,-0.076153,0.185029,0.017490,-0.656421,0.026310,-0.753935,-0.071271,-0.034458,-0.217959,-16.503708,28.352589,24.259155,,,,,,,
,,,,,,,,,,,,,,,,25.299838,51.431969,20.685350,14.170000,101.953125,1523694859.997891,
1523694860.077141,-0.715067,-0.027763,-1.472214,-0.096086,-0.075704,-0.070702,-0.655415,0.027760,-0.754757,-0.070430,0.008556,-0.185474,-16.353867,28.426762,24.108948,,,,,,,
1523694860.107109,-0.724804,-0.026858,-1.478044,0.030472,-0.439341,-0.084089,-0.662749,0.026855,-0.748358,0.014449,0.011994,0.061866,-15.748077,29.098881,23.956543,,,,,,,
1523694860.137077,-0.733950,-0.024850,-1.478690,0.071704,-0.156557,0.033932,-0.669600,0.024848,-0.742305,0.037307,0.035287,0.180049,-16.422302,29.401539,23.580017,,,,,,,
1523694860.167045,-0.732779,-0.025630,-1.478953,0.026801,0.152275,0.106037,-0.668717,0.025628,-0.743074,0.042085,-0.015221,0.091752,-16.344315,29.701191,23.578857,,,,,,,
1523694860.197014,-0.726523,-0.026704,-1.477817,0.046376,0.193877,0.075116,-0.664037,0.026701,-0.747221,0.000967,-0.040938,-0.094469,-15.893433,29.923939,23.353210,,,,,,,
1523694860.226982,-0.724731,-0.026500,-1.477615,0.038256,-0.018181,0.013513,-0.662701,0.026497,-0.748414,-0.050342,-0.066628,-0.115508,-16.559982,30.227833,24.251587,,,,,,,
1523694860.256950,-0.726083,-0.025291,-1.480373,0.025659,-0.032679,-0.037617,-0.663733,0.025289,-0.747541,-0.063593,-0.056966,-0.120227,-17.684357,30.607365,23.724548,,,,,,,
1523694860.286918,-0.727576,-0.026448,-1.483740,-0.149961,-0.098407,0.003868,-0.664828,0.026445,-0.746527,-0.027127,-0.044313,-0.026148,-16.860001,30.453815,23.875549,,,,,,,
1523694860.316887,-0.731056,-0.030361,-1.489763,-0.124431,-0.098624,0.024141,-0.667348,0.030357,-0.744126,0.028279,0.009743,0.082443,-18.202423,30.311359,25.375488,,,,,,,
1523694860.346855,-0.732892,-0.030543,-1.490185,0.119130,-0.047286,0.042381,-0.668709,0.030538,-0.742895,0.064568,-0.000798,0.101141,-18.424545,30.237949,25.975708,,,,,,,
1523694860.376823,-0.731588,-0.026447,-1.488537,0.233200,0.126848,0.020981,-0.667818,0.026444,-0.743853,0.058199,-0.046540,0.023562,-18.122452,30.311817,26.200500,,,,,,,
1523694860.406791,-0.726457,-0.023267,-1.486834,0.061467,0.139106,0.000596,-0.664045,0.023265,-0.747329,0.027616,-0.075023,-0.098892,-18.580841,29.339100,26.429138,,,,,,,
1523694860.436760,-0.726393,-0.024233,-1.491998,-0.128132,-0.051371,-0.045171,-0.663982,0.024231,-0.747355,0.006480,-0.045791,-0.043432,-18.811478,28.365833,27.107971,,,,,,,
1523694860.466728,-0.728051,-0.025809,-1.497520,-0.114163,-0.056558,-0.067535,-0.665193,0.025807,-0.746224,-0.016188,-0.009892,-0.002083,-17.617218,27.835377,27.035706,,,,,,,
1523694860.496696,-0.728013,-0.025689,-1.503325,-0.016700,0.044999,-0.037728,-0.665168,0.025686,-0.746251,-0.014657,-0.016698,0.030613,-17.924545,27.011921,27.188782,,,,,,,
1523694860.526664,-0.724009,-0.025369,-1.504243,0.012161,0.149535,0.046366,-0.662180,0.025367,-0.748914,-0.030859,-0.005408,-0.056338,-17.105881,26.557926,26.891052,,,,,,,
1523694860.556633,-0.722450,-0.027204,-1.505151,-0.047436,-0.034220,0.056099,-0.660979,0.027200,-0.749910,0.007018,0.004828,-0.033767,-15.834671,26.401844,26.517273,,,,,,,
1523694860.586601,-0.724784,-0.027910,-1.507642,0.040063,-0.084114,0.019976,-0.662715,0.027906,-0.748350,0.063182,0.003588,0.016676,-14.939804,26.022587,26.294250,,,,,,,
1523694860.616569,-0.727667,-0.026279,-1.507370,0.090323,-0.082027,0.007227,-0.664899,0.026276,-0.746469,0.046735,-0.042817,0.059839,-14.792953,26.246021,25.393433,,,,,,,
1523694860.646538,-0.726667,-0.024168,-1.508594,0.084805,0.101916,-0.005754,-0.664187,0.024166,-0.747174,-0.016767,-0.047878,-0.072651,-14.799713,26.244938,24.268433,,,,,,,
1523694860.676506,-0.724068,-0.023728,-1.510547,-0.061697,0.014272,-0.034533,-0.662250,0.023726,-0.748905,-0.027981,-0.068525,-0.106685,-14.053055,26.315907,23.593506,,,,,,,
1523694860.706474,-0.727259,-0.024826,-1.513430,-0.102826,-0.130000,-0.053604,-0.664619,0.024823,-0.746769,-0.000924,0.020587,0.033756,-12.625015,27.208500,22.615723,,,,,,,
1523694860.736442,-0.729675,-0.025324,-1.515830,-0.034319,-0.070794,-0.035496,-0.666413,0.025322,-0.745151,0.029130,0.017174,0.105884,-12.772324,27.434238,22.689697,,,,,,,
1523694860.766411,-0.729019,-0.024050,-1.515131,0.096462,0.096455,0.009188,-0.665945,0.024047,-0.745611,0.040304,0.001496,0.069784,-13.817505,28.413105,21.860291,,,,,,,
1523694860.796379,-0.723822,-0.023114,-1.512618,0.023950,0.175988,0.059128,-0.662075,0.023112,-0.749079,-0.008777,-0.050441,-0.078847,-13.895355,28.487858,21.259888,,,,,,,
1523694860.826347,-0.721313,-0.025505,-1.512561,-0.079108,0.026552,0.038963,-0.660155,0.025502,-0.750694,-0.038300,-0.045934,-0.103645,-13.969009,28.713032,21.109009,,,,,,,
1523694860.856307,-0.722274,-0.026816,-1.513233,-0.017418,-0.068951,-0.000328,-0.660854,0.026812,-0.750033,-0.028492,-0.042910,-0.079297,-13.887878,29.237812,21.256897,,,,,,,
1523694860.886276,-0.726027,-0.025684,-1.513506,0.065648,-0.118035,-0.001279,-0.663684,0.025681,-0.747570,0.003848,-0.043870,0.031887,-14.332489,29.914600,21.028992,,,,,,,
1523694860.916244,-0.724850,-0.025200,-1.514882,-0.007229,0.107123,0.041060,-0.662812,0.025197,-0.748360,-0.010253,-0.026814,-0.038261,-15.238144,29.842838,20.203796,,,,,,,
1523694860.946212,-0.722945,-0.027649,-1.516838,-0.094179,-0.013692,0.026198,-0.661342,0.027645,-0.749573,0.040050,-0.028820,-0.030960,-14.489227,29.689548,20.279846,,,,,,,
1523694860.976180,-0.725975,-0.027981,-1.519986,0.029379,-0.140116,-0.023649,-0.663604,0.027978,-0.747558,0.072326,0.005241,0.068374,-14.262756,30.063160,19.903442,,,,,,,
1523694861.006149,-0.729717,-0.026078,-1.521045,0.050041,-0.064641,-0.033310,-0.666431,0.026075,-0.745108,0.039005,-0.013014,0.106039,-14.782318,30.515644,20.051331,,,,,,,
1523694861.036117,-0.724009,-0.025088,-1.523326,-0.015675,0.318854,0.003557,-0.662184,0.025085,-0.748919,-0.036974,-0.038269,-0.103590,-15.462402,30.368107,19.451599,,,,,,,
,,,,,,,,,,,,,,,,25.299802,51.432115,20.982003,14.920000,101.953125,1523694860.997877,
1523694861.066085,-0.715837,-0.028081,-1.526866,-0.191523,0.152461,0.003595,-0.655989,0.028078,-0.754246,-0.077303,-0.055666,-0.206677,-14.861542,30.814793,18.850159,,,,,,,
1523694861.096053,-0.717778,-0.032287,-1.534136,-0.186285,-0.161736,-0.045105,-0.657369,0.032282,-0.752875,-0.057887,0.017904,-0.074487,-15.756561,31.044270,19.298706,,,,,,,
1523694861.126022,-0.723547,-0.033899,-1.538691,-0.046695,-0.203636,-0.028977,-0.661665,0.033893,-0.749030,0.006178,0.014172,0.054313,-15.151047,31.641468,19.221680,,,,,,,
1523694861.155990,-0.728838,-0.032599,-1.539710,0.131720,-0.095155,0.044574,-0.665648,0.032593,-0.745551,0.073271,0.031540,0.150809,-15.749863,32.393116,18.168335,,,,,,,
1523694861.185958,-0.725999,-0.031255,-1.536814,0.102898,0.188385,0.081552,-0.663557,0.031250,-0.747470,0.046446,-0.015213,0.029208,-16.727081,32.397129,17.792847,,,,,,,
1523694861.215926,-0.719874,-0.030356,-1.535588,0.068084,0.181626,-0.003706,-0.658985,0.030352,-0.751541,0.025059,-0.030489,-0.082276,-16.125900,32.694126,17.491943,,,,,,,
1523694861.245895,-0.717788,-0.028384,-1.538725,-0.008134,-0.015171,-0.096273,-0.657454,0.028380,-0.752958,-0.005571,-0.007933,-0.082308,-16.348511,33.069904,17.265381,,,,,,,
1523694861.275863,-0.720411,-0.028202,-1.544279,-0.124705,-0.074302,-0.109082,-0.659430,0.028199,-0.751234,0.000113,0.019516,0.042113,-18.063980,33.753071,17.711792,,,,,,,
1523694861.305831,-0.717431,-0.029941,-1.550834,-0.132649,0.162042,-0.018753,-0.657155,0.029936,-0.753158,-0.025279,0.035844,-0.021744,-19.038513,33.982151,17.410339,,,,,,,
1523694861.335800,-0.715719,-0.032430,-1.553214,-0.043024,-0.019246,0.041167,-0.655814,0.032425,-0.754223,0.015311,0.031601,0.038098,-18.882965,34.356754,17.708984,,,,,,,
1523694861.365768,-0.717172,-0.031690,-1.553563,0.150234,-0.031312,0.027465,-0.656924,0.031685,-0.753288,0.049091,0.015083,0.049400,-20.451157,34.364933,18.833130,,,,,,,
1523694861.395736,-0.716324,-0.028215,-1.550723,0.175279,0.071715,0.024188,-0.656354,0.028211,-0.753923,0.048825,-0.037992,-0.003584,-20.597549,34.590809,19.057129,,,,,,,
1523694861.425704,-0.712746,-0.026165,-1.550775,0.038958,0.123213,0.002722,-0.653688,0.026163,-0.756309,0.011263,-0.022928,-0.085244,-20.147583,34.588779,19.057373,,,,,,,
1523694861.455673,-0.711283,-0.028171,-1.554300,-0.175006,-0.006773,-0.025000,-0.652545,0.028167,-0.757223,-0.025159,-0.029174,-0.091456,-20.899170,33.843143,20.034973,,,,,,,
1523694861.485641,-0.712274,-0.031263,-1.561472,-0.140907,-0.055502,-0.056901,-0.653236,0.031258,-0.756506,-0.014626,0.030906,-0.050287,-21.045364,33.544941,21.161072,,,,,,,
1523694861.515609,-0.716058,-0.031235,-1.564818,0.006931,-0.158048,-0.034304,-0.656094,0.031230,-0.754030,0.022869,0.007649,0.077348,-20.216354,33.766499,21.460693,,,,,,,
1523694861.545577,-0.717956,-0.029637,-1.564661,0.101377,0.030387,0.033768,-0.657556,0.029632,-0.752819,0.049066,0.006226,0.088375,-21.113617,33.770985,21.910156,,,,,,,
1523694861.575546,-0.712448,-0.030254,-1.564992,-0.035731,0.222747,0.079285,-0.653388,0.030250,-0.756416,0.003211,-0.043281,-0.087380,-20.445251,33.242756,21.687622,,,,,,,
1523694861.605514,-0.710307,-0.032615,-1.566989,-0.062083,-0.036917,-0.006787,-0.651718,0.032609,-0.757757,0.000900,-0.012986,-0.102396,-20.066528,33.616062,21.686340,,,,,,,
1523694861.635482,-0.714166,-0.032413,-1.571584,-0.020671,-0.167261,-0.073745,-0.654641,0.032408,-0.755241,0.007364,0.003618,-0.013863,-21.187408,33.397144,22.736633,,,,,,,
1523694861.665450,-0.717090,-0.031088,-1.574417,0.008653,-0.026179,-0.048297,-0.656875,0.031083,-0.753355,0.004501,0.011199,0.046095,-20.806290,33.920582,22.884766,,,,,,,
1523694861.695419,-0.715159,-0.031545,-1.577547,-0.075612,0.087132,0.035710,-0.655409,0.031539,-0.754612,-0.008256,-0.003143,-0.023297,-21.336624,33.248188,23.112122,,,,,,,
1523694861.725387,-0.713907,-0.034561,-1.579943,-0.070607,0.006420,0.028330,-0.654399,0.034554,-0.755356,0.009959,-0.001549,-0.035049,-21.485275,33.249088,23.337097,,,,,,,
1523694861.755355,-0.714821,-0.033919,-1.580097,0.079905,-0.057357,-0.021577,-0.655103,0.033913,-0.754774,0.022932,-0.002815,-0.011553,-22.305450,33.328449,24.011353,,,,,,,
1523694861.785323,-0.716391,-0.031147,-1.578990,0.083399,-0.002035,-0.031225,-0.656347,0.031142,-0.753813,0.010137,-0.022002,0.012403,-22.382965,33.028873,24.087524,,,,,,,
1523694861.815292,-0.713010,-0.030949,-1.579349,-0.089028,0.145867,-0.001650,-0.653799,0.030944,-0.756032,-0.037379,-0.004028,-0.109020,-23.212875,32.133289,24.765686,,,,,,,
1523694861.845253,-0.710514,-0.035017,-1.582894,-0.193183,-0.000415,-0.015434,-0.651822,0.035010,-0.757560,-0.028568,0.002313,-0.094201,-22.837418,31.682438,25.592712,,,,,,,
1523694861.875221,-0.713947,-0.035751,-1.585667,0.013618,-0.128080,-0.065241,-0.654402,0.035743,-0.755298,0.028929,0.043740,0.035816,-23.289307,30.860508,26.645752,,,,,,,
1523694861.905189,-0.717731,-0.032253,-1.585370,0.155487,-0.122291,-0.033169,-0.657333,0.032247,-0.752906,0.058105,0.020533,0.108268,-23.957092,31.313969,27.093628,,,,,,,
1523694861.935158,-0.716105,-0.028765,-1.584138,0.107506,0.175087,0.005918,-0.656178,0.028762,-0.754054,0.040242,0.011094,0.033824,-23.587051,31.086857,26.644714,,,,,,,
1523694861.965126,-0.710773,-0.029675,-1.587235,-0.118009,0.123559,0.007939,-0.652130,0.029671,-0.757522,0.008118,-0.033394,-0.069962,-23.293182,29.886509,27.624634,,,,,,,
1523694861.995094,-0.710218,-0.032828,-1.591942,-0.111103,-0.050423,-0.034506,-0.651646,0.032822,-0.757809,-0.005016,0.010528,-0.037082,-23.218170,29.436924,28.376465,,,,,,,
1523694862.025063,-0.713828,-0.032162,-1.596253,0.055081,-0.148498,-0.048138,-0.654392,0.032156,-0.755468,0.035892,0.008630,0.059774,-22.391525,28.834476,29.654297,,,,,,,
1523694862.055031,-0.715782,-0.029417,-1.596320,0.101582,0.046531,0.006039,-0.655921,0.029413,-0.754252,0.044914,0.003729,0.129572,-22.838333,28.612385,30.554932,,,,,,,
,,,,,,,,,,,,,,,,25.299763,51.432289,20.902967,15.380000,102.656250,1523694861.997862,
1523694862.084999,-0.709180,-0.029509,-1.597941,-0.043871,0.285617,0.056840,-0.650926,0.029505,-0.758564,0.004488,-0.016214,-0.030972,-21.278824,26.880680,30.862671,,,,,,,
1523694862.114967,-0.702624,-0.033243,-1.600756,-0.128624,0.157485,0.023874,-0.645864,0.033237,-0.762725,-0.011988,-0.010409,-0.130326,-20.602158,26.503544,31.764526,,,,,,,
1523694862.144936,-0.701774,-0.034523,-1.605519,-0.026786,-0.059118,-0.036567,-0.645187,0.034517,-0.763241,-0.002625,0.001662,-0.077488,-19.715530,24.850086,32.296570,,,,,,,
1523694862.174934,-0.704709,-0.033374,-1.607912,0.031836,-0.084731,-0.040764,-0.647449,0.033368,-0.761374,0.019352,0.011829,0.022833,-18.813599,24.996098,32.371460,,,,,,,
1523694862.204903,-0.704519,-0.032785,-1.611133,-0.032997,0.036220,0.008084,-0.647318,0.032779,-0.761511,0.016657,-0.002964,-0.001367,-16.361328,23.483799,31.103699,,,,,,,
1523694862.234871,-0.703275,-0.035795,-1.614165,-0.131356,0.024650,0.025077,-0.646303,0.035787,-0.762237,0.014986,-0.001333,-0.021423,-16.739014,23.260426,31.029419,,,,,,,
1523694862.264839,-0.703656,-0.037141,-1.615257,0.005243,-0.041259,-0.019507,-0.646562,0.037132,-0.761953,0.027803,0.009361,-0.012461,-15.470657,22.729496,30.807190,,,,,,,
1523694862.294807,-0.706698,-0.034847,-1.614737,0.107502,-0.117883,-0.039597,-0.648930,0.034839,-0.760046,0.051411,-0.006351,0.061575,-13.603256,23.094212,28.931641,,,,,,,
1523694862.324776,-0.707116,-0.031912,-1.613307,0.067588,0.060544,-0.012105,-0.649311,0.031907,-0.759849,0.024052,-0.000275,0.017128,-13.987549,22.570271,28.258545,,,,,,,
1523694862.354744,-0.704298,-0.033363,-1.614544,-0.152354,0.076950,0.000495,-0.647137,0.033357,-0.761640,-0.015354,-0.012361,-0.057956,-12.795120,22.938023,26.382690,,,,,,,
1523694862.384712,-0.703092,-0.037260,-1.618376,-0.162045,0.025106,-0.028228,-0.646129,0.037251,-0.762315,-0.022938,0.028468,-0.067092,-12.122406,23.383869,25.256226,,,,,,,
1523694862.414680,-0.703819,-0.038416,-1.620694,-0.015048,-0.053895,-0.029097,-0.646655,0.038406,-0.761811,-0.018507,0.020081,-0.041549,-12.567184,24.360126,24.502136,,,,,,,
1523694862.444649,-0.704529,-0.036657,-1.619502,0.103531,0.012477,0.012468,-0.647238,0.036649,-0.761403,-0.006281,0.020236,-0.018184,-12.571991,24.509098,23.451477,,,,,,,
1523694862.474617,-0.703191,-0.036257,-1.617867,-0.016119,0.025355,0.036873,-0.646228,0.036249,-0.762279,-0.009961,-0.019129,-0.080785,-11.970856,25.479954,22.022888,,,,,,,
1523694862.504585,-0.703667,-0.038146,-1.618842,-0.069607,-0.049655,-0.006774,-0.646546,0.038136,-0.761918,-0.001785,0.006526,-0.026931,-12.792831,25.783649,22.021301,,,,,,,
1523694862.534554,-0.705260,-0.038129,-1.620041,0.005351,-0.036877,-0.037630,-0.647759,0.038119,-0.760887,0.012474,0.007703,-0.024391,-13.080566,27.284489,21.565125,,,,,,,
1523694862.564522,-0.706443,-0.035842,-1.620026,0.091950,-0.030585,-0.055689,-0.648713,0.035834,-0.760185,0.017549,0.008081,0.013634,-13.080719,27.808598,20.663025,,,,,,,
1523694862.594490,-0.706913,-0.033637,-1.619847,-0.001059,-0.019961,-0.022736,-0.649120,0.033631,-0.759938,0.021496,-0.002259,0.010152,-13.907944,27.811939,20.287598,,,,,,,
1523694862.624458,-0.706674,-0.037027,-1.623931,-0.184807,0.049009,0.056970,-0.648861,0.037019,-0.760002,0.011043,-0.008958,0.015511,-14.569000,29.164982,20.356873,,,,,,,
1523694862.654427,-0.704782,-0.040593,-1.626779,-0.025505,0.022490,-0.006812,-0.647332,0.040582,-0.761123,0.015145,-0.006021,-0.002518,-14.643860,29.315098,20.131226,,,,,,,
1523694862.684395,-0.705498,-0.036552,-1.627812,0.204084,-0.027678,-0.056667,-0.647978,0.036544,-0.760778,0.044859,-0.020339,0.042638,-17.559448,29.853886,20.802612,,,,,,,
1523694862.714363,-0.702045,-0.033060,-1.626586,0.045715,0.220824,0.020747,-0.645426,0.033054,-0.763104,-0.030737,0.020657,-0.096378,-17.342529,29.177692,20.580444,,,,,,,
1523694862.744331,-0.696833,-0.035949,-1.629237,-0.205729,0.066494,-0.006981,-0.641376,0.035941,-0.766381,-0.027737,-0.027824,-0.151756,-15.996307,28.347385,21.334412,,,,,,,
1523694862.774300,-0.698976,-0.040993,-1.633806,-0.215237,-0.109018,0.024079,-0.642892,0.040982,-0.764856,0.039407,0.007556,-0.006629,-16.670212,28.275715,21.634338,,,,,,,
1523694862.804268,-0.701477,-0.045511,-1.634837,-0.059569,-0.092833,0.082798,-0.644677,0.045496,-0.763096,0.022195,0.019904,0.030247,-15.549469,28.344852,20.809631,,,,,,,
1523694862.834236,-0.704028,-0.043863,-1.631777,0.204751,-0.025044,0.022179,-0.646669,0.043849,-0.761506,0.071473,-0.012676,0.082398,-14.359146,28.188145,19.460876,,,,,,,
1523694862.864196,-0.700769,-0.039197,-1.627736,0.160857,0.160121,-0.000419,-0.644309,0.039187,-0.763757,0.056632,-0.068148,-0.074164,-15.267227,28.415501,17.734558,,,,,,,
1523694862.894165,-0.697554,-0.038904,-1.628328,-0.108590,0.001836,-0.062263,-0.641857,0.038894,-0.765833,0.017925,0.025315,-0.038900,-14.969360,28.788181,16.758179,,,,,,,
1523694862.924133,-0.700221,-0.040163,-1.633259,-0.140761,-0.070083,-0.098446,-0.643865,0.040152,-0.764081,0.045385,0.023996,0.049985,-14.970139,29.387058,15.630737,,,,,,,
1523694862.954101,-0.698774,-0.042832,-1.637208,-0.166009,0.132212,0.004690,-0.642688,0.042819,-0.764927,-0.034772,0.018171,-0.019268,-18.345642,30.600147,13.524231,,,,,,,
1523694862.984069,-0.694464,-0.046754,-1.638667,-0.084445,0.041351,0.051731,-0.639272,0.046737,-0.767555,-0.019526,0.002182,-0.111076,-19.846497,30.831379,12.997559,,,,,,,
1523694863.014038,-0.699409,-0.046746,-1.638100,0.092887,-0.251905,-0.014968,-0.643060,0.046729,-0.764385,0.078638,-0.001258,0.104152,-23.129761,32.421284,13.139587,,,,,,,
1523694863.044006,-0.701405,-0.043425,-1.635136,0.151132,0.159987,0.021951,-0.644682,0.043412,-0.763214,0.023664,0.008636,0.057083,-24.009933,33.776295,14.183716,,,,,,,
,,,,,,,,,,,,,,,,25.299732,51.432456,21.147194,15.550000,103.359375,1523694862.997849,
1523694863.073974,-0.691998,-0.040849,-1.632577,0.100548,0.250742,-0.023984,-0.637543,0.040837,-0.769328,0.022446,0.002711,-0.181645,-25.549347,36.035389,16.348877,,,,,,,
1523694863.103942,-0.694682,-0.038532,-1.633561,-0.042208,-0.213923,-0.079043,-0.639664,0.038523,-0.767685,0.049256,0.000952,0.050125,-25.991211,36.038731,17.698669,,,,,,,
1523694863.133911,-0.694252,-0.042932,-1.637363,-0.271603,0.189633,0.035459,-0.639219,0.042919,-0.767822,-0.045122,0.013844,-0.061127,-27.083862,36.348515,22.571899,,,,,,,
1523694863.163879,-0.689861,-0.048458,-1.640971,-0.128060,0.014189,-0.000478,-0.635681,0.048440,-0.770427,-0.041122,0.012748,-0.167500,-27.602982,35.902576,24.298401,,,,,,,
1523694863.193847,-0.697974,-0.046108,-1.640804,0.173730,-0.365536,-0.054213,-0.641982,0.046092,-0.765330,0.104766,-0.018580,0.114756,-27.591370,35.080830,27.601685,,,,,,,
1523694863.223816,-0.702510,-0.041849,-1.637687,0.138954,0.064410,0.019897,-0.645568,0.041837,-0.762552,0.030852,0.018511,0.167170,-26.623718,33.577763,28.883240,,,,,,,
1523694863.253784,-0.694704,-0.040038,-1.635551,0.055729,0.296337,0.007890,-0.639643,0.040028,-0.767626,0.085505,-0.036854,-0.093687,-23.334717,31.165150,31.069519,,,,,,,
1523694863.283752,-0.691456,-0.040453,-1.636461,-0.097121,-0.020763,-0.027062,-0.637136,0.040442,-0.769686,0.025808,0.031137,-0.004087,-23.338745,30.041370,32.273987,,,,,,,
1523694863.313720,-0.691696,-0.043093,-1.639857,-0.119372,-0.014121,-0.055861,-0.637250,0.043079,-0.769449,-0.011798,0.019360,-0.040427,-21.621124,28.984165,32.804077,,,,,,,
1523694863.343689,-0.691588,-0.041159,-1.641359,0.104049,0.017378,-0.081298,-0.637219,0.041148,-0.769580,0.016278,0.037023,-0.004376,-18.273849,27.017765,31.463623,,,,,,,
1523694863.373657,-0.691463,-0.038257,-1.640900,0.019311,0.001225,-0.020611,-0.637196,0.038247,-0.769748,0.015050,-0.006204,0.005710,-16.937958,25.961155,30.868530,,,,,,,
1523694863.403625,-0.690148,-0.039756,-1.641883,-0.073249,0.108547,0.011185,-0.636146,0.039745,-0.770540,0.010963,-0.000362,-0.009169,-13.880066,25.645069,28.546326,,,,,,,
1523694863.433593,-0.686189,-0.040361,-1.642013,0.020660,0.093479,0.005938,-0.633076,0.040350,-0.773034,-0.012905,-0.004004,-0.109321,-12.834930,26.013935,27.120361,,,,,,,
1523694863.463562,-0.685410,-0.040485,-1.641448,-0.012960,-0.007488,0.019871,-0.632470,0.040474,-0.773523,-0.013236,-0.024193,-0.113638,-11.945084,26.981632,23.816895,,,,,,,
1523694863.493530,-0.687140,-0.041156,-1.641947,-0.030272,-0.092229,-0.010963,-0.633790,0.041144,-0.772406,-0.005035,-0.016562,-0.066232,-11.952454,27.279942,22.090698,,,,,,,
1523694863.523498,-0.690119,-0.042219,-1.642862,-0.048599,-0.119902,0.000779,-0.636060,0.042207,-0.770481,0.041883,-0.006196,-0.013913,-11.875122,29.002110,19.608887,,,,,,,
1523694863.553466,-0.694438,-0.041440,-1.643287,0.061411,-0.170814,-0.051301,-0.639402,0.041428,-0.767752,0.078169,0.029602,0.103842,-13.743484,29.984989,19.078979,,,,,,,
1523694863.583435,-0.698710,-0.037264,-1.643014,0.137808,-0.084629,-0.092896,-0.642782,0.037255,-0.765139,0.109670,0.032142,0.170702,-16.888901,31.572269,17.196106,,,,,,,
1523694863.613403,-0.695756,-0.033170,-1.642224,0.082696,0.310379,-0.033662,-0.640611,0.033164,-0.767145,0.052675,0.003106,0.123880,-17.570023,31.274799,16.671875,,,,,,,
1523694863.643371,-0.676838,-0.035459,-1.642518,-0.181800,0.736372,0.075465,-0.625935,0.035451,-0.779065,-0.141719,-0.025289,-0.443866,-19.584885,31.884541,17.343506,,,,,,,
1523694863.673339,-0.667872,-0.042941,-1.647473,-0.348222,-0.058416,-0.022953,-0.618744,0.042928,-0.784416,-0.096024,-0.007329,-0.339013,-24.658554,32.810215,20.187256,,,,,,,
1523694863.703308,-0.681554,-0.048635,-1.654558,-0.216942,-0.614049,-0.085163,-0.629254,0.048616,-0.775674,-0.006732,0.035094,0.058358,-25.615524,33.491398,22.059021,,,,,,,
1523694863.733276,-0.698301,-0.048479,-1.656171,0.115565,-0.422028,-0.007324,-0.642160,0.048460,-0.765034,0.110757,0.046038,0.255268,-27.633606,31.704609,26.190186,,,,,,,
1523694863.763244,-0.704332,-0.042340,-1.649587,0.375196,-0.054508,0.071354,-0.646943,0.042327,-0.761359,0.159775,-0.023544,0.255256,-27.406326,30.805470,28.068909,,,,,,,
1523694863.793212,-0.696807,-0.038553,-1.641214,0.147561,0.477794,0.162278,-0.641294,0.038544,-0.766323,0.063779,-0.047516,0.036587,-25.389862,28.099476,31.155762,,,,,,,
1523694863.823181,-0.675183,-0.043073,-1.639218,-0.180877,0.737192,0.107444,-0.624458,0.043060,-0.779867,-0.107292,-0.053558,-0.447459,-24.939682,26.899479,33.185730,,,,,,,
1523694863.853153,-0.668906,-0.048002,-1.644558,-0.266176,-0.234170,-0.143120,-0.619412,0.047983,-0.783595,-0.086444,-0.023661,-0.378911,-21.509827,23.885715,34.849548,,,,,,,
1523694863.883121,-0.686376,-0.050986,-1.654116,-0.262465,-0.667308,-0.203409,-0.632912,0.050964,-0.772540,-0.037208,0.005646,0.030734,-18.671326,22.373539,35.456970,,,,,,,
1523694863.913090,-0.704138,-0.052141,-1.660246,-0.044523,-0.465932,-0.055340,-0.646495,0.052118,-0.761132,0.076961,0.005606,0.289131,-14.566406,20.405003,35.391968,,,,,,,
1523694863.943058,-0.707629,-0.050539,-1.656635,0.201756,0.142126,0.126429,-0.649202,0.050517,-0.758933,0.104189,-0.004725,0.297415,-12.848663,19.946827,34.944641,,,,,,,
1523694863.973026,-0.693244,-0.049290,-1.648431,0.184481,0.646448,0.190911,-0.638258,0.049270,-0.768241,0.026182,-0.054428,0.012778,-10.607773,19.935246,33.445801,,,,,,,
1523694864.002994,-0.674419,-0.048941,-1.642711,0.088168,0.464728,0.075943,-0.623694,0.048922,-0.780132,-0.008477,-0.072207,-0.323582,-8.461227,19.246998,29.849548,,,,,,,
1523694864.032963,-0.672569,-0.049262,-1.644159,-0.146630,-0.184894,-0.091927,-0.622240,0.049242,-0.781273,-0.002440,0.010252,-0.166115,-7.195007,19.539341,27.899109,,,,,,,
1523694864.062931,-0.684290,-0.050584,-1.651904,-0.178076,-0.437850,-0.221705,-0.631312,0.050563,-0.773875,0.076381,0.060003,0.109217,-5.258041,20.127476,24.747681,,,,,,,
,,,,,,,,,,,,,,,,25.299708,51.432561,21.051274,14.880000,103.710938,1523694863.997834,
1523694864.092899,-0.693675,-0.048506,-1.658988,-0.036112,-0.174911,-0.189889,-0.638614,0.048487,-0.767995,0.083148,0.069295,0.254033,-6.452316,21.556416,23.316406,,,,,,,
1523694864.122867,-0.691722,-0.046260,-1.660368,0.065325,0.269863,-0.010181,-0.637180,0.046244,-0.769322,0.030384,0.054266,0.119161,-6.310654,22.977024,19.560791,,,,,,,
1523694864.152836,-0.679673,-0.045629,-1.656887,0.080213,0.419732,0.130328,-0.627882,0.045613,-0.776967,-0.013353,-0.012715,-0.140712,-6.009827,24.098942,17.831360,,,,,,,
1523694864.182804,-0.672192,-0.048009,-1.653315,-0.032547,0.037471,0.130631,-0.621983,0.047991,-0.781555,-0.014476,-0.051073,-0.231781,-6.973434,26.276539,16.097229,,,,,,,
1523694864.212772,-0.679365,-0.050015,-1.652424,-0.001694,-0.366583,0.006389,-0.627512,0.049994,-0.776997,0.026651,-0.044791,-0.043590,-7.488129,27.852955,15.190613,,,,,,,
1523694864.242740,-0.690237,-0.047343,-1.651829,0.129178,-0.297440,-0.051118,-0.636005,0.047325,-0.770229,0.064502,-0.033714,0.106548,-8.521667,31.079960,12.552185,,,,,,,
1523694864.272709,-0.691788,-0.045066,-1.650176,0.027086,0.135722,0.040002,-0.637266,0.045050,-0.769322,0.016966,-0.021826,0.054311,-8.963745,32.281269,11.872192,,,,,,,
1523694864.302677,-0.686031,-0.047707,-1.649932,-0.094665,0.146554,0.054813,-0.632749,0.047689,-0.772884,-0.002093,-0.032354,-0.094212,-9.779160,33.784031,10.965820,,,,,,,
1523694864.332645,-0.686179,-0.048722,-1.650319,0.021087,-0.075362,-0.013056,-0.632832,0.048703,-0.772752,0.025791,-0.020062,-0.024733,-12.532822,36.645222,9.752991,,,,,,,
1523694864.362613,-0.687990,-0.046678,-1.649522,0.079979,-0.044608,-0.022647,-0.634292,0.046661,-0.771681,0.032501,-0.039017,-0.014879,-14.392776,38.378208,9.370117,,,,,,,
1523694864.392582,-0.688502,-0.045312,-1.649256,-0.002177,-0.031699,-0.018445,-0.634727,0.045296,-0.771404,0.020362,-0.040185,-0.017490,-17.004944,39.664951,9.363647,,,,,,,
1523694864.422550,-0.688324,-0.046649,-1.650903,-0.125854,0.032233,0.001637,-0.634551,0.046632,-0.771470,-0.025941,-0.029939,-0.035461,-19.012650,40.725101,10.483398,,,,,,,
1523694864.452518,-0.686798,-0.049378,-1.652860,-0.079910,0.062816,0.019747,-0.633290,0.049358,-0.772336,-0.030529,-0.024914,-0.072192,-22.593552,40.519749,14.007385,,,,,,,
1523694864.482487,-0.686403,-0.049528,-1.652179,0.061585,-0.039609,0.028481,-0.632980,0.049508,-0.772580,0.008850,-0.042733,-0.068820,-23.630753,40.900913,15.505371,,,,,,,
1523694864.512455,-0.687867,-0.047941,-1.649560,0.097816,-0.036624,0.044488,-0.634160,0.047923,-0.771712,0.040608,-0.038569,-0.048723,-23.551651,39.778111,18.059937,,,,,,,
1523694864.542423,-0.688123,-0.047172,-1.647476,0.035015,-0.012979,0.028435,-0.634380,0.047155,-0.771578,0.057292,-0.028295,-0.061948,-23.022461,39.252308,19.637268,,,,,,,
1523694864.572391,-0.689009,-0.046536,-1.647177,0.015926,-0.047631,-0.024815,-0.635082,0.046519,-0.771039,0.055233,-0.008433,-0.018893,-20.103226,37.815601,21.069519,,,,,,,
1523694864.602360,-0.689937,-0.045212,-1.647769,0.011913,-0.012407,-0.045103,-0.635837,0.045197,-0.770496,0.032428,-0.005661,0.004291,-19.731232,37.064686,21.822693,,,,,,,
1523694864.632328,-0.688363,-0.044901,-1.648943,-0.046626,0.050299,-0.026030,-0.634632,0.044886,-0.771507,-0.019543,-0.019114,-0.026101,-17.956314,35.405277,20.405212,,,,,,,
1523694864.662296,-0.686475,-0.046512,-1.650832,-0.102263,0.046027,-0.004748,-0.633128,0.046495,-0.772647,-0.035467,-0.037248,-0.060117,-16.237671,35.396488,19.356079,,,,,,,
1523694864.692264,-0.687837,-0.048487,-1.652073,-0.040080,-0.105179,0.018888,-0.634119,0.048468,-0.771711,0.004526,-0.037421,-0.004854,-16.023361,34.869633,18.458374,,,,,,,
1523694864.722233,-0.690268,-0.047965,-1.650192,0.117995,-0.056912,0.049860,-0.636009,0.047947,-0.770187,0.039208,-0.019306,0.019439,-16.862289,35.095707,15.757019,,,,,,,
1523694864.752201,-0.690489,-0.044884,-1.645960,0.170596,0.000376,0.044513,-0.636271,0.044869,-0.770156,0.058985,-0.044457,-0.017213,-17.248413,35.469959,13.280273,,,,,,,
1523694864.782169,-0.689533,-0.042918,-1.643195,0.034199,0.041223,0.027316,-0.635590,0.042905,-0.770830,0.037796,-0.035123,-0.066755,-18.230026,36.296909,10.801514,,,,,,,
1523694864.812137,-0.686897,-0.044827,-1.644020,-0.123538,0.088448,0.015434,-0.633502,0.044812,-0.772438,0.009799,-0.027829,-0.116828,-19.053223,36.974781,9.973389,,,,,,,
1523694864.842106,-0.686325,-0.046952,-1.646371,-0.087614,-0.046289,-0.028089,-0.632998,0.046935,-0.772725,-0.013166,0.009935,-0.085582,-19.867111,38.627537,9.066406,,,,,,,
1523694864.872072,-0.690157,-0.046144,-1.647893,0.033637,-0.180283,-0.055570,-0.635978,0.046128,-0.770323,0.015022,-0.013551,0.026030,-21.956116,39.911625,8.760132,,,,,,,
1523694864.902040,-0.693242,-0.044819,-1.647325,0.027417,-0.044818,0.025267,-0.638391,0.044804,-0.768403,0.015069,-0.036686,0.028276,-23.446793,40.893253,8.680542,,,,,,,
1523694864.932008,-0.692300,-0.046159,-1.646437,-0.023796,0.021894,0.076308,-0.637628,0.046143,-0.768958,0.037164,-0.048416,-0.033075,-23.505142,42.019413,9.575989,,,,,,,
1523694864.961977,-0.694871,-0.046906,-1.647096,0.056778,-0.167083,0.023286,-0.639580,0.046888,-0.767289,0.067330,-0.034849,0.029679,-24.988876,42.702671,11.147522,,,,,,,
1523694864.991945,-0.698537,-0.044040,-1.645876,0.137517,-0.052317,-0.005542,-0.642473,0.044026,-0.765039,0.054369,-0.029622,0.029428,-25.503967,43.380512,11.669556,,,,,,,
1523694865.021944,-0.695991,-0.042237,-1.645350,0.008054,0.145530,0.012273,-0.640573,0.042225,-0.766732,0.015817,-0.045520,-0.061439,-24.902206,43.602726,11.593933,,,,,,,
1523694865.051912,-0.692182,-0.044577,-1.648596,-0.160855,0.091797,0.006872,-0.637583,0.044562,-0.769088,-0.019018,-0.037619,-0.117203,-25.944504,43.608692,12.868347,,,,,,,
,,,,,,,,,,,,,,,,25.299668,51.432715,20.678442,15.290000,104.414062,1523694864.997820,
1523694865.081880,-0.691199,-0.049039,-1.652033,-0.179512,-0.022954,0.009121,-0.636693,0.049019,-0.769554,-0.031779,-0.028267,-0.098473,-26.386078,43.911579,13.766968,,,,,,,
1523694865.111849,-0.693784,-0.049866,-1.652930,0.059296,-0.113750,-0.005541,-0.638654,0.049845,-0.767874,0.006452,-0.007746,-0.010355,-26.678848,44.363331,14.215027,,,,,,,
1523694865.141817,-0.696415,-0.046671,-1.650312,0.150223,-0.056721,0.011523,-0.640771,0.046654,-0.766309,0.058511,-0.036217,0.046170,-28.626389,44.297626,14.739258,,,,,,,
1523694865.171785,-0.694158,-0.045385,-1.647939,0.019702,0.160136,0.045306,-0.639078,0.045369,-0.767799,0.028666,-0.049382,-0.073998,-29.831421,43.703205,14.891052,,,,,,,
1523694865.201753,-0.690337,-0.046788,-1.648217,-0.064006,0.011900,-0.000425,-0.636098,0.046771,-0.770185,0.024846,-0.034213,-0.092714,-30.281708,43.630299,14.966187,,,,,,,
1523694865.231722,-0.694601,-0.047081,-1.649968,-0.027293,-0.190822,-0.048136,-0.639368,0.047064,-0.767456,0.041849,0.003657,0.060729,-32.674332,42.743763,17.668518,,,,,,,
1523694865.261690,-0.697013,-0.046165,-1.650522,0.019261,0.000078,-0.009947,-0.641244,0.046149,-0.765944,0.023950,-0.029761,0.058135,-33.431183,41.697788,18.272278,,,,,,,
1523694865.291658,-0.694250,-0.046127,-1.649700,-0.000701,0.137850,0.048510,-0.639127,0.046111,-0.767714,-0.008289,-0.056990,-0.013215,-34.862808,40.130726,19.777832,,,,,,,
1523694865.321626,-0.687789,-0.048741,-1.649012,-0.086965,0.221782,0.080331,-0.634075,0.048721,-0.771732,-0.037709,-0.074249,-0.170911,-34.792740,39.006458,20.832397,,,,,,,
1523694865.351595,-0.686318,-0.051096,-1.649306,-0.025026,-0.099790,0.002910,-0.632864,0.051074,-0.772573,-0.005930,-0.049197,-0.119975,-35.251221,37.659367,21.662537,,,,,,,
1523694865.381563,-0.692592,-0.048531,-1.648916,0.126340,-0.225148,-0.056512,-0.637780,0.048512,-0.768685,0.064309,-0.010212,0.046746,-34.132202,35.931202,23.545044,,,,,,,
1523694865.411531,-0.695069,-0.044979,-1.647297,0.086673,0.032800,-0.005650,-0.639789,0.044964,-0.767230,0.056674,-0.033215,0.066440,-34.891296,34.660221,24.149719,,,,,,,
1523694865.441499,-0.689196,-0.045203,-1.646732,-0.059958,0.229550,0.024929,-0.635265,0.045188,-0.770967,-0.003925,-0.031531,-0.093779,-33.186996,31.953617,25.211426,,,,,,,
1523694865.471468,-0.686739,-0.047657,-1.649356,-0.107961,-0.045316,-0.011039,-0.633297,0.047639,-0.772437,-0.008244,-0.033814,-0.117593,-31.020752,30.894169,25.516724,,,,,,,
1523694865.501436,-0.690895,-0.048635,-1.654608,-0.027231,-0.154815,-0.030063,-0.636472,0.048615,-0.769762,0.002240,-0.013154,0.006380,-29.452072,29.313694,27.098877,,,,,,,
1523694865.531404,-0.693933,-0.047246,-1.655642,0.086081,-0.080989,0.008311,-0.638850,0.047228,-0.767876,0.039515,-0.049944,0.056084,-28.038071,28.706516,26.276978,,,,,,,
1523694865.561372,-0.693725,-0.046290,-1.656200,0.047899,0.058875,0.079529,-0.638719,0.046273,-0.768043,0.048814,-0.071542,0.036827,-24.901993,28.165989,24.855713,,,,,,,
1523694865.591341,-0.689519,-0.048323,-1.655656,-0.049966,0.154656,0.093212,-0.635421,0.048304,-0.770649,0.014389,-0.077524,-0.078793,-23.481415,28.083988,24.256714,,,,,,,
1523694865.621309,-0.686900,-0.050375,-1.655746,-0.046841,0.037277,0.009165,-0.633336,0.050354,-0.772232,-0.001261,-0.048355,-0.097168,-21.525681,29.199284,23.353271,,,,,,,
1523694865.651277,-0.687452,-0.049391,-1.656492,0.023544,-0.051698,-0.054635,-0.633794,0.049371,-0.771920,0.005559,-0.032526,-0.067985,-22.118622,29.951878,23.274963,,,,,,,
1523694865.681246,-0.689078,-0.047624,-1.656980,0.018127,-0.034893,-0.024820,-0.635102,0.047606,-0.770955,0.006898,-0.020247,0.003575,-22.711273,30.779392,23.121338,,,,,,,
1523694865.711214,-0.687435,-0.047762,-1.656959,-0.024340,0.067952,0.020874,-0.633831,0.047744,-0.771992,0.001660,-0.026152,-0.066158,-22.635513,30.854038,23.121094,,,,,,,
1523694865.741182,-0.686537,-0.049402,-1.657081,-0.051390,-0.002163,0.028381,-0.633087,0.049382,-0.772500,0.000686,-0.035359,-0.060340,-21.941238,32.201893,24.091064,,,,,,,
1523694865.771150,-0.688733,-0.049081,-1.658175,0.071152,-0.107354,-0.016174,-0.634792,0.049062,-0.771119,0.023723,-0.017308,0.001252,-22.904480,32.657429,25.288696,,,,,,,
1523694865.801119,-0.690959,-0.045795,-1.657620,0.149266,-0.065042,-0.015101,-0.636606,0.045779,-0.769824,0.055537,-0.056308,0.028125,-22.904022,32.657505,25.363708,,,,,,,
1523694865.831087,-0.690109,-0.042994,-1.658241,0.071816,0.077330,0.014535,-0.636030,0.042981,-0.770461,0.006026,-0.063214,-0.043946,-23.356537,31.910374,26.191528,,,,,,,
1523694865.861047,-0.686764,-0.044554,-1.659895,-0.152368,0.106423,0.035655,-0.633407,0.044540,-0.772531,-0.046754,-0.074172,-0.173483,-22.156128,31.680408,26.643005,,,,,,,
1523694865.891015,-0.687096,-0.050054,-1.666619,-0.233365,-0.130157,0.009199,-0.633498,0.050033,-0.772120,-0.046708,-0.050796,-0.132909,-21.402557,31.677616,27.243408,,,,,,,
1523694865.920984,-0.694125,-0.053710,-1.670804,-0.076042,-0.266619,0.020093,-0.638788,0.053684,-0.767503,0.034036,-0.034534,0.093049,-22.820297,31.909824,28.066772,,,,,,,
1523694865.950952,-0.700420,-0.053815,-1.671561,0.103574,-0.121005,0.101070,-0.643604,0.053789,-0.763461,0.059360,-0.072603,0.156635,-21.474045,30.630268,29.572571,,,,,,,
1523694865.980920,-0.697058,-0.053127,-1.667332,0.159396,0.211282,0.125284,-0.641057,0.053102,-0.765649,0.062123,-0.093920,0.001870,-19.759918,29.722263,29.277039,,,,,,,
1523694866.010888,-0.691623,-0.051264,-1.665080,0.136936,0.134188,0.065674,-0.636948,0.051241,-0.769197,0.060624,-0.100710,-0.050322,-19.917801,28.523655,29.956787,,,,,,,
1523694866.040857,-0.688691,-0.050177,-1.664845,-0.004794,0.119058,0.000586,-0.634725,0.050156,-0.771104,-0.030574,-0.066132,-0.108535,-20.443527,28.001774,30.708618,,,,,,,
,,,,,,,,,,,,,,,,25.299634,51.432850,20.678442,14.640000,104.062500,1523694865.997804,
1523694866.070825,-0.683283,-0.051767,-1.668803,-0.141981,0.180303,-0.048584,-0.630494,0.051744,-0.774463,-0.071975,-0.057497,-0.192868,-18.887466,26.868504,29.438904,,,,,,,
1523694866.100793,-0.682454,-0.054829,-1.676760,-0.193363,-0.092600,-0.055814,-0.629749,0.054802,-0.774858,-0.033184,-0.036430,-0.113371,-18.363388,26.416737,30.041016,,,,,,,
1523694866.130761,-0.688820,-0.057239,-1.681537,-0.055479,-0.241002,-0.006538,-0.634583,0.057208,-0.770729,0.027207,-0.007693,0.081963,-18.366669,26.041828,30.117493,,,,,,,
1523694866.160730,-0.694167,-0.055776,-1.682508,0.192651,-0.093190,0.040386,-0.638748,0.055747,-0.767388,0.080673,0.006372,0.148110,-17.095612,25.735966,29.969360,,,,,,,
1523694866.190698,-0.690939,-0.050459,-1.677808,0.267555,0.188197,0.044412,-0.636448,0.050437,-0.769664,0.081897,-0.043815,0.011592,-17.094589,26.110508,29.517822,,,,,,,
1523694866.220666,-0.685870,-0.047441,-1.677152,0.064569,0.128331,0.016615,-0.632631,0.047423,-0.772995,0.033922,-0.073515,-0.096039,-16.807495,25.582951,28.245117,,,,,,,
1523694866.250634,-0.684603,-0.048228,-1.678954,-0.096165,-0.060054,-0.034460,-0.631627,0.048210,-0.773766,-0.023295,-0.067558,-0.157951,-15.383316,25.726154,27.870239,,,,,,,
1523694866.280603,-0.690397,-0.049818,-1.682042,-0.106382,-0.206592,-0.044978,-0.636050,0.049797,-0.770034,-0.006833,-0.042885,-0.012300,-16.131912,25.505131,28.470764,,,,,,,
1523694866.310571,-0.694637,-0.051335,-1.684059,-0.054981,-0.105122,0.013563,-0.639261,0.051312,-0.767271,-0.010352,-0.041226,0.066343,-15.905869,25.878666,28.019348,,,,,,,
1523694866.340539,-0.693870,-0.052745,-1.682579,0.021361,0.126685,0.113557,-0.638625,0.052721,-0.767705,-0.019471,-0.070284,-0.029537,-14.256729,26.245487,27.268677,,,,,,,
1523694866.370508,-0.688262,-0.054024,-1.678570,0.055564,0.158361,0.131656,-0.634267,0.053998,-0.771221,-0.029979,-0.084347,-0.172581,-15.006088,26.174091,27.493652,,,,,,,
1523694866.400476,-0.688829,-0.053955,-1.675003,0.099340,-0.168490,0.054236,-0.634706,0.053929,-0.770864,0.030870,-0.078420,-0.092310,-14.632309,26.321949,27.043213,,,,,,,
1523694866.430444,-0.695532,-0.051032,-1.675000,0.120956,-0.220976,-0.043732,-0.639957,0.051009,-0.766710,0.067402,-0.048126,0.022112,-13.654510,26.692402,26.892212,,,,,,,
1523694866.460412,-0.701099,-0.046858,-1.675543,0.106423,-0.150695,-0.060856,-0.644347,0.046840,-0.763292,0.056136,-0.053249,0.098848,-14.701935,26.997044,26.815430,,,,,,,
1523694866.490381,-0.699439,-0.045221,-1.678210,-0.007735,0.172188,-0.000523,-0.643128,0.045205,-0.764418,-0.007721,-0.047753,-0.003969,-14.333542,26.694782,26.216858,,,,,,,
1523694866.520349,-0.692618,-0.047447,-1.679947,-0.107212,0.203910,0.059029,-0.637833,0.047429,-0.768708,-0.063949,-0.074865,-0.158676,-13.137207,26.688801,25.617493,,,,,,,
1523694866.550317,-0.691538,-0.050086,-1.683298,-0.042192,-0.096735,0.025285,-0.636920,0.050065,-0.769297,-0.045606,-0.062196,-0.132131,-13.663971,26.690876,25.317200,,,,,,,
1523694866.580285,-0.697192,-0.049181,-1.682133,0.099474,-0.178880,0.020152,-0.641289,0.049161,-0.765718,0.012886,-0.073636,-0.014129,-13.291702,26.688740,24.867432,,,,,,,
1523694866.610254,-0.699706,-0.047426,-1.678929,0.100936,-0.039984,0.063697,-0.643266,0.047408,-0.764168,0.019532,-0.081038,-0.003334,-12.478455,26.683140,22.917847,,,,,,,
1523694866.640222,-0.698216,-0.047411,-1.676206,0.019226,0.072840,0.065656,-0.642127,0.047393,-0.765126,0.009483,-0.062972,-0.094997,-12.413361,26.231953,22.019653,,,,,,,
1523694866.670190,-0.699072,-0.047988,-1.675488,0.005976,-0.099892,0.001894,-0.642764,0.047970,-0.764555,0.021594,-0.062862,-0.067705,-12.806366,26.230717,19.019470,,,,,,,
1523694866.700158,-0.702034,-0.046538,-1.675514,0.053178,-0.094402,-0.038576,-0.645070,0.046521,-0.762700,0.006352,-0.041455,-0.005839,-12.591888,26.078251,17.520203,,,,,,,
1523694866.730127,-0.702439,-0.044439,-1.674897,0.045033,0.032905,-0.005682,-0.645440,0.044425,-0.762512,-0.023459,-0.083350,-0.046921,-15.619812,25.488209,13.846069,,,,,,,
1523694866.760095,-0.700128,-0.045300,-1.674506,-0.058633,0.077367,0.053872,-0.643652,0.045284,-0.763972,-0.060511,-0.087978,-0.149084,-17.581619,25.120686,12.496582,,,,,,,
1523694866.790063,-0.699212,-0.048463,-1.674784,-0.093374,-0.051114,0.052909,-0.642856,0.048444,-0.764448,-0.063977,-0.091032,-0.176653,-19.682724,25.504307,11.668945,,,,,,,
1523694866.820031,-0.706885,-0.049612,-1.674865,0.037802,-0.377332,0.005390,-0.648667,0.049592,-0.759449,0.041535,-0.061417,0.046513,-25.447281,25.606815,13.240662,,,,,,,
1523694866.850010,-0.718897,-0.046214,-1.671322,0.236400,-0.342982,0.035348,-0.657849,0.046198,-0.751725,0.088604,-0.063440,0.209123,-27.761078,25.918583,14.588257,,,,,,,
1523694866.879978,-0.721545,-0.041964,-1.664782,0.233605,0.047689,0.089291,-0.659961,0.041952,-0.750121,0.087588,-0.083624,0.142135,-30.432007,26.759037,18.033569,,,,,,,
1523694866.909946,-0.716448,-0.040357,-1.659328,0.109329,0.210488,0.103941,-0.656172,0.040346,-0.753525,0.077666,-0.086748,0.035431,-30.263092,26.986057,20.807739,,,,,,,
1523694866.939914,-0.710519,-0.041305,-1.656082,-0.001782,0.201180,0.108124,-0.651668,0.041293,-0.757373,0.015803,-0.113299,-0.003735,-28.272644,28.331593,25.303345,,,,,,,
1523694866.969883,-0.702928,-0.045658,-1.654880,-0.128714,0.257623,0.134615,-0.645778,0.045642,-0.762154,-0.052632,-0.123812,-0.111076,-26.307571,28.624775,27.328186,,,,,,,
1523694866.999851,-0.697974,-0.051944,-1.653990,-0.142709,0.041636,0.177453,-0.641797,0.051920,-0.765109,-0.027316,-0.185160,-0.094556,-23.529221,28.238483,28.531128,,,,,,,
1523694867.029819,-0.700978,-0.057878,-1.651637,-0.050724,-0.135104,0.195805,-0.643882,0.057846,-0.762928,0.012504,-0.191696,0.090519,-21.208374,27.778111,28.609131,,,,,,,
1523694867.059788,-0.699569,-0.060470,-1.646530,0.077708,0.165336,0.190268,-0.642708,0.060433,-0.763718,0.029915,-0.216577,0.065399,-18.879089,27.618610,29.585938,,,,,,,
,,,,,,,,,,,,,,,,25.299594,51.433004,20.448164,14.700000,102.656250,1523694866.997790,
1523694867.089756,-0.695048,-0.059567,-1.641020,0.147279,0.079811,0.085994,-0.639284,0.059532,-0.766657,0.108263,-0.175163,0.036326,-17.756699,27.762882,28.910889,,,,,,,
1523694867.119725,-0.693495,-0.055041,-1.637316,0.176572,0.063473,-0.018393,-0.638258,0.055013,-0.767848,0.110518,-0.140203,0.004543,-17.080978,27.834843,28.910950,,,,,,,
1523694867.149693,-0.689646,-0.052219,-1.635662,0.026359,0.182599,0.019728,-0.635394,0.052196,-0.770416,0.050646,-0.136088,-0.111587,-15.968033,27.303715,27.788635,,,,,,,
1523694867.179662,-0.683035,-0.054341,-1.635758,-0.123287,0.183757,0.056922,-0.630215,0.054314,-0.774512,-0.036151,-0.142922,-0.222909,-15.896469,27.227940,27.338989,,,,,,,
1523694867.209630,-0.683600,-0.059112,-1.638342,-0.196308,-0.199319,0.009297,-0.630483,0.059078,-0.773946,-0.075999,-0.164256,-0.093501,-14.394287,27.446186,27.338867,,,,,,,
1523694867.239598,-0.691123,-0.062657,-1.642028,-0.155656,-0.218324,-0.022620,-0.636150,0.062616,-0.769015,-0.072667,-0.160028,0.036166,-14.468079,27.072330,28.165283,,,,,,,
1523694867.269565,-0.694515,-0.065536,-1.643484,-0.073935,0.011437,0.065651,-0.638636,0.065489,-0.766711,-0.053671,-0.159743,0.050891,-14.546097,27.221943,27.414673,,,,,,,
1523694867.299535,-0.689460,-0.068318,-1.642448,-0.012445,0.213834,0.121976,-0.634634,0.068265,-0.769786,-0.021418,-0.128873,-0.067143,-13.723816,26.993168,27.341003,,,,,,,
1523694867.329502,-0.685938,-0.069635,-1.642017,0.069025,0.036295,0.107285,-0.631861,0.069579,-0.771946,0.025187,-0.113723,-0.076808,-13.791626,27.443913,27.789185,,,,,,,
1523694867.359470,-0.686566,-0.069618,-1.639450,0.088825,-0.068968,0.109537,-0.632346,0.069561,-0.771550,0.009757,-0.107327,-0.037684,-13.718430,27.218662,27.865112,,,,,,,
1523694867.389438,-0.687434,-0.068643,-1.637848,0.109411,-0.018982,0.095652,-0.633059,0.068589,-0.771053,-0.015714,-0.116349,-0.074971,-12.967117,27.664753,27.338684,,,,,,,
1523694867.419437,-0.688653,-0.068168,-1.635958,0.050616,-0.070724,0.067968,-0.634019,0.068116,-0.770306,-0.056823,-0.137162,-0.096897,-13.644318,27.442799,27.339233,,,,,,,
1523694867.449405,-0.690811,-0.067721,-1.635341,0.076278,-0.103471,0.031790,-0.635699,0.067669,-0.768959,-0.058027,-0.131649,-0.096077,-13.050064,27.139683,26.890747,,,,,,,
1523694867.479374,-0.692992,-0.066404,-1.635226,0.092346,-0.046383,0.069031,-0.637431,0.066355,-0.767638,-0.022237,-0.130259,-0.051652,-12.297104,27.436298,26.889893,,,,,,,
1523694867.509342,-0.694866,-0.065220,-1.632903,0.150859,-0.104922,0.060617,-0.638918,0.065174,-0.766502,0.015139,-0.140858,-0.000511,-12.444229,27.362553,27.490173,,,,,,,
1523694867.539310,-0.697127,-0.061226,-1.630747,0.228008,-0.060378,0.045710,-0.640812,0.061188,-0.765249,0.020664,-0.150894,-0.011057,-12.971329,27.514332,26.889282,,,,,,,
1523694867.569279,-0.695629,-0.058272,-1.626853,0.130199,0.102057,0.103000,-0.639777,0.058239,-0.766344,-0.028726,-0.166043,-0.148237,-12.376602,27.435902,26.139893,,,,,,,
1523694867.599247,-0.693545,-0.058873,-1.626461,0.010253,-0.017501,0.071070,-0.638157,0.058839,-0.767648,-0.050305,-0.140610,-0.191107,-11.925568,27.359165,26.440369,,,,,,,
1523694867.629215,-0.699773,-0.058227,-1.627147,0.054246,-0.319746,-0.028758,-0.642949,0.058194,-0.763688,-0.009944,-0.152188,0.020692,-11.924515,27.284473,26.740723,,,,,,,
1523694867.659184,-0.709028,-0.055718,-1.628125,0.118415,-0.220488,0.037256,-0.650082,0.055689,-0.757813,0.002164,-0.171000,0.145524,-11.846069,27.808811,26.438660,,,,,,,
1523694867.689152,-0.707767,-0.054830,-1.625063,0.128278,0.165697,0.118926,-0.649158,0.054802,-0.758669,-0.001156,-0.204033,0.017611,-12.675690,27.437397,26.289734,,,,,,,
1523694867.719121,-0.701299,-0.053787,-1.622375,0.146616,0.188062,0.104007,-0.644274,0.053761,-0.762896,0.003252,-0.210346,-0.110594,-12.532578,26.836597,26.142212,,,,,,,
1523694867.749089,-0.699213,-0.052555,-1.619798,0.088268,-0.020751,0.053014,-0.642723,0.052531,-0.764288,-0.002769,-0.210429,-0.105753,-11.407639,27.056171,25.766907,,,,,,,
1523694867.779057,-0.701247,-0.051527,-1.619276,0.051828,-0.081063,0.028544,-0.644311,0.051504,-0.763020,-0.013084,-0.216177,-0.026744,-11.928406,27.208958,26.216003,,,,,,,
1523694867.809026,-0.704623,-0.049753,-1.620099,0.099529,-0.166164,0.023347,-0.646941,0.049732,-0.760909,0.022079,-0.247456,0.067595,-11.924072,27.733784,26.063904,,,,,,,
1523694867.838994,-0.707541,-0.047272,-1.618183,0.106189,-0.063354,0.060530,-0.649237,0.047255,-0.759109,0.017004,-0.238890,0.115600,-11.330261,27.655216,25.164551,,,,,,,
1523694867.868963,-0.703791,-0.047285,-1.617606,0.010135,0.260492,0.129396,-0.646386,0.047267,-0.761538,-0.027626,-0.238154,-0.074964,-11.334747,27.205235,25.166321,,,,,,,
1523694867.898931,-0.695780,-0.050219,-1.616140,-0.038358,0.181864,0.146484,-0.640172,0.050198,-0.766582,-0.051585,-0.212842,-0.179005,-11.182343,27.130070,25.691711,,,,,,,
1523694867.928900,-0.697894,-0.051568,-1.615811,0.109721,-0.220692,0.068157,-0.641748,0.051545,-0.765174,0.004174,-0.180101,-0.016656,-10.879669,27.578419,25.390076,,,,,,,
1523694867.958868,-0.706007,-0.046972,-1.612537,0.278472,-0.282274,0.002276,-0.648081,0.046955,-0.760115,0.049998,-0.190830,0.128446,-11.412003,27.205219,24.791321,,,,,,,
1523694867.988836,-0.708201,-0.041866,-1.609850,0.181770,0.120287,0.059344,-0.649895,0.041853,-0.758863,0.026329,-0.166350,0.041227,-11.416962,27.204411,23.966309,,,,,,,
1523694868.018804,-0.701663,-0.042391,-1.608274,-0.035882,0.190737,0.091078,-0.644905,0.042379,-0.763079,-0.010643,-0.153661,-0.092985,-10.664749,27.426029,23.965759,,,,,,,
1523694868.048773,-0.701214,-0.044133,-1.609229,0.047295,-0.076130,0.083946,-0.644513,0.044118,-0.763311,-0.001620,-0.167699,-0.001780,-11.709595,27.581318,24.564636,,,,,,,
,,,,,,,,,,,,,,,,25.299575,51.433144,20.234379,15.230000,97.382812,1523694867.997776,
1523694868.078741,-0.702544,-0.042316,-1.606248,0.155395,-0.015837,0.085031,-0.645579,0.042304,-0.762513,-0.034399,-0.183646,-0.011962,-11.940140,27.431690,23.890137,,,,,,,
1523694868.108709,-0.702214,-0.039522,-1.604062,0.145959,0.006598,0.071149,-0.645401,0.039512,-0.762813,-0.034775,-0.171989,-0.033833,-12.014999,27.581791,23.664490,,,,,,,
1523694868.138677,-0.701326,-0.037712,-1.602297,0.061720,-0.003606,0.041260,-0.644769,0.037703,-0.763439,-0.028052,-0.165404,-0.070453,-11.722336,26.980259,23.442017,,,,,,,
1523694868.168646,-0.701946,-0.037794,-1.601463,0.019883,0.009946,0.092367,-0.645240,0.037785,-0.763037,-0.047357,-0.192204,-0.031244,-11.940735,27.281834,24.040710,,,,,,,
1523694868.198614,-0.701613,-0.039042,-1.601368,0.024167,0.031087,0.107263,-0.644955,0.039032,-0.763215,-0.076359,-0.154526,-0.090651,-11.708694,27.806095,24.338745,,,,,,,
1523694868.228582,-0.701809,-0.039815,-1.599846,0.076188,-0.067639,0.076493,-0.645084,0.039804,-0.763066,-0.031170,-0.189615,-0.041561,-12.310623,27.658726,24.264038,,,,,,,
