timestamp(unix),attitude_roll(radians),attitude_pitch(radians),attitude_yaw(radians),rotation_rate_x(radians/s),rotation_rate_y(radians/s),rotation_rate_z(radians/s),gravity_x(G),gravity_y(G),gravity_z(G),user_acc_x(G),user_acc_y(G),user_acc_z(G),magnetic_field_x(microteslas),magnetic_field_y(microteslas),magnetic_field_z(microteslas),latitude(degree),longitude(degree),altitude(meter),speed(m/s),course(degree),timestamp(unix),User Mark
1522315737.015772,-0.347814,-0.034130,-2.274073,-0.310763,-0.039256,0.062906,-0.340645,0.034123,-0.939572,-0.038581,-0.045171,0.140515,-2.857529,-12.986305,-4.766113,,,,,,,1
,,,,,,,,,,,,,,,,25.313820,51.439370,11.938742,10.840000,270.000000,1522315735.994670,1
1522315737.045740,-0.342623,-0.040806,-2.274185,-0.105242,0.307725,0.058456,-0.335679,0.040794,-0.941092,-0.074782,-0.009667,0.085212,-3.089706,-13.435707,-5.214417,,,,,,,1
1522315737.075708,-0.334122,-0.041076,-2.271624,0.068132,0.209249,0.099174,-0.327663,0.041065,-0.943902,0.002941,-0.060382,0.009316,-2.571930,-14.113106,-5.286499,,,,,,,1
,,,,,,,,,,,,,,,,25.313823,51.439258,12.175931,11.300000,270.351562,1522315736.994656,1
1522315737.105676,-0.330431,-0.039179,-2.269404,0.090430,0.098127,0.026846,-0.324202,0.039168,-0.945177,0.013152,-0.096877,-0.007598,-2.054886,-14.640877,-5.734131,,,,,,,1
1522315737.135645,-0.330689,-0.037472,-2.267595,0.047101,-0.026140,0.036516,-0.324467,0.037463,-0.945155,-0.027324,-0.053821,-0.003713,-1.683060,-14.418449,-6.634766,,,,,,,1
1522315737.165613,-0.331932,-0.037551,-2.267664,-0.059593,-0.061690,-0.008279,-0.325640,0.037542,-0.944748,-0.041501,-0.066015,0.063477,-2.896225,-14.564934,-8.584839,,,,,,,1
1522315737.195581,-0.333754,-0.037962,-2.268840,-0.023006,-0.038152,-0.043442,-0.327356,0.037953,-0.944139,-0.048178,-0.067052,0.066453,-4.322845,-14.184425,-9.487061,,,,,,,1
1522315737.225549,-0.330631,-0.036331,-2.269193,0.065451,0.225821,0.011772,-0.324426,0.036323,-0.945213,-0.040091,-0.129661,-0.086357,-7.689041,-12.894966,-10.168884,,,,,,,1
1522315737.255518,-0.323904,-0.033337,-2.266049,0.143822,0.193089,0.105631,-0.318093,0.033331,-0.947473,-0.020164,-0.130056,-0.153784,-10.001343,-12.208580,-9.197815,,,,,,,1
1522315737.285486,-0.326831,-0.031345,-2.262015,-0.050638,-0.285850,0.130484,-0.320886,0.031340,-0.946599,0.065393,-0.107421,-0.092173,-11.929199,-11.522362,-6.651489,,,,,,,1
1522315737.315454,-0.337074,-0.039760,-2.261955,-0.388844,-0.339605,0.036520,-0.330466,0.039749,-0.942981,0.009161,0.000900,0.142184,-11.616318,-10.997490,-5.378479,,,,,,,1
1522315737.345422,-0.345027,-0.048170,-2.266590,-0.231500,-0.152134,-0.082895,-0.337830,0.048152,-0.939975,-0.023880,0.010320,0.183581,-9.284363,-10.931938,-4.327576,,,,,,,1
1522315737.375391,-0.343772,-0.049259,-2.269727,0.062509,0.151194,-0.103235,-0.336632,0.049239,-0.940348,-0.022682,0.023408,0.078425,-7.408539,-10.940224,-4.176575,,,,,,,1
1522315737.405359,-0.338618,-0.042548,-2.269102,0.294631,0.133923,0.003512,-0.331883,0.042535,-0.942361,-0.001216,-0.047021,-0.051581,-4.561020,-11.552437,-3.572754,,,,,,,1
1522315737.435327,-0.336397,-0.031774,-2.265206,0.459035,0.089113,-0.030410,-0.329921,0.031768,-0.943474,-0.093983,-0.066665,-0.166267,-4.561020,-11.777061,-3.196838,,,,,,,1
1522315737.465296,-0.334792,-0.017741,-2.262509,0.417114,-0.022038,-0.074025,-0.328521,0.017740,-0.944330,-0.073594,-0.046076,-0.201346,-3.963440,-12.154518,-2.969971,,,,,,,1
1522315737.495264,-0.338718,-0.011278,-2.263080,0.001221,-0.187609,-0.107193,-0.332257,0.011277,-0.943121,-0.053546,-0.101579,-0.120233,-3.510605,-12.006340,-2.745361,,,,,,,1
1522315737.525232,-0.346712,-0.019065,-2.267620,-0.472840,-0.261824,0.036378,-0.339746,0.019064,-0.940324,0.002282,-0.089178,0.130174,-4.114151,-12.453468,-2.593872,,,,,,,1
1522315737.555200,-0.348970,-0.036677,-2.271036,-0.600630,0.102660,0.081727,-0.341700,0.036668,-0.939093,-0.038503,-0.011598,0.240226,-2.015472,-12.313362,-3.043396,,,,,,,1
1522315737.585169,-0.341557,-0.049419,-2.271005,-0.198945,0.311115,0.216072,-0.334545,0.049398,-0.941084,0.002423,0.020121,0.159819,-0.367783,-12.321144,-3.417542,,,,,,,1
1522315737.615137,-0.328373,-0.047890,-2.264781,0.310533,0.465745,0.107615,-0.322134,0.047871,-0.945483,0.038382,0.010707,-0.089734,1.119858,-12.704262,-4.840271,,,,,,,1
1522315737.645105,-0.320540,-0.034479,-2.259801,0.525241,0.050973,-0.067629,-0.314892,0.034473,-0.948501,0.022610,-0.050082,-0.210282,1.566513,-12.407341,-5.891174,,,,,,,1
1522315737.675073,-0.325014,-0.022496,-2.261366,0.203398,-0.223500,-0.212496,-0.319242,0.022494,-0.947406,-0.057620,-0.075396,-0.152798,-0.239914,-11.651543,-8.220154,,,,,,,1
1522315737.705042,-0.332957,-0.020470,-2.266982,-0.114243,-0.243501,-0.126406,-0.326771,0.020469,-0.944882,-0.024227,-0.046515,-0.026767,-1.894638,-11.719765,-8.895691,,,,,,,1
1522315737.735010,-0.336564,-0.025936,-2.269287,-0.232754,-0.043565,0.044848,-0.330135,0.025933,-0.943578,-0.047429,-0.039071,-0.041744,-6.087265,-11.250450,-8.449707,,,,,,,1
1522315737.764978,-0.339185,-0.034486,-2.267523,-0.233999,-0.122375,0.218625,-0.332520,0.034479,-0.942466,0.033280,-0.031550,0.062400,-7.416519,-10.117897,-6.879883,,,,,,,1
1522315737.794946,-0.339210,-0.040561,-2.263753,-0.096978,0.109468,0.143898,-0.332468,0.040550,-0.942242,0.014856,-0.031806,0.045972,-8.221085,-9.511879,-4.482666,,,,,,,1
1522315737.824915,-0.334353,-0.040896,-2.262304,0.033284,0.151759,-0.024396,-0.327884,0.040885,-0.943833,-0.003613,-0.037406,-0.084945,-7.542053,-9.514259,-3.807373,,,,,,,1
1522315737.854883,-0.333357,-0.038712,-2.264910,0.010621,-0.052342,-0.155273,-0.326972,0.038703,-0.944241,-0.027261,-0.024161,-0.134967,-6.559753,-8.918465,-3.584290,,,,,,,1
1522315737.884853,-0.337553,-0.037395,-2.270962,-0.051696,-0.177359,-0.187154,-0.330947,0.037386,-0.942908,-0.043900,-0.069078,-0.114251,-6.860062,-8.767403,-3.885010,,,,,,,1
1522315737.914821,-0.342923,-0.038266,-2.273292,-0.064296,-0.175309,-0.020940,-0.335995,0.038257,-0.941086,-0.055927,-0.017062,-0.050857,-7.461517,-9.139320,-3.508850,,,,,,,1
1522315737.944790,-0.349110,-0.042096,-2.272192,-0.142350,-0.236872,0.150604,-0.341758,0.042083,-0.938845,0.032997,-0.002166,0.088610,-8.364655,-9.135780,-4.034241,,,,,,,1
1522315737.974758,-0.353267,-0.047448,-2.270397,-0.149560,-0.022790,0.081129,-0.345576,0.047431,-0.937191,0.011286,-0.006278,0.142361,-10.767960,-9.874290,-3.357483,,,,,,,1
1522315738.004726,-0.349314,-0.050727,-2.269516,-0.028655,0.212090,0.030908,-0.341813,0.050705,-0.938399,0.035325,0.014755,0.057982,-11.520142,-10.545158,-2.605225,,,,,,,1
1522315738.034694,-0.343912,-0.048631,-2.270329,0.106193,0.143541,-0.090397,-0.336774,0.048612,-0.940330,0.002347,-0.001630,-0.030206,-11.059814,-10.096260,-1.631775,,,,,,,1
,,,,,,,,,,,,,,,,25.313818,51.439136,12.327873,12.120000,268.945312,1522315737.994644,1
1522315738.064663,-0.341817,-0.043824,-2.272666,0.115353,0.021480,-0.111587,-0.334877,0.043810,-0.941243,-0.010994,-0.029146,-0.048885,-9.396637,-10.625664,1.446167,,,,,,,1
1522315738.094631,-0.343955,-0.040920,-2.274254,0.037538,-0.112689,-0.045440,-0.336931,0.040908,-0.940640,0.022096,0.001435,0.024716,-7.657166,-10.032066,2.869629,,,,,,,1
1522315738.124599,-0.345965,-0.042083,-2.273803,-0.087320,-0.009836,0.031077,-0.338804,0.042070,-0.939916,-0.025698,0.020643,0.061177,-2.618622,-8.629829,2.791565,,,,,,,1
1522315738.154568,-0.342134,-0.046231,-2.274602,-0.173046,0.196281,0.064906,-0.335140,0.046214,-0.941034,0.045513,-0.019053,0.017938,-0.667801,-8.189201,2.190796,,,,,,,1
1522315738.184536,-0.335926,-0.049112,-2.272259,0.038226,0.217789,0.106590,-0.329246,0.049092,-0.942967,0.037590,-0.011479,-0.025585,0.679565,-7.821312,1.140015,,,,,,,1
1522315738.214504,-0.331370,-0.047145,-2.267970,0.126102,0.075024,0.127054,-0.324977,0.047127,-0.944547,0.056209,-0.032067,-0.079440,0.293488,-8.345543,0.166870,,,,,,,1
1522315738.244472,-0.330974,-0.047093,-2.264985,-0.068248,-0.030150,0.041768,-0.324604,0.047076,-0.944678,0.034901,-0.067996,-0.065668,-0.090347,-9.094048,-0.055298,,,,,,,1
1522315738.274441,-0.333088,-0.051205,-2.267438,-0.191909,-0.106679,-0.061609,-0.326535,0.051182,-0.943798,0.043637,-0.010625,0.064205,1.921692,-9.853996,-0.951294,,,,,,,1
1522315738.304409,-0.334330,-0.055119,-2.271476,-0.170040,-0.014182,-0.078723,-0.327638,0.055091,-0.943196,0.043733,0.005441,0.169423,2.593216,-10.157082,-1.024658,,,,,,,1
1522315738.334377,-0.331011,-0.057025,-2.272309,0.021391,0.179082,0.025636,-0.324471,0.056994,-0.944177,0.016045,0.030759,0.043832,3.087326,-12.260948,-2.666016,,,,,,,1
1522315738.364345,-0.324687,-0.051749,-2.269226,0.308644,0.198487,0.034361,-0.318585,0.051726,-0.946482,-0.003849,-0.016432,-0.203817,3.228928,-12.562492,-3.564819,,,,,,,1
1522315738.394314,-0.321872,-0.042499,-2.266727,0.265209,-0.044219,-0.037895,-0.316057,0.042486,-0.947788,0.004061,-0.085897,-0.287777,2.904068,-14.287300,-4.833008,,,,,,,1
1522315738.424282,-0.328110,-0.040902,-2.266533,-0.133205,-0.252999,0.021702,-0.321984,0.040891,-0.945861,0.033197,-0.100415,-0.087754,4.101151,-14.218285,-5.432739,,,,,,,1
1522315738.454250,-0.333492,-0.050991,-2.268018,-0.418057,-0.119961,0.093806,-0.326919,0.050969,-0.943677,0.021301,-0.037053,0.099286,6.639603,-13.482841,-8.584351,,,,,,,1
1522315738.484218,-0.334131,-0.062742,-2.268919,-0.307186,0.066853,0.083048,-0.327303,0.062701,-0.942837,-0.005918,-0.015155,0.097179,6.412628,-12.733406,-10.162476,,,,,,,1
1522315738.514187,-0.329279,-0.067438,-2.267911,-0.017448,0.168070,0.093815,-0.322626,0.067387,-0.944125,0.056482,-0.067066,0.035586,7.153992,-11.839668,-13.090698,,,,,,,1
1522315738.544155,-0.326116,-0.064938,-2.264715,0.193933,0.083014,0.024803,-0.319691,0.064892,-0.945297,0.003391,-0.047421,-0.002838,6.091827,-10.489174,-17.371643,,,,,,,1
1522315738.574123,-0.323883,-0.056800,-2.263224,0.304191,0.036645,-0.069898,-0.317737,0.056769,-0.946478,-0.003399,-0.016029,-0.088343,4.514008,-9.958427,-18.724548,,,,,,,1
1522315738.604091,-0.324985,-0.048542,-2.265326,0.118633,-0.075606,-0.209512,-0.318918,0.048523,-0.946539,-0.028875,-0.060700,-0.101831,-0.448563,-10.087975,-20.601501,,,,,,,1
1522315738.634060,-0.327715,-0.048333,-2.270727,-0.148883,-0.114826,-0.128690,-0.321504,0.048315,-0.945674,-0.005171,-0.044744,-0.060185,-2.998016,-9.851799,-20.903687,,,,,,,1
1522315738.664028,-0.330726,-0.052788,-2.273799,-0.170694,-0.052037,0.015087,-0.324278,0.052763,-0.944489,-0.018343,-0.004606,0.026993,-7.337936,-9.606010,-19.631897,,,,,,,1
1522315738.693996,-0.330873,-0.057152,-2.270603,-0.060401,0.002712,0.202632,-0.324339,0.057121,-0.944215,0.028898,0.015373,0.066438,-8.831833,-9.897774,-18.131470,,,,,,,1
1522315738.723965,-0.328343,-0.058986,-2.266496,-0.022158,0.100979,0.118376,-0.321914,0.058951,-0.944932,0.027710,-0.055320,0.035340,-10.254608,-11.388527,-15.276184,,,,,,,1
1522315738.753933,-0.325744,-0.059252,-2.264700,0.058634,0.086912,-0.028578,-0.319452,0.059217,-0.945750,0.037089,-0.011396,0.042216,-10.703659,-12.060219,-13.998779,,,,,,,1
1522315738.783901,-0.323911,-0.055206,-2.266806,0.143238,0.037396,-0.120097,-0.317792,0.055178,-0.946553,0.014889,-0.027438,-0.006007,-8.155655,-13.794136,-11.440552,,,,,,,1
1522315738.813869,-0.324688,-0.050398,-2.268417,0.097856,-0.041337,-0.087034,-0.318608,0.050377,-0.946547,0.010487,0.001579,-0.024935,-6.429504,-14.176064,-10.613159,,,,,,,1
1522315738.843838,-0.324451,-0.047254,-2.268805,0.104227,0.032508,-0.014637,-0.318432,0.047236,-0.946768,-0.004367,-0.012858,-0.101175,-4.332169,-14.036186,-11.287659,,,,,,,1
1522315738.873806,-0.324029,-0.044482,-2.266756,0.086407,-0.039193,0.064269,-0.318074,0.044468,-0.947022,0.050877,-0.020695,-0.060149,-3.430252,-13.665550,-11.588684,,,,,,,1
1522315738.903758,-0.325379,-0.045149,-2.263894,-0.034435,-0.052885,0.089765,-0.319342,0.045134,-0.946564,0.044928,-0.020933,0.053757,-2.305313,-13.221367,-12.339905,,,,,,,1
1522315738.933726,-0.325139,-0.047597,-2.262986,-0.080698,0.040089,0.032093,-0.319079,0.047580,-0.946533,0.029650,-0.070895,0.042099,-2.089813,-12.774651,-14.666565,,,,,,,1
1522315738.963695,-0.321734,-0.048106,-2.263089,0.045946,0.115611,-0.026479,-0.315846,0.048087,-0.947591,0.018544,-0.039893,-0.046733,-2.851486,-12.997795,-16.241089,,,,,,,1
1522315738.993663,-0.318799,-0.043783,-2.263420,0.158928,0.040102,-0.056160,-0.313126,0.043769,-0.948702,0.014603,-0.070914,-0.118650,-5.411438,-12.913094,-18.042725,,,,,,,1
1522315739.023631,-0.320001,-0.040314,-2.263428,0.012969,-0.077797,-0.012459,-0.314311,0.040303,-0.948464,0.000041,-0.079335,-0.087242,-9.008148,-12.896385,-17.519531,,,,,,,1
1522315739.053599,-0.321363,-0.042649,-2.264208,-0.142845,-0.025543,0.018263,-0.315573,0.042636,-0.947943,-0.027872,-0.063220,-0.041956,-13.795029,-12.797813,-15.497375,,,,,,,1
,,,,,,,,,,,,,,,,25.313821,51.439007,12.651004,13.250000,268.593750,1522315738.994631,1
1522315739.083568,-0.320959,-0.047710,-2.264819,-0.199324,0.016990,0.034161,-0.315118,0.047692,-0.947853,-0.008064,-0.047921,-0.025047,-15.355270,-12.264214,-13.925293,,,,,,,1
1522315739.113536,-0.320023,-0.053817,-2.265313,-0.197292,0.032664,0.069318,-0.314133,0.053791,-0.947854,0.029023,-0.053760,0.018319,-18.248016,-11.646858,-9.579224,,,,,,,1
1522315739.143504,-0.320029,-0.057069,-2.264556,-0.036225,-0.018657,0.055646,-0.314082,0.057038,-0.947681,0.023936,-0.029999,0.073383,-18.081177,-11.719688,-6.653748,,,,,,,1
1522315739.173472,-0.318925,-0.054956,-2.262509,0.132908,0.064978,0.041827,-0.313072,0.054928,-0.948139,0.024605,0.013401,0.012913,-16.553284,-11.946526,-1.627136,,,,,,,1
1522315739.203441,-0.316912,-0.049659,-2.261186,0.148106,0.047313,-0.021007,-0.311250,0.049639,-0.949030,0.002534,-0.052142,-0.114385,-15.267822,-12.250053,0.624695,,,,,,,1
1522315739.233409,-0.316251,-0.046770,-2.262139,0.008218,-0.005141,-0.064761,-0.310665,0.046753,-0.949369,-0.011341,-0.050125,-0.122561,-14.364975,-13.002403,2.353210,,,,,,,1
1522315739.263377,-0.318607,-0.049399,-2.264197,-0.184737,-0.107133,-0.001921,-0.312862,0.049379,-0.948514,0.012065,-0.029833,0.031323,-9.863480,-13.846001,4.008789,,,,,,,1
1522315739.293345,-0.320798,-0.055769,-2.265212,-0.218935,-0.052146,0.050200,-0.314833,0.055740,-0.947509,0.010634,-0.015884,0.116835,-9.562592,-13.847206,4.158997,,,,,,,1
1522315739.323314,-0.319333,-0.058783,-2.264369,0.009159,0.105567,0.056607,-0.313391,0.058749,-0.947805,0.025199,-0.001101,0.051000,-9.414383,-14.297417,4.610901,,,,,,,1
1522315739.353282,-0.315876,-0.055580,-2.262323,0.160839,0.078890,0.019450,-0.310170,0.055551,-0.949056,0.047047,-0.010187,-0.040110,-9.329941,-13.846977,5.434082,,,,,,,1
1522315739.383250,-0.315839,-0.051193,-2.261290,0.121083,-0.007958,-0.007131,-0.310207,0.051171,-0.949290,0.036663,-0.034508,-0.019826,-9.748535,-13.540367,10.157654,,,,,,,1
1522315739.413219,-0.315127,-0.049512,-2.260691,0.020915,0.030564,-0.010438,-0.309557,0.049492,-0.949592,-0.010114,-0.030770,-0.065484,-8.158127,-13.395195,12.482910,,,,,,,1
1522315739.443187,-0.315562,-0.050917,-2.261316,-0.108868,-0.083996,0.005570,-0.309949,0.050895,-0.949390,0.044278,-0.045692,0.004382,-1.838852,-13.046013,15.109680,,,,,,,1
1522315739.473155,-0.317012,-0.054256,-2.262878,-0.124314,0.003422,-0.028630,-0.311270,0.054230,-0.948773,0.003134,-0.030075,0.076595,1.907394,-13.063469,14.511597,,,,,,,1
1522315739.503123,-0.313292,-0.055534,-2.263106,0.002991,0.137574,0.039527,-0.307717,0.055506,-0.949857,0.042565,-0.013941,-0.034533,7.960358,-13.693321,11.892151,,,,,,,1
1522315739.533092,-0.312121,-0.053502,-2.261507,0.087722,-0.043069,0.012054,-0.306638,0.053477,-0.950322,0.015730,-0.017466,-0.044749,8.320175,-13.996971,9.868530,,,,,,,1
1522315739.563060,-0.313193,-0.051390,-2.260529,0.037766,0.003775,0.013056,-0.307691,0.051368,-0.950098,0.037687,-0.032630,-0.040426,7.936020,-13.697258,7.842163,,,,,,,1
1522315739.593028,-0.312483,-0.051372,-2.260860,-0.031550,-0.029726,-0.032786,-0.307016,0.051349,-0.950318,0.013315,-0.022495,-0.017807,6.356567,-13.466270,6.715393,,,,,,,1
1522315739.622996,-0.312022,-0.051744,-2.262238,-0.019427,0.024615,-0.058403,-0.306572,0.051721,-0.950441,0.009804,-0.040322,-0.023772,6.289368,-12.865685,7.013000,,,,,,,1
1522315739.652965,-0.311535,-0.051282,-2.262773,0.015263,-0.017378,0.008788,-0.306117,0.051260,-0.950613,0.016185,-0.016744,-0.038767,8.389603,-13.698692,8.442322,,,,,,,1
1522315739.682933,-0.312886,-0.051569,-2.262481,-0.049109,-0.060928,0.030091,-0.307397,0.051546,-0.950184,-0.007895,-0.015230,-0.018581,10.028137,-14.306984,7.545654,,,,,,,1
1522315739.712901,-0.312561,-0.052865,-2.262990,-0.036525,0.063708,-0.021159,-0.307067,0.052840,-0.950220,-0.007172,-0.034286,-0.045371,11.427109,-15.066338,4.474365,,,,,,,1
1522315739.742869,-0.311800,-0.052537,-2.263260,0.010941,-0.026951,0.010930,-0.306349,0.052513,-0.950470,0.034758,-0.009422,-0.025925,12.086166,-15.221703,2.075256,,,,,,,1
1522315739.772838,-0.312801,-0.052061,-2.263725,-0.015475,0.000962,-0.018960,-0.307308,0.052037,-0.950186,0.002468,-0.008779,-0.019159,10.942719,-14.770393,-1.752075,,,,,,,1
1522315739.802806,-0.310826,-0.052255,-2.262739,0.034719,0.074782,0.042807,-0.305427,0.052231,-0.950782,0.027061,-0.007645,-0.120095,8.761627,-14.611855,-3.028809,,,,,,,1
1522315739.832774,-0.311337,-0.050691,-2.261318,0.058623,-0.081434,0.034467,-0.305938,0.050669,-0.950702,0.013626,-0.014353,-0.066739,6.129517,-14.151955,-4.981995,,,,,,,1
1522315739.862742,-0.313012,-0.050690,-2.260401,-0.039396,-0.042875,0.026890,-0.307530,0.050668,-0.950188,0.049092,-0.038537,0.013207,6.136093,-12.952888,-5.886719,,,,,,,1
1522315739.892720,-0.312559,-0.052926,-2.259831,-0.064704,0.024144,0.024676,-0.307064,0.052902,-0.950217,0.008785,-0.050735,0.021674,4.708572,-12.572517,-6.939026,,,,,,,1
1522315739.922688,-0.312480,-0.053726,-2.259940,0.000389,-0.032016,-0.018917,-0.306976,0.053700,-0.950201,0.006470,-0.010151,0.044378,2.151901,-12.112892,-8.817139,,,,,,,1
1522315739.952656,-0.311627,-0.051513,-2.260746,0.075657,0.054065,-0.046653,-0.306201,0.051491,-0.950573,0.009906,-0.052528,0.002972,1.251770,-11.584740,-9.719666,,,,,,,1
1522315739.982624,-0.310033,-0.047811,-2.260118,0.130744,0.026910,0.015230,-0.304741,0.047793,-0.951235,0.001381,-0.036852,-0.103635,-1.374786,-11.423454,-10.246643,,,,,,,1
1522315740.012593,-0.310158,-0.045050,-2.259172,0.048398,-0.021654,-0.000765,-0.304899,0.045035,-0.951319,-0.003390,-0.034995,-0.107030,-2.876526,-11.416985,-10.547424,,,,,,,1
1522315740.042561,-0.311191,-0.045447,-2.259487,-0.073405,-0.030971,0.007676,-0.305877,0.045431,-0.950986,0.011489,-0.060233,-0.046221,-3.777084,-11.338173,-10.773132,,,,,,,1
,,,,,,,,,,,,,,,,25.313820,51.438848,12.856092,14.380000,268.242188,1522315739.994617,1
1522315740.072529,-0.311898,-0.049671,-2.259607,-0.185735,-0.014091,0.065113,-0.306487,0.049651,-0.950579,0.027907,-0.031539,0.041186,-5.430008,-11.855354,-10.396912,,,,,,,1
1522315740.102498,-0.311174,-0.054022,-2.258964,-0.075490,0.029303,0.050236,-0.305730,0.053996,-0.950586,0.022816,-0.024974,0.042474,-7.527313,-12.669106,-8.594727,,,,,,,1
1522315740.132466,-0.310679,-0.053607,-2.257476,0.057829,-0.020848,0.033334,-0.305266,0.053581,-0.950758,0.048034,-0.038323,0.074126,-7.070282,-12.595116,-7.544800,,,,,,,1
1522315740.162434,-0.310548,-0.051266,-2.256342,0.090219,0.032354,0.010932,-0.305179,0.051243,-0.950915,0.010715,-0.019123,0.091067,-4.878662,-13.500710,-3.265076,,,,,,,1
1522315740.192402,-0.307176,-0.048130,-2.255452,0.117546,0.162023,-0.000910,-0.302017,0.048111,-0.952088,-0.010040,-0.060471,-0.042313,-1.806473,-14.188835,-2.585754,,,,,,,1
1522315740.222371,-0.304207,-0.045012,-2.255240,0.066893,0.016803,-0.034894,-0.299233,0.044997,-0.953118,-0.016731,-0.096022,-0.108237,5.073166,-15.421150,-3.927429,,,,,,,1
1522315740.252339,-0.305533,-0.045071,-2.256411,-0.091560,-0.054153,-0.012565,-0.300496,0.045056,-0.952718,-0.001918,-0.090313,-0.057231,5.952087,-15.728096,-6.925781,,,,,,,1
1522315740.282307,-0.307587,-0.049643,-2.257274,-0.208215,-0.062697,0.034244,-0.302386,0.049622,-0.951893,0.016803,-0.026536,0.018436,6.309341,-15.657784,-10.000854,,,,,,,1
1522315740.312275,-0.307755,-0.054781,-2.257604,-0.164247,0.016676,0.065094,-0.302465,0.054754,-0.951586,0.023870,0.007944,0.061648,4.693848,-15.432655,-17.127563,,,,,,,1
1522315740.342244,-0.305833,-0.055919,-2.255886,0.024972,0.093619,0.086473,-0.300617,0.055890,-0.952106,0.067417,-0.008313,0.046512,1.825485,-15.872063,-19.452209,,,,,,,1
1522315740.372212,-0.303113,-0.052716,-2.252244,0.194709,0.060428,0.062125,-0.298078,0.052692,-0.953086,0.038755,-0.004489,-0.021295,-5.085785,-15.917763,-21.255493,,,,,,,1
1522315740.402180,-0.302243,-0.046935,-2.249735,0.200251,0.007872,-0.021993,-0.297334,0.046918,-0.953620,0.010225,-0.047528,-0.083123,-8.088654,-15.979637,-21.631775,,,,,,,1
1522315740.432148,-0.301620,-0.042522,-2.250293,0.089497,-0.017880,-0.098767,-0.296799,0.042509,-0.953993,-0.023834,-0.070112,-0.151415,-14.285324,-15.348076,-17.962402,,,,,,,1
1522315740.462117,-0.304160,-0.042250,-2.253809,-0.112834,-0.121608,-0.084963,-0.299224,0.042238,-0.953247,-0.018906,-0.045244,-0.088485,-15.995392,-15.113274,-15.864197,,,,,,,1
1522315740.492085,-0.307310,-0.047294,-2.256449,-0.216741,-0.080616,0.016144,-0.302158,0.047276,-0.952085,0.003833,-0.042577,-0.020922,-17.155731,-13.978340,-11.144287,,,,,,,1
1522315740.522053,-0.310198,-0.052830,-2.255917,-0.130984,-0.128260,0.113214,-0.304821,0.052805,-0.950945,0.017925,-0.004557,0.068269,-17.139069,-13.751015,-8.745239,,,,,,,1
1522315740.552021,-0.313307,-0.054725,-2.253561,0.022091,-0.082685,0.075987,-0.307744,0.054698,-0.949895,0.015966,-0.018245,0.103765,-14.936203,-13.756279,-4.094055,,,,,,,1
1522315740.581990,-0.314879,-0.051218,-2.250491,0.206069,-0.047842,0.041996,-0.309295,0.051196,-0.949587,0.039016,-0.038287,0.005220,-13.873611,-13.758949,-1.993530,,,,,,,1
1522315740.611958,-0.313535,-0.044818,-2.249216,0.199826,0.100632,-0.065778,-0.308114,0.044803,-0.950294,-0.007179,-0.038257,-0.066415,-13.643219,-13.983711,-0.717529,,,,,,,1
1522315740.641926,-0.312656,-0.040172,-2.250136,0.084064,-0.019063,-0.080651,-0.307339,0.040161,-0.950752,-0.007816,-0.068604,-0.086922,-10.252289,-13.921425,1.833923,,,,,,,1
1522315740.671895,-0.313621,-0.040152,-2.251896,-0.096829,-0.061462,-0.030668,-0.308257,0.040141,-0.950456,-0.030290,-0.067805,-0.072600,-8.365234,-13.029396,2.356323,,,,,,,1
1522315740.701863,-0.315316,-0.044129,-2.253187,-0.185581,-0.033936,0.017178,-0.309815,0.044114,-0.949773,-0.022033,-0.046418,0.061208,-4.283493,-10.571571,3.548462,,,,,,,1
1522315740.731831,-0.314394,-0.048934,-2.253248,-0.151509,0.058802,0.115138,-0.308870,0.048915,-0.949845,0.046221,-0.028956,0.078370,-2.633408,-10.204597,2.947876,,,,,,,1
1522315740.761799,-0.312174,-0.051065,-2.250550,0.027042,0.092468,0.098198,-0.306728,0.051043,-0.950427,0.003032,-0.008990,0.038364,1.196747,-8.648552,1.218567,,,,,,,1
1522315740.791768,-0.309198,-0.046535,-2.247012,0.223753,0.098686,0.052512,-0.303965,0.046518,-0.951546,0.041209,-0.031641,-0.090156,2.687988,-8.806465,0.019958,,,,,,,1
1522315740.821736,-0.307300,-0.040516,-2.245080,0.152370,0.031471,-0.034848,-0.302238,0.040505,-0.952371,0.028739,-0.049721,-0.150275,6.185211,-9.201180,-3.951782,,,,,,,1
1522315740.851704,-0.308360,-0.039262,-2.245753,-0.073587,-0.106193,-0.023153,-0.303263,0.039252,-0.952098,0.029246,-0.034049,-0.095571,5.798508,-9.201393,-5.901917,,,,,,,1
1522315740.881659,-0.311808,-0.045095,-2.247631,-0.271223,-0.085799,0.017173,-0.306468,0.045079,-0.950813,-0.011159,-0.038472,0.063392,5.386459,-10.253960,-10.322937,,,,,,,1
1522315740.911628,-0.311353,-0.051807,-2.248598,-0.169449,0.026351,0.049107,-0.305935,0.051784,-0.950643,-0.000888,-0.038433,0.072881,5.446152,-10.481392,-12.497009,,,,,,,1
1522315740.941596,-0.310481,-0.052838,-2.246942,0.080149,-0.003089,0.068498,-0.305090,0.052814,-0.950858,0.046591,-0.043857,0.047522,4.459625,-10.778389,-13.921326,,,,,,,1
1522315740.971564,-0.311699,-0.047489,-2.244933,0.232195,-0.028230,-0.036852,-0.306330,0.047471,-0.950741,0.015696,-0.024705,-0.015415,0.913467,-11.589592,-16.094788,,,,,,,1
1522315741.001532,-0.313384,-0.040737,-2.244829,0.150884,-0.094776,-0.063490,-0.308024,0.040726,-0.950506,0.015482,-0.018403,-0.072504,-1.259933,-11.429817,-16.096558,,,,,,,1
1522315741.031501,-0.316139,-0.037749,-2.246702,0.025245,-0.053868,-0.094525,-0.310678,0.037740,-0.949765,-0.056861,-0.037679,-0.072924,-3.948151,-10.966530,-14.899719,,,,,,,1
1522315741.061469,-0.316578,-0.037458,-2.247623,-0.028682,-0.029114,0.031143,-0.311098,0.037449,-0.949639,0.002214,-0.058018,-0.121909,-5.067245,-10.960518,-13.925354,,,,,,,1
,,,,,,,,,,,,,,,,25.313820,51.438719,12.973103,14.270000,268.945312,1522315740.994604,1
1522315741.091437,-0.318058,-0.041071,-2.246313,-0.154077,-0.041072,0.113112,-0.312459,0.041059,-0.949043,-0.009700,-0.074003,0.031120,-4.602371,-10.735512,-11.826050,,,,,,,1
1522315741.121405,-0.317801,-0.045602,-2.244154,-0.092794,0.027991,0.091781,-0.312154,0.045586,-0.948937,-0.018764,-0.057610,0.011117,-5.264893,-10.206337,-10.628479,,,,,,,1
1522315741.151374,-0.315622,-0.046609,-2.242760,0.010164,0.070625,0.038529,-0.310070,0.046593,-0.949571,0.041073,-0.067680,-0.016905,-3.840683,-10.961601,-9.499756,,,,,,,1
1522315741.181342,-0.315676,-0.045341,-2.241814,0.038670,-0.032339,0.012020,-0.310140,0.045325,-0.949610,0.016820,-0.033958,0.015253,-4.141556,-11.185036,-9.273926,,,,,,,1
1522315741.211310,-0.316302,-0.044320,-2.240889,0.025821,0.000389,0.047139,-0.310749,0.044305,-0.949459,0.009129,-0.035196,0.016414,-2.120255,-11.419350,-9.497009,,,,,,,1
1522315741.241278,-0.314984,-0.042927,-2.238886,0.059022,0.034242,0.056720,-0.309516,0.042913,-0.949925,-0.004922,-0.058538,-0.029674,-2.121323,-11.120018,-10.173218,,,,,,,1
1522315741.271247,-0.314346,-0.041265,-2.237492,0.029198,-0.013123,0.002405,-0.308931,0.041253,-0.950189,0.008989,-0.067209,-0.055686,-2.498871,-10.519753,-11.600769,,,,,,,1
1522315741.301215,-0.315823,-0.042584,-2.238732,-0.133110,-0.049712,-0.025385,-0.310317,0.042571,-0.949679,0.035995,-0.072310,0.030108,-2.116440,-9.097603,-12.731323,,,,,,,1
1522315741.331183,-0.315600,-0.045908,-2.240899,-0.138092,0.029985,-0.024400,-0.310060,0.045892,-0.949609,-0.024413,-0.025018,0.019219,-2.340683,-8.347725,-13.859436,,,,,,,1
1522315741.361152,-0.313724,-0.047910,-2.241621,-0.065555,0.067747,0.020366,-0.308249,0.047892,-0.950099,-0.013025,-0.010965,-0.002156,-3.688278,-7.293007,-15.214355,,,,,,,1
1522315741.391120,-0.312724,-0.047942,-2.240270,0.036294,-0.009420,0.078059,-0.307298,0.047923,-0.950405,0.020708,-0.063563,0.011792,-5.108444,-6.986320,-14.916199,,,,,,,1
1522315741.421088,-0.313222,-0.046831,-2.237037,0.054454,0.011679,0.094032,-0.307788,0.046813,-0.950302,0.012500,-0.037597,0.044602,-8.628189,-6.595268,-14.694580,,,,,,,1
1522315741.451056,-0.310387,-0.046197,-2.235570,0.019097,0.121810,0.008655,-0.305101,0.046181,-0.951199,-0.027205,-0.074104,-0.028323,-8.684601,-5.319038,-13.724731,,,,,,,1
1522315741.481025,-0.308306,-0.045262,-2.235429,-0.002704,0.012473,0.000226,-0.303134,0.045246,-0.951873,0.014285,-0.057423,-0.042893,-9.700974,-3.661613,-10.881836,,,,,,,1
1522315741.510993,-0.309347,-0.044910,-2.236092,-0.028447,-0.028816,-0.012537,-0.304130,0.044895,-0.951572,0.007697,-0.026996,-0.061658,-9.388824,-3.211754,-9.608521,,,,,,,1
1522315741.540961,-0.309197,-0.045513,-2.236222,-0.051027,-0.037429,0.010899,-0.303978,0.045498,-0.951592,0.042137,-0.024639,-0.071892,-8.388840,-2.014076,-7.437744,,,,,,,1
1522315741.570929,-0.313367,-0.048108,-2.235324,-0.108519,-0.158899,0.079170,-0.307907,0.048090,-0.950200,0.042068,0.035559,0.127889,-8.534607,-2.312218,-6.236694,,,,,,,1
1522315741.600898,-0.312882,-0.050349,-2.235421,-0.039495,0.128450,-0.009503,-0.307412,0.050328,-0.950245,-0.014991,-0.029149,0.030140,-7.919479,-2.237587,-3.836670,,,,,,,1
1522315741.630866,-0.310394,-0.049344,-2.233926,0.104932,0.002445,0.029081,-0.305062,0.049323,-0.951054,0.038217,-0.026435,0.022725,-6.405289,-1.717903,-2.337952,,,,,,,1
1522315741.660834,-0.308439,-0.043501,-2.233590,0.253176,0.097275,-0.061467,-0.303285,0.043487,-0.951907,-0.034652,-0.065734,-0.095456,-5.491196,-1.345299,-0.614014,,,,,,,1
1522315741.690802,-0.309065,-0.036744,-2.233139,0.132760,-0.084152,-0.058180,-0.303962,0.036736,-0.951975,0.005439,-0.059762,-0.128973,-1.788147,-0.159264,2.083130,,,,,,,1
1522315741.720771,-0.311395,-0.037715,-2.235594,-0.162833,-0.046242,-0.055244,-0.306169,0.037706,-0.951230,-0.053054,-0.025819,-0.038287,1.442963,0.725746,1.631165,,,,,,,1
1522315741.750739,-0.311622,-0.043208,-2.237949,-0.231298,0.038272,0.041572,-0.306316,0.043195,-0.950949,0.001751,-0.039808,-0.006830,5.635437,1.005150,-0.092834,,,,,,,1
1522315741.780707,-0.309954,-0.049007,-2.236340,-0.105859,0.008702,0.121615,-0.304649,0.048987,-0.951204,-0.009408,-0.034995,0.064729,8.097702,1.216606,-2.567444,,,,,,,1
1522315741.810675,-0.308838,-0.049706,-2.231103,0.132421,0.110798,0.174973,-0.303576,0.049685,-0.951511,0.030215,-0.023089,0.094302,8.894379,1.807320,-8.269409,,,,,,,1
1522315741.840644,-0.304755,-0.042139,-2.225893,0.352889,0.080333,0.047302,-0.299793,0.042126,-0.953074,0.044147,-0.064481,-0.085882,9.104507,1.803902,-10.744324,,,,,,,1
1522315741.870612,-0.304622,-0.033628,-2.224137,0.184545,0.000957,-0.089136,-0.299763,0.033621,-0.953421,-0.004024,-0.060172,-0.099970,5.919479,2.036995,-16.971863,,,,,,,1
1522315741.900592,-0.305143,-0.032718,-2.227700,-0.128381,-0.036448,-0.101043,-0.300269,0.032712,-0.953293,-0.016565,-0.055463,-0.105362,3.276291,1.297096,-18.770203,,,,,,,1
1522315741.930562,-0.306158,-0.037981,-2.231277,-0.254866,-0.045256,-0.012688,-0.301180,0.037972,-0.952811,-0.039427,-0.039498,-0.040689,-4.392746,0.429878,-20.495605,,,,,,,1
1522315741.960529,-0.308106,-0.045220,-2.231780,-0.216081,-0.066362,0.105629,-0.302944,0.045204,-0.951935,0.011226,-0.030403,0.076493,-7.924896,-0.828331,-19.592285,,,,,,,1
1522315741.990497,-0.307859,-0.048881,-2.228990,0.000980,0.041252,0.137653,-0.302657,0.048862,-0.951846,0.029876,-0.068835,0.054644,-10.556671,-1.865883,-18.989502,,,,,,,1
1522315742.020465,-0.307230,-0.046279,-2.224755,0.161409,0.020114,0.065334,-0.302096,0.046262,-0.952154,0.028430,-0.039808,-0.004267,-15.345108,-3.864067,-13.733887,,,,,,,1
1522315742.050434,-0.306572,-0.041409,-2.223434,0.133110,0.015631,-0.041245,-0.301534,0.041397,-0.952556,0.019063,-0.052337,-0.045216,-16.688553,-5.054955,-10.654785,,,,,,,1
,,,,,,,,,,,,,,,,25.313821,51.438562,13.199178,14.700000,270.000000,1522315741.994590,1
1522315742.080402,-0.306391,-0.039100,-2.224484,-0.027132,-0.017906,-0.051980,-0.301389,0.039090,-0.952699,-0.010562,-0.043225,-0.066954,-15.460785,-5.654839,-5.026733,,,,,,,1
1522315742.110370,-0.307677,-0.041290,-2.226272,-0.133267,-0.055207,0.000195,-0.302588,0.041279,-0.952227,0.008322,-0.022403,0.013338,-14.627075,-5.956657,-3.075134,,,,,,,1
1522315742.140338,-0.308027,-0.044468,-2.226649,-0.090541,-0.007756,0.037472,-0.302879,0.044454,-0.951991,0.019875,-0.052129,0.061595,-10.945480,-6.196709,-1.572327,,,,,,,1
1522315742.170307,-0.307167,-0.044625,-2.224936,0.064471,0.049151,0.049255,-0.302058,0.044610,-0.952245,0.016231,-0.026101,0.050481,-11.617111,-6.492622,-0.521484,,,,,,,1
1522315742.200275,-0.304522,-0.041610,-2.223101,0.115986,0.084225,0.029017,-0.299578,0.041598,-0.953164,0.024126,-0.057558,-0.047232,-10.491943,-8.144920,2.260742,,,,,,,1
1522315742.230243,-0.304271,-0.039795,-2.221629,-0.009430,-0.029134,0.025837,-0.299360,0.039785,-0.953310,0.012129,-0.040395,0.011797,-7.943253,-8.905327,3.315002,,,,,,,1
1522315742.260211,-0.303925,-0.042102,-2.221796,-0.112728,0.038013,0.033153,-0.299002,0.042089,-0.953323,0.019828,-0.042089,0.042374,-3.360291,-9.149223,5.043274,,,,,,,1
1522315742.290180,-0.301760,-0.044896,-2.221148,-0.066894,0.055771,0.061932,-0.296901,0.044881,-0.953853,0.047237,-0.048604,0.037761,0.307632,-9.316628,4.145813,,,,,,,1
1522315742.320148,-0.300076,-0.044802,-2.219143,0.068717,0.054414,0.056702,-0.295296,0.044787,-0.954355,0.043450,-0.019793,-0.017416,3.002701,-8.955177,2.720703,,,,,,,1
1522315742.350116,-0.299214,-0.042050,-2.217178,0.088816,-0.002935,0.043994,-0.294509,0.042037,-0.954723,0.067687,-0.039397,-0.058857,7.771271,-9.356224,-1.850281,,,,,,,1
1522315742.380085,-0.298946,-0.040210,-2.216042,0.029336,0.007139,-0.007209,-0.294275,0.040199,-0.954875,0.009393,-0.028770,-0.069722,8.500809,-9.512642,-4.999329,,,,,,,1
1522315742.410053,-0.298854,-0.039955,-2.216902,-0.039145,-0.056271,-0.032766,-0.294190,0.039945,-0.954912,0.045106,-0.039243,-0.055327,7.871689,-9.364922,-10.100220,,,,,,,1
1522315742.440022,-0.301222,-0.042036,-2.218083,-0.109862,-0.082827,-0.008289,-0.296425,0.042024,-0.954131,0.047692,-0.013383,0.048201,5.615295,-9.056343,-11.677612,,,,,,,1
1522315742.469990,-0.301463,-0.043944,-2.218200,-0.009354,0.002672,0.037519,-0.296631,0.043929,-0.953981,0.033188,0.003419,-0.016127,3.287979,-8.297523,-13.331848,,,,,,,1
1522315742.499957,-0.301120,-0.042414,-2.216658,0.083463,-0.026181,0.026966,-0.296323,0.042401,-0.954146,0.026837,-0.010419,-0.029619,4.032242,-8.376686,-14.156067,,,,,,,1
1522315742.529927,-0.300878,-0.038395,-2.215478,0.168155,0.002591,-0.014556,-0.296140,0.038385,-0.954373,0.021436,-0.028650,-0.078327,0.727707,-8.287727,-15.058105,,,,,,,1
1522315742.559894,-0.302227,-0.035459,-2.214689,0.019247,-0.101219,-0.008170,-0.297460,0.035452,-0.954076,0.039083,-0.048651,-0.100551,-0.469849,-7.682930,-15.661133,,,,,,,1
1522315742.589862,-0.304593,-0.038574,-2.216112,-0.170420,-0.034777,-0.022222,-0.299681,0.038565,-0.953259,-0.017656,-0.030905,-0.014850,-3.846817,-7.742973,-15.887634,,,,,,,1
1522315742.619831,-0.302617,-0.042260,-2.217405,-0.085978,0.053858,0.036358,-0.297753,0.042247,-0.953707,0.020837,-0.076274,-0.050474,-5.726074,-8.483986,-15.360535,,,,,,,1
1522315742.649799,-0.303214,-0.043783,-2.215162,-0.006692,-0.039245,0.104690,-0.298303,0.043769,-0.953467,0.015573,-0.070152,0.024542,-7.913971,-10.273308,-14.529480,,,,,,,1
1522315742.679767,-0.303490,-0.043170,-2.212508,0.052271,-0.023247,0.073825,-0.298574,0.043157,-0.953410,0.054510,-0.067494,-0.016561,-8.146149,-11.171959,-14.226013,,,,,,,1
1522315742.709735,-0.305345,-0.043235,-2.211096,-0.073656,-0.073560,0.019442,-0.300341,0.043222,-0.952852,0.042361,-0.044107,0.110216,-9.273315,-12.065758,-13.098022,,,,,,,1
1522315742.739704,-0.303698,-0.044320,-2.212809,-0.023167,0.142546,-0.056384,-0.298757,0.044306,-0.953300,-0.014033,-0.001902,0.007652,-9.725952,-13.411919,-11.292847,,,,,,,1
1522315742.769672,-0.297715,-0.041541,-2.213981,0.113710,0.177374,-0.069113,-0.293084,0.041529,-0.955184,0.010765,-0.071528,-0.215424,-8.668335,-12.966164,-10.769104,,,,,,,1
1522315742.799640,-0.298387,-0.038259,-2.213948,0.046427,-0.201361,0.017531,-0.293764,0.038249,-0.955112,0.084932,-0.027522,-0.139202,-9.041794,-13.712975,-9.266296,,,,,,,1
1522315742.829608,-0.304312,-0.040226,-2.214168,-0.136608,-0.112444,-0.021050,-0.299395,0.040215,-0.953281,-0.013487,-0.001077,-0.020687,-9.258987,-13.336327,-8.592896,,,,,,,1
1522315742.859577,-0.306268,-0.047530,-2.215719,-0.309668,-0.052969,0.046944,-0.301162,0.047513,-0.952388,0.059203,0.034290,0.057384,-6.763412,-11.996346,-7.397034,,,,,,,1
1522315742.889518,-0.304927,-0.055034,-2.218336,-0.185830,0.091771,-0.029825,-0.299769,0.055007,-0.952424,0.007121,0.007615,0.041917,-5.778152,-10.875938,-7.551025,,,,,,,1
1522315742.919486,-0.304037,-0.055379,-2.217263,0.116453,-0.007417,0.065339,-0.298915,0.055351,-0.952673,0.081905,0.003548,0.033834,-2.980774,-9.312416,-6.430847,,,,,,,1
1522315742.949454,-0.303529,-0.049435,-2.213789,0.322810,0.030515,0.039873,-0.298524,0.049415,-0.953122,-0.004348,0.015450,-0.025348,-0.199768,-8.575142,-6.657410,,,,,,,1
1522315742.979423,-0.303081,-0.038319,-2.211928,0.350041,-0.008986,-0.096448,-0.298243,0.038309,-0.953721,0.024287,-0.057474,-0.166015,2.892883,-6.264977,-7.565125,,,,,,,1
1522315743.009391,-0.303597,-0.033769,-2.213806,-0.062191,-0.066195,-0.125470,-0.298784,0.033762,-0.953723,0.001360,-0.078883,-0.106198,3.718262,-4.920876,-9.745056,,,,,,,1
1522315743.039359,-0.307180,-0.040291,-2.217291,-0.312936,-0.082627,0.034187,-0.302127,0.040281,-0.952416,0.012164,-0.002134,0.027367,4.394516,-3.351311,-12.151062,,,,,,,1
1522315743.069327,-0.305698,-0.047895,-2.216782,-0.140726,0.097976,0.130032,-0.300613,0.047876,-0.952543,-0.001099,-0.006250,-0.053255,1.787979,-0.191765,-14.339966,,,,,,,1
,,,,,,,,,,,,,,,,25.313815,51.438380,13.189281,15.500000,268.945312,1522315742.994577,1
1522315743.099296,-0.304362,-0.048443,-2.211642,0.116857,-0.049460,0.153806,-0.299333,0.048424,-0.952919,0.094544,-0.062096,-0.064461,1.349976,1.010185,-14.345032,,,,,,,1
1522315743.129264,-0.308816,-0.046287,-2.207937,0.076268,-0.165584,0.058002,-0.303605,0.046271,-0.951674,0.119294,-0.004797,0.143217,1.878693,1.607430,-14.722107,,,,,,,1
1522315743.159232,-0.309028,-0.045809,-2.207980,-0.026697,0.078776,-0.051006,-0.303814,0.045793,-0.951630,0.004436,-0.005281,0.082703,2.025375,1.456474,-15.021423,,,,,,,1
1522315743.189201,-0.305929,-0.046583,-2.210287,-0.057471,0.098098,-0.069156,-0.300852,0.046566,-0.952533,-0.009618,-0.034100,0.038257,3.348175,-0.051506,-17.039795,,,,,,,1
1522315743.219169,-0.302290,-0.044188,-2.213104,0.143695,0.118269,-0.137224,-0.297417,0.044173,-0.953725,-0.049782,-0.067229,-0.077739,3.559692,-1.177818,-17.410156,,,,,,,1
1522315743.249137,-0.301677,-0.037778,-2.212999,0.191301,-0.061315,-0.002747,-0.296909,0.037769,-0.954158,0.035999,-0.102482,-0.121647,0.291229,-3.865883,-20.176025,,,,,,,1
1522315743.279105,-0.305015,-0.038071,-2.212406,-0.163594,-0.107474,0.038588,-0.300090,0.038062,-0.953151,-0.034184,-0.076392,-0.010548,-2.129669,-5.056480,-21.672485,,,,,,,1
1522315743.309074,-0.305255,-0.046761,-2.213423,-0.351897,0.075565,0.067032,-0.300208,0.046744,-0.952728,-0.015344,-0.048285,0.022033,-11.048279,-5.090218,-20.551758,,,,,,,1
1522315743.339042,-0.301741,-0.056164,-2.212242,-0.244788,0.064822,0.197118,-0.296714,0.056135,-0.953315,0.073204,-0.035139,0.057822,-14.940750,-5.146355,-19.203552,,,,,,,1
1522315743.369010,-0.300705,-0.060502,-2.206808,-0.011153,0.066113,0.233517,-0.295651,0.060465,-0.953380,0.078824,-0.013743,0.122905,-18.224091,-5.278587,-16.204651,,,,,,,1
1522315743.398978,-0.297504,-0.057807,-2.200420,0.227692,0.093974,0.114334,-0.292645,0.057775,-0.954474,0.088528,-0.030614,0.004477,-20.569168,-4.510170,-8.333862,,,,,,,1
1522315743.428947,-0.294986,-0.050216,-2.198270,0.245570,0.040073,-0.084854,-0.290360,0.050195,-0.955600,0.071244,-0.031152,-0.074399,-20.097534,-4.957924,-3.981873,,,,,,,1
1522315743.458915,-0.294939,-0.044456,-2.201924,0.059150,-0.023306,-0.222391,-0.290395,0.044442,-0.955874,0.004948,-0.028862,-0.136121,-14.587448,-5.051720,2.021240,,,,,,,1
1522315743.488883,-0.297271,-0.045190,-2.208528,-0.182908,-0.110339,-0.151092,-0.292613,0.045175,-0.955163,0.003596,-0.009957,-0.105903,-12.338409,-6.185112,3.751953,,,,,,,1
1522315743.518851,-0.299499,-0.050467,-2.212949,-0.196928,-0.034463,-0.057406,-0.294666,0.050445,-0.954268,-0.035077,-0.015808,-0.074190,-6.357666,-7.937325,3.461975,,,,,,,1
1522315743.548820,-0.301459,-0.055133,-2.213707,-0.133723,-0.080110,0.066284,-0.296463,0.055105,-0.953453,0.026565,-0.046102,0.016258,-3.140762,-8.252617,2.639832,,,,,,,1
1522315743.578788,-0.301362,-0.057494,-2.212135,0.003443,0.044837,0.079053,-0.296330,0.057463,-0.953355,0.043813,-0.049223,0.019868,-0.019211,-9.843758,0.547729,,,,,,,1
1522315743.608756,-0.302609,-0.056608,-2.208820,0.072118,-0.091487,0.099484,-0.297534,0.056578,-0.953033,0.073932,0.012514,0.077850,1.534119,-10.977470,-1.171936,,,,,,,1
1522315743.638724,-0.301843,-0.053689,-2.206480,0.156829,0.099280,-0.010395,-0.296852,0.053663,-0.953414,-0.023170,0.025896,0.003173,2.250916,-11.734962,-5.443604,,,,,,,1
1522315743.668693,-0.299179,-0.047050,-2.205123,0.203375,0.004598,-0.010270,-0.294409,0.047033,-0.954521,0.040183,-0.036260,-0.102379,0.439133,-11.878532,-7.168884,,,,,,,1
1522315743.698661,-0.299474,-0.043155,-2.206012,0.066010,-0.021001,-0.100908,-0.294743,0.043141,-0.954602,-0.023281,-0.032964,-0.089023,-1.961227,-11.418556,-7.996948,,,,,,,1
1522315743.728629,-0.301310,-0.044117,-2.207911,-0.118342,-0.084848,-0.021074,-0.296482,0.044103,-0.954019,0.015965,-0.060002,-0.041205,-5.547165,-9.827736,-8.305115,,,,,,,1
1522315743.758597,-0.302617,-0.049619,-2.209143,-0.196175,0.008394,0.041656,-0.297652,0.049598,-0.953385,-0.030534,0.005822,0.008439,-7.553329,-9.291466,-6.058228,,,,,,,1
1522315743.788566,-0.300804,-0.052351,-2.208910,-0.024446,0.015177,0.076925,-0.295883,0.052328,-0.953790,0.075042,-0.050970,-0.045981,-5.365036,-9.898079,-2.829773,,,,,,,1
1522315743.818534,-0.301808,-0.052549,-2.204713,0.046334,-0.094803,0.127171,-0.296836,0.052524,-0.953482,0.047401,-0.065998,0.042273,-2.372635,-10.661537,-2.825195,,,,,,,1
1522315743.848502,-0.304983,-0.052555,-2.201076,0.027424,-0.055287,0.103684,-0.299862,0.052531,-0.952535,0.030270,-0.040232,0.098714,-0.384583,-12.922874,-5.215149,,,,,,,1
1522315743.878471,-0.302732,-0.051283,-2.199803,0.053298,0.100640,-0.015802,-0.297737,0.051261,-0.953270,0.021446,-0.049643,0.005852,0.422974,-13.678154,-6.861755,,,,,,,1
1522315743.908447,-0.301055,-0.048497,-2.200527,0.069037,-0.022290,-0.068942,-0.296180,0.048478,-0.953901,0.032050,-0.018617,-0.033343,-0.578094,-14.351875,-10.084534,,,,,,,1
1522315743.938415,-0.302898,-0.047034,-2.203220,-0.034484,-0.018822,-0.073279,-0.297957,0.047017,-0.953420,0.007003,-0.034978,-0.006464,-2.751938,-14.416786,-9.785339,,,,,,,1
1522315743.968383,-0.301485,-0.047888,-2.204765,-0.049368,0.064747,-0.013708,-0.296598,0.047870,-0.953802,-0.023226,-0.005039,-0.083583,-5.653122,-13.651039,-7.089844,,,,,,,1
1522315743.998352,-0.300418,-0.049275,-2.204954,-0.082151,-0.036547,0.044985,-0.295560,0.049255,-0.954053,0.026670,-0.030319,-0.076296,-4.438599,-13.055077,-5.666626,,,,,,,1
1522315744.028320,-0.304259,-0.052583,-2.204741,-0.126452,-0.147990,0.046109,-0.299172,0.052559,-0.952750,0.043267,-0.045418,0.086600,-3.749069,-12.681389,-3.867798,,,,,,,1
1522315744.058288,-0.305511,-0.055087,-2.203337,-0.018029,0.019408,0.077988,-0.300324,0.055059,-0.952247,0.029541,0.020564,0.065619,-0.282181,-10.672523,-4.399048,,,,,,,1
,,,,,,,,,,,,,,,,25.313811,51.438192,13.463157,14.920000,269.296875,1522315743.994564,1
1522315744.088256,-0.303254,-0.052967,-2.201329,0.126739,0.081144,0.010909,-0.298209,0.052943,-0.953031,0.037649,0.015585,-0.004672,1.073425,-9.479683,-5.453186,,,,,,,1
1522315744.118225,-0.302773,-0.048067,-2.200130,0.162681,-0.042988,-0.028368,-0.297824,0.048048,-0.953411,0.037448,-0.013395,0.029842,0.685654,-8.955925,-8.455505,,,,,,,1
1522315744.148193,-0.302150,-0.044345,-2.199772,0.122751,0.084701,-0.040243,-0.297281,0.044331,-0.953760,0.008325,-0.010395,-0.026632,-0.080811,-9.703987,-9.952881,,,,,,,1
1522315744.178161,-0.300317,-0.039946,-2.199491,0.148047,-0.003474,-0.052918,-0.295587,0.039936,-0.954481,-0.002585,-0.031132,-0.069338,-1.908478,-11.123009,-12.198120,,,,,,,1
1522315744.208129,-0.301390,-0.037113,-2.200682,0.031459,-0.065776,-0.066797,-0.296643,0.037104,-0.954267,0.023694,-0.013957,-0.040011,-3.119202,-12.017860,-12.495117,,,,,,,1
1522315744.238098,-0.302123,-0.037488,-2.202233,-0.058241,0.003074,-0.004066,-0.297339,0.037479,-0.954036,0.034750,-0.005100,-0.039632,-3.064148,-13.294289,-13.690002,,,,,,,1
1522315744.268066,-0.301054,-0.039545,-2.201865,-0.066858,0.046294,0.048097,-0.296295,0.039535,-0.954278,-0.016510,0.000565,-0.074333,-2.246399,-13.523796,-14.513672,,,,,,,1
1522315744.298034,-0.300734,-0.041495,-2.200845,-0.047102,-0.033656,0.079084,-0.295966,0.041483,-0.954297,0.040259,-0.038752,-0.013339,-4.958130,-13.887947,-15.863586,,,,,,,1
1522315744.328002,-0.300851,-0.041497,-2.198752,0.077314,0.038580,0.035430,-0.296078,0.041485,-0.954262,-0.005894,-0.058117,-0.000938,-5.709747,-13.959709,-16.013611,,,,,,,1
1522315744.357971,-0.299792,-0.038395,-2.196900,0.111352,-0.007078,0.019514,-0.295104,0.038386,-0.954693,0.022979,-0.028452,-0.079517,-7.569351,-13.724174,-13.840515,,,,,,,1
1522315744.387939,-0.300308,-0.037055,-2.197054,-0.019798,-0.010766,-0.015735,-0.295612,0.037046,-0.954589,0.015445,-0.057264,-0.046540,-7.569168,-14.472893,-12.562561,,,,,,,1
1522315744.417907,-0.299826,-0.037931,-2.197216,-0.044462,0.010283,0.022582,-0.295142,0.037922,-0.954700,-0.010187,-0.019428,-0.105160,-7.267197,-14.998055,-11.360291,,,,,,,1
1522315744.447875,-0.301350,-0.040735,-2.196209,-0.118905,-0.087727,0.085487,-0.296563,0.040724,-0.954144,0.026147,-0.040510,-0.033282,-6.893814,-16.422630,-9.254395,,,,,,,1
1522315744.477844,-0.303240,-0.044447,-2.195431,-0.113278,-0.062008,0.052435,-0.298319,0.044433,-0.953431,0.027445,-0.052642,0.074174,-7.050369,-17.621025,-8.349670,,,,,,,1
1522315744.507812,-0.303070,-0.046919,-2.194934,-0.052829,0.045394,0.019342,-0.298123,0.046902,-0.953374,0.009351,-0.030224,0.040487,-5.624954,-18.301231,-7.146240,,,,,,,1
1522315744.537780,-0.300408,-0.046191,-2.195444,0.035242,0.099743,-0.033924,-0.295595,0.046175,-0.954197,-0.002761,-0.053453,-0.054470,-5.618927,-18.599754,-5.645020,,,,,,,1
1522315744.567749,-0.298501,-0.043251,-2.195511,0.068893,0.001786,-0.018877,-0.293812,0.043238,-0.954884,-0.014293,-0.067042,-0.065150,-3.957779,-17.931480,-4.896912,,,,,,,1
1522315744.597717,-0.299559,-0.043426,-2.195246,-0.068121,-0.005719,0.040690,-0.294821,0.043412,-0.954566,-0.009913,-0.031846,0.019065,-3.730377,-17.557732,-5.123230,,,,,,,1
1522315744.627685,-0.298837,-0.046163,-2.194685,-0.109735,0.030325,0.067263,-0.294095,0.046147,-0.954661,0.029584,-0.041096,0.018626,-2.236328,-17.116173,-6.849304,,,,,,,1
1522315744.657653,-0.297476,-0.048914,-2.193573,-0.083898,0.043206,0.038505,-0.292757,0.048894,-0.954936,0.045397,-0.015981,0.032725,-2.313431,-16.741814,-7.825806,,,,,,,1
1522315744.687622,-0.295676,-0.050007,-2.193207,-0.018659,0.053732,0.027896,-0.291022,0.049987,-0.955409,0.057197,-0.004759,-0.000539,-2.549423,-16.443062,-10.152161,,,,,,,1
1522315744.717590,-0.296213,-0.049918,-2.191787,0.009637,-0.041007,0.045045,-0.291537,0.049897,-0.955257,0.059847,0.020065,0.060100,-4.573425,-16.209190,-10.379089,,,,,,,1
1522315744.747558,-0.295480,-0.049548,-2.190780,0.014463,0.044223,0.011930,-0.290842,0.049528,-0.955488,0.039240,-0.014188,0.031904,-5.470566,-15.830299,-10.531067,,,,,,,1
1522315744.777526,-0.293380,-0.048870,-2.190949,0.037342,0.071160,-0.050937,-0.288844,0.048850,-0.956129,0.026240,0.002068,-0.036562,-5.606323,-14.404701,-10.536804,,,,,,,1
1522315744.807495,-0.291391,-0.046344,-2.192633,0.084221,0.019165,-0.077491,-0.286977,0.046328,-0.956816,0.022679,-0.031038,-0.117067,-5.822952,-13.653572,-10.389893,,,,,,,1
1522315744.837463,-0.293212,-0.045880,-2.194347,-0.086499,-0.120045,-0.014617,-0.288725,0.045864,-0.956313,0.051649,-0.034817,-0.052217,-5.797821,-10.729378,-11.076660,,,,,,,1
1522315744.867431,-0.296598,-0.050751,-2.195586,-0.207249,-0.094547,0.027893,-0.291892,0.050729,-0.955105,0.048118,0.033347,0.126293,-5.334396,-8.932228,-11.833618,,,,,,,1
1522315744.897405,-0.294197,-0.053690,-2.194694,0.012535,0.146943,0.061910,-0.289554,0.053664,-0.955656,0.049380,0.008897,-0.002367,-5.316147,-6.832756,-12.291931,,,,,,,1
1522315744.927374,-0.291459,-0.050009,-2.191725,0.196609,0.005178,0.060054,-0.286991,0.049988,-0.956628,0.082096,-0.017838,-0.047965,-5.235611,-6.233208,-12.369324,,,,,,,1
1522315744.957342,-0.289793,-0.043718,-2.189222,0.258270,0.101132,-0.009246,-0.285480,0.043704,-0.957387,0.016895,-0.039844,-0.156230,-5.988892,-5.930870,-13.420898,,,,,,,1
1522315744.987310,-0.288348,-0.036960,-2.187877,0.168284,-0.001518,-0.039038,-0.284174,0.036951,-0.958060,-0.000555,-0.068873,-0.226693,-7.260544,-5.999474,-12.746277,,,,,,,1
1522315745.017278,-0.291972,-0.037611,-2.190455,-0.229682,-0.226533,-0.083871,-0.287638,0.037602,-0.957001,0.037027,-0.090261,-0.084076,-9.048737,-6.214088,-10.421265,,,,,,,1
1522315745.047247,-0.295483,-0.048824,-2.194206,-0.437282,0.017674,0.014835,-0.290854,0.048804,-0.955522,0.042914,-0.020133,-0.000197,-8.215500,-6.066719,-9.296448,,,,,,,1
,,,,,,,,,,,,,,,,25.313824,51.438058,13.461211,14.180000,273.867188,1522315744.994551,1
1522315745.077215,-0.294295,-0.060026,-2.195539,-0.300088,0.009249,0.108703,-0.289543,0.059990,-0.955283,0.042686,0.023568,-0.007867,-8.358612,-6.139793,-8.021240,,,,,,,1
1522315745.107183,-0.294666,-0.065583,-2.193891,-0.045976,-0.013563,0.088674,-0.289796,0.065536,-0.954842,0.052918,-0.014449,0.019295,-6.011948,-5.098488,-6.149231,,,,,,,1
1522315745.137152,-0.294674,-0.062885,-2.191110,0.185986,-0.012682,0.034492,-0.289854,0.062844,-0.955005,0.044248,-0.031899,-0.001034,-4.197205,-3.981056,-5.552795,,,,,,,1
1522315745.167120,-0.294163,-0.057801,-2.190587,0.132276,0.020100,-0.077450,-0.289455,0.057769,-0.955447,0.006297,-0.043959,-0.039075,-2.890167,-2.034843,-3.459961,,,,,,,1
1522315745.197088,-0.294139,-0.055705,-2.193352,-0.017324,-0.038863,-0.103068,-0.289466,0.055676,-0.955568,0.009406,-0.063733,-0.059844,-1.755325,-1.139809,-3.312927,,,,,,,1
1522315745.227056,-0.294190,-0.055375,-2.196167,-0.039802,-0.002951,-0.062639,-0.289520,0.055347,-0.955570,-0.009079,-0.011890,-0.081753,1.833405,-1.681923,-4.283997,,,,,,,1
1522315745.257025,-0.296287,-0.058039,-2.197032,-0.157297,-0.115069,0.055665,-0.291480,0.058007,-0.954816,0.055716,-0.038216,0.056257,0.465927,-2.801811,-5.330200,,,,,,,1
1522315745.286993,-0.297497,-0.063796,-2.194929,-0.170972,0.015151,0.129045,-0.292532,0.063753,-0.954128,0.039846,-0.019853,0.129528,-0.468628,-5.498878,-6.594910,,,,,,,1
1522315745.316961,-0.294129,-0.067001,-2.191727,0.017681,0.166735,0.116239,-0.289256,0.066951,-0.954907,0.031871,-0.014385,0.067624,0.273849,-6.252220,-6.591492,,,,,,,1
1522315745.346929,-0.288001,-0.063334,-2.187576,0.207806,0.153699,0.089754,-0.283466,0.063292,-0.956891,0.084919,-0.056548,-0.041171,-0.496140,-8.797829,-5.681702,,,,,,,1
1522315745.376898,-0.286503,-0.057111,-2.184008,0.231877,-0.011778,0.039858,-0.282138,0.057080,-0.957674,0.063999,-0.039380,-0.028013,0.250092,-9.400826,-5.303894,,,,,,,1
1522315745.406866,-0.285851,-0.052280,-2.181955,0.135134,0.050239,0.016297,-0.281588,0.052256,-0.958111,0.031695,-0.017558,-0.071781,1.145126,-10.079536,-5.000732,,,,,,,1
1522315745.436834,-0.285638,-0.049896,-2.181278,0.006554,-0.069367,-0.001808,-0.281419,0.049876,-0.958288,0.044465,-0.063212,-0.077952,1.947647,-12.108528,-5.367249,,,,,,,1
1522315745.466802,-0.287518,-0.053524,-2.181984,-0.213630,-0.083950,0.033211,-0.283167,0.053498,-0.957577,0.072749,-0.031022,0.082684,2.381149,-13.086601,-6.488098,,,,,,,1
1522315745.496771,-0.289075,-0.059719,-2.181588,-0.159253,-0.028211,0.096064,-0.284557,0.059683,-0.956799,0.052624,-0.021353,0.147320,1.379959,-14.583961,-8.357605,,,,,,,1
1522315745.526739,-0.285571,-0.059171,-2.179110,0.179118,0.137047,0.049263,-0.281213,0.059137,-0.957821,0.012292,-0.019036,0.007931,2.036774,-15.638176,-9.628052,,,,,,,1
1522315745.556707,-0.283418,-0.050639,-2.175974,0.319795,0.014890,-0.006981,-0.279280,0.050617,-0.958874,0.062560,-0.046208,-0.090549,1.881973,-15.713158,-10.302856,,,,,,,1
1522315745.586675,-0.284265,-0.043819,-2.175497,0.131664,-0.093734,-0.058156,-0.280182,0.043805,-0.958947,0.046464,-0.061826,-0.128944,1.730194,-15.712776,-10.602966,,,,,,,1
1522315745.616644,-0.288089,-0.043749,-2.177111,-0.111833,-0.094281,-0.045549,-0.283848,0.043735,-0.957871,-0.028636,-0.034763,-0.038040,-0.132904,-14.429558,-10.758972,,,,,,,1
1522315745.646612,-0.287207,-0.047345,-2.179224,-0.133959,0.036077,0.010779,-0.282958,0.047328,-0.957964,0.024626,-0.064540,-0.045363,0.325882,-13.456764,-10.912659,,,,,,,1
1522315745.676580,-0.288876,-0.050709,-2.176826,-0.074525,-0.123368,0.147379,-0.284508,0.050687,-0.957332,0.069146,-0.055142,0.044460,0.263443,-11.657402,-11.819885,,,,,,,1
1522315745.706548,-0.289723,-0.051952,-2.172701,0.059853,0.047614,0.116392,-0.285301,0.051929,-0.957030,0.012749,-0.050556,0.023238,0.190964,-10.683281,-13.023804,,,,,,,1
1522315745.736517,-0.286520,-0.048379,-2.169632,0.168390,0.111635,0.038633,-0.282285,0.048361,-0.958111,0.029584,-0.042822,-0.088276,-0.025360,-9.632607,-13.328125,,,,,,,1
1522315745.766485,-0.283821,-0.043309,-2.169107,0.135277,0.002915,-0.052921,-0.279763,0.043296,-0.959092,0.049691,-0.084800,-0.049376,-0.098846,-9.482277,-13.328796,,,,,,,1
1522315745.796453,-0.285887,-0.041223,-2.169765,-0.071101,-0.063522,-0.050883,-0.281769,0.041212,-0.958596,0.000367,-0.039533,-0.062079,-0.090027,-8.732094,-13.106750,,,,,,,1
1522315745.826422,-0.286274,-0.047117,-2.171488,-0.301215,-0.070070,0.053385,-0.282066,0.047100,-0.958238,-0.008156,-0.042766,-0.068206,1.334885,-8.064629,-14.233704,,,,,,,1
