timestamp(unix),attitude_roll(radians),attitude_pitch(radians),attitude_yaw(radians),rotation_rate_x(radians/s),rotation_rate_y(radians/s),rotation_rate_z(radians/s),gravity_x(G),gravity_y(G),gravity_z(G),user_acc_x(G),user_acc_y(G),user_acc_z(G),magnetic_field_x(microteslas),magnetic_field_y(microteslas),magnetic_field_z(microteslas),latitude(degree),longitude(degree),altitude(meter),speed(m/s),course(degree),timestamp(unix),User Mark
1523696329.589474,-0.599730,-0.019784,1.639878,-0.064010,0.014335,0.064810,-0.564309,0.019783,-0.825326,0.144555,0.009056,-0.141440,-1.218201,-30.647701,2.584167,,,,,,,
,,,,,,,,,,,,,,,,25.318876,51.456993,13.955820,10.580000,263.320312,1523696328.996464,
1523696329.619442,-0.599780,-0.022749,1.640752,-0.005595,-0.058062,0.062803,-0.564314,0.022747,-0.825246,0.171782,-0.019024,-0.076487,-1.970123,-30.794384,2.509399,,,,,,,
1523696329.649411,-0.599510,-0.022136,1.641729,0.038884,0.015662,-0.009699,-0.564100,0.022135,-0.825409,0.135145,-0.046381,-0.149169,-1.593781,-30.795849,2.734619,,,,,,,
1523696329.679379,-0.597147,-0.021410,1.641444,0.002809,0.050920,-0.023618,-0.562156,0.021408,-0.826753,0.140510,-0.043197,-0.189131,-1.294083,-30.872128,2.810059,,,,,,,
1523696329.709347,-0.595022,-0.021264,1.640806,-0.017617,0.025416,-0.017208,-0.560400,0.021263,-0.827948,0.164343,-0.022972,-0.151361,-1.367722,-30.871578,3.035034,,,,,,,
1523696329.739316,-0.594128,-0.021276,1.640394,-0.011306,0.014729,-0.009740,-0.559659,0.021274,-0.828449,0.154554,-0.012210,-0.089840,-0.844864,-30.724529,2.434692,,,,,,,
1523696329.769284,-0.590835,-0.020993,1.639813,-0.000956,0.156163,-0.029052,-0.556932,0.020992,-0.830293,0.136171,-0.018871,-0.094298,-0.995895,-31.098400,2.886108,,,,,,,
1523696329.799252,-0.584676,-0.020141,1.639006,-0.009594,0.122254,-0.039678,-0.551817,0.020140,-0.833722,0.123045,-0.031325,-0.176395,-1.588837,-30.570431,3.183716,,,,,,,
1523696329.829220,-0.583425,-0.020879,1.637224,-0.085056,-0.030630,-0.032119,-0.550766,0.020878,-0.834399,0.125366,0.026394,-0.157194,-1.440475,-30.870876,3.409973,,,,,,,
1523696329.859189,-0.584475,-0.022248,1.635544,-0.046853,-0.062710,-0.016080,-0.551625,0.022246,-0.833795,0.126439,0.057268,-0.097952,-0.764023,-30.499294,3.033813,,,,,,,
1523696329.889157,-0.585581,-0.022458,1.634974,-0.008344,-0.042638,-0.012875,-0.552545,0.022456,-0.833181,0.113244,0.040654,-0.049937,-1.517441,-30.795971,2.959656,,,,,,,
1523696329.919125,-0.584604,-0.022229,1.634407,-0.001559,0.013839,-0.037437,-0.551733,0.022228,-0.833724,0.085684,0.004140,-0.046784,-0.988861,-30.348507,2.808167,,,,,,,
1523696329.949093,-0.582425,-0.023042,1.632327,-0.092043,0.053475,-0.052453,-0.549905,0.023040,-0.834909,0.058618,-0.024383,-0.069067,-1.442001,-30.571621,2.658752,,,,,,,
1523696329.979062,-0.579951,-0.025320,1.629153,-0.119768,0.063129,-0.053560,-0.547808,0.025318,-0.836221,0.033220,-0.048374,-0.051413,-1.297394,-31.022411,2.510620,,,,,,,
1523696330.009030,-0.576473,-0.027087,1.626575,-0.076949,0.114912,-0.029068,-0.544870,0.027084,-0.838082,0.016565,-0.077346,-0.093772,-0.699539,-31.100323,2.286255,,,,,,,
1523696330.038998,-0.573094,-0.026556,1.625116,0.017921,0.016251,-0.085373,-0.542043,0.026553,-0.839931,-0.031810,-0.021457,-0.065190,-0.402390,-31.251888,2.062073,,,,,,,
,,,,,,,,,,,,,,,,25.318867,51.456855,13.417157,11.280000,264.375000,1523696329.996453,
1523696330.068966,-0.574634,-0.024724,1.621557,-0.084487,0.011318,-0.104616,-0.543361,0.024721,-0.839134,0.054317,-0.032823,-0.027534,-1.455490,-31.696926,2.288269,,,,,,,
1523696330.098935,-0.562347,-0.030561,1.619458,-0.280254,0.652116,0.110889,-0.532924,0.030556,-0.845611,-0.123128,-0.026650,-0.325883,-1.153259,-31.248653,1.911621,,,,,,,
1523696330.128906,-0.545453,-0.036926,1.617959,-0.112558,0.327190,0.019698,-0.518451,0.036917,-0.854309,-0.074536,0.006341,-0.422668,-1.310730,-31.773327,1.538635,,,,,,,
1523696330.158905,-0.544536,-0.038666,1.620088,0.015012,-0.114009,0.155567,-0.517634,0.038656,-0.854728,0.028285,-0.010168,-0.267266,-1.686752,-31.921551,1.614075,,,,,,,
1523696330.188873,-0.548194,-0.039817,1.625180,0.109196,-0.078026,0.142815,-0.520734,0.039806,-0.852790,-0.055255,-0.026302,-0.212990,-1.682419,-31.621349,1.837830,,,,,,,
1523696330.218841,-0.548783,-0.037225,1.630016,0.124770,-0.020201,0.073512,-0.521288,0.037216,-0.852569,0.021074,-0.097977,-0.263627,-2.797928,-30.940884,2.284607,,,,,,,
1523696330.248810,-0.549277,-0.038547,1.631521,-0.091809,-0.045824,0.017958,-0.521683,0.038537,-0.852269,-0.004700,-0.033059,-0.276531,-3.322174,-30.863522,2.283997,,,,,,,
1523696330.278778,-0.558209,-0.039313,1.627433,-0.068025,-0.456756,-0.186182,-0.529259,0.039303,-0.847549,-0.002266,0.065891,-0.064575,-2.791931,-30.565533,2.658081,,,,,,,
1523696330.308746,-0.572958,-0.037034,1.621501,-0.024097,-0.447126,-0.209610,-0.541748,0.037026,-0.839724,0.029526,0.078437,0.161944,-3.393860,-30.712902,2.583374,,,,,,,
1523696330.338714,-0.581307,-0.034912,1.616094,-0.064681,-0.171011,-0.172621,-0.548782,0.034905,-0.835236,0.028289,0.083397,0.234971,-3.248810,-30.939007,2.134338,,,,,,,
1523696330.368683,-0.586313,-0.034870,1.612701,-0.060135,-0.192169,-0.037268,-0.552957,0.034862,-0.832480,0.108362,0.073185,0.259558,-2.867233,-30.415508,2.357483,,,,,,,
1523696330.398651,-0.593350,-0.037700,1.611584,-0.140905,-0.250985,0.044776,-0.558744,0.037691,-0.828483,0.126813,0.035033,0.358696,-3.171707,-30.864132,2.359070,,,,,,,
1523696330.428619,-0.601576,-0.041305,1.612062,-0.019424,-0.273798,0.071533,-0.565460,0.041293,-0.823741,0.168304,-0.012134,0.465801,-3.172165,-30.639584,1.908203,,,,,,,
1523696330.458587,-0.606096,-0.040548,1.616846,0.135229,-0.040578,0.096979,-0.569195,0.040537,-0.821202,0.192395,-0.041818,0.483464,-2.573853,-30.717419,1.758789,,,,,,,
1523696330.488556,-0.605125,-0.038487,1.621820,0.139885,0.014831,0.072425,-0.568444,0.038477,-0.821822,0.223198,-0.033122,0.491942,-3.475906,-31.013210,1.909546,,,,,,,
1523696330.518524,-0.605322,-0.036191,1.625597,0.135675,0.012828,0.057501,-0.568654,0.036183,-0.821780,0.243794,-0.025426,0.534686,-2.654251,-31.391827,1.986450,,,,,,,
1523696330.548492,-0.600128,-0.033396,1.629556,0.161606,0.312488,0.049748,-0.564433,0.033390,-0.824803,0.210292,-0.012775,0.523946,-1.901291,-31.095226,1.985657,,,,,,,
1523696330.578460,-0.584771,-0.029123,1.632987,0.188996,0.630554,-0.011276,-0.551775,0.029119,-0.833484,0.150774,-0.049139,0.362858,-2.501541,-31.167446,2.060669,,,,,,,
1523696330.608429,-0.562818,-0.025299,1.633705,0.049952,0.733363,-0.077536,-0.533401,0.025296,-0.845484,0.053405,-0.069195,0.053263,-2.352463,-31.168270,1.910706,,,,,,,
1523696330.638397,-0.545063,-0.023690,1.631003,-0.028592,0.559553,-0.113655,-0.518326,0.023687,-0.854855,-0.010833,-0.074621,-0.165653,-1.224503,-30.873348,1.910095,,,,,,,
1523696330.668365,-0.527328,-0.023568,1.628140,-0.041691,0.526469,-0.088062,-0.503086,0.023565,-0.863915,-0.126385,-0.009665,-0.407020,-1.608490,-31.546978,1.537598,,,,,,,
1523696330.698333,-0.521759,-0.021956,1.624010,-0.003050,0.002023,-0.170615,-0.498285,0.021954,-0.866735,-0.081442,0.047717,-0.282099,-1.235138,-31.848446,1.763977,,,,,,,
1523696330.728302,-0.520711,-0.021482,1.621291,-0.075862,0.134988,-0.014165,-0.497383,0.021481,-0.867265,-0.010918,0.103687,-0.167632,-0.703583,-31.325603,1.987183,,,,,,,
1523696330.758270,-0.511725,-0.021941,1.620641,0.047628,0.469777,-0.066627,-0.489564,0.021939,-0.871691,-0.263732,0.144336,-0.284849,-1.081406,-31.474133,1.762573,,,,,,,
1523696330.788238,-0.486570,-0.017113,1.619104,0.148841,1.066056,-0.124691,-0.467528,0.017112,-0.883812,-0.367768,-0.114708,-0.873726,-1.160141,-31.848782,1.763977,,,,,,,
1523696330.818206,-0.451724,-0.015497,1.619643,-0.069722,1.101485,0.051992,-0.436465,0.015496,-0.899588,-0.485837,-0.254723,-1.222071,-1.004761,-31.174709,1.536438,,,,,,,
1523696330.848175,-0.434645,-0.023656,1.617822,-0.408251,0.140626,0.056975,-0.420971,0.023654,-0.906766,-0.436680,-0.261661,-1.021930,-1.765961,-31.847027,0.788696,,,,,,,
1523696330.878143,-0.444013,-0.036855,1.614223,-0.413701,-0.569322,0.077925,-0.429275,0.036847,-0.902422,-0.306244,-0.222577,-0.591505,-2.591705,-31.693691,0.412720,,,,,,,
1523696330.908111,-0.468675,-0.044290,1.612533,-0.134335,-0.935294,0.039087,-0.451262,0.044275,-0.891293,-0.166185,-0.102411,-0.129841,-1.613464,-31.323162,0.336670,,,,,,,
1523696330.938080,-0.494889,-0.047164,1.610488,-0.168271,-0.775024,-0.072987,-0.474406,0.047146,-0.879043,-0.050496,0.034076,0.141997,-1.612549,-31.323025,0.486694,,,,,,,
1523696330.968048,-0.510573,-0.051460,1.602583,-0.259311,-0.290317,-0.214196,-0.488030,0.051438,-0.871310,0.157464,0.127960,0.320254,-1.463470,-31.099209,-0.039124,,,,,,,
1523696330.998016,-0.514687,-0.052591,1.595516,-0.075112,-0.084068,-0.142875,-0.491581,0.052567,-0.869244,0.219060,0.223678,0.388103,-0.119675,-31.405788,-0.562195,,,,,,,
1523696331.027984,-0.516729,-0.051949,1.593178,0.008022,-0.011604,-0.051245,-0.493373,0.051926,-0.868267,0.173289,0.172409,0.469585,-0.867981,-31.551891,-0.037048,,,,,,,
,,,,,,,,,,,,,,,,25.318870,51.456891,13.366913,6.800000,264.726562,1523696330.996442,
1523696331.057953,-0.513638,-0.050483,1.592589,0.022386,0.154857,-0.002396,-0.490723,0.050462,-0.869853,0.252442,0.006957,0.460948,-0.421005,-31.629284,-0.411499,,,,,,,
1523696331.087951,-0.509287,-0.053281,1.593562,-0.108551,0.139485,0.114730,-0.486863,0.053256,-0.871853,0.261674,-0.009784,0.485638,-0.495865,-31.479168,-0.637085,,,,,,,
1523696331.117908,-0.505683,-0.055748,1.596550,0.071472,0.046584,0.114962,-0.483653,0.055719,-0.873485,0.282771,0.000952,0.471202,-1.470535,-31.175228,-1.088806,,,,,,,
1523696331.147877,-0.507515,-0.052148,1.601593,0.232268,-0.088513,0.078988,-0.485347,0.052124,-0.872767,0.242610,0.026565,0.465006,-1.097183,-31.476681,-0.862427,,,,,,,
1523696331.177845,-0.509396,-0.046773,1.606902,0.249531,-0.081992,0.051295,-0.487117,0.046756,-0.872084,0.182567,-0.012255,0.428267,-1.916901,-31.172619,-0.489075,,,,,,,
1523696331.207813,-0.513077,-0.041690,1.611591,0.202062,-0.191324,0.051371,-0.490434,0.041678,-0.870481,0.121797,-0.048239,0.403867,-2.588272,-31.169003,0.110596,,,,,,,
1523696331.237782,-0.522300,-0.038809,1.616427,0.133556,-0.382932,0.123968,-0.498499,0.038799,-0.866022,0.068415,-0.092281,0.386316,-1.987839,-30.947002,-0.189941,,,,,,,
1523696331.267750,-0.529827,-0.038317,1.621698,0.033309,-0.099075,0.140649,-0.505013,0.038307,-0.862261,-0.034080,-0.055656,0.208315,-1.905045,-30.796322,0.859436,,,,,,,
1523696331.297718,-0.527854,-0.041227,1.624591,-0.003742,0.127840,0.071134,-0.503252,0.041216,-0.863156,-0.042738,0.074095,0.015561,-3.331787,-30.790203,0.558716,,,,,,,
1523696331.327686,-0.524434,-0.037488,1.626173,0.204723,0.031561,-0.062868,-0.500372,0.037479,-0.864999,-0.051722,0.046215,-0.155082,-3.700333,-30.413097,1.007019,,,,,,,
1523696331.357655,-0.531042,-0.028729,1.628514,0.343819,-0.423292,-0.103863,-0.506223,0.028725,-0.861924,-0.173708,0.055229,-0.143050,-2.872635,-30.416378,1.457458,,,,,,,
1523696331.387623,-0.549075,-0.017265,1.629599,0.304748,-0.668046,-0.192079,-0.521820,0.017264,-0.852881,-0.264679,0.068002,-0.036279,-3.467819,-30.338024,2.131836,,,,,,,
1523696331.417591,-0.561430,-0.011865,1.627842,-0.031740,-0.123791,-0.100183,-0.532360,0.011865,-0.846435,-0.317647,0.024817,-0.072968,-3.168427,-30.264599,1.906677,,,,,,,
1523696331.447559,-0.553013,-0.015010,1.623787,-0.224660,0.467223,-0.061493,-0.525194,0.015009,-0.850850,-0.424437,-0.060267,-0.279536,-3.174118,-30.565014,1.457886,,,,,,,
1523696331.477528,-0.541064,-0.016189,1.617368,-0.057657,0.349109,-0.248783,-0.514981,0.016188,-0.857049,-0.458942,-0.064910,-0.336738,-3.551346,-30.788326,1.458557,,,,,,,
1523696331.507496,-0.529899,-0.009980,1.611179,0.132118,0.459540,-0.305222,-0.505421,0.009980,-0.862815,-0.476024,-0.120286,-0.383218,-2.200531,-30.569622,1.233398,,,,,,,
1523696331.537464,-0.512848,-0.003017,1.606367,0.053087,0.551580,-0.220127,-0.490658,0.003017,-0.871347,-0.503085,-0.197536,-0.447242,-2.807999,-31.092266,0.860168,,,,,,,
1523696331.567433,-0.505080,-0.005698,1.604084,-0.240467,-0.002545,0.108392,-0.483870,0.005698,-0.875122,-0.327364,-0.206458,-0.199830,-2.141571,-31.545940,0.187378,,,,,,,
1523696331.597401,-0.510987,-0.016791,1.607457,-0.264362,-0.274149,0.360109,-0.488969,0.016790,-0.872139,-0.142912,-0.149770,0.035408,-1.472000,-31.774471,-0.336426,,,,,,,
1523696331.627368,-0.518825,-0.026353,1.614739,-0.085604,-0.185248,0.348428,-0.495688,0.026350,-0.868101,-0.007486,-0.021498,0.157896,-1.612122,-31.098324,0.185852,,,,,,,
1523696331.657336,-0.516087,-0.028368,1.623034,0.235088,0.219739,0.215071,-0.493282,0.028365,-0.869407,0.105098,0.025011,0.169090,-2.357590,-30.644970,0.183655,,,,,,,
1523696331.687305,-0.508964,-0.021456,1.630787,0.352497,0.241943,0.037196,-0.487161,0.021454,-0.873049,0.076120,0.076904,0.129259,-2.284836,-30.870296,0.184570,,,,,,,
1523696331.717273,-0.506480,-0.014757,1.631778,0.082955,-0.059079,-0.127853,-0.485050,0.014757,-0.874362,0.075473,0.163038,0.039523,-2.954849,-30.641827,0.633301,,,,,,,
1523696331.747241,-0.512231,-0.015323,1.628974,-0.157420,-0.201627,-0.019209,-0.490066,0.015322,-0.871551,0.058776,0.162198,0.043639,-2.352493,-30.269772,0.407104,,,,,,,
