timestamp(unix),attitude_roll(radians),attitude_pitch(radians),attitude_yaw(radians),rotation_rate_x(radians/s),rotation_rate_y(radians/s),rotation_rate_z(radians/s),gravity_x(G),gravity_y(G),gravity_z(G),user_acc_x(G),user_acc_y(G),user_acc_z(G),magnetic_field_x(microteslas),magnetic_field_y(microteslas),magnetic_field_z(microteslas),latitude(degree),longitude(degree),altitude(meter),speed(m/s),course(degree),timestamp(unix),User Mark
1522136608.671698,-0.164316,0.033819,-0.994593,0.228981,-0.249919,-0.028120,-0.163484,-0.033812,-0.985966,-0.049239,-0.042009,0.004521,13.583206,2.441236,0.036377,,,,,,,
,,,,,,,,,,,,,,,,25.315296,51.435403,12.115932,-1.000000,-1.000000,1522136593.111284,
1522136608.701666,-0.170608,0.036225,-0.994566,-0.011974,-0.166490,-0.020923,-0.169670,-0.036217,-0.984835,-0.044625,-0.016288,0.016878,13.509842,2.741331,-0.189880,,,,,,,
1522136608.731635,-0.175399,0.034160,-0.996878,-0.109782,-0.150894,-0.088142,-0.174399,-0.034154,-0.984082,-0.049631,-0.018382,0.035901,13.733475,2.740110,-0.414795,,,,,,,
1522136608.761603,-0.178204,0.031170,-1.000134,-0.104043,-0.050036,-0.077583,-0.177176,-0.031165,-0.983685,-0.041543,-0.021433,0.029156,14.194122,3.263929,0.483398,,,,,,,
1522136608.791571,-0.178834,0.030555,-1.002326,0.011277,-0.038686,-0.070051,-0.177800,-0.030550,-0.983592,-0.028530,-0.014189,-0.028737,14.188553,3.337904,-0.566895,,,,,,,
1522136608.821539,-0.183528,0.031639,-1.004360,0.000749,-0.238451,-0.066663,-0.182408,-0.031634,-0.982714,-0.028942,-0.038541,-0.031202,13.744278,3.640348,-0.118408,,,,,,,
1522136608.851508,-0.189374,0.029540,-1.006680,-0.137737,-0.157408,-0.057262,-0.188162,-0.029536,-0.981693,-0.035456,-0.028768,-0.027630,13.667328,3.490629,-0.192810,,,,,,,
1522136608.881476,-0.192599,0.024744,-1.009243,-0.169492,-0.081974,-0.044574,-0.191352,-0.024741,-0.981209,-0.043145,-0.023782,-0.032264,14.643021,3.785856,-0.568481,,,,,,,
1522136608.911444,-0.196130,0.022303,-1.010745,-0.027985,-0.174903,-0.028382,-0.194827,-0.022301,-0.980584,-0.030271,-0.013878,-0.052726,14.347397,3.862791,0.031067,,,,,,,
1522136608.941412,-0.205062,0.024607,-1.011044,0.123676,-0.394202,-0.023791,-0.203566,-0.024604,-0.978751,-0.028581,-0.038796,-0.054421,13.893951,3.789381,-0.418884,,,,,,,
1522136608.971381,-0.215815,0.026995,-1.011628,0.014284,-0.287528,-0.043163,-0.214065,-0.026992,-0.976446,-0.045685,-0.033387,-0.014567,14.491989,3.636610,-0.492981,,,,,,,
1522136609.001323,-0.220518,0.025893,-1.013691,-0.076350,-0.053358,-0.067971,-0.218662,-0.025890,-0.975457,-0.056164,-0.029057,0.025216,14.868607,3.934690,-0.718994,,,,,,,
1522136609.031291,-0.220363,0.025643,-1.015205,0.031643,0.021582,-0.033871,-0.218512,-0.025640,-0.975497,-0.061670,-0.013682,0.042193,15.619629,4.081236,-0.794189,,,,,,,
1522136609.061229,-0.219239,0.028832,-1.014934,0.143697,0.044454,-0.002904,-0.217396,-0.028828,-0.975657,-0.052730,-0.011486,0.041011,15.621872,4.081602,-0.419189,,,,,,,
1522136609.091197,-0.218530,0.032345,-1.014245,0.065659,0.013899,-0.011460,-0.216682,-0.032340,-0.975706,-0.053918,-0.004831,0.029035,15.766937,3.630873,-0.492371,,,,,,,
,,,,,,,,,,,,,,,,25.315299,51.435321,12.149943,-1.000000,-1.000000,1522136609.107852,
1522136609.121165,-0.218179,0.032218,-1.014818,-0.047383,0.037585,-0.015828,-0.216339,-0.032213,-0.975786,-0.046768,0.002214,0.031298,15.246445,4.083220,-0.494385,,,,,,,
1522136609.151134,-0.216493,0.030481,-1.016279,-0.071658,0.067574,-0.042506,-0.214706,-0.030476,-0.976203,-0.048462,-0.009364,-0.002145,16.516006,3.627363,-0.641907,,,,,,,
1522136609.181102,-0.215124,0.028882,-1.017275,-0.050576,0.050307,-0.008395,-0.213380,-0.028878,-0.976542,-0.037261,0.015282,-0.005285,16.287277,3.253386,-0.640564,,,,,,,
1522136609.211070,-0.214686,0.028649,-1.017733,0.009989,-0.021038,-0.011460,-0.212953,-0.028645,-0.976642,-0.041655,0.034825,-0.017392,16.136688,3.104216,-0.490051,,,,,,,
1522136609.241039,-0.216567,0.028326,-1.018073,-0.040335,-0.051721,-0.011471,-0.214792,-0.028323,-0.976249,-0.030814,0.044314,0.010825,16.212738,3.029173,-0.189636,,,,,,,
1522136609.271007,-0.216859,0.026117,-1.019069,-0.091215,0.022803,-0.015836,-0.215090,-0.026114,-0.976245,-0.025816,0.026404,0.005755,16.731552,2.501692,-0.337341,,,,,,,
1522136609.300975,-0.217726,0.024674,-1.019572,-0.020200,-0.091065,-0.015674,-0.215944,-0.024672,-0.976094,-0.025389,0.031569,0.002049,18.081650,2.645384,-0.562195,,,,,,,
1522136609.330943,-0.220408,0.024385,-1.020622,-0.038199,-0.096089,-0.049783,-0.218562,-0.024382,-0.975518,-0.039632,0.010878,0.009682,17.404297,2.273664,-0.336060,,,,,,,
1522136609.360912,-0.221314,0.022312,-1.022748,-0.097388,0.030545,-0.055280,-0.219457,-0.022310,-0.975367,-0.037181,0.013323,0.010431,16.725281,1.826796,-0.259583,,,,,,,
1522136609.390880,-0.219507,0.020046,-1.025105,-0.043941,0.040009,-0.059515,-0.217705,-0.020045,-0.975808,-0.031273,0.023692,-0.025855,17.849319,1.821592,-0.409058,,,,,,,
1522136609.420848,-0.221224,0.022182,-1.026370,0.129403,-0.099701,-0.048590,-0.219370,-0.022181,-0.975389,-0.031866,0.010706,-0.007567,16.347443,1.678267,-0.484253,,,,,,,
1522136609.450816,-0.224741,0.025881,-1.026121,0.090638,-0.114833,0.001477,-0.222779,-0.025878,-0.974525,-0.046249,-0.000825,-0.021523,17.022736,1.525526,-0.183228,,,,,,,
1522136609.480785,-0.229547,0.026972,-1.025825,-0.001300,-0.155956,-0.011336,-0.227453,-0.026968,-0.973415,-0.048349,0.000891,0.006343,16.496704,1.602598,-0.483887,,,,,,,
1522136609.510753,-0.232236,0.025909,-1.026458,-0.048822,-0.037907,-0.009357,-0.230077,-0.025906,-0.972827,-0.049602,-0.015308,0.007449,16.945801,1.375807,-0.257690,,,,,,,
1522136609.540721,-0.231682,0.025817,-1.027132,0.037992,0.021460,-0.021069,-0.229538,-0.025814,-0.972957,-0.064346,-0.028065,-0.020909,17.169876,1.374647,-0.407593,,,,,,,
1522136609.570689,-0.232622,0.028080,-1.027634,0.068757,-0.055989,-0.049735,-0.230438,-0.028077,-0.972681,-0.082413,-0.030029,-0.015386,17.771042,1.671644,-0.708496,,,,,,,
1522136609.600658,-0.234294,0.029428,-1.029131,0.002632,-0.047274,-0.056189,-0.232056,-0.029424,-0.972257,-0.077743,-0.029033,-0.007831,16.642212,1.151945,-0.481995,,,,,,,
1522136609.630626,-0.235374,0.029417,-1.030782,-0.014369,-0.017525,-0.047716,-0.233106,-0.029413,-0.972006,-0.065524,-0.021048,-0.019007,16.870193,1.450926,-0.483093,,,,,,,
1522136609.660594,-0.236907,0.029472,-1.031952,-0.006149,-0.072934,-0.031658,-0.234595,-0.029468,-0.971646,-0.054529,-0.024106,-0.008380,17.625092,1.897596,-0.409485,,,,,,,
1522136609.690562,-0.239340,0.029754,-1.032211,0.019370,-0.066768,-0.008216,-0.236956,-0.029749,-0.971064,-0.052640,-0.015371,0.017146,17.471054,1.448362,-0.332764,,,,,,,
1522136609.720500,-0.240450,0.031495,-1.031995,0.065592,0.008506,-0.001856,-0.238022,-0.031490,-0.970749,-0.060349,-0.018849,0.009124,16.868698,1.300932,-0.482483,,,,,,,
1522136609.750468,-0.238750,0.032276,-1.032200,0.009433,0.081056,-0.022223,-0.236365,-0.032270,-0.971128,-0.062494,-0.016466,0.004010,17.395172,1.448561,-0.482788,,,,,,,
1522136609.780437,-0.237990,0.033893,-1.032516,0.077380,-0.006230,-0.024218,-0.235614,-0.033887,-0.971255,-0.060544,-0.006457,0.004382,17.096664,1.599897,-0.483582,,,,,,,
1522136609.810405,-0.239278,0.036855,-1.032699,0.089007,-0.034955,-0.025237,-0.236840,-0.036847,-0.970849,-0.070015,-0.008212,0.031549,17.245621,1.449308,-0.407837,,,,,,,
1522136609.840373,-0.239228,0.038303,-1.033142,0.003941,0.040709,-0.026441,-0.236779,-0.038294,-0.970808,-0.071129,-0.000158,0.030745,17.389923,1.148207,-0.856628,,,,,,,
1522136609.870342,-0.237271,0.037617,-1.034359,-0.052438,0.073879,-0.038241,-0.234885,-0.037608,-0.971295,-0.068490,0.010874,0.013196,16.939789,1.225080,-1.007080,,,,,,,
1522136609.900310,-0.236348,0.036522,-1.035447,-0.027147,0.018448,-0.022184,-0.233997,-0.036514,-0.971551,-0.061749,0.032012,0.012658,16.865250,1.225492,-0.932129,,,,,,,
1522136609.930278,-0.236172,0.036853,-1.036088,0.027296,0.023593,-0.016824,-0.233823,-0.036845,-0.971580,-0.052172,0.025736,0.006874,17.162537,0.999083,-1.006104,,,,,,,
1522136609.960246,-0.235538,0.037614,-1.036253,0.018751,0.025712,-0.013632,-0.233201,-0.037605,-0.971701,-0.050201,0.030007,0.001242,16.932907,0.624968,-1.154724,,,,,,,
1522136609.990215,-0.235814,0.037793,-1.036487,-0.006116,-0.032726,-0.005071,-0.233467,-0.037784,-0.971630,-0.057014,0.015415,0.018291,16.856857,0.700010,-1.455078,,,,,,,
1522136610.020199,-0.236286,0.036513,-1.037094,-0.063484,0.016373,-0.016879,-0.233937,-0.036505,-0.971566,-0.053386,0.025046,0.021950,17.004456,0.549192,-1.604370,,,,,,,
1522136610.050167,-0.234922,0.034244,-1.038519,-0.087655,0.076098,-0.039334,-0.232630,-0.034237,-0.971962,-0.061254,0.027065,-0.002266,16.331406,0.702299,-1.530334,,,,,,,
1522136610.080135,-0.232279,0.031676,-1.039900,-0.095276,0.082267,-0.006319,-0.230080,-0.031671,-0.972656,-0.056251,0.002588,-0.035645,16.927490,0.399473,-1.678772,,,,,,,
1522136610.110104,-0.232099,0.029493,-1.040321,-0.046814,-0.047603,0.007709,-0.229920,-0.029489,-0.972762,-0.066176,0.003183,-0.028886,17.230026,0.473402,-1.378967,,,,,,,
,,,,,,,,,,,,,,,,25.315311,51.435310,12.206218,-1.000000,-1.000000,1522136610.104055,
1522136610.140072,-0.234775,0.028525,-1.040416,-0.033104,-0.094309,-0.001834,-0.232530,-0.028521,-0.972170,-0.071776,-0.011778,-0.002759,16.328247,0.477156,-1.679382,,,,,,,
1522136610.170040,-0.235283,0.027693,-1.041180,-0.023722,0.052512,-0.033927,-0.233029,-0.027690,-0.972075,-0.062244,-0.027639,0.017119,15.351959,0.481337,-1.904968,,,,,,,
1522136610.200008,-0.232166,0.027581,-1.042696,0.003359,0.115298,-0.055288,-0.229998,-0.027578,-0.972800,-0.046872,-0.051066,-0.053003,16.854004,0.549803,-1.679443,,,,,,,
1522136610.229977,-0.231860,0.028861,-1.043783,0.038764,-0.065552,-0.039093,-0.229693,-0.028857,-0.972835,-0.039717,-0.051816,-0.055775,16.399078,0.101774,-1.752869,,,,,,,
1522136610.259945,-0.235064,0.029438,-1.044496,-0.009558,-0.102761,-0.018849,-0.232804,-0.029434,-0.972077,-0.057753,-0.056992,-0.022368,16.025284,0.403151,-2.054260,,,,,,,
1522136610.289913,-0.236317,0.029212,-1.045006,-0.002689,0.005551,-0.012551,-0.234024,-0.029208,-0.971791,-0.060532,-0.048337,-0.009532,16.477676,0.551268,-1.904663,,,,,,,
1522136610.319881,-0.235437,0.031070,-1.044898,0.109547,0.043528,-0.008266,-0.233155,-0.031065,-0.971943,-0.062804,-0.040225,0.009296,16.102829,0.702726,-2.130432,,,,,,,
1522136610.349850,-0.234449,0.036201,-1.043530,0.206494,0.020800,0.014215,-0.232155,-0.036193,-0.972005,-0.049446,-0.052216,0.025990,16.101791,0.552809,-2.054810,,,,,,,
1522136610.379787,-0.234129,0.041323,-1.041129,0.154918,-0.001713,0.058960,-0.231797,-0.041312,-0.971886,-0.029250,-0.054376,0.043251,14.971725,0.182676,-2.278931,,,,,,,
1522136610.409756,-0.234397,0.044404,-1.038839,0.103796,0.012341,0.045046,-0.232028,-0.044389,-0.971695,-0.014814,-0.052886,0.083222,15.720215,-0.195314,-1.902039,,,,,,,
1522136610.439724,-0.231800,0.047082,-1.037085,0.098116,0.159074,0.033176,-0.229475,-0.047065,-0.972175,0.009748,-0.042626,0.091133,16.100128,0.477659,-2.204529,,,,,,,
1522136610.469692,-0.225890,0.049733,-1.036072,0.071694,0.181660,0.002241,-0.223697,-0.049712,-0.973390,0.007144,-0.022034,0.009980,15.271118,0.031477,-2.128174,,,,,,,
1522136610.499660,-0.223773,0.049489,-1.036878,-0.099748,0.011253,-0.029696,-0.221638,-0.049469,-0.973873,-0.013149,-0.016358,-0.001972,15.121124,0.032148,-2.128235,,,,,,,
1522136610.529629,-0.221848,0.043534,-1.039072,-0.270083,0.123205,-0.025662,-0.219824,-0.043520,-0.974568,-0.040888,-0.002607,0.003483,15.424408,0.405699,-2.204590,,,,,,,
1522136610.559597,-0.217465,0.037070,-1.041169,-0.175196,0.115397,-0.006405,-0.215606,-0.037062,-0.975776,-0.059586,0.011961,-0.030053,15.199112,0.556425,-2.505310,,,,,,,
1522136610.589565,-0.216158,0.034133,-1.041886,-0.075333,0.013098,0.000162,-0.214354,-0.034127,-0.976159,-0.084093,0.041039,-0.023261,15.202576,0.631849,-2.055603,,,,,,,
1522136610.619534,-0.215283,0.032296,-1.042453,-0.061200,0.055649,-0.011591,-0.213513,-0.032290,-0.976406,-0.071216,0.017062,-0.033894,15.805084,0.929060,-2.131470,,,,,,,
1522136610.649502,-0.212753,0.029303,-1.043143,-0.139013,0.105647,0.007483,-0.211061,-0.029299,-0.977033,-0.060317,0.003191,-0.048479,15.578461,0.630308,-1.905396,,,,,,,
1522136610.679470,-0.209646,0.025021,-1.044297,-0.129214,0.105877,-0.028738,-0.208048,-0.025018,-0.977798,-0.053915,0.012323,-0.016053,14.680893,0.784498,-1.756470,,,,,,,
1522136610.709438,-0.206095,0.023540,-1.045566,0.010609,0.108657,-0.019052,-0.204582,-0.023538,-0.978566,-0.036079,-0.002447,-0.033504,15.803131,1.003630,-2.581787,,,,,,,
1522136610.739407,-0.204524,0.027036,-1.044440,0.194588,0.013202,0.039794,-0.203027,-0.027033,-0.978799,-0.044623,0.003474,-0.030966,14.902588,0.633207,-2.055725,,,,,,,
1522136610.769375,-0.205033,0.034058,-1.041323,0.274488,-0.008370,0.055864,-0.203482,-0.034052,-0.978486,-0.061197,-0.002188,0.001374,14.900024,0.557920,-2.355469,,,,,,,
1522136610.799343,-0.205481,0.040829,-1.038473,0.197704,-0.010148,0.035553,-0.203868,-0.040817,-0.978147,-0.084737,0.002304,0.025541,15.803299,0.704145,-2.055542,,,,,,,
1522136610.829311,-0.205595,0.043143,-1.038035,-0.021796,0.014214,-0.027498,-0.203960,-0.043130,-0.978028,-0.085927,-0.012778,0.047730,14.825623,0.483473,-2.130188,,,,,,,
1522136610.859280,-0.203890,0.037396,-1.040779,-0.326512,0.124625,-0.055545,-0.202339,-0.037387,-0.978601,-0.064415,-0.017438,0.031412,15.125763,0.631895,-2.355652,,,,,,,
1522136610.889248,-0.198370,0.026939,-1.044834,-0.350624,0.201313,-0.073749,-0.197000,-0.026936,-0.980033,-0.045600,0.008427,-0.037362,16.028580,0.778059,-2.130737,,,,,,,
1522136610.919216,-0.195402,0.020558,-1.047496,-0.122206,0.028146,-0.007349,-0.194120,-0.020557,-0.980762,-0.047899,-0.029751,-0.055844,14.454697,0.710447,-1.831299,,,,,,,
1522136610.949184,-0.197691,0.021523,-1.046192,0.136320,-0.105771,0.054788,-0.196361,-0.021522,-0.980295,-0.053609,-0.026574,-0.011343,14.380600,0.710920,-1.681335,,,,,,,
1522136610.979153,-0.200659,0.026859,-1.043749,0.186741,-0.074950,0.035617,-0.199243,-0.026856,-0.979582,-0.054678,-0.049758,0.011640,15.355087,1.155714,-2.507629,,,,,,,
1522136611.009115,-0.202886,0.029501,-1.042571,0.017141,-0.068999,0.007767,-0.201409,-0.029497,-0.979063,-0.044456,-0.056181,0.019102,14.604980,1.009321,-2.282410,,,,,,,
1522136611.039053,-0.204834,0.029111,-1.042936,-0.000852,-0.064549,-0.016746,-0.203319,-0.029106,-0.978679,-0.036367,-0.040230,0.017544,14.381638,1.085463,-2.132812,,,,,,,
1522136611.069021,-0.208288,0.030395,-1.043275,0.031907,-0.136901,-0.014520,-0.206690,-0.030390,-0.977934,-0.035803,-0.018896,0.016813,15.053925,0.857374,-2.206604,,,,,,,
1522136611.098989,-0.211821,0.030027,-1.043796,-0.060674,-0.065483,-0.012534,-0.210146,-0.030023,-0.977209,-0.033323,0.001687,0.039831,14.759018,1.233915,-1.983276,,,,,,,
,,,,,,,,,,,,,,,,25.315325,51.435301,12.266247,-1.000000,-1.000000,1522136611.100986,
1522136611.128957,-0.211072,0.027620,-1.044908,-0.108015,0.084501,-0.018048,-0.209428,-0.027616,-0.977434,-0.029677,0.023496,0.008775,14.906006,1.157881,-2.357910,,,,,,,
1522136611.158926,-0.208519,0.024331,-1.046387,-0.116656,0.056922,-0.022287,-0.206950,-0.024328,-0.978049,-0.032125,0.020285,-0.031671,14.984604,1.382750,-2.133728,,,,,,,
1522136611.188894,-0.208308,0.022241,-1.047292,-0.028345,-0.003916,-0.015764,-0.206753,-0.022240,-0.978140,-0.044727,0.009453,-0.021143,14.830109,1.158079,-2.507874,,,,,,,
1522136611.218862,-0.208858,0.022914,-1.047497,0.035558,-0.021179,-0.000783,-0.207289,-0.022912,-0.978011,-0.075777,-0.002097,-0.023332,14.235382,1.461119,-2.134399,,,,,,,
1522136611.248831,-0.208476,0.023342,-1.047664,0.006006,0.030048,-0.022167,-0.206913,-0.023340,-0.978080,-0.081402,0.001047,-0.016213,14.909897,1.682646,-2.584961,,,,,,,
1522136611.278799,-0.207308,0.023238,-1.048566,-0.025923,0.035531,-0.036043,-0.205771,-0.023236,-0.978324,-0.077005,-0.003787,-0.023355,14.459763,1.534895,-2.359619,,,,,,,
1522136611.308767,-0.207256,0.021498,-1.049930,-0.096644,-0.016376,-0.032852,-0.205727,-0.021496,-0.978373,-0.066001,-0.003009,-0.018621,14.234634,1.386122,-2.134094,,,,,,,
1522136611.338735,-0.207987,0.020029,-1.050543,0.017314,-0.024407,0.013050,-0.206449,-0.020028,-0.978252,-0.052020,-0.011512,0.011867,13.711899,1.613478,-2.135254,,,,,,,
1522136611.368704,-0.208591,0.023774,-1.049082,0.197761,-0.003751,0.031291,-0.207023,-0.023772,-0.978047,-0.061334,-0.032396,0.018025,13.639008,1.689039,-1.910645,,,,,,,
1522136611.398672,-0.208996,0.030110,-1.046890,0.217040,-0.007931,0.015322,-0.207384,-0.030105,-0.977796,-0.065046,-0.029984,0.036496,14.313660,2.060316,-2.586792,,,,,,,
1522136611.428640,-0.208703,0.034579,-1.046164,0.096787,0.034088,-0.024235,-0.207067,-0.034572,-0.977715,-0.064631,-0.024678,0.058526,13.938080,1.912169,-2.436340,,,,,,,
1522136611.458608,-0.206846,0.035628,-1.047004,-0.022573,0.070574,-0.033945,-0.205244,-0.035621,-0.978062,-0.054964,-0.016641,0.017506,14.012939,1.762053,-2.210693,,,,,,,
1522136611.488577,-0.206739,0.034414,-1.048021,-0.061565,-0.035679,-0.020021,-0.205148,-0.034407,-0.978126,-0.058844,-0.000627,0.002524,14.387451,1.984907,-2.661438,,,,,,,
1522136611.518545,-0.208484,0.032309,-1.048522,-0.092731,-0.048547,0.007673,-0.206869,-0.032303,-0.977835,-0.068934,0.008439,-0.011042,14.238953,2.135588,-2.662109,,,,,,,
1522136611.548513,-0.209004,0.028028,-1.049726,-0.184091,0.017765,-0.022292,-0.207404,-0.028024,-0.977853,-0.077615,0.002343,-0.028097,13.341705,2.140074,-2.212585,,,,,,,
1522136611.578481,-0.206982,0.022748,-1.051736,-0.166602,0.094294,-0.033005,-0.205454,-0.022746,-0.978402,-0.077138,0.014582,-0.049613,13.265793,2.140257,-2.362610,,,,,,,
1522136611.608450,-0.205223,0.021074,-1.053289,0.019935,0.023760,-0.038140,-0.203740,-0.021073,-0.978798,-0.075557,0.005722,-0.057060,12.893524,2.142393,-1.912842,,,,,,,
1522136611.638418,-0.206504,0.024707,-1.052945,0.161331,-0.060872,0.006816,-0.204976,-0.024705,-0.978455,-0.065486,-0.031295,-0.027222,12.970016,2.292036,-1.913391,,,,,,,
1522136611.668386,-0.208211,0.028880,-1.051219,0.121793,-0.036510,0.033393,-0.206623,-0.028876,-0.977994,-0.080654,-0.006158,-0.005404,13.344528,2.514906,-2.364075,,,,,,,
1522136611.698324,-0.209028,0.030846,-1.050412,0.033459,-0.023258,-0.008234,-0.207411,-0.030841,-0.977767,-0.089388,-0.000302,0.005660,12.598770,2.668715,-1.915039,,,,,,,
1522136611.728292,-0.209754,0.030538,-1.051090,-0.046534,-0.020818,-0.023221,-0.208122,-0.030533,-0.977626,-0.073997,-0.032120,0.004878,12.148636,2.520964,-1.689636,,,,,,,
1522136611.758260,-0.210249,0.028493,-1.051652,-0.074457,-0.012532,0.016180,-0.208619,-0.028490,-0.977582,-0.065567,-0.036543,-0.014026,12.670639,2.443235,-2.064087,,,,,,,
1522136611.788229,-0.211341,0.027434,-1.051549,0.002308,-0.049849,0.005625,-0.209692,-0.027431,-0.977382,-0.078394,-0.032033,-0.010197,11.323685,2.300047,-1.314209,,,,,,,
1522136611.818197,-0.213774,0.029385,-1.051173,0.098276,-0.088276,-0.003853,-0.212058,-0.029380,-0.976815,-0.089486,-0.030755,0.024560,11.769775,1.997892,-1.462769,,,,,,,
1522136611.848165,-0.214805,0.032659,-1.050785,0.107384,0.027603,-0.013559,-0.213043,-0.032653,-0.976497,-0.088974,-0.034302,0.036387,11.918121,2.146696,-1.988342,,,,,,,
1522136611.878133,-0.212760,0.035630,-1.050491,0.114072,0.097675,-0.007233,-0.211024,-0.035622,-0.976831,-0.082219,-0.017234,0.041071,11.544495,2.148603,-1.763489,,,,,,,
1522136611.908102,-0.211805,0.040530,-1.049534,0.190331,-0.016350,0.012119,-0.210053,-0.040519,-0.976850,-0.087738,-0.018731,0.042859,11.617386,1.848433,-1.612305,,,,,,,
1522136611.938070,-0.214298,0.046319,-1.047970,0.172920,-0.094900,0.006856,-0.212434,-0.046303,-0.976077,-0.083007,-0.023064,0.075931,11.538208,1.698332,-2.061707,,,,,,,
1522136611.968038,-0.215948,0.047776,-1.047049,-0.040167,0.010778,0.012988,-0.214028,-0.047758,-0.975659,-0.086066,0.015852,0.079342,11.088806,1.625578,-1.836609,,,,,,,
1522136611.998007,-0.214216,0.043970,-1.048281,-0.176318,0.086818,-0.021297,-0.212376,-0.043956,-0.976198,-0.079342,0.014460,0.055514,11.312302,1.474577,-1.835938,,,,,,,
1522136612.027961,-0.211858,0.039215,-1.049786,-0.150776,0.078157,-0.010600,-0.210115,-0.039205,-0.976890,-0.068694,0.013830,0.015388,11.763931,1.772322,-2.061890,,,,,,,
1522136612.057929,-0.210113,0.035725,-1.050673,-0.090114,0.050294,0.002256,-0.208437,-0.035717,-0.977383,-0.068525,0.012005,-0.013447,10.794693,1.852507,-1.237732,,,,,,,
1522136612.087897,-0.209273,0.033992,-1.051080,-0.054909,0.028022,-0.013691,-0.207629,-0.033985,-0.977617,-0.061902,0.015751,-0.031493,11.164276,1.400694,-1.385681,,,,,,,
1522136612.117866,-0.208807,0.031043,-1.052610,-0.163693,0.017862,-0.043587,-0.207193,-0.031038,-0.977807,-0.064642,0.008959,-0.048926,10.565948,1.478529,-1.236328,,,,,,,
,,,,,,,,,,,,,,,,25.315341,51.435295,12.347581,-1.000000,-1.000000,1522136612.119519,
1522136612.147834,-0.207784,0.024349,-1.056125,-0.280761,0.058783,-0.079940,-0.206231,-0.024347,-0.978200,-0.054695,-0.004706,-0.056712,10.642746,1.478483,-0.936218,,,,,,,
1522136612.177802,-0.205226,0.016900,-1.059586,-0.227526,0.076408,-0.036232,-0.203759,-0.016900,-0.978875,-0.045432,-0.022102,-0.091484,11.242706,1.700422,-1.311829,,,,,,,
1522136612.207770,-0.204943,0.013789,-1.060482,0.001186,-0.054138,0.012020,-0.203492,-0.013788,-0.978979,-0.064223,-0.022940,-0.064875,11.694931,1.923384,-1.312500,,,,,,,
1522136612.237739,-0.208242,0.018093,-1.058579,0.245251,-0.116563,0.039962,-0.206706,-0.018092,-0.978235,-0.063344,-0.052404,-0.004522,10.719086,1.703001,-1.087158,,,,,,,
1522136612.267707,-0.210305,0.026819,-1.055379,0.330978,-0.042443,0.045287,-0.208683,-0.026816,-0.977615,-0.060940,-0.044931,0.004501,11.241196,1.775053,-1.687134,,,,,,,
1522136612.297675,-0.212393,0.035160,-1.052622,0.232710,-0.082389,0.018614,-0.210669,-0.035153,-0.976925,-0.045038,-0.026707,0.029949,11.462738,1.698606,-2.136719,,,,,,,
1522136612.327613,-0.214634,0.038975,-1.051819,0.061099,-0.053055,-0.011382,-0.212828,-0.038965,-0.976312,-0.032274,-0.017996,0.049844,11.084320,1.175611,-1.834839,,,,,,,
1522136612.357581,-0.215606,0.038556,-1.052180,-0.066949,-0.019901,0.003408,-0.213780,-0.038546,-0.976120,-0.030711,-0.019621,0.025437,11.238800,1.624907,-1.836548,,,,,,,
1522136612.387549,-0.216319,0.035555,-1.052348,-0.106453,-0.006085,0.016155,-0.214500,-0.035547,-0.976076,-0.035729,0.009882,0.028063,10.939560,1.701262,-1.837036,,,,,,,
1522136612.417518,-0.215548,0.033299,-1.051884,-0.049724,0.062621,0.048094,-0.213764,-0.033293,-0.976317,-0.031033,0.001524,0.011733,11.687439,1.622663,-2.061279,,,,,,,
1522136612.447486,-0.213776,0.032816,-1.050342,0.028140,0.049654,0.051360,-0.212037,-0.032810,-0.976710,-0.025710,0.010563,-0.005452,11.911392,1.471739,-1.985657,,,,,,,
1522136612.477454,-0.213972,0.034410,-1.048993,0.056828,-0.018201,0.019484,-0.212217,-0.034403,-0.976616,-0.020800,-0.005377,-0.000084,11.085220,1.175749,-1.684814,,,,,,,
1522136612.507422,-0.214348,0.033842,-1.048712,-0.087123,0.003533,0.002305,-0.212589,-0.033836,-0.976555,-0.022885,-0.017586,-0.017387,10.939575,1.476637,-1.461121,,,,,,,
1522136612.537391,-0.213943,0.029649,-1.049852,-0.156413,0.002758,-0.016912,-0.212221,-0.029645,-0.976772,-0.025587,-0.009631,-0.036595,11.240601,1.625196,-1.536560,,,,,,,
1522136612.567359,-0.214426,0.026316,-1.051445,-0.079655,-0.033460,-0.028553,-0.212713,-0.026313,-0.976760,-0.034388,-0.017373,-0.026719,11.087311,1.475584,-1.836060,,,,,,,
1522136612.597327,-0.215531,0.026407,-1.051663,0.041938,-0.026539,0.001368,-0.213792,-0.026403,-0.976522,-0.032683,-0.003275,-0.021296,10.189743,1.629774,-1.687073,,,,,,,
1522136612.627296,-0.215996,0.028407,-1.051078,0.077196,-0.012868,0.008842,-0.214234,-0.028404,-0.976369,-0.031646,-0.021142,-0.013011,9.887512,1.406141,-1.686340,,,,,,,
1522136612.657264,-0.216783,0.030462,-1.049785,0.073771,-0.032163,0.034429,-0.214989,-0.030458,-0.976141,-0.019767,-0.016036,0.013052,9.963120,1.331022,-1.460999,,,,,,,
1522136612.687232,-0.217745,0.032619,-1.047963,0.090843,-0.020596,0.046149,-0.215914,-0.032613,-0.975867,-0.016798,-0.010722,0.027869,10.865646,1.402266,-1.160889,,,,,,,
1522136612.717200,-0.217922,0.034799,-1.046408,0.069736,0.011483,0.025852,-0.216070,-0.034792,-0.975757,-0.017466,-0.014249,0.031086,10.933884,1.176207,-1.909912,,,,,,,
1522136612.747169,-0.217275,0.036555,-1.045374,0.054927,0.028586,0.015175,-0.215425,-0.036547,-0.975836,-0.017043,-0.009565,0.036611,10.183762,1.029814,-1.684692,,,,,,,
1522136612.777137,-0.216620,0.037382,-1.044844,0.003670,0.016034,0.005557,-0.214780,-0.037373,-0.975947,-0.009601,-0.006541,0.021982,11.229691,0.575178,-1.607361,,,,,,,
1522136612.807105,-0.215637,0.035703,-1.045356,-0.093251,0.050377,-0.009462,-0.213833,-0.035695,-0.976217,-0.006855,-0.004389,0.005835,9.657913,0.807402,-1.459106,,,,,,,
1522136612.837073,-0.214903,0.032712,-1.046398,-0.122222,0.013302,-0.014779,-0.213138,-0.032706,-0.976474,-0.003933,-0.016625,-0.026151,10.257126,0.505079,-1.082581,,,,,,,
1522136612.867042,-0.215464,0.028005,-1.047771,-0.196096,-0.022689,-0.007343,-0.213717,-0.028001,-0.976494,-0.010389,-0.027602,-0.039986,10.628510,0.278181,-1.306458,,,,,,,
1522136612.897010,-0.215658,0.021422,-1.049527,-0.241839,0.008245,-0.010592,-0.213941,-0.021420,-0.976611,-0.007480,-0.036121,-0.063245,10.702896,0.352629,-1.531738,,,,,,,
1522136612.926978,-0.215270,0.016108,-1.051022,-0.127625,0.005828,-0.008379,-0.213583,-0.016108,-0.976792,-0.004633,-0.039938,-0.060776,11.005142,0.351637,-1.156616,,,,,,,
1522136612.956946,-0.215258,0.015961,-1.050629,0.097495,0.011362,0.029089,-0.213572,-0.015960,-0.976796,-0.006063,-0.030396,-0.029765,10.627472,0.128263,-1.230896,,,,,,,
1522136612.986884,-0.215017,0.022796,-1.047610,0.327853,-0.001147,0.066556,-0.213308,-0.022794,-0.976718,-0.010782,-0.028582,-0.004147,12.125748,0.046370,-1.379761,,,,,,,
1522136613.016839,-0.215440,0.032765,-1.043380,0.337434,-0.013887,0.061250,-0.213662,-0.032759,-0.976358,-0.009711,-0.009858,0.018945,11.372208,-0.400087,-1.228394,,,,,,,
1522136613.046808,-0.215913,0.039063,-1.040853,0.109170,-0.009844,0.021645,-0.214076,-0.039053,-0.976036,-0.002889,-0.017420,0.040885,11.448975,0.049116,-1.680115,,,,,,,
1522136613.076776,-0.214891,0.037385,-1.040540,-0.122145,0.069377,0.019264,-0.213092,-0.037376,-0.976317,0.009768,0.000267,0.045973,12.046860,-0.253420,-1.528625,,,,,,,
1522136613.106743,-0.212794,0.034686,-1.041068,-0.050419,0.075772,-0.010515,-0.211064,-0.034679,-0.976856,-0.002772,0.012996,0.018253,11.147369,-0.249300,-1.454102,,,,,,,
1522136613.136711,-0.211004,0.034790,-1.041322,0.014552,0.057486,0.001257,-0.209315,-0.034783,-0.977229,-0.003591,0.001397,-0.006200,12.046722,-0.403200,-1.303040,,,,,,,
,,,,,,,,,,,,,,,,25.315359,51.435292,12.449875,-1.000000,-1.000000,1522136613.110943,
1522136613.166680,-0.208868,0.034397,-1.040917,-0.042003,0.086161,0.021440,-0.207230,-0.034390,-0.977687,-0.008712,0.004635,-0.024709,12.722153,-0.406160,-1.227722,,,,,,,
1522136613.196648,-0.205600,0.031592,-1.041120,-0.118691,0.109801,0.008586,-0.204052,-0.031587,-0.978450,-0.000827,-0.008055,-0.045079,11.596603,-0.550951,-1.077698,,,,,,,
1522136613.226616,-0.205311,0.030026,-1.041059,0.024644,-0.049998,0.020552,-0.203780,-0.030021,-0.978556,-0.005082,-0.002663,-0.014440,11.897644,-0.402376,-1.153137,,,,,,,
1522136613.256584,-0.207110,0.034143,-1.039787,0.197658,-0.047223,0.015363,-0.205513,-0.034136,-0.978058,-0.006462,-0.024961,0.018159,12.715851,-0.631807,-1.901794,,,,,,,
1522136613.286553,-0.206669,0.037793,-1.038714,0.026213,0.040398,0.005563,-0.205055,-0.037784,-0.978020,0.006263,-0.030911,-0.030845,12.043579,-0.628328,-1.452148,,,,,,,
1522136613.316521,-0.205793,0.032670,-1.039719,-0.297362,0.018946,-0.001058,-0.204235,-0.032665,-0.978376,0.016506,-0.017522,-0.040316,11.969330,-0.552996,-1.452454,,,,,,,
1522136613.346489,-0.206229,0.024013,-1.041775,-0.248381,-0.028899,-0.015884,-0.204712,-0.024010,-0.978527,0.019973,-0.014549,-0.015522,12.419907,-0.405169,-1.602844,,,,,,,
1522136613.376458,-0.205620,0.020337,-1.042552,-0.030423,0.051043,0.023621,-0.204132,-0.020336,-0.978732,0.026703,-0.009724,-0.019010,11.749725,-0.101854,-1.304382,,,,,,,
1522136613.406426,-0.203524,0.023706,-1.041048,0.205604,0.069569,0.025908,-0.202065,-0.023704,-0.979085,0.005227,-0.009271,-0.026958,11.595703,-0.551088,-1.227722,,,,,,,
1522136613.436394,-0.202478,0.030427,-1.038933,0.212857,0.011152,0.018518,-0.201005,-0.030422,-0.979117,-0.005996,-0.002354,-0.005334,12.194931,-0.628786,-1.227112,,,,,,,
1522136613.466362,-0.202768,0.034138,-1.037859,0.067611,-0.017049,0.001385,-0.201264,-0.034131,-0.978942,-0.006530,0.014142,0.028243,11.819794,-0.776873,-1.001648,,,,,,,
1522136613.496331,-0.202624,0.034321,-1.038314,-0.030382,0.014125,-0.015764,-0.201122,-0.034314,-0.978965,0.004863,0.005246,0.027106,12.186844,-1.303972,-1.449341,,,,,,,
1522136613.526299,-0.202672,0.032011,-1.039496,-0.137187,-0.013112,-0.032869,-0.201184,-0.032006,-0.979030,0.009976,0.005150,-0.011082,11.892273,-1.077120,-0.925415,,,,,,,
1522136613.556267,-0.202380,0.025147,-1.042379,-0.314168,0.015118,-0.056468,-0.200937,-0.025144,-0.979281,0.015833,-0.005877,-0.054517,10.990494,-1.297991,-0.850037,,,,,,,
1522136613.586236,-0.200998,0.015115,-1.046227,-0.341769,0.059771,-0.049080,-0.199625,-0.015114,-0.979755,0.011484,-0.010093,-0.065502,11.433746,-1.750353,-1.222961,,,,,,,
1522136613.616205,-0.198201,0.008970,-1.048425,-0.087716,0.092875,-0.010566,-0.196897,-0.008970,-0.980383,0.017927,-0.011798,-0.071299,11.887177,-1.452318,-1.148926,,,,,,,
1522136613.646173,-0.197530,0.012996,-1.046794,0.300000,-0.037138,0.054860,-0.196232,-0.012996,-0.980471,0.024372,-0.009984,-0.025251,11.956314,-2.127489,-0.996155,,,,,,,
1522136613.676111,-0.200200,0.025435,-1.041923,0.495947,-0.114359,0.085989,-0.198801,-0.025432,-0.979709,0.024454,-0.012119,0.016620,11.805878,-2.126879,-1.071289,,,,,,,
1522136613.706079,-0.204219,0.037310,-1.037680,0.308277,-0.117782,0.035767,-0.202661,-0.037301,-0.978538,0.016519,-0.022529,0.064063,12.102127,-2.503222,-1.069641,,,,,,,
1522136613.736047,-0.205253,0.040123,-1.037114,-0.036723,0.025843,-0.017911,-0.203651,-0.040112,-0.978221,0.014274,-0.026752,0.051890,12.776199,-2.506395,-1.219299,,,,,,,
1522136613.766014,-0.203009,0.035268,-1.039559,-0.256071,0.100050,-0.067160,-0.201492,-0.035261,-0.978855,0.008301,0.002912,-0.000424,13.453705,-2.209520,-1.295105,,,,,,,
1522136613.795984,-0.200004,0.027444,-1.043530,-0.275241,0.099115,-0.077833,-0.198599,-0.027440,-0.979696,0.010671,0.019353,-0.012110,13.079773,-2.282534,-0.994995,,,,,,,
1522136613.825951,-0.196509,0.022372,-1.045852,-0.111130,0.106744,-0.011656,-0.195197,-0.022370,-0.980508,0.025413,-0.011352,-0.049017,12.857040,-2.281160,-0.620117,,,,,,,
1522136613.855919,-0.193873,0.020875,-1.045418,-0.018713,0.062578,0.040670,-0.192619,-0.020873,-0.981051,0.038123,-0.029755,-0.052487,13.683945,-1.910173,-0.921143,,,,,,,
1522136613.885887,-0.193246,0.020161,-1.044587,-0.027439,-0.015812,0.008778,-0.192007,-0.020159,-0.981186,0.046835,-0.034482,-0.040878,13.461197,-1.908800,-0.546265,,,,,,,
1522136613.915856,-0.194089,0.018547,-1.045478,-0.081720,-0.027048,-0.034945,-0.192839,-0.018546,-0.981055,0.052275,-0.033380,-0.014734,12.332947,-2.054033,-0.846313,,,,,,,
1522136613.945824,-0.193420,0.016813,-1.047380,-0.043978,0.032491,-0.054151,-0.192189,-0.016812,-0.981213,0.063009,-0.007465,-0.035464,12.630707,-2.055742,-1.221191,,,,,,,
1522136613.975792,-0.192687,0.017244,-1.049013,0.023129,0.004680,-0.049820,-0.191469,-0.017243,-0.981347,0.051378,0.009904,-0.047752,12.256027,-2.203753,-0.920715,,,,,,,
1522136614.005748,-0.192827,0.017786,-1.049640,-0.007084,-0.011529,-0.001872,-0.191604,-0.017785,-0.981311,0.041076,0.002541,-0.028775,13.085312,-1.907259,-0.696533,,,,,,,
1522136614.035716,-0.192946,0.017960,-1.048849,0.043985,-0.008750,0.036531,-0.191720,-0.017959,-0.981285,0.030556,0.000350,-0.006020,13.161209,-1.458208,-1.298218,,,,,,,
1522136614.065684,-0.193221,0.021468,-1.046855,0.185958,-0.011236,0.038765,-0.191976,-0.021467,-0.981164,0.044180,-0.011889,0.013574,12.258560,-1.903841,-0.996948,,,,,,,
1522136614.095652,-0.193337,0.028018,-1.044722,0.243713,-0.009105,0.019615,-0.192059,-0.028015,-0.980983,0.066113,-0.023453,0.017742,12.626968,-2.430727,-1.219666,,,,,,,
1522136614.125621,-0.194266,0.033801,-1.043570,0.144346,-0.067080,-0.014485,-0.192936,-0.033795,-0.980629,0.070118,-0.024967,0.000892,12.929642,-2.431643,-0.769470,,,,,,,
,,,,,,,,,,,,,,,,25.315378,51.435292,12.542069,-1.000000,-1.000000,1522136614.118311,
1522136614.155589,-0.197083,0.033632,-1.044562,-0.142843,-0.096994,-0.042367,-0.195699,-0.033626,-0.980087,0.061788,0.000590,0.007827,11.956924,-2.202257,-0.770874,,,,,,,
1522136614.185557,-0.197176,0.025767,-1.047806,-0.327902,0.051260,-0.053319,-0.195836,-0.025764,-0.980298,0.055394,0.018058,-0.007861,12.329208,-2.429003,-0.844849,,,,,,,
1522136614.215525,-0.194286,0.019203,-1.050558,-0.139978,0.078264,-0.031891,-0.193030,-0.019201,-0.981005,0.038932,0.001394,-0.064406,12.705536,-2.205858,-0.995483,,,,,,,
1522136614.245494,-0.193559,0.018203,-1.051134,0.017288,-0.036142,0.013093,-0.192321,-0.018202,-0.981163,0.034270,-0.040240,-0.077980,12.030869,-2.127901,-1.071167,,,,,,,
1522136614.275462,-0.195016,0.019159,-1.049930,0.053418,-0.047022,0.036573,-0.193747,-0.019158,-0.980864,0.032461,-0.052528,-0.052186,12.325302,-2.504519,-1.369507,,,,,,,
1522136614.305430,-0.196166,0.020914,-1.048895,0.057814,-0.042625,0.015255,-0.194867,-0.020912,-0.980606,0.035657,-0.049995,-0.029938,12.255722,-2.054049,-1.221375,,,,,,,
1522136614.335368,-0.196818,0.022231,-1.048403,0.052747,-0.002129,-0.000767,-0.195501,-0.022229,-0.980451,0.045629,-0.016070,0.007658,12.030426,-2.352587,-0.770264,,,,,,,
1522136614.365336,-0.195944,0.026780,-1.047811,0.225936,0.038947,-0.009208,-0.194622,-0.026777,-0.980512,0.051907,-0.008029,0.021986,12.475906,-2.579973,-1.144104,,,,,,,
1522136614.395304,-0.194728,0.034721,-1.046263,0.251430,0.021786,0.002559,-0.193383,-0.034714,-0.980509,0.063089,-0.018631,-0.006338,13.379181,-2.209108,-1.220154,,,,,,,
1522136614.425273,-0.195305,0.038496,-1.045250,0.017261,-0.043556,0.010964,-0.193921,-0.038486,-0.980262,0.067045,-0.017025,0.000556,12.778442,-2.506029,-0.844299,,,,,,,
1522136614.455241,-0.195769,0.034637,-1.045946,-0.221612,-0.004572,-0.009494,-0.194404,-0.034630,-0.980310,0.085212,0.002281,-0.017340,12.783981,-1.906130,-0.921631,,,,,,,
1522136614.485209,-0.195182,0.026890,-1.048434,-0.271522,0.015982,-0.043649,-0.193875,-0.026887,-0.980657,0.077130,0.008012,-0.026499,12.334152,-2.203585,-0.395691,,,,,,,
1522136614.515177,-0.192755,0.021513,-1.050858,-0.118500,0.103713,-0.032962,-0.191519,-0.021512,-0.981253,0.077246,0.004879,-0.057840,12.036407,-1.977251,-0.396790,,,,,,,
1522136614.545146,-0.190145,0.021922,-1.050726,0.101864,0.031547,0.028007,-0.188956,-0.021921,-0.981741,0.071432,-0.003028,-0.077814,12.640015,-1.754732,-0.172302,,,,,,,
1522136614.575114,-0.191412,0.027516,-1.048019,0.254839,-0.102955,0.060227,-0.190174,-0.027513,-0.981365,0.071003,-0.021956,-0.029011,12.639099,-1.530260,-0.698242,,,,,,,
1522136614.605082,-0.195545,0.034966,-1.044854,0.240794,-0.151724,0.049610,-0.194182,-0.034959,-0.980342,0.077056,-0.040145,0.015880,11.888535,-1.676729,-0.547974,,,,,,,
1522136614.635050,-0.198490,0.038266,-1.043600,0.022563,-0.057361,0.006724,-0.197045,-0.038257,-0.979647,0.088189,-0.041791,0.039416,11.813980,-1.900942,-0.097168,,,,,,,
1522136614.665019,-0.197912,0.036064,-1.044313,-0.133715,0.050583,-0.027592,-0.196495,-0.036056,-0.979841,0.086418,-0.016251,0.009413,12.863937,-1.681047,-0.472534,,,,,,,
1522136614.694987,-0.195476,0.031658,-1.046548,-0.160244,0.068814,-0.042545,-0.194136,-0.031652,-0.980464,0.080931,-0.016901,-0.031438,11.746948,-1.599825,0.726562,,,,,,,
1522136614.724955,-0.193906,0.029165,-1.048010,-0.034604,0.026850,-0.012574,-0.192612,-0.029161,-0.980841,0.075104,-0.007368,-0.047128,12.121170,-1.451876,0.351196,,,,,,,
1522136614.754924,-0.193741,0.030856,-1.047221,0.116515,-0.022748,0.037662,-0.192440,-0.030852,-0.980823,0.074077,0.002150,-0.042477,11.449203,-1.373476,0.725525,,,,,,,
1522136614.784892,-0.194230,0.034725,-1.045143,0.129371,-0.016397,0.035539,-0.192895,-0.034718,-0.980605,0.079186,0.002399,-0.005144,11.451141,-1.223406,0.799927,,,,,,,
1522136614.814860,-0.193669,0.036590,-1.044405,0.014478,0.030911,-0.002952,-0.192331,-0.036582,-0.980648,0.089212,-0.000192,-0.006550,12.431046,-0.777742,0.873657,,,,,,,
1522136614.844828,-0.193156,0.035332,-1.045387,-0.068898,-0.016525,-0.026415,-0.191837,-0.035325,-0.980790,0.086384,0.007920,-0.008162,11.008499,-0.621202,1.022278,,,,,,,
1522136614.874797,-0.193295,0.033398,-1.046761,-0.074138,-0.001603,-0.031757,-0.191986,-0.033391,-0.980829,0.076065,0.012853,-0.025244,11.688263,-0.323961,1.321472,,,,,,,
1522136614.904765,-0.192359,0.030974,-1.047606,-0.097716,0.022624,0.006562,-0.191083,-0.030969,-0.981085,0.070203,0.006295,-0.059214,11.992432,0.049742,1.395081,,,,,,,
1522136614.934733,-0.192304,0.027970,-1.047841,-0.100179,-0.040107,0.014075,-0.191046,-0.027966,-0.981182,0.069846,-0.022754,-0.063465,12.150970,0.948957,1.316650,,,,,,,
1522136614.964701,-0.193382,0.024265,-1.048084,-0.128998,-0.038995,0.015128,-0.192122,-0.024262,-0.981071,0.090514,-0.054229,-0.047265,11.714172,1.552122,2.513977,,,,,,,
1522136614.994670,-0.194145,0.022648,-1.048235,0.029173,-0.027539,-0.006084,-0.192878,-0.022646,-0.980961,0.100150,-0.049421,-0.023800,12.312515,1.474272,2.364624,,,,,,,
1522136615.024618,-0.195525,0.028042,-1.047377,0.270270,-0.071712,-0.005857,-0.194205,-0.028038,-0.980560,0.096656,-0.028877,-0.011262,13.523544,2.219419,2.962219,,,,,,,
1522136615.054587,-0.197945,0.036878,-1.045994,0.283055,-0.086534,-0.015435,-0.196521,-0.036870,-0.979806,0.096942,-0.015208,0.014138,14.126801,2.591627,2.885986,,,,,,,
1522136615.084555,-0.199558,0.042261,-1.045706,0.075130,-0.042369,-0.028414,-0.198059,-0.042248,-0.979279,0.107574,-0.000614,0.020874,15.034714,3.337629,2.958496,,,,,,,
1522136615.114523,-0.199614,0.039627,-1.047095,-0.215051,0.010394,-0.025482,-0.198135,-0.039616,-0.979374,0.115020,-0.002391,0.009403,14.660477,3.189680,3.333862,,,,,,,
1522136615.144491,-0.198188,0.030868,-1.049664,-0.340916,0.031988,-0.029859,-0.196799,-0.030863,-0.979958,0.115165,0.010966,-0.049004,15.637543,3.260511,3.559143,,,,,,,
,,,,,,,,,,,,,,,,25.315400,51.435297,12.623667,-1.000000,-1.000000,1522136615.110693,
1522136615.174460,-0.197981,0.021794,-1.052452,-0.280461,-0.041567,-0.016957,-0.196644,-0.021793,-0.980232,0.115116,-0.008740,-0.082725,16.462814,3.107100,3.860168,,,,,,,
1522136615.204428,-0.199669,0.015322,-1.053760,-0.187778,-0.068491,0.000193,-0.198322,-0.015321,-0.980017,0.115878,-0.015547,-0.088907,17.355881,2.502928,3.712952,,,,,,,
1522136615.234396,-0.201656,0.011552,-1.054572,-0.086462,-0.090004,0.002417,-0.200279,-0.011551,-0.979671,0.120048,-0.017501,-0.075551,17.731918,2.426542,4.013489,,,,,,,
1522136615.264364,-0.205529,0.010219,-1.054799,-0.029120,-0.165539,-0.003864,-0.204074,-0.010219,-0.978902,0.135120,-0.021184,-0.041576,17.199615,1.828718,3.790588,,,,,,,
1522136615.294333,-0.209270,0.009553,-1.054618,-0.009713,-0.092469,0.023786,-0.207736,-0.009552,-0.978138,0.164371,-0.030517,-0.029034,18.914810,0.845991,3.795410,,,,,,,
1522136615.324301,-0.210944,0.009174,-1.054197,-0.017966,-0.046675,0.009892,-0.209374,-0.009174,-0.977792,0.193123,-0.039990,-0.063788,19.433060,0.168669,3.798340,,,,,,,
1522136615.354269,-0.213243,0.009105,-1.054064,0.032967,-0.117973,0.007865,-0.211622,-0.009105,-0.977309,0.219038,-0.039144,-0.046174,20.394516,-0.736406,3.052490,,,,,,,
1522136615.384238,-0.217023,0.011706,-1.053651,0.117284,-0.144616,-0.010163,-0.215309,-0.011706,-0.976475,0.210105,-0.051344,-0.022823,19.419891,-1.106340,3.728455,,,,,,,
1522136615.414206,-0.220799,0.016086,-1.053229,0.148442,-0.116966,-0.024021,-0.218981,-0.016086,-0.975596,0.187991,-0.043805,0.010890,19.625992,-2.458162,2.833984,,,,,,,
1522136615.444174,-0.221735,0.018985,-1.053234,0.013262,-0.016816,-0.015690,-0.219883,-0.018984,-0.975341,0.196491,-0.048048,0.001235,20.142761,-3.285494,2.837585,,,,,,,
1522136615.474142,-0.219423,0.015477,-1.054237,-0.210674,0.060171,-0.003155,-0.217641,-0.015476,-0.975906,0.191273,-0.022076,-0.058396,19.084717,-3.955950,2.614685,,,,,,,
1522136615.504111,-0.218867,0.007707,-1.055948,-0.279631,-0.061983,0.012909,-0.217117,-0.007707,-0.976115,0.211868,-0.017012,-0.078497,18.628143,-4.703737,2.767456,,,,,,,
1522136615.534079,-0.221558,0.001632,-1.057194,-0.151842,-0.147232,0.002432,-0.219750,-0.001632,-0.975554,0.223259,-0.002701,-0.078218,18.913422,-5.456224,1.570618,,,,,,,
1522136615.564047,-0.225624,-0.001184,-1.057943,-0.075821,-0.109108,-0.006074,-0.223714,0.001184,-0.974654,0.231725,-0.004037,-0.062273,18.231583,-6.053301,1.422607,,,,,,,
1522136615.594015,-0.226359,-0.002751,-1.058034,-0.047740,-0.011588,0.017295,-0.224430,0.002751,-0.974486,0.240574,0.004009,-0.078325,17.851517,-6.426821,1.198975,,,,,,,
1522136615.623984,-0.226337,-0.004853,-1.057798,-0.099097,-0.021081,0.027909,-0.224406,0.004853,-0.974483,0.253429,-0.004227,-0.088582,17.992050,-6.878267,0.375793,,,,,,,
1522136615.653952,-0.227104,-0.009521,-1.058137,-0.194114,-0.033532,0.017204,-0.225147,0.009521,-0.974278,0.273075,-0.007827,-0.086040,16.335541,-7.620668,0.527954,,,,,,,
1522136615.683920,-0.228202,-0.014341,-1.058748,-0.109884,-0.058191,0.018358,-0.226203,0.014341,-0.973974,0.276374,-0.025403,-0.067514,15.429733,-7.842180,-0.071594,,,,,,,
1522136615.713858,-0.229136,-0.014770,-1.058346,0.050399,-0.041500,0.006735,-0.227111,0.014769,-0.973756,0.277282,-0.044234,-0.047270,15.580002,-7.543322,-0.522705,,,,,,,
1522136615.743826,-0.229665,-0.010708,-1.057333,0.189275,-0.026973,0.005766,-0.227638,0.010707,-0.973687,0.267341,-0.053966,-0.029884,13.931274,-7.460817,-0.448914,,,,,,,
1522136615.773794,-0.229460,-0.006015,-1.055976,0.100784,0.008285,0.010986,-0.227448,0.006015,-0.973771,0.264633,-0.041445,-0.039718,14.003876,-7.611300,-0.598206,,,,,,,
1522136615.803763,-0.228141,-0.006550,-1.056349,-0.096549,0.022741,-0.011547,-0.226163,0.006550,-0.974067,0.265179,-0.022831,-0.050713,13.035049,-7.081789,-0.450867,,,,,,,
1522136615.833731,-0.226814,-0.010868,-1.057066,-0.149017,0.023742,0.017176,-0.224861,0.010868,-0.974330,0.285759,-0.010487,-0.058110,12.510818,-7.004427,-0.451416,,,,,,,
1522136615.863699,-0.226026,-0.012515,-1.056955,0.007779,-0.007479,0.019455,-0.224089,0.012515,-0.974488,0.274549,-0.013522,-0.058044,12.588654,-6.180681,-1.354675,,,,,,,
1522136615.893667,-0.224856,-0.011347,-1.055703,0.054927,0.048592,0.036489,-0.222951,0.011346,-0.974763,0.259344,-0.025781,-0.060393,12.442551,-5.879885,-1.205994,,,,,,,
1522136615.923636,-0.222660,-0.010902,-1.054688,-0.011271,0.031851,0.022606,-0.220811,0.010902,-0.975255,0.257707,-0.017387,-0.091731,11.998825,-4.978334,-1.659729,,,,,,,
1522136615.953604,-0.221936,-0.011872,-1.054707,-0.026212,0.009714,0.002373,-0.220103,0.011872,-0.975404,0.267405,-0.011460,-0.082763,11.996429,-5.128481,-1.809143,,,,,,,
1522136615.983572,-0.220697,-0.012313,-1.054787,-0.017528,0.042643,0.002339,-0.218893,0.012313,-0.975671,0.278219,-0.009170,-0.095954,13.126770,-4.683413,-1.660339,,,,,,,
1522136616.013520,-0.220095,-0.012626,-1.054299,0.008732,-0.024571,0.029076,-0.218304,0.012626,-0.975799,0.278882,-0.014381,-0.074098,12.531891,-4.305513,-1.437195,,,,,,,
1522136616.043489,-0.221323,-0.011432,-1.052922,0.068307,-0.063005,0.035544,-0.219506,0.011432,-0.975544,0.270089,-0.030017,-0.046536,12.155716,-4.154268,-1.888000,,,,,,,
1522136616.073457,-0.221554,-0.009676,-1.051752,0.049623,0.021200,0.005609,-0.219735,0.009676,-0.975511,0.276727,-0.022798,-0.044890,12.534286,-3.930758,-1.663696,,,,,,,
1522136616.103425,-0.219761,-0.009310,-1.052156,-0.001353,0.053377,-0.018969,-0.217987,0.009310,-0.975907,0.280823,-0.020632,-0.044952,12.761063,-3.482225,-2.115356,,,,,,,
1522136616.133394,-0.218171,-0.007872,-1.052358,0.077468,0.015969,-0.015678,-0.216437,0.007872,-0.976264,0.277671,-0.015409,-0.053963,13.662827,-3.261354,-2.190796,,,,,,,
,,,,,,,,,,,,,,,,25.315411,51.435179,12.711738,-1.000000,-1.000000,1522136616.122722,
1522136616.163362,-0.218959,-0.006115,-1.052510,-0.014724,-0.075149,-0.022042,-0.217210,0.006115,-0.976105,0.261552,-0.023968,-0.067550,12.839661,-3.257357,-1.891235,,,,,,,
1522136616.193330,-0.219348,-0.008386,-1.053237,-0.056100,0.011919,0.002344,-0.217585,0.008386,-0.976005,0.264796,-0.039468,-0.011117,13.289032,-3.184603,-2.116272,,,,,,,
1522136616.223298,-0.217320,-0.007955,-1.053526,0.006078,0.045902,-0.016823,-0.215607,0.007955,-0.976447,0.255463,-0.039525,-0.092614,14.037933,-2.888643,-2.792053,,,,,,,
1522136616.253267,-0.216728,-0.009441,-1.054279,-0.058339,-0.028334,-0.013606,-0.215025,0.009440,-0.976562,0.257277,-0.008662,-0.083618,13.216888,-3.034044,-1.891968,,,,,,,
1522136616.283235,-0.217733,-0.009480,-1.054762,0.017352,-0.046636,-0.007135,-0.216007,0.009479,-0.976345,0.272236,-0.031742,-0.074726,14.041092,-2.888140,-2.267090,,,,,,,
1522136616.313203,-0.217962,-0.008099,-1.054249,0.062177,-0.028838,0.013135,-0.216233,0.008099,-0.976308,0.255295,-0.017147,-0.066890,13.736298,-2.962435,-2.941956,,,,,,,
1522136616.343171,-0.219019,-0.006277,-1.053168,0.077915,-0.063028,0.035550,-0.217268,0.006277,-0.976092,0.240980,-0.023505,-0.023435,13.963699,-3.037935,-2.416504,,,,,,,
1522136616.373140,-0.220157,-0.003014,-1.051092,0.132428,-0.044064,0.039832,-0.218382,0.003014,-0.975858,0.250365,-0.047509,-0.040011,13.892441,-2.662615,-2.418030,,,,,,,
1522136616.403077,-0.220427,-0.001392,-1.050185,-0.007055,0.000098,0.004521,-0.218646,0.001392,-0.975803,0.258655,-0.052738,-0.051159,14.638809,-2.666567,-3.017700,,,,,,,
1522136616.433046,-0.219386,-0.003318,-1.050722,-0.090145,0.021656,-0.011537,-0.217629,0.003318,-0.976026,0.269478,-0.044333,-0.072558,14.190628,-2.664263,-2.717957,,,,,,,
1522136616.463014,-0.219018,-0.005011,-1.051599,-0.030534,-0.027342,-0.017827,-0.217268,0.005011,-0.976099,0.268950,-0.030158,-0.070135,14.117416,-2.439013,-2.793823,,,,,,,
1522136616.492982,-0.219233,-0.004352,-1.052076,0.033651,0.005444,-0.015694,-0.217479,0.004352,-0.976055,0.263835,-0.012180,-0.066013,15.015579,-2.443346,-3.093445,,,,,,,
1522136616.522949,-0.217366,-0.003555,-1.052262,0.011417,0.057496,-0.006171,-0.215657,0.003555,-0.976462,0.271931,-0.010192,-0.091790,13.664749,-2.662035,-2.868164,,,,,,,
1522136616.552919,-0.216259,-0.002871,-1.052144,0.035635,-0.007425,0.001364,-0.214576,0.002871,-0.976703,0.281120,-0.009921,-0.087995,14.113968,-2.514437,-3.243530,,,,,,,
1522136616.582886,-0.216890,-0.001865,-1.051835,0.020516,-0.042481,0.004588,-0.215193,0.001865,-0.976569,0.270659,-0.013538,-0.072656,14.865585,-2.442675,-3.093506,,,,,,,
1522136616.612854,-0.217450,-0.002097,-1.051982,-0.017755,-0.021064,-0.007174,-0.215740,0.002097,-0.976448,0.256923,-0.025382,-0.054374,14.416061,-2.440569,-3.018738,,,,,,,
1522136616.642823,-0.217631,-0.002959,-1.052510,-0.052910,0.000239,-0.002955,-0.215916,0.002959,-0.976407,0.244405,-0.030669,-0.041934,13.815338,-2.512865,-3.018738,,,,,,,
1522136616.672791,-0.215797,-0.005045,-1.052758,-0.074037,0.068233,0.009731,-0.214124,0.005045,-0.976793,0.267835,-0.027445,-0.058790,15.469162,-2.220156,-2.869080,,,,,,,
1522136616.702760,-0.213780,-0.006331,-1.052939,-0.017575,0.026695,0.000241,-0.212151,0.006331,-0.977216,0.269127,-0.028639,-0.066302,14.792694,-2.367113,-2.868774,,,,,,,
1522136616.732728,-0.213924,-0.005875,-1.053081,0.024809,-0.057265,-0.011371,-0.212292,0.005875,-0.977188,0.265836,-0.047013,-0.052948,14.567856,-2.440966,-2.718628,,,,,,,
1522136616.762697,-0.215223,-0.005647,-1.053020,-0.013682,-0.044566,0.009897,-0.213562,0.005647,-0.976913,0.267746,-0.048433,-0.036835,15.244019,-2.144304,-3.019470,,,,,,,
1522136616.792665,-0.214931,-0.006280,-1.052747,-0.019847,0.013898,0.011951,-0.213276,0.006280,-0.976972,0.279087,-0.043999,-0.056262,14.718292,-2.441561,-2.643555,,,,,,,
1522136616.822633,-0.214214,-0.006768,-1.052835,-0.023013,-0.002984,-0.007198,-0.212574,0.006768,-0.977121,0.278034,-0.026117,-0.077063,15.019623,-2.218065,-2.794250,,,,,,,
1522136616.852601,-0.214048,-0.007956,-1.054044,-0.080551,-0.011128,-0.037070,-0.212411,0.007956,-0.977148,0.267388,-0.027640,-0.097788,14.493744,-2.215853,-2.944580,,,,,,,
1522136616.882570,-0.213929,-0.010482,-1.055252,-0.071047,-0.000740,-0.007235,-0.212289,0.010482,-0.977150,0.258172,-0.009704,-0.077934,14.867386,-2.442385,-2.793457,,,,,,,
1522136616.912538,-0.213687,-0.009477,-1.054916,0.102779,-0.024658,0.009958,-0.212055,0.009477,-0.977212,0.257511,-0.008287,-0.071998,15.093872,-2.293398,-2.793945,,,,,,,
1522136616.942506,-0.214196,-0.006139,-1.053371,0.099478,-0.018449,0.034459,-0.212558,0.006139,-0.977129,0.254977,-0.004628,-0.054808,15.317520,-2.294634,-3.018860,,,,,,,
1522136616.972474,-0.213652,-0.004960,-1.052197,0.005713,0.011597,0.024775,-0.212028,0.004960,-0.977251,0.242210,-0.014710,-0.056044,14.714844,-2.517000,-3.093262,,,,,,,
1522136617.002443,-0.213162,-0.006100,-1.052017,-0.044401,0.003350,0.005570,-0.211547,0.006100,-0.977348,0.236098,-0.026333,-0.049553,14.189423,-2.514696,-3.168518,,,,,,,
1522136617.032424,-0.212618,-0.006592,-1.052208,0.000533,0.003369,-0.012513,-0.211015,0.006592,-0.977460,0.238572,-0.037827,-0.065966,15.543091,-1.921175,-3.545227,,,,,,,
1522136617.062392,-0.212231,-0.005400,-1.052426,0.059160,-0.016979,-0.011381,-0.210638,0.005400,-0.977549,0.234396,-0.047788,-0.074636,14.493301,-2.215914,-3.019592,,,,,,,
1522136617.092330,-0.213211,-0.004396,-1.052387,-0.006239,-0.068939,-0.003917,-0.211597,0.004396,-0.977347,0.218357,-0.037660,-0.063837,14.642838,-2.216661,-3.094543,,,,,,,
1522136617.122298,-0.214327,-0.005788,-1.052546,-0.053094,-0.027458,0.007724,-0.212686,0.005788,-0.977103,0.209894,-0.020757,-0.026315,14.644043,-2.141603,-3.019775,,,,,,,
,,,,,,,,,,,,,,,,25.315391,51.435011,12.226451,-1.000000,-1.000000,1522136617.112170,
1522136617.152266,-0.213103,-0.006145,-1.052520,0.020907,0.047782,0.009839,-0.211490,0.006145,-0.977361,0.199573,-0.007366,-0.040111,14.644638,-1.991747,-3.170349,,,,,,,
1522136617.182235,-0.211537,-0.004107,-1.052124,0.082768,0.011653,-0.010331,-0.209961,0.004107,-0.977701,0.178467,0.000562,-0.054541,15.319016,-2.144640,-3.019470,,,,,,,
1522136617.212203,-0.211652,-0.002559,-1.051990,0.010928,-0.037172,0.006716,-0.210075,0.002559,-0.977682,0.154365,-0.019970,-0.041315,14.569489,-2.141191,-2.944824,,,,,,,
1522136617.242171,-0.211390,-0.004064,-1.051987,-0.073190,0.016137,0.009802,-0.209818,0.004064,-0.977732,0.142206,-0.024572,-0.024572,14.494797,-2.065935,-3.020203,,,,,,,
1522136617.272139,-0.209875,-0.005681,-1.051831,-0.013413,0.021261,0.016231,-0.208334,0.005681,-0.978041,0.143393,-0.014150,-0.043001,14.494049,-2.140932,-3.019897,,,,,,,
1522136617.302108,-0.209835,-0.004268,-1.051454,0.081441,-0.036240,-0.000687,-0.208296,0.004268,-0.978056,0.144316,-0.017299,-0.043932,15.020081,-2.217989,-2.719299,,,,,,,
1522136617.332076,-0.210937,-0.001891,-1.051355,0.045208,-0.041313,-0.019899,-0.209376,0.001891,-0.977833,0.136896,-0.020232,-0.038570,14.642990,-2.291521,-2.944214,,,,,,,
1522136617.362044,-0.210854,-0.002238,-1.052271,-0.060211,0.004705,-0.031731,-0.209295,0.002238,-0.977850,0.126882,-0.029246,-0.035822,14.347198,-1.915117,-2.870850,,,,,,,
1522136617.392012,-0.209732,-0.003872,-1.053449,-0.048522,0.016243,-0.012563,-0.208196,0.003872,-0.978079,0.124242,-0.029324,-0.047540,14.571442,-1.766497,-3.246338,,,,,,,
1522136617.421981,-0.209902,-0.004446,-1.053791,0.002468,-0.035963,-0.009284,-0.208362,0.004446,-0.978041,0.119922,-0.013967,-0.045213,14.796432,-1.767504,-3.246216,,,,,,,
1522136617.451949,-0.210930,-0.003559,-1.054035,0.028084,-0.048728,-0.017770,-0.209368,0.003559,-0.977830,0.104555,-0.028431,-0.038100,15.771240,-1.697054,-3.395996,,,,,,,
1522136617.481917,-0.211321,-0.003708,-1.054962,-0.051741,-0.010202,-0.030643,-0.209750,0.003708,-0.977748,0.088962,-0.028442,-0.044454,14.423538,-1.915224,-2.645813,,,,,,,
1522136617.511886,-0.211382,-0.004804,-1.056449,-0.028210,-0.023914,-0.051930,-0.209809,0.004804,-0.977730,0.075150,-0.023496,-0.043205,14.794189,-2.217119,-2.869385,,,,,,,
1522136617.541854,-0.212351,-0.004247,-1.057938,0.014402,-0.042114,-0.048679,-0.210757,0.004247,-0.977529,0.061770,-0.019155,-0.033427,15.320801,-1.919725,-3.095337,,,,,,,
1522136617.571822,-0.212465,-0.003603,-1.058968,0.018812,0.015104,-0.026360,-0.210869,0.003603,-0.977507,0.063988,-0.023760,-0.019334,14.570831,-1.916338,-3.095764,,,,,,,
1522136617.601790,-0.211707,-0.002419,-1.058840,0.034579,0.005220,0.013089,-0.210129,0.002419,-0.977670,0.057739,-0.025323,-0.022879,14.872620,-1.917406,-2.795532,,,,,,,
1522136617.631759,-0.211574,-0.001377,-1.057832,0.062208,-0.012983,0.022720,-0.209999,0.001377,-0.977700,0.051460,-0.018284,0.011438,15.101669,-1.468508,-2.872253,,,,,,,
1522136617.661727,-0.211266,0.000940,-1.056724,0.065545,0.015725,0.020555,-0.209698,-0.000940,-0.977766,0.049755,-0.028266,-0.002520,14.348251,-1.765200,-2.946472,,,,,,,
1522136617.691695,-0.210553,0.001019,-1.056064,-0.033693,0.021319,0.015151,-0.209000,-0.001019,-0.977915,0.037690,-0.002216,0.004953,14.724136,-1.766741,-2.796204,,,,,,,
1522136617.721663,-0.209300,0.000463,-1.055794,0.010128,0.032875,0.017308,-0.207775,-0.000463,-0.978176,0.030208,-0.007503,0.002041,14.947922,-1.618196,-3.246704,,,,,,,
1522136617.751632,-0.208460,0.001597,-1.055076,0.058227,0.027564,0.001360,-0.206953,-0.001597,-0.978349,0.015028,0.010309,0.013002,14.425797,-1.690248,-2.646729,,,,,,,
1522136617.781600,-0.206869,0.004081,-1.054555,0.107473,0.058265,0.001360,-0.205395,-0.004081,-0.978670,-0.004810,0.003440,0.011111,14.344482,-1.915560,-3.320862,,,,,,,
1522136617.811538,-0.205200,0.006789,-1.053937,0.061498,0.046662,0.004539,-0.203758,-0.006789,-0.978997,-0.022896,0.004805,-0.012397,14.725922,-1.317202,-3.248047,,,,,,,
1522136617.841506,-0.204157,0.006387,-1.053325,-0.041184,0.035032,0.031119,-0.202737,-0.006387,-0.979212,-0.022650,0.015970,0.003275,14.274597,-1.540010,-3.097412,,,,,,,
1522136617.871474,-0.202820,0.005146,-1.052519,-0.019784,0.047731,0.032182,-0.201430,-0.005146,-0.979489,-0.016008,0.016712,-0.011233,14.122955,-1.614473,-3.247131,,,,,,,
1522136617.901442,-0.201827,0.005246,-1.051879,0.021877,0.036050,0.017302,-0.200456,-0.005246,-0.979688,-0.001372,-0.005007,-0.009402,15.099274,-1.618654,-3.021667,,,,,,,
1522136617.931411,-0.200993,0.006940,-1.050670,0.097519,0.013446,0.030176,-0.199638,-0.006940,-0.979845,0.006293,-0.000597,-0.017805,14.276108,-1.614641,-2.722107,,,,,,,
1522136617.961379,-0.201957,0.009532,-1.049672,0.078112,-0.059625,0.002526,-0.200578,-0.009532,-0.979631,-0.004500,-0.002035,-0.007536,14.194504,-2.139498,-2.945007,,,,,,,
1522136617.991347,-0.203976,0.010835,-1.049610,0.012059,-0.057186,-0.020957,-0.202553,-0.010835,-0.979211,-0.003303,-0.020995,0.009424,15.095810,-1.694078,-3.471375,,,,,,,
1522136618.021299,-0.204254,0.009299,-1.050626,-0.109295,0.031277,-0.014749,-0.202828,-0.009299,-0.979170,0.005181,-0.035653,-0.004503,14.648544,-1.691622,-3.021606,,,,,,,
1522136618.051268,-0.203021,0.005622,-1.051765,-0.109341,0.020647,-0.014735,-0.201626,-0.005622,-0.979446,0.000576,-0.019448,-0.034470,14.123566,-1.689257,-3.021851,,,,,,,
1522136618.081236,-0.203869,0.004417,-1.052501,-0.016796,-0.055027,-0.014592,-0.202458,-0.004417,-0.979281,0.003315,-0.028984,-0.039579,15.322006,-1.620028,-3.396545,,,,,,,
1522136618.111204,-0.205208,0.004462,-1.052933,0.001441,-0.035946,-0.014597,-0.203769,-0.004462,-0.979009,-0.002209,-0.029488,-0.030254,14.648544,-1.691622,-3.021606,,,,,,,
,,,,,,,,,,,,,,,,25.315392,51.434926,12.352085,-1.000000,-1.000000,1522136618.100032,
1522136618.141173,-0.205552,0.005267,-1.053110,0.037914,0.005379,-0.011412,-0.204105,-0.005267,-0.978935,-0.001935,-0.014356,-0.013482,14.874878,-1.692415,-2.796448,,,,,,,
1522136618.171141,-0.204901,0.006631,-1.053076,0.039058,0.034004,-0.001854,-0.203466,-0.006631,-0.979059,0.005575,-0.015799,-0.017309,15.098969,-1.693575,-2.946350,,,,,,,
1522136618.201109,-0.203833,0.007389,-1.052457,0.020713,0.023215,0.026918,-0.202419,-0.007389,-0.979271,0.018017,-0.019085,-0.023827,14.869629,-2.217394,-2.794373,,,,,,,
1522136618.231077,-0.203879,0.007834,-1.051438,0.018331,-0.025666,0.030151,-0.202463,-0.007834,-0.979258,0.010980,-0.022821,-0.017339,15.022018,-1.843294,-3.020813,,,,,,,
1522136618.261046,-0.204750,0.007196,-1.050995,-0.051990,-0.018990,0.009858,-0.203317,-0.007196,-0.979086,0.010888,-0.019263,-0.000207,15.622147,-1.696230,-3.246094,,,,,,,
1522136618.291014,-0.203963,0.005225,-1.051806,-0.071797,0.038746,-0.032840,-0.202549,-0.005225,-0.979258,0.010715,-0.010064,-0.013723,15.023819,-1.618380,-3.096741,,,,,,,
1522136618.320982,-0.203161,0.003852,-1.053224,-0.049544,0.005716,-0.028525,-0.201764,-0.003852,-0.979426,0.008848,-0.011697,-0.022954,14.798828,-1.617373,-3.096863,,,,,,,
1522136618.350950,-0.203603,0.002720,-1.053637,-0.030624,-0.011621,0.013059,-0.202199,-0.002720,-0.979340,0.006581,-0.011364,0.007752,15.624527,-1.321459,-3.472595,,,,,,,
1522136618.380919,-0.203330,0.002809,-1.052303,0.035504,0.028253,0.061020,-0.201931,-0.002809,-0.979395,0.006802,-0.027998,0.006739,14.876373,-1.317797,-3.172974,,,,,,,
1522136618.410887,-0.202931,0.004019,-1.050482,0.050310,-0.026900,0.040843,-0.201539,-0.004019,-0.979472,0.008928,-0.040262,-0.005758,14.574432,-1.466509,-3.247498,,,,,,,
1522136618.440855,-0.204205,0.004592,-1.049792,0.003417,-0.043550,0.008851,-0.202787,-0.004592,-0.979212,-0.001544,-0.040727,0.030115,14.947632,-1.693117,-3.171387,,,,,,,
1522136618.470823,-0.203742,0.003974,-1.050112,-0.044003,0.072542,-0.011551,-0.202334,-0.003974,-0.979308,0.004931,-0.029488,0.027923,14.426544,-1.390627,-3.022888,,,,,,,
1522136618.500792,-0.200828,0.002845,-1.050737,-0.030004,0.092701,-0.014745,-0.199480,-0.002845,-0.979898,0.005632,-0.019768,-0.008124,15.629181,-1.170961,-2.948181,,,,,,,
1522136618.530729,-0.199902,0.002178,-1.050967,-0.048682,0.002273,0.007706,-0.198573,-0.002178,-0.980084,-0.000020,-0.023533,-0.030781,15.855225,-1.246675,-2.647766,,,,,,,
1522136618.560698,-0.199755,-0.000386,-1.051117,-0.100973,0.008786,0.007655,-0.198429,0.000386,-0.980115,-0.007046,-0.003209,-0.026492,15.251968,-1.618883,-2.571594,,,,,,,
1522136618.590666,-0.200017,-0.002389,-1.051708,-0.052971,-0.023112,-0.009312,-0.198685,0.002389,-0.980060,-0.011581,-0.008935,-0.017941,15.023956,-1.468615,-3.322266,,,,,,,
1522136618.620634,-0.200658,-0.003349,-1.052477,-0.026215,-0.031532,-0.029532,-0.199313,0.003349,-0.979930,-0.003034,-0.009605,-0.017629,15.102722,-1.543215,-2.571960,,,,,,,
1522136618.650602,-0.202074,-0.004134,-1.053593,-0.042325,-0.050637,-0.027392,-0.200700,0.004134,-0.979644,0.014558,-0.011153,-0.015718,15.107208,-1.093233,-2.573730,,,,,,,
1522136618.680571,-0.201983,-0.006415,-1.054983,-0.113376,0.054760,-0.029686,-0.200608,0.006415,-0.979650,0.008500,-0.003241,-0.024622,15.780380,-1.096575,-2.873413,,,,,,,
1522136618.710539,-0.200856,-0.008513,-1.056070,-0.024027,-0.001866,-0.015719,-0.199501,0.008513,-0.979860,-0.002647,0.009751,-0.032209,14.652725,-1.316561,-2.948059,,,,,,,
1522136618.740507,-0.202480,-0.006862,-1.056308,0.077076,-0.075431,-0.016635,-0.201095,0.006862,-0.979548,-0.014573,-0.000942,-0.007757,14.504227,-1.165895,-2.948792,,,,,,,
1522136618.770476,-0.203256,-0.005790,-1.056513,-0.006847,0.021448,-0.013595,-0.201856,0.005790,-0.979398,-0.013720,0.000481,-0.007098,15.404938,-1.094957,-2.948608,,,,,,,
1522136618.800444,-0.200823,-0.006247,-1.056813,0.006266,0.103148,-0.000882,-0.199472,0.006247,-0.979883,-0.007208,0.005822,-0.014395,15.031906,-1.167818,-2.498474,,,,,,,
1522136618.830412,-0.198322,-0.004060,-1.056090,0.131907,0.049574,0.018442,-0.197023,0.004060,-0.980390,-0.004149,0.003509,-0.017046,14.657227,-1.091219,-2.573975,,,,,,,
