timestamp(unix),attitude_roll(radians),attitude_pitch(radians),attitude_yaw(radians),rotation_rate_x(radians/s),rotation_rate_y(radians/s),rotation_rate_z(radians/s),gravity_x(G),gravity_y(G),gravity_z(G),user_acc_x(G),user_acc_y(G),user_acc_z(G),magnetic_field_x(microteslas),magnetic_field_y(microteslas),magnetic_field_z(microteslas),latitude(degree),longitude(degree),altitude(meter),speed(m/s),course(degree),timestamp(unix),User Mark
,,,,,,,,,,,,,,,,25.320181,51.451247,17.017353,15.620000,85.781250,1523696145.998406,
1523696147.063444,-0.648483,-0.003169,-1.494434,0.039687,-0.026109,-0.066405,-0.603975,0.003169,-0.796997,-0.027708,0.008459,0.096328,10.768829,30.274632,9.172424,,,,,,,
1523696147.093412,-0.648611,-0.002970,-1.497384,-0.099995,-0.010774,-0.084625,-0.604077,0.002970,-0.796920,-0.024615,0.001791,0.044402,10.096558,30.278095,9.622070,,,,,,,
1523696147.123381,-0.647862,-0.004275,-1.500626,-0.093372,0.083508,-0.045292,-0.603478,0.004275,-0.797368,-0.048485,0.014935,0.011235,9.863937,29.828617,9.098755,,,,,,,
1523696147.153349,-0.643922,-0.005976,-1.501745,-0.035987,0.133719,0.048462,-0.600326,0.005976,-0.799733,-0.028550,-0.003367,-0.053951,10.765549,29.899723,9.248901,,,,,,,
,,,,,,,,,,,,,,,,25.320188,51.451415,17.060235,15.410000,79.453125,1523696146.998395,
1523696147.183317,-0.644643,-0.005265,-1.499302,0.156143,-0.119647,0.045669,-0.600905,0.005265,-0.799303,0.008330,-0.004441,-0.030180,10.093262,30.127811,9.322632,,,,,,,
1523696147.213285,-0.647652,-0.001351,-1.495133,0.181163,-0.039844,0.023222,-0.603315,0.001351,-0.797502,-0.005023,0.010841,0.015245,10.245956,30.352207,9.396851,,,,,,,
1523696147.243254,-0.647656,0.001469,-1.492958,0.059158,0.085055,-0.016414,-0.603318,-0.001469,-0.797499,-0.031448,0.044346,-0.011476,10.243256,30.351765,8.946838,,,,,,,
1523696147.273222,-0.640320,0.001116,-1.494043,-0.060634,0.258657,-0.030529,-0.597452,-0.001116,-0.801904,-0.016882,0.058047,-0.132148,9.646103,30.729298,8.795044,,,,,,,
1523696147.303190,-0.640153,0.001218,-1.495150,0.036649,-0.205849,-0.044902,-0.597318,-0.001218,-0.802003,0.021421,0.062436,-0.060805,10.026489,31.177738,8.943420,,,,,,,
1523696147.333158,-0.650616,0.004118,-1.493104,0.178525,-0.413733,0.002289,-0.605671,-0.004118,-0.795704,0.061284,0.059309,0.090977,10.786926,32.448933,8.563721,,,,,,,
1523696147.363127,-0.661673,0.008751,-1.488978,0.219651,-0.284270,0.010725,-0.614414,-0.008751,-0.788935,0.026661,0.052956,0.166056,10.031555,32.226810,8.039246,,,,,,,
1523696147.393095,-0.663311,0.012572,-1.486108,0.102953,0.109291,-0.001496,-0.615680,-0.012572,-0.787896,0.005100,0.010207,0.096718,11.001846,32.296543,7.139465,,,,,,,
1523696147.423063,-0.658220,0.014026,-1.486590,-0.007457,0.165296,-0.070884,-0.611649,-0.014025,-0.791005,-0.014572,-0.000501,-0.002147,12.582184,32.739582,7.288513,,,,,,,
1523696147.453032,-0.654772,0.014433,-1.488451,-0.017457,0.111988,-0.042068,-0.608915,-0.014432,-0.793104,0.005063,0.013272,-0.045458,11.601532,32.218922,7.215088,,,,,,,
1523696147.483000,-0.652956,0.014503,-1.488760,0.016157,0.043580,0.003840,-0.607473,-0.014503,-0.794208,0.006353,0.044975,-0.039731,11.590134,31.393452,6.693359,,,,,,,
1523696147.512968,-0.650739,0.014452,-1.487316,0.043930,0.100561,0.050688,-0.605711,-0.014451,-0.795553,0.019347,0.057817,-0.039286,11.587616,30.868916,7.145447,,,,,,,
1523696147.542936,-0.649983,0.014971,-1.485918,0.057249,-0.066000,0.010360,-0.605105,-0.014971,-0.796004,0.046679,0.053362,-0.058366,12.113785,30.716999,7.596313,,,,,,,
1523696147.572905,-0.652534,0.015857,-1.484385,0.050657,-0.105367,0.016806,-0.607125,-0.015856,-0.794448,0.048882,0.069201,-0.026292,11.061295,30.421803,7.671997,,,,,,,
1523696147.602873,-0.655737,0.015490,-1.484563,-0.027002,-0.097381,-0.032282,-0.609670,-0.015489,-0.792503,0.040579,0.088243,0.013496,12.101654,29.816532,7.074890,,,,,,,
1523696147.632841,-0.654998,0.015267,-1.486163,0.003516,0.014271,-0.054746,-0.609086,-0.015267,-0.792957,0.042451,0.057244,-0.036496,11.425659,29.669651,7.150146,,,,,,,
1523696147.662809,-0.653507,0.015303,-1.487846,-0.048497,0.068667,-0.065493,-0.607903,-0.015303,-0.793864,0.005043,0.031233,-0.060171,11.580887,30.193943,7.148132,,,,,,,
1523696147.692778,-0.652220,0.013267,-1.490285,-0.101565,-0.044180,-0.017465,-0.606899,-0.013267,-0.794668,0.008663,0.040061,-0.092280,11.424744,29.669498,7.000122,,,,,,,
1523696147.722746,-0.654948,0.009835,-1.492390,-0.127602,-0.102762,0.011345,-0.609088,-0.009834,-0.793041,0.022769,0.062706,-0.039036,11.041687,28.771381,7.153564,,,,,,,
1523696147.752714,-0.657067,0.007294,-1.493855,-0.043208,-0.080711,0.019905,-0.610780,-0.007294,-0.791766,0.042696,0.051361,-0.005323,10.824036,29.372578,7.376038,,,,,,,
1523696147.782682,-0.659433,0.008125,-1.492772,0.099048,-0.056421,-0.008786,-0.612648,-0.008125,-0.790313,0.038384,0.065971,0.037155,10.819534,28.922596,7.377808,,,,,,,
1523696147.812651,-0.656650,0.009030,-1.492560,-0.018544,0.128892,-0.026112,-0.610442,-0.009030,-0.792009,0.026946,0.059018,-0.041152,9.917480,28.626804,7.528564,,,,,,,
1523696147.842619,-0.655257,0.007820,-1.494794,-0.087232,0.007101,-0.061197,-0.609344,-0.007820,-0.792867,0.027389,0.076927,-0.049418,10.895615,28.398304,8.429993,,,,,,,
1523696147.872587,-0.655920,0.007017,-1.497893,-0.030844,-0.059840,-0.081334,-0.609873,-0.007017,-0.792467,0.063318,0.064207,-0.019865,9.924088,28.702763,8.503235,,,,,,,
1523696147.902555,-0.656571,0.007484,-1.499530,0.005638,-0.010050,-0.072832,-0.610387,-0.007484,-0.792067,0.027806,0.098228,0.040557,9.408401,29.230747,9.175964,,,,,,,
1523696147.932524,-0.655088,0.008337,-1.501267,-0.011146,0.056941,-0.072915,-0.609208,-0.008337,-0.792966,0.045731,0.124548,0.002622,9.256012,29.305912,8.650513,,,,,,,
1523696147.962492,-0.651487,0.007856,-1.503869,-0.048094,0.127259,-0.088981,-0.606350,-0.007856,-0.795158,0.025387,0.131193,-0.028831,9.634598,29.529438,8.874817,,,,,,,
1523696147.992452,-0.647628,0.007819,-1.506867,-0.018184,0.124070,-0.097491,-0.603278,-0.007819,-0.797492,0.036765,0.128516,-0.045067,9.347031,30.506168,9.320740,,,,,,,
1523696148.022420,-0.644404,0.007714,-1.509029,-0.031247,0.120590,-0.051676,-0.600704,-0.007714,-0.799434,0.020901,0.127099,-0.049016,9.052429,30.957645,9.468811,,,,,,,
1523696148.052389,-0.638478,0.004240,-1.511334,-0.163529,0.217175,0.010995,-0.595969,-0.004240,-0.802996,-0.007944,0.105757,-0.096266,8.967560,30.057880,9.322388,,,,,,,
,,,,,,,,,,,,,,,,25.320192,51.451575,17.201128,15.150000,81.562500,1523696147.998385,
1523696148.082357,-0.632614,-0.000893,-1.514374,-0.179646,0.182261,-0.002846,-0.591255,0.000893,-0.806484,-0.002617,0.075614,-0.108204,8.897049,30.508198,9.320557,,,,,,,
1523696148.112325,-0.628803,-0.005137,-1.516811,-0.118506,0.040563,0.027184,-0.588169,0.005137,-0.808721,0.045780,0.056050,-0.072092,9.660049,31.405430,9.992310,,,,,,,
1523696148.142294,-0.630414,-0.008338,-1.517384,-0.094629,-0.072341,0.058209,-0.589458,0.008338,-0.807755,0.026928,0.050225,-0.000884,8.455750,31.110630,9.767944,,,,,,,
1523696148.172262,-0.629969,-0.012299,-1.518323,-0.144135,0.045904,0.032486,-0.589075,0.012299,-0.807984,0.012430,0.045852,-0.039046,9.206635,31.107410,9.918335,,,,,,,
1523696148.202230,-0.626979,-0.016332,-1.520755,-0.133027,0.083405,-0.016552,-0.586623,0.016331,-0.809695,0.016371,0.042873,-0.098493,10.261826,31.627659,9.916748,,,,,,,
1523696148.232198,-0.627988,-0.017109,-1.523000,-0.007789,-0.129158,-0.055666,-0.587432,0.017108,-0.809092,0.023329,0.045850,-0.056279,9.667084,32.379948,9.538452,,,,,,,
1523696148.262167,-0.633010,-0.015455,-1.524096,0.035785,-0.192903,-0.072618,-0.591504,0.015455,-0.806154,0.058957,0.087054,0.016969,10.112869,32.002872,9.465210,,,,,,,
1523696148.292135,-0.635011,-0.014476,-1.525465,-0.011494,-0.005857,-0.058994,-0.593124,0.014475,-0.804981,0.050933,0.136358,0.040973,10.111359,32.302128,8.713989,,,,,,,
1523696148.322103,-0.632611,-0.014542,-1.527053,-0.015448,0.078031,-0.048431,-0.591190,0.014542,-0.806401,0.039539,0.143082,-0.019054,11.236481,31.997593,9.240723,,,,,,,
1523696148.352071,-0.630629,-0.015192,-1.527601,0.018324,0.053135,0.004894,-0.589585,0.015191,-0.807563,0.062394,0.127524,-0.059227,10.935287,31.923878,9.165955,,,,,,,
1523696148.382040,-0.628061,-0.017589,-1.525839,-0.004512,0.085353,0.114602,-0.587486,0.017589,-0.809043,0.046333,0.102773,-0.027017,11.068207,30.572681,8.571350,,,,,,,
1523696148.412008,-0.625047,-0.020865,-1.522669,0.015675,0.075701,0.122074,-0.585008,0.020863,-0.810759,0.032319,0.081462,0.038161,10.841873,30.348850,8.722168,,,,,,,
1523696148.441976,-0.621002,-0.022414,-1.519894,0.044171,0.164234,0.061286,-0.581704,0.022412,-0.813091,0.012445,0.042010,0.058422,11.140961,30.347355,8.572327,,,,,,,
1523696148.471944,-0.612610,-0.023709,-1.518599,-0.007341,0.304862,0.028073,-0.574843,0.023707,-0.817920,0.003371,0.009023,-0.056210,10.846664,30.649128,9.020935,,,,,,,
1523696148.501913,-0.605428,-0.025861,-1.518881,-0.053738,0.190238,0.023897,-0.568924,0.025858,-0.821983,0.007644,0.011450,-0.122826,10.304779,29.001499,8.952271,,,,,,,
1523696148.531881,-0.601328,-0.026465,-1.518603,0.045361,0.129563,0.005906,-0.565540,0.026462,-0.824296,0.035679,0.036633,-0.094817,9.557358,29.304783,8.875671,,,,,,,
1523696148.561849,-0.596954,-0.023492,-1.516890,0.167616,0.229262,-0.011150,-0.561970,0.023489,-0.826823,0.067372,0.071496,0.044261,8.067001,30.136707,9.096619,,,,,,,
1523696148.591817,-0.582790,-0.018664,-1.513979,0.176702,0.604251,0.002326,-0.550260,0.018663,-0.834785,0.044553,0.110106,-0.079720,8.662491,29.684025,9.098755,,,,,,,
1523696148.621786,-0.580799,-0.019253,-1.514961,-0.036730,-0.164092,-0.064176,-0.548590,0.019251,-0.835869,0.018592,0.029806,-0.053627,8.661423,29.758732,8.798462,,,,,,,
1523696148.651754,-0.581715,-0.018220,-1.517584,-0.036253,0.104158,-0.130516,-0.549366,0.018219,-0.835383,0.033116,0.052735,-0.128118,9.644028,30.204838,9.322144,,,,,,,
1523696148.681722,-0.583561,-0.018288,-1.520451,-0.036064,-0.259668,-0.071545,-0.550907,0.018287,-0.834366,0.055225,0.083459,-0.107376,9.344635,30.356037,9.171387,,,,,,,
1523696148.711691,-0.593680,-0.018522,-1.521628,-0.025045,-0.351511,-0.010706,-0.559319,0.018520,-0.828745,0.072579,0.088795,-0.007390,9.266647,30.056385,9.172546,,,,,,,
1523696148.741659,-0.606472,-0.020782,-1.523076,-0.076877,-0.467289,0.001093,-0.569849,0.020780,-0.821486,0.047770,0.057085,0.049101,9.791031,30.128803,8.947510,,,,,,,
1523696148.771627,-0.615506,-0.021984,-1.523957,0.004428,-0.225014,-0.026800,-0.577232,0.021982,-0.816283,0.051979,0.015387,0.006561,9.790283,29.829182,9.323669,,,,,,,
1523696148.801626,-0.619932,-0.022410,-1.524977,-0.045284,-0.138703,-0.042910,-0.580834,0.022408,-0.813713,0.045372,0.032020,0.043419,10.169006,30.202473,9.322388,,,,,,,
1523696148.831594,-0.621281,-0.023527,-1.527552,-0.082917,0.028288,-0.052695,-0.581916,0.023525,-0.812908,0.043800,0.049077,0.017055,9.788651,29.529423,9.549927,,,,,,,
1523696148.861562,-0.617866,-0.025278,-1.530784,-0.131483,0.137899,-0.060291,-0.579112,0.025275,-0.814856,-0.011526,0.035439,-0.062677,8.888077,29.608250,9.324158,,,,,,,
1523696148.891531,-0.611983,-0.028493,-1.534516,-0.150780,0.167417,-0.019846,-0.574258,0.028489,-0.818178,0.015161,0.041396,-0.160032,9.793594,29.754841,9.998962,,,,,,,
1523696148.921499,-0.612077,-0.031736,-1.536320,-0.090228,-0.094401,0.017758,-0.574279,0.031730,-0.818044,0.022995,0.059960,-0.086680,9.879517,30.579899,10.445740,,,,,,,
1523696148.951467,-0.614366,-0.033937,-1.536712,-0.033588,-0.065946,0.031622,-0.576108,0.033930,-0.816668,0.055982,0.057760,-0.048246,9.056198,30.883381,10.219116,,,,,,,
1523696148.981430,-0.615557,-0.033724,-1.535954,0.043707,-0.016991,-0.006728,-0.577085,0.033718,-0.815987,0.042829,0.039586,-0.009681,9.353638,30.582111,10.295532,,,,,,,
1523696149.011399,-0.614798,-0.033006,-1.535937,0.003166,-0.015775,-0.013158,-0.576479,0.033000,-0.816445,0.056246,0.021840,-0.031150,10.332779,31.177402,9.993591,,,,,,,
1523696149.041367,-0.616349,-0.034042,-1.536770,-0.051624,-0.082624,-0.006742,-0.577725,0.034035,-0.815521,0.067273,0.021812,0.009613,9.438812,31.781437,9.990723,,,,,,,
1523696149.071335,-0.617303,-0.034275,-1.537425,0.016176,0.012984,-0.027032,-0.578498,0.034268,-0.814963,0.050010,0.026599,0.019644,9.879333,31.328632,9.167786,,,,,,,
,,,,,,,,,,,,,,,,25.320201,51.451743,17.290634,15.320000,83.671875,1523696148.998374,
1523696149.101303,-0.615952,-0.032912,-1.537743,0.048377,0.028954,-0.044066,-0.577423,0.032906,-0.815781,0.045868,0.022987,0.018418,10.469742,30.500736,8.946350,,,,,,,
1523696149.131272,-0.614437,-0.031608,-1.537753,0.025773,0.018205,-0.018499,-0.576210,0.031603,-0.816690,0.045876,0.021208,-0.005972,10.697128,30.649876,9.095886,,,,,,,
1523696149.161240,-0.615181,-0.032164,-1.537990,-0.046038,-0.002037,0.015558,-0.576807,0.032159,-0.816247,0.049815,0.038901,-0.006370,11.288406,30.046757,8.648560,,,,,,,
1523696149.191208,-0.613750,-0.033910,-1.538152,-0.025621,0.030805,0.020876,-0.575606,0.033904,-0.817024,0.022261,0.033891,-0.026436,9.935944,29.528309,9.099976,,,,,,,
1523696149.221176,-0.611691,-0.033530,-1.538276,0.029456,0.107549,-0.032435,-0.573929,0.033524,-0.818218,0.011567,0.022171,-0.087376,10.010483,29.527897,9.025024,,,,,,,
1523696149.251145,-0.607019,-0.032621,-1.538343,0.028256,0.101031,-0.012183,-0.570118,0.032616,-0.820915,0.036381,0.018379,-0.122475,10.992920,30.048847,9.398438,,,,,,,
1523696149.281113,-0.607594,-0.032792,-1.538241,-0.036640,-0.048816,0.015612,-0.570587,0.032786,-0.820582,0.041153,0.028997,-0.062047,10.773468,30.649754,9.320923,,,,,,,
1523696149.311081,-0.608921,-0.034934,-1.538630,-0.052810,-0.073313,0.027358,-0.571633,0.034927,-0.819765,0.033227,0.027344,-0.055784,10.471817,30.800587,8.795166,,,,,,,
1523696149.341050,-0.610412,-0.035380,-1.538641,0.011578,-0.040294,-0.006723,-0.572847,0.035373,-0.818899,0.013368,0.014432,-0.066447,11.220291,30.871845,8.420288,,,,,,,
1523696149.371018,-0.612465,-0.034844,-1.539040,-0.009950,-0.102769,-0.029060,-0.574537,0.034837,-0.817737,0.011839,-0.000810,-0.047940,10.709686,32.224293,8.564575,,,,,,,
1523696149.400986,-0.615066,-0.035295,-1.540272,-0.043003,-0.091028,-0.025893,-0.576653,0.035288,-0.816227,0.038033,0.002478,-0.013317,10.554733,32.224155,7.739502,,,,,,,
1523696149.430954,-0.617324,-0.035244,-1.541581,-0.006468,-0.066491,-0.051471,-0.578496,0.035236,-0.814924,0.019612,0.013638,0.010267,11.300186,32.444675,6.613953,,,,,,,
1523696149.460923,-0.616486,-0.034179,-1.542491,0.022754,0.037452,-0.035563,-0.577834,0.034173,-0.815438,0.027511,0.024772,-0.047523,10.634949,33.198048,6.985657,,,,,,,
1523696149.490891,-0.616057,-0.033742,-1.542849,-0.014886,0.010804,-0.008935,-0.577493,0.033736,-0.815698,0.022592,0.035142,-0.063772,10.257278,32.750034,7.287292,,,,,,,
1523696149.520859,-0.615128,-0.036089,-1.543989,-0.114328,0.011917,0.019755,-0.576687,0.036081,-0.816168,0.021588,0.048224,-0.102930,10.771927,31.847507,7.066101,,,,,,,
1523696149.550827,-0.616051,-0.038380,-1.545141,-0.028989,-0.042293,-0.009950,-0.577391,0.038371,-0.815565,0.015700,0.032811,-0.063188,9.855515,29.752384,7.824036,,,,,,,
1523696149.580796,-0.616403,-0.037718,-1.544957,0.051102,-0.034022,-0.005637,-0.577693,0.037709,-0.815383,0.024226,0.010569,-0.035234,9.560486,29.754536,8.648865,,,,,,,
1523696149.610764,-0.617789,-0.037270,-1.544173,0.001728,-0.059595,0.022055,-0.578832,0.037261,-0.814595,0.047781,-0.000838,0.018498,10.084122,29.751957,8.424194,,,,,,,
1523696149.640732,-0.619754,-0.038489,-1.543709,-0.034692,-0.072337,0.033762,-0.580405,0.038479,-0.813419,0.067603,0.000568,0.070712,8.809631,29.533146,8.874390,,,,,,,
1523696149.670700,-0.619888,-0.039439,-1.543781,-0.014668,0.052293,-0.015372,-0.580492,0.039429,-0.813311,0.039644,0.006806,0.071703,8.955414,29.157413,8.801025,,,,,,,
1523696149.700669,-0.614432,-0.038315,-1.544964,0.026808,0.179065,-0.077262,-0.576071,0.038306,-0.816501,0.048728,0.013727,-0.025677,9.416199,30.055637,9.097656,,,,,,,
1523696149.730637,-0.611787,-0.036034,-1.546190,0.025208,0.059023,-0.080344,-0.573958,0.036026,-0.818092,0.020583,0.011947,-0.029320,8.749756,30.509312,9.770447,,,,,,,
1523696149.760605,-0.608922,-0.035836,-1.548244,-0.064426,0.103663,-0.050618,-0.571616,0.035828,-0.819739,0.033240,0.033477,-0.075983,8.660843,29.384266,9.324890,,,,,,,
1523696149.790573,-0.607784,-0.036405,-1.549849,-0.009588,-0.026240,-0.032333,-0.570671,0.036397,-0.820371,0.038063,0.064113,-0.068636,10.086380,29.527699,9.175110,,,,,,,
1523696149.820542,-0.609182,-0.035324,-1.549022,0.079463,-0.106550,0.022165,-0.571840,0.035317,-0.819605,0.063661,0.066536,-0.018805,9.564850,29.605503,9.624451,,,,,,,
1523696149.850510,-0.610976,-0.034723,-1.546742,0.042393,-0.006760,0.049736,-0.573322,0.034716,-0.818594,0.062763,0.034956,0.050436,9.339264,29.681278,9.399048,,,,,,,
1523696149.880478,-0.609834,-0.035862,-1.544798,0.015576,-0.022683,0.058249,-0.572363,0.035854,-0.819216,0.064138,-0.005505,0.069537,9.034927,29.157810,9.551025,,,,,,,
1523696149.910446,-0.607127,-0.037343,-1.543820,-0.048237,0.215784,0.015354,-0.570113,0.037334,-0.820718,0.000289,-0.028804,-0.007850,10.007645,28.928425,9.552429,,,,,,,
1523696149.940415,-0.599288,-0.038961,-1.545217,-0.057736,0.184264,-0.032569,-0.563627,0.038951,-0.825110,0.005903,-0.043330,-0.107751,9.181320,28.931919,9.326965,,,,,,,
1523696149.970383,-0.597130,-0.039344,-1.546790,-0.056372,0.021665,-0.028154,-0.561836,0.039334,-0.826313,0.002449,-0.047955,-0.108532,9.494492,29.980961,9.772949,,,,,,,
1523696150.000361,-0.599877,-0.041877,-1.548088,-0.109952,-0.168943,0.048713,-0.564046,0.041865,-0.824681,0.024221,-0.015208,-0.050197,8.660995,29.309406,9.475220,,,,,,,
1523696150.030330,-0.604055,-0.043451,-1.547656,0.016421,-0.108532,0.026369,-0.567448,0.043437,-0.822263,0.034901,-0.006252,-0.015735,8.816101,29.459309,10.074707,,,,,,,
1523696150.060298,-0.606242,-0.041680,-1.545862,0.095578,-0.089547,0.016830,-0.569288,0.041668,-0.821081,0.034559,0.014713,-0.009897,9.873825,30.279484,9.996948,,,,,,,
,,,,,,,,,,,,,,,,25.320203,51.451896,17.213607,15.140000,84.726562,1523696149.998363,
1523696150.090266,-0.608835,-0.039907,-1.545072,0.029578,-0.095433,-0.027975,-0.571456,0.039896,-0.819662,0.057647,0.036565,0.008016,9.351227,30.656605,9.770203,,,,,,,
1523696150.120234,-0.610474,-0.039231,-1.545741,0.002181,-0.024132,-0.034454,-0.572815,0.039221,-0.818746,0.037323,0.059488,0.002721,9.412918,29.456104,9.550049,,,,,,,
1523696150.150203,-0.610011,-0.038187,-1.547222,0.018642,0.021828,-0.079236,-0.572459,0.038178,-0.819044,0.006587,0.035400,-0.029619,9.191360,29.757175,9.623657,,,,,,,
1523696150.180171,-0.609550,-0.035992,-1.547860,0.068513,-0.009334,-0.047204,-0.572128,0.035985,-0.819375,0.006332,-0.006901,-0.022529,9.205139,30.732777,10.294800,,,,,,,
1523696150.210140,-0.609498,-0.036341,-1.547798,-0.058844,0.007479,0.025139,-0.572078,0.036333,-0.819394,-0.009709,-0.006914,-0.046680,9.870224,30.278889,9.396973,,,,,,,
1523696150.240108,-0.610853,-0.039171,-1.548299,-0.061607,-0.112699,0.041239,-0.573126,0.039161,-0.818531,0.030630,-0.002052,-0.034390,8.967712,29.983036,9.472717,,,,,,,
1523696150.270077,-0.613771,-0.039914,-1.547224,0.042289,-0.044925,0.036989,-0.575496,0.039903,-0.816831,-0.008565,0.015761,0.062253,9.345703,30.056705,9.847595,,,,,,,
1523696150.300045,-0.609459,-0.038629,-1.546374,0.058793,0.224328,-0.028265,-0.571997,0.038619,-0.819346,0.003058,-0.030761,-0.042440,9.870224,30.278889,9.396973,,,,,,,
1523696150.330013,-0.604655,-0.036983,-1.545908,0.040999,0.077665,-0.018541,-0.568090,0.036974,-0.822136,-0.024272,-0.014117,-0.090691,10.327530,30.877048,9.619751,,,,,,,
1523696150.359981,-0.603591,-0.038078,-1.547196,-0.127856,0.050444,-0.014390,-0.567191,0.038069,-0.822706,-0.017510,0.006151,-0.120593,9.273087,30.431797,9.621033,,,,,,,
1523696150.389950,-0.603044,-0.040837,-1.549243,-0.053535,-0.044362,-0.011022,-0.566679,0.040826,-0.822926,-0.014207,0.034827,-0.115184,9.953766,30.729191,10.070190,,,,,,,
1523696150.419918,-0.607855,-0.038633,-1.548766,0.124954,-0.248755,-0.020279,-0.570682,0.038624,-0.820262,0.048618,0.050594,0.025859,10.712250,31.625706,9.991943,,,,,,,
1523696150.449886,-0.614011,-0.036192,-1.547182,0.036832,-0.099997,0.012534,-0.575773,0.036184,-0.816808,0.045057,0.047846,0.125036,10.935303,31.699253,9.541809,,,,,,,
1523696150.479854,-0.610554,-0.036842,-1.547968,-0.057730,0.175836,-0.042155,-0.572932,0.036834,-0.818775,-0.032064,0.026032,-0.039135,12.853134,29.738529,7.450562,,,,,,,
1523696150.509823,-0.608038,-0.036030,-1.550349,0.009971,-0.019532,-0.088786,-0.570888,0.036022,-0.820238,-0.019170,0.012714,-0.083022,11.584793,30.044834,8.048767,,,,,,,
1523696150.539791,-0.610726,-0.035281,-1.552211,-0.026986,-0.119564,-0.052497,-0.573105,0.035273,-0.818722,-0.019164,0.021138,0.008038,12.541779,28.689777,7.304688,,,,,,,
1523696150.569758,-0.613574,-0.036181,-1.553534,-0.045026,-0.028538,0.004936,-0.575416,0.036173,-0.817060,-0.032448,0.027746,0.048185,12.599411,27.263996,6.785400,,,,,,,
1523696150.599728,-0.610895,-0.037898,-1.553584,-0.054123,0.112638,0.029297,-0.573189,0.037889,-0.818546,-0.094780,-0.004045,-0.053280,10.642181,25.774082,8.065369,,,,,,,
1523696150.629695,-0.609573,-0.038670,-1.553644,0.028680,-0.023421,0.004996,-0.572090,0.038661,-0.819279,-0.028634,-0.029749,-0.068981,10.193558,25.551716,8.666016,,,,,,,
1523696150.659663,-0.614081,-0.036113,-1.552556,0.110351,-0.178536,-0.026758,-0.575832,0.036105,-0.816770,0.030315,0.013776,0.077268,8.700348,26.233418,8.662537,,,,,,,
1523696150.689631,-0.618387,-0.033743,-1.552036,0.049907,-0.096515,-0.034341,-0.579391,0.033737,-0.814351,0.029907,0.054535,0.110921,8.114166,27.211735,9.333313,,,,,,,
1523696150.719600,-0.617437,-0.032239,-1.552855,0.005218,0.149220,-0.057000,-0.578646,0.032234,-0.814941,0.001086,0.057656,0.056808,8.410248,27.134876,8.808838,,,,,,,
1523696150.749568,-0.611883,-0.031479,-1.554307,-0.021264,0.199206,-0.053873,-0.574125,0.031474,-0.818162,-0.067049,0.045171,-0.045089,9.833237,27.203022,8.359253,,,,,,,
1523696150.779536,-0.607243,-0.032283,-1.557334,-0.090985,0.090152,-0.085779,-0.570308,0.032278,-0.820796,-0.042683,-0.003347,-0.119603,9.170258,27.956745,9.105896,,,,,,,
1523696150.809505,-0.611694,-0.033371,-1.558198,0.009334,-0.242559,0.045695,-0.573935,0.033365,-0.818221,-0.021722,0.013724,0.053420,8.548401,26.308659,8.212158,,,,,,,
1523696150.839473,-0.615945,-0.034678,-1.557510,-0.059967,-0.012665,0.018766,-0.577383,0.034671,-0.815737,-0.053110,0.023144,0.093188,9.143600,25.556431,8.665466,,,,,,,
1523696150.869442,-0.612101,-0.035085,-1.557637,0.052103,0.185954,-0.007990,-0.574235,0.035078,-0.817939,-0.044845,-0.020933,-0.028893,6.610794,26.469181,10.010559,,,,,,,
1523696150.899410,-0.608746,-0.032511,-1.556883,0.052718,0.057549,-0.032369,-0.571537,0.032505,-0.819932,-0.049312,-0.026233,-0.082717,6.632385,27.820423,11.355164,,,,,,,
1523696150.929378,-0.609963,-0.033406,-1.557735,-0.084765,-0.091101,-0.001413,-0.572517,0.033400,-0.819212,-0.043373,0.042894,-0.062135,6.416656,28.796314,11.276184,,,,,,,
1523696150.959347,-0.613368,-0.035284,-1.559420,-0.059088,-0.082628,-0.005670,-0.575267,0.035277,-0.817205,-0.007100,0.088899,-0.003215,5.532425,30.150654,11.645325,,,,,,,
1523696150.989293,-0.616396,-0.034808,-1.559418,0.062360,-0.149833,-0.011903,-0.577748,0.034801,-0.815473,-0.006160,0.066426,0.067701,6.515152,30.971165,11.567505,,,,,,,
1523696151.019261,-0.619551,-0.033133,-1.558564,0.054329,-0.034002,-0.009895,-0.580351,0.033127,-0.813692,0.001952,0.008957,0.117800,8.334076,33.137516,11.109741,,,,,,,
1523696151.049229,-0.618597,-0.033449,-1.558367,-0.042369,0.087268,0.005892,-0.579568,0.033443,-0.814237,-0.035819,-0.025463,0.051664,7.656708,32.990421,10.960022,,,,,,,
,,,,,,,,,,,,,,,,25.320227,51.452044,16.965522,15.020000,85.078125,1523696150.998353,
1523696151.079198,-0.614847,-0.035913,-1.559903,-0.098612,0.155433,0.001529,-0.576462,0.035906,-0.816335,-0.041626,-0.020952,-0.038569,9.151260,32.533543,10.812561,,,,,,,
1523696151.109166,-0.613613,-0.037484,-1.561087,-0.035269,-0.032613,-0.024879,-0.575420,0.037476,-0.816999,-0.060047,-0.000702,0.015882,9.895233,32.154819,10.439453,,,,,,,
1523696151.139134,-0.614779,-0.037090,-1.561842,0.016024,0.014855,0.007075,-0.576381,0.037082,-0.816339,0.016338,0.018231,0.032541,8.996033,32.009251,10.814575,,,,,,,
1523696151.169102,-0.614626,-0.036453,-1.560418,0.040402,-0.011844,0.017774,-0.576270,0.036445,-0.816446,-0.037103,0.031044,0.059137,8.241852,31.637562,10.740662,,,,,,,
1523696151.199071,-0.612882,-0.035994,-1.560077,0.018630,0.122160,0.009099,-0.574855,0.035987,-0.817464,0.017360,0.033929,-0.015941,7.890396,33.365192,11.783630,,,,,,,
1523696151.229039,-0.610960,-0.034641,-1.559868,0.049522,0.029056,-0.058983,-0.573310,0.034634,-0.818606,-0.016290,0.030536,-0.007199,7.229935,34.868076,11.702271,,,,,,,
1523696151.259007,-0.611568,-0.033554,-1.561249,-0.025471,-0.006010,-0.035544,-0.573829,0.033548,-0.818288,0.002631,0.048591,-0.001964,10.167664,36.728886,10.721252,,,,,,,
1523696151.288976,-0.611893,-0.035442,-1.563292,-0.110908,-0.012152,-0.037737,-0.574057,0.035434,-0.818048,-0.051202,0.058423,-0.005652,11.512665,36.722004,9.897034,,,,,,,
1523696151.318944,-0.612123,-0.038079,-1.565033,-0.051637,-0.045721,0.031596,-0.574190,0.038070,-0.817837,-0.006514,0.035935,-0.000156,12.263809,37.242954,9.220276,,,,,,,
1523696151.348912,-0.614795,-0.038681,-1.564220,0.027400,-0.059628,0.015692,-0.576360,0.038671,-0.816281,-0.023952,0.006953,0.106488,14.631470,35.355045,6.979004,,,,,,,
1523696151.378880,-0.613582,-0.038989,-1.563567,0.003625,0.117856,0.019760,-0.575362,0.038979,-0.816970,-0.015916,-0.021813,0.061293,15.507462,33.400364,6.237244,,,,,,,
1523696151.408849,-0.610015,-0.038421,-1.563976,0.006310,0.150300,-0.060195,-0.572457,0.038412,-0.819034,-0.029838,0.019435,-0.081646,14.264572,29.280674,5.953125,,,,,,,
1523696151.438817,-0.606587,-0.038321,-1.566179,-0.066705,0.061195,-0.056959,-0.569648,0.038312,-0.820995,-0.047615,0.086383,-0.102421,13.881516,28.157932,6.482422,,,,,,,
1523696151.468785,-0.608915,-0.039118,-1.569210,-0.079248,-0.123638,-0.062105,-0.571540,0.039108,-0.819642,-0.006356,0.089310,-0.040481,11.851089,26.893269,7.686523,,,,,,,
1523696151.498753,-0.612596,-0.040419,-1.570892,-0.050756,-0.111467,0.011421,-0.574524,0.040408,-0.817489,-0.018234,0.115033,0.031936,10.045639,26.301472,7.762939,,,,,,,
1523696151.528722,-0.614386,-0.041314,-1.571583,-0.019022,-0.000667,-0.040879,-0.575965,0.041303,-0.816430,-0.022119,0.075152,0.022256,9.820969,25.928165,8.439331,,,,,,,
1523696151.558690,-0.613718,-0.039704,-1.571965,0.086704,-0.016734,-0.059964,-0.575457,0.039694,-0.816868,-0.023084,0.034159,0.025516,8.712494,27.133884,9.183960,,,,,,,
1523696151.588658,-0.614519,-0.037776,-1.572773,0.007901,0.015398,-0.069637,-0.576154,0.037767,-0.816468,0.008664,0.030852,0.043092,8.423721,28.260181,9.179321,,,,,,,
1523696151.618626,-0.615204,-0.038990,-1.575075,-0.099126,-0.012115,-0.046258,-0.576686,0.038980,-0.816035,-0.025944,0.064413,0.038355,9.610199,27.354099,8.433533,,,,,,,
1523696151.648595,-0.615224,-0.041110,-1.577984,-0.101059,0.053645,-0.028211,-0.576653,0.041098,-0.815954,-0.034644,0.065408,0.013433,9.916031,27.578327,9.032776,,,,,,,
1523696151.678563,-0.611836,-0.042755,-1.579338,-0.030481,0.089518,-0.017535,-0.573846,0.042742,-0.817846,-0.079260,0.070127,-0.073648,8.949768,27.958500,9.855774,,,,,,,
1523696151.708531,-0.613647,-0.042407,-1.579982,0.016941,-0.049795,-0.018425,-0.575335,0.042394,-0.816818,0.005663,0.043604,0.017761,8.945572,27.583439,9.782288,,,,,,,
1523696151.738499,-0.614175,-0.043249,-1.579918,-0.030938,0.017092,0.007042,-0.575745,0.043235,-0.816485,-0.014404,0.061394,0.045733,8.934326,26.907749,9.034973,,,,,,,
1523696151.768468,-0.610683,-0.044241,-1.581250,-0.034149,0.192802,-0.045352,-0.572866,0.044227,-0.818454,-0.027323,0.077706,-0.047970,8.709793,26.908833,9.109863,,,,,,,
1523696151.798436,-0.607201,-0.044096,-1.583027,-0.033616,0.056852,-0.056922,-0.570016,0.044082,-0.820449,-0.062201,0.069963,-0.103028,10.433517,26.825993,9.036072,,,,,,,
1523696151.828404,-0.607847,-0.045487,-1.586125,-0.125956,-0.054500,-0.054753,-0.570510,0.045471,-0.820030,-0.007172,0.082703,-0.085503,8.560394,26.834721,9.335083,,,,,,,
1523696151.858373,-0.611964,-0.048533,-1.588897,-0.116091,-0.181322,-0.006662,-0.573799,0.048514,-0.817557,-0.005440,0.093088,0.032676,8.022720,25.337528,9.715759,,,,,,,
1523696151.888341,-0.616735,-0.050203,-1.590149,-0.035679,-0.092329,0.003957,-0.577646,0.050182,-0.814743,-0.001837,0.073735,0.090942,8.033051,26.237705,9.937195,,,,,,,
1523696151.918309,-0.616152,-0.050839,-1.590292,0.005652,0.057508,-0.012146,-0.577152,0.050817,-0.815054,-0.001507,0.015971,0.053014,6.862457,28.419239,11.202881,,,,,,,
1523696151.948277,-0.614428,-0.051400,-1.590589,-0.022291,0.034108,0.001705,-0.575729,0.051378,-0.816024,0.010468,0.026961,0.033248,7.238022,28.792011,10.676636,,,,,,,
1523696151.978254,-0.615009,-0.053125,-1.592320,-0.101046,0.035682,-0.044168,-0.576152,0.053100,-0.815616,-0.012822,0.057282,0.068133,9.113541,28.933430,10.526978,,,,,,,
1523696152.008252,-0.613889,-0.053897,-1.595076,-0.018757,0.021874,-0.072869,-0.575214,0.053871,-0.816226,0.009022,0.076988,0.011646,7.911636,29.013386,10.076050,,,,,,,
1523696152.038221,-0.613584,-0.052781,-1.596220,-0.001699,0.030226,-0.059006,-0.574999,0.052757,-0.816451,-0.046934,0.091622,0.010390,8.888687,29.084217,10.301270,,,,,,,
1523696152.068189,-0.611671,-0.054829,-1.598308,-0.133164,0.065228,-0.002669,-0.573374,0.054801,-0.817459,-0.022619,0.107735,-0.081620,8.725082,27.809803,10.156250,,,,,,,
,,,,,,,,,,,,,,,,25.320234,51.452190,16.499224,14.980000,87.187500,1523696151.998343,
1523696152.098157,-0.611921,-0.059323,-1.600228,-0.131681,-0.039135,0.030461,-0.573430,0.059288,-0.817106,-0.027766,0.105583,-0.078020,7.973633,27.438557,10.532349,,,,,,,
1523696152.128125,-0.612552,-0.062715,-1.600992,-0.067494,-0.004276,0.036869,-0.573827,0.062674,-0.816574,-0.026057,0.100534,-0.069534,8.207321,27.813343,11.356018,,,,,,,
1523696152.158094,-0.613718,-0.063871,-1.600626,0.007972,-0.096833,0.024241,-0.574737,0.063827,-0.815845,0.011733,0.057404,-0.006695,8.283661,28.037846,11.205139,,,,,,,
1523696152.188062,-0.616021,-0.065178,-1.599585,-0.038924,-0.038495,0.057172,-0.576565,0.065132,-0.814451,-0.009128,0.027260,0.009077,7.608688,28.040882,11.204773,,,,,,,
1523696152.218030,-0.616518,-0.068503,-1.599958,-0.102857,-0.030782,0.040071,-0.576842,0.068449,-0.813983,0.001768,0.017259,-0.002958,7.982925,27.964191,11.205261,,,,,,,
1523696152.247998,-0.617988,-0.070498,-1.600846,-0.029107,-0.069952,-0.007778,-0.577957,0.070440,-0.813021,0.027771,0.009227,0.050128,8.224091,29.313557,11.649963,,,,,,,
1523696152.277967,-0.619520,-0.070212,-1.601799,-0.004144,-0.019835,-0.041905,-0.579214,0.070155,-0.812151,0.027456,0.004674,0.082750,8.228119,29.988087,11.197266,,,,,,,
1523696152.307935,-0.619763,-0.069586,-1.602987,-0.025115,0.045169,-0.060104,-0.579436,0.069530,-0.812046,-0.020905,0.064671,0.024494,10.548035,30.426060,9.621704,,,,,,,
1523696152.337903,-0.615922,-0.070271,-1.606102,-0.083483,0.098593,-0.081511,-0.576285,0.070213,-0.814227,0.027854,0.078316,-0.105299,10.554321,31.100971,9.544006,,,,,,,
1523696152.367871,-0.620017,-0.070655,-1.608219,-0.027526,-0.224903,-0.035325,-0.579599,0.070596,-0.811838,0.032678,0.112784,0.024881,9.426971,30.955891,9.394043,,,,,,,
1523696152.397840,-0.625250,-0.071347,-1.609321,-0.035788,-0.130516,-0.006654,-0.583811,0.071286,-0.808754,0.062570,0.105411,0.083855,8.296173,30.510746,9.170288,,,,,,,
1523696152.427808,-0.626000,-0.072903,-1.609574,-0.039363,0.062661,0.026178,-0.584351,0.072839,-0.808225,0.010209,0.089713,0.062436,7.770309,30.063709,9.771790,,,,,,,
1523696152.457776,-0.620711,-0.074938,-1.610218,-0.057671,0.231842,-0.000638,-0.579981,0.074868,-0.811182,-0.012395,0.048270,-0.073843,5.086792,30.452885,11.868835,,,,,,,
1523696152.487745,-0.615694,-0.077169,-1.611652,-0.076194,0.110981,-0.033562,-0.575806,0.077092,-0.813943,-0.032211,0.028072,-0.145880,5.249069,31.053211,12.916565,,,,,,,
1523696152.517713,-0.616706,-0.078639,-1.612836,-0.023141,-0.139196,0.015733,-0.576564,0.078558,-0.813266,0.006145,0.024164,-0.096203,5.945908,32.925587,13.434387,,,,,,,
1523696152.547681,-0.622964,-0.079875,-1.612775,-0.037377,-0.211504,0.025400,-0.581584,0.079790,-0.809563,0.039668,0.042906,0.032479,7.594925,33.142643,12.909363,,,,,,,
1523696152.577649,-0.624966,-0.080896,-1.612318,0.013791,-0.000102,0.016694,-0.583156,0.080808,-0.808331,0.004268,0.037402,0.002835,12.393524,33.270603,12.461243,,,,,,,
1523696152.607618,-0.624387,-0.080113,-1.612241,0.001324,0.038391,-0.014248,-0.582725,0.080027,-0.808720,0.024451,0.030141,-0.035809,12.021820,33.871830,12.008667,,,,,,,
1523696152.637586,-0.624545,-0.081591,-1.613355,-0.081307,-0.033763,0.001738,-0.582783,0.081501,-0.808530,-0.007869,0.068371,-0.028658,14.069748,30.185078,9.474426,,,,,,,
1523696152.667554,-0.626643,-0.082957,-1.615565,-0.028918,-0.095092,-0.062081,-0.584412,0.082862,-0.807215,0.011429,0.077218,-0.009069,14.874054,28.381016,9.032043,,,,,,,
1523696152.697522,-0.628699,-0.081205,-1.616134,0.068325,-0.031808,-0.026922,-0.586155,0.081116,-0.806128,-0.000271,0.057373,0.032080,13.955215,26.584995,8.888733,,,,,,,
1523696152.727491,-0.626140,-0.081103,-1.615841,-0.028239,0.142438,0.010126,-0.584095,0.081014,-0.807632,-0.053372,0.052424,-0.107468,10.785934,23.975391,10.022583,,,,,,,
1523696152.757459,-0.623575,-0.082562,-1.616335,-0.023585,-0.007420,0.012413,-0.581952,0.082468,-0.809031,-0.007358,0.054555,-0.186697,9.056839,23.158863,10.700073,,,,,,,
1523696152.787427,-0.628517,-0.082653,-1.615272,0.036173,-0.225550,0.033985,-0.585939,0.082559,-0.806139,0.018266,0.081961,-0.053755,7.869171,23.765247,11.747009,,,,,,,
1523696152.817395,-0.633182,-0.081127,-1.613745,0.099919,-0.105350,-0.006579,-0.589766,0.081038,-0.803497,0.029845,0.054246,0.024002,7.055450,24.444660,12.493896,,,,,,,
1523696152.847364,-0.634993,-0.078127,-1.611418,0.128756,-0.072669,0.020049,-0.591362,0.078048,-0.802620,0.053200,0.018784,0.021339,6.702911,26.696232,12.484741,,,,,,,
1523696152.877332,-0.637079,-0.077755,-1.609872,-0.024853,-0.038290,0.022025,-0.593053,0.077677,-0.801407,0.009480,0.006597,0.064988,6.489014,27.447788,13.081604,,,,,,,
1523696152.907300,-0.635709,-0.079024,-1.611244,-0.019824,0.052479,-0.044122,-0.591895,0.078941,-0.802139,0.021064,-0.008232,-0.005859,6.956360,29.320454,12.849365,,,,,,,
1523696152.937268,-0.636103,-0.076601,-1.611527,0.109015,-0.023306,-0.041816,-0.592323,0.076527,-0.802058,0.036812,-0.018299,-0.015661,8.533966,29.763065,12.548401,,,,,,,
1523696152.967237,-0.635097,-0.074143,-1.609890,0.069589,0.057158,0.013484,-0.591626,0.074075,-0.802802,0.030117,-0.001032,-0.013375,8.613892,30.662022,11.869751,,,,,,,
1523696152.997208,-0.634483,-0.073062,-1.608305,0.072461,-0.011939,0.016750,-0.591180,0.072998,-0.803229,0.027459,0.040589,-0.041330,9.056976,30.284504,11.346558,,,,,,,
1523696153.027176,-0.633377,-0.071156,-1.606834,0.080389,0.067852,-0.000369,-0.590373,0.071096,-0.803993,0.022471,0.043467,-0.079735,10.633987,30.801868,10.820251,,,,,,,
1523696153.057144,-0.631270,-0.069278,-1.605782,0.070587,0.012696,-0.010976,-0.588754,0.069222,-0.805342,0.040384,0.032462,-0.112825,10.260345,31.028416,10.669189,,,,,,,
,,,,,,,,,,,,,,,,25.320220,51.452355,16.646578,15.270000,89.296875,1523696152.998333,
1523696153.087113,-0.632467,-0.068335,-1.604270,0.030424,-0.064130,0.048740,-0.589757,0.068282,-0.804689,0.051869,0.051621,-0.091338,10.550751,30.426502,10.071716,,,,,,,
1523696153.117081,-0.634037,-0.070588,-1.603735,-0.080638,-0.074449,0.044406,-0.590927,0.070530,-0.803636,0.045776,0.038525,-0.061095,11.347076,28.321659,8.805542,,,,,,,
1523696153.147049,-0.634626,-0.072011,-1.603981,0.018007,-0.027666,0.005010,-0.591340,0.071948,-0.803206,0.052414,0.009030,-0.073365,10.523346,27.951191,9.631592,,,,,,,
1523696153.177018,-0.637522,-0.070162,-1.603288,0.090131,-0.168956,-0.025696,-0.593742,0.070104,-0.801596,0.101524,-0.026022,0.015448,10.365280,27.052052,9.785095,,,,,,,
1523696153.206986,-0.642055,-0.068255,-1.602292,0.067777,-0.130788,-0.005506,-0.597448,0.068202,-0.799002,0.124151,-0.022258,0.076117,10.514374,27.051228,9.635132,,,,,,,
1523696153.236954,-0.643465,-0.066238,-1.601139,0.079292,0.041422,-0.018461,-0.598656,0.066189,-0.798267,0.094826,-0.014462,0.038715,9.170135,27.133106,10.459167,,,,,,,
1523696153.266922,-0.634694,-0.064986,-1.600132,0.030366,0.350565,0.008900,-0.591679,0.064941,-0.803553,0.031544,-0.019973,-0.159673,9.396469,27.356937,10.308411,,,,,,,
1523696153.296891,-0.627994,-0.065210,-1.599720,-0.024266,0.100835,0.031482,-0.586274,0.065163,-0.807488,0.019120,-0.012917,-0.247932,8.959366,28.334431,10.829285,,,,,,,
1523696153.326859,-0.632293,-0.065974,-1.598800,0.009013,-0.312750,0.051111,-0.589710,0.065926,-0.804920,0.133762,0.006171,-0.034772,9.630585,28.405659,10.079285,,,,,,,
1523696153.356827,-0.640271,-0.066549,-1.596314,0.053350,-0.151532,0.079741,-0.596090,0.066500,-0.800158,0.105322,-0.008669,0.040759,9.400208,27.956547,9.931030,,,,,,,
1523696153.386795,-0.637614,-0.066319,-1.593659,0.072102,0.188624,0.054910,-0.593971,0.066270,-0.801752,0.073936,-0.065599,-0.111868,10.753281,28.400227,9.704895,,,,,,,
1523696153.416764,-0.634403,-0.065075,-1.591464,0.075687,-0.015106,0.011435,-0.591443,0.065029,-0.803720,0.098294,-0.061245,-0.144720,8.886124,29.233555,9.625610,,,,,,,
1523696153.446732,-0.637157,-0.064355,-1.590874,-0.013294,-0.113554,-0.007727,-0.593681,0.064311,-0.802126,0.118843,-0.061183,-0.057905,10.071564,28.177540,8.955444,,,,,,,
1523696153.476700,-0.637558,-0.063432,-1.592108,-0.002737,0.027039,-0.062180,-0.594037,0.063389,-0.801936,0.110517,-0.053548,-0.092901,10.675110,28.624683,8.804016,,,,,,,
1523696153.506668,-0.635083,-0.061129,-1.592401,0.045186,0.043674,-0.025939,-0.592136,0.061091,-0.803519,0.062305,-0.031931,-0.127298,10.001633,28.777714,8.803040,,,,,,,
1523696153.536637,-0.633621,-0.061785,-1.592476,-0.082572,-0.038263,0.036909,-0.590937,0.061746,-0.804351,0.057169,0.009238,-0.181839,9.772751,28.703220,8.278198,,,,,,,
1523696153.566605,-0.637304,-0.064129,-1.592376,-0.046806,-0.134107,0.055140,-0.593808,0.064085,-0.802051,0.100400,0.027940,-0.083158,9.089249,27.806370,8.356445,,,,,,,
1523696153.596573,-0.639557,-0.063668,-1.591362,0.084983,-0.087336,0.006176,-0.595631,0.063625,-0.800734,0.131077,-0.020702,-0.036668,8.869797,28.182652,8.654846,,,,,,,
1523696153.626541,-0.639668,-0.060442,-1.589336,0.129508,0.037121,-0.029074,-0.595839,0.060405,-0.800829,0.105254,-0.056194,-0.020888,9.770508,28.253605,8.655029,,,,,,,
1523696153.656510,-0.635692,-0.058551,-1.588796,0.004802,0.101058,-0.012174,-0.592717,0.058518,-0.803282,0.117864,-0.062653,-0.100023,7.447845,28.489048,8.652893,,,,,,,
1523696153.686478,-0.636179,-0.059942,-1.589918,-0.099760,-0.109134,-0.003520,-0.593059,0.059906,-0.802927,0.103099,-0.013245,-0.079275,7.667603,27.963062,8.655090,,,,,,,
1523696153.716446,-0.635723,-0.061055,-1.591507,-0.045624,0.061778,0.000613,-0.592653,0.061017,-0.803143,0.078310,-0.016278,-0.107471,7.897095,28.187412,9.029358,,,,,,,
1523696153.746415,-0.632892,-0.059828,-1.591209,0.068524,0.017003,-0.019500,-0.590421,0.059793,-0.804877,0.092267,-0.047220,-0.072167,7.756683,29.013264,9.250916,,,,,,,
1523696153.776383,-0.632356,-0.058004,-1.590138,0.032929,-0.018240,0.018866,-0.590053,0.057972,-0.805281,0.116588,-0.055591,-0.016237,6.343582,29.845219,9.846924,,,,,,,
1523696153.806351,-0.632040,-0.059302,-1.589742,-0.063276,-0.024486,0.034782,-0.589754,0.059268,-0.805405,0.112916,-0.022891,-0.010619,6.926636,28.417149,9.402954,,,,,,,
1523696153.836319,-0.629738,-0.060367,-1.589992,-0.004983,0.098719,0.020857,-0.587860,0.060331,-0.806709,0.110627,-0.026655,-0.067833,7.319153,29.541431,10.448608,,,,,,,
1523696153.866288,-0.626476,-0.058597,-1.588514,0.094329,0.078420,0.000710,-0.585288,0.058564,-0.808708,0.091971,-0.040436,-0.020333,7.018723,29.542698,10.373474,,,,,,,
1523696153.896256,-0.620613,-0.055491,-1.586910,0.083424,0.241181,-0.020777,-0.580639,0.055463,-0.812270,0.071865,-0.041852,-0.105378,7.323486,30.066257,10.296570,,,,,,,
1523696153.926224,-0.615908,-0.054495,-1.587221,-0.060621,0.023714,-0.021732,-0.576843,0.054468,-0.815037,0.044814,-0.016031,-0.204708,6.722183,29.619495,10.822998,,,,,,,
1523696153.956192,-0.618227,-0.057138,-1.589409,-0.132032,-0.146353,0.011413,-0.578646,0.057107,-0.813577,0.041567,-0.011788,-0.176367,7.178162,29.768177,11.572632,,,,,,,
1523696153.986142,-0.624474,-0.058890,-1.590490,-0.010735,-0.266569,-0.011815,-0.583657,0.058856,-0.809864,0.084405,-0.006000,-0.062938,8.983185,30.135288,11.797119,,,,,,,
