timestamp(unix),attitude_roll(radians),attitude_pitch(radians),attitude_yaw(radians),rotation_rate_x(radians/s),rotation_rate_y(radians/s),rotation_rate_z(radians/s),gravity_x(G),gravity_y(G),gravity_z(G),user_acc_x(G),user_acc_y(G),user_acc_z(G),magnetic_field_x(microteslas),magnetic_field_y(microteslas),magnetic_field_z(microteslas),latitude(degree),longitude(degree),altitude(meter),speed(m/s),course(degree),timestamp(unix),User Mark
1523696157.099434,-0.540155,-0.058001,-1.610933,0.077173,0.196921,-0.078235,-0.513404,0.057968,-0.856187,0.222220,0.096207,-0.064910,6.766205,26.469379,10.910645,,,,,,,
1523696157.129402,-0.531209,-0.055674,-1.613001,0.000926,0.264491,-0.140162,-0.505792,0.055646,-0.860859,0.137048,0.051196,-0.220897,6.844345,26.469547,11.435730,,,,,,,
,,,,,,,,,,,,,,,,25.320195,51.452837,16.454702,14.790000,89.648438,1523696155.998300,
1523696157.159370,-0.527771,-0.055704,-1.618327,-0.051616,-0.067699,-0.179292,-0.502828,0.055675,-0.862592,0.202276,0.082570,-0.178729,6.473114,26.621586,11.809937,,,,,,,
,,,,,,,,,,,,,,,,25.320191,51.452972,16.290778,13.770000,91.406250,1523696156.998288,
1523696157.189339,-0.530905,-0.054264,-1.623503,-0.039912,-0.076215,-0.180345,-0.505569,0.054238,-0.861080,0.213577,0.116508,-0.117131,5.359695,27.601902,12.105408,,,,,,,
1523696157.219307,-0.530724,-0.053526,-1.627495,-0.054961,-0.016134,-0.106888,-0.505433,0.053501,-0.861206,0.209672,0.162640,-0.098481,5.140717,27.978260,12.478821,,,,,,,
1523696157.249275,-0.527994,-0.053951,-1.630630,-0.045907,0.153528,-0.059105,-0.503068,0.053925,-0.862563,0.236375,0.180771,-0.147371,4.999222,29.103443,12.024231,,,,,,,
1523696157.279243,-0.524990,-0.054048,-1.632255,-0.024986,0.061005,-0.055799,-0.500472,0.054021,-0.864065,0.202666,0.134943,-0.127618,4.925278,29.029072,12.324463,,,,,,,
1523696157.309212,-0.521364,-0.053077,-1.634562,0.005518,0.133544,-0.108053,-0.497362,0.053052,-0.865919,0.203417,0.088931,-0.149187,5.975220,29.248966,11.949097,,,,,,,
1523696157.339180,-0.515814,-0.052382,-1.637997,-0.051756,0.189125,-0.133727,-0.492567,0.052358,-0.868698,0.177580,0.041254,-0.179260,5.528839,29.700825,11.797119,,,,,,,
1523696157.369148,-0.512041,-0.053327,-1.643112,-0.145170,0.074592,-0.132619,-0.489261,0.053301,-0.870507,0.185824,0.053647,-0.209571,6.129410,29.847980,11.646790,,,,,,,
1523696157.399116,-0.512384,-0.055292,-1.648947,-0.156235,-0.023063,-0.143186,-0.489507,0.055264,-0.870246,0.176076,0.116138,-0.187478,6.366821,30.822346,12.093018,,,,,,,
1523696157.429085,-0.513840,-0.055817,-1.654075,-0.055061,-0.060629,-0.126022,-0.490759,0.055788,-0.869507,0.234945,0.146193,-0.148925,7.565277,30.666965,12.094238,,,,,,,
1523696157.459053,-0.513638,-0.054761,-1.657234,-0.003222,0.109017,-0.092055,-0.490613,0.054734,-0.869657,0.231778,0.144408,-0.135500,6.816345,31.044880,11.642334,,,,,,,
1523696157.489021,-0.510968,-0.053863,-1.660106,-0.045064,0.039137,-0.113325,-0.488313,0.053837,-0.871006,0.216752,0.119594,-0.173931,5.837189,30.898838,11.192444,,,,,,,
1523696157.518990,-0.510939,-0.054438,-1.664664,-0.118852,0.000078,-0.123995,-0.488272,0.054411,-0.870993,0.217673,0.107256,-0.183679,6.055740,30.297779,11.119934,,,,,,,
1523696157.548958,-0.510755,-0.055848,-1.670746,-0.124948,0.016368,-0.170905,-0.488074,0.055819,-0.871015,0.214072,0.114256,-0.213259,6.274460,29.621876,11.197754,,,,,,,
1523696157.578926,-0.513447,-0.055169,-1.677063,-0.050667,-0.113310,-0.193086,-0.490436,0.055141,-0.869731,0.237521,0.133015,-0.136281,7.033112,30.218906,11.645752,,,,,,,
1523696157.608894,-0.517005,-0.052716,-1.682625,0.002920,-0.093093,-0.215446,-0.493592,0.052692,-0.868096,0.263032,0.134793,-0.109413,5.756683,29.850025,12.021606,,,,,,,
1523696157.638863,-0.519011,-0.048778,-1.687889,0.024630,-0.039860,-0.237859,-0.495432,0.048759,-0.867277,0.229517,0.162896,-0.110948,6.056656,30.073307,11.645874,,,,,,,
1523696157.668831,-0.518028,-0.045390,-1.694731,-0.060290,0.055003,-0.249736,-0.494658,0.045374,-0.867902,0.240416,0.175802,-0.199694,6.210678,30.522541,11.569153,,,,,,,
1523696157.698799,-0.519377,-0.045752,-1.703446,-0.212536,-0.074333,-0.239062,-0.495820,0.045736,-0.867220,0.231034,0.187143,-0.145963,5.161636,30.527409,11.718628,,,,,,,
1523696157.728767,-0.522329,-0.049501,-1.712876,-0.280180,-0.096827,-0.187954,-0.498289,0.049481,-0.865598,0.226576,0.196186,-0.095462,5.381683,30.076344,11.645508,,,,,,,
1523696157.758736,-0.523476,-0.055130,-1.721744,-0.283241,-0.036432,-0.162442,-0.499135,0.055102,-0.864771,0.215825,0.147397,-0.101095,5.680313,30.074772,11.420715,,,,,,,
1523696157.788704,-0.523290,-0.059263,-1.729622,-0.223057,0.023085,-0.185895,-0.498855,0.059229,-0.864659,0.145431,0.120535,-0.133052,5.748291,29.324543,11.498657,,,,,,,
1523696157.818672,-0.522800,-0.061655,-1.738381,-0.219727,0.001057,-0.228489,-0.498359,0.061615,-0.864778,0.185188,0.104507,-0.144362,5.599640,29.325443,11.723633,,,,,,,
1523696157.848640,-0.523562,-0.065533,-1.748847,-0.307202,-0.026068,-0.267958,-0.498895,0.065486,-0.864185,0.183588,0.110433,-0.066510,6.125076,29.323154,11.798950,,,,,,,
1523696157.878609,-0.522270,-0.068868,-1.761371,-0.267826,0.090195,-0.345822,-0.497666,0.068814,-0.864635,0.159333,0.118655,-0.101384,5.522705,28.951084,12.025085,,,,,,,
1523696157.908577,-0.518017,-0.070732,-1.775025,-0.288585,0.181881,-0.381095,-0.493920,0.070673,-0.866630,0.108117,0.158835,-0.184883,4.169617,28.507404,12.251160,,,,,,,
1523696157.938545,-0.514964,-0.074164,-1.789928,-0.377826,0.065092,-0.362932,-0.491150,0.074096,-0.867918,0.093170,0.221192,-0.186373,5.074524,28.728779,12.700745,,,,,,,
1523696157.968513,-0.516862,-0.079150,-1.805319,-0.404970,-0.030495,-0.359662,-0.492607,0.079068,-0.866652,0.095543,0.233280,-0.110093,3.344833,27.762394,13.528748,,,,,,,
1523696157.998471,-0.519593,-0.084897,-1.820389,-0.403202,-0.074325,-0.324444,-0.494739,0.084795,-0.864895,0.083575,0.222029,-0.078632,3.411896,27.236637,13.080872,,,,,,,
1523696158.028439,-0.523016,-0.089867,-1.833441,-0.330890,-0.063272,-0.259404,-0.497480,0.089746,-0.862821,0.120206,0.166785,-0.066516,3.028076,26.263523,13.234619,,,,,,,
1523696158.058407,-0.526495,-0.095050,-1.843116,-0.302835,-0.112926,-0.157054,-0.500238,0.094907,-0.860671,0.119317,0.115329,-0.022538,3.178986,26.038364,13.760559,,,,,,,
,,,,,,,,,,,,,,,,25.320168,51.453101,15.438179,13.150000,101.601562,1523696157.998279,
1523696158.088375,-0.531132,-0.100528,-1.851179,-0.264486,-0.120537,-0.146360,-0.503952,0.100358,-0.857881,0.147583,0.080718,0.038744,3.108780,26.338978,14.059387,,,,,,,
1523696158.118344,-0.531998,-0.105042,-1.859066,-0.192049,-0.002302,-0.214609,-0.504461,0.104849,-0.857045,0.134191,0.076211,0.067784,2.803711,25.965137,13.835693,,,,,,,
1523696158.148312,-0.529745,-0.105924,-1.868770,-0.160941,0.140810,-0.326622,-0.502481,0.105726,-0.858100,0.082757,0.100955,-0.009973,2.358536,25.818180,14.886047,,,,,,,
1523696158.178280,-0.525738,-0.106155,-1.881673,-0.253350,0.156435,-0.402349,-0.499027,0.105956,-0.860085,0.039142,0.172578,-0.088051,1.313080,26.048267,15.259583,,,,,,,
1523696158.208249,-0.524144,-0.109648,-1.897205,-0.381026,0.022870,-0.401256,-0.497467,0.109428,-0.860553,0.025772,0.223839,-0.115322,1.319366,26.498539,15.557800,,,,,,,
1523696158.238217,-0.527902,-0.114864,-1.913327,-0.400019,-0.156723,-0.393625,-0.500403,0.114611,-0.858173,0.030295,0.229169,-0.036938,0.646072,26.127460,16.458923,,,,,,,
1523696158.268185,-0.533287,-0.120447,-1.929430,-0.393506,-0.106939,-0.372365,-0.504684,0.120156,-0.854902,0.030654,0.207404,0.013654,0.494431,25.828373,16.685120,,,,,,,
1523696158.298153,-0.536549,-0.123949,-1.943571,-0.275867,-0.016154,-0.329742,-0.507252,0.123632,-0.852884,-0.023434,0.169108,-0.026770,-0.704895,25.534367,17.285645,,,,,,,
1523696158.328122,-0.536630,-0.125619,-1.953665,-0.186439,0.075175,-0.201904,-0.507214,0.125289,-0.852664,0.005658,0.147095,-0.088956,-0.334854,25.307255,16.836731,,,,,,,
1523696158.358090,-0.537025,-0.127652,-1.960998,-0.182779,-0.024951,-0.169829,-0.507420,0.127306,-0.852243,0.051853,0.108046,-0.037436,-0.256729,25.532047,16.985901,,,,,,,
1523696158.388058,-0.538805,-0.130864,-1.968070,-0.190307,-0.004937,-0.142151,-0.508723,0.130491,-0.850983,0.070277,0.112078,0.006318,-1.226715,25.537235,17.810425,,,,,,,
1523696158.418026,-0.538830,-0.133556,-1.975354,-0.187640,0.049629,-0.196545,-0.508563,0.133159,-0.850666,0.083666,0.123753,0.001423,-1.373581,25.763050,17.959412,,,,,,,
1523696158.447995,-0.537351,-0.136302,-1.985113,-0.245843,0.077923,-0.271202,-0.507114,0.135881,-0.851100,0.070560,0.160353,0.005717,-0.768356,26.285328,17.957581,,,,,,,
1523696158.477963,-0.535412,-0.138664,-1.997098,-0.237731,0.133709,-0.347980,-0.505299,0.138220,-0.851803,0.041782,0.187097,-0.016636,-0.988403,26.287144,18.782471,,,,,,,
1523696158.507931,-0.531852,-0.140289,-2.010393,-0.236348,0.164738,-0.379970,-0.502148,0.139829,-0.853402,0.021420,0.194948,-0.035224,-1.969482,25.766407,18.634033,,,,,,,
1523696158.537899,-0.529128,-0.142767,-2.023915,-0.278206,0.140287,-0.361873,-0.499645,0.142282,-0.854465,-0.000630,0.199393,-0.031414,-2.111847,26.217579,19.157227,,,,,,,
1523696158.567868,-0.526538,-0.146014,-2.037448,-0.294352,0.133781,-0.339491,-0.497195,0.145496,-0.855352,-0.012250,0.203656,-0.088770,-2.713913,26.145054,18.932251,,,,,,,
1523696158.597836,-0.525293,-0.149082,-2.049897,-0.287418,0.068617,-0.292538,-0.495905,0.148530,-0.855580,-0.011389,0.217253,-0.095256,-2.794754,25.470570,19.084839,,,,,,,
1523696158.627804,-0.527319,-0.152107,-2.060658,-0.259518,-0.073170,-0.236966,-0.497408,0.151522,-0.854181,0.057757,0.203932,-0.015875,-2.043884,25.467350,19.235229,,,,,,,
1523696158.657772,-0.531249,-0.155778,-2.070226,-0.259674,-0.079718,-0.212452,-0.500476,0.155149,-0.851735,0.094669,0.189547,0.082829,-2.723328,25.020405,19.236694,,,,,,,
1523696158.687741,-0.531655,-0.158636,-2.079830,-0.183684,0.142552,-0.263776,-0.500595,0.157972,-0.851146,0.103089,0.153811,0.061931,-3.171814,24.947803,19.611755,,,,,,,
1523696158.717709,-0.525768,-0.159090,-2.089569,-0.109064,0.273517,-0.329904,-0.495540,0.158419,-0.854016,0.054011,0.150495,-0.020343,-2.575119,24.570194,19.688599,,,,,,,
1523696158.747677,-0.519702,-0.158953,-2.100482,-0.143277,0.220724,-0.366103,-0.490361,0.158284,-0.857025,0.038228,0.162700,-0.094330,-3.700226,24.425480,19.913574,,,,,,,
1523696158.777646,-0.515983,-0.159888,-2.112162,-0.212140,0.134629,-0.338363,-0.487097,0.159208,-0.858714,0.013479,0.174502,-0.119344,-4.078644,24.127110,19.839600,,,,,,,
1523696158.807614,-0.515924,-0.162729,-2.124610,-0.297177,0.008237,-0.315926,-0.486821,0.162012,-0.858346,0.023335,0.183859,-0.096778,-3.252625,24.048695,20.140320,,,,,,,
1523696158.837582,-0.519232,-0.167020,-2.137595,-0.340340,-0.082021,-0.308416,-0.489309,0.166245,-0.856119,0.016790,0.169708,-0.051840,-5.198486,24.058125,20.814331,,,,,,,
1523696158.867550,-0.524651,-0.170628,-2.150750,-0.304037,-0.099060,-0.319010,-0.493637,0.169801,-0.852930,0.037979,0.138396,0.006388,-4.892807,24.357197,21.263245,,,,,,,
1523696158.897549,-0.529010,-0.173401,-2.163997,-0.290928,-0.049039,-0.333973,-0.497111,0.172533,-0.850360,0.049754,0.116972,0.018329,-5.191132,24.209064,21.788696,,,,,,,
1523696158.927517,-0.532636,-0.176000,-2.177571,-0.287574,-0.028737,-0.348921,-0.499962,0.175093,-0.848163,0.070869,0.131853,0.059238,-5.800232,23.386662,21.641663,,,,,,,
1523696158.957486,-0.533662,-0.178730,-2.190921,-0.258213,0.092277,-0.343682,-0.500586,0.177780,-0.847236,0.077978,0.161530,0.041465,-6.102173,23.237934,21.567139,,,,,,,
1523696158.987470,-0.531335,-0.180968,-2.203231,-0.220612,0.165379,-0.325616,-0.498410,0.179982,-0.848053,0.065473,0.192668,-0.002533,-5.499207,23.535221,21.566284,,,,,,,
1523696159.017438,-0.528525,-0.182996,-2.214775,-0.204762,0.142945,-0.313863,-0.495841,0.181977,-0.849133,0.076987,0.214233,-0.035633,-6.926239,23.241795,21.716675,,,,,,,
1523696159.047406,-0.526438,-0.185443,-2.226423,-0.224086,0.111193,-0.323444,-0.493842,0.184382,-0.849778,0.083259,0.214040,-0.050567,-6.778030,22.791584,22.168579,,,,,,,
,,,,,,,,,,,,,,,,25.320128,51.453113,15.084940,7.130000,124.101562,1523696158.998268,
1523696159.077375,-0.526328,-0.188758,-2.239227,-0.268028,0.035022,-0.356428,-0.493439,0.187639,-0.849299,0.102204,0.214994,0.007930,-7.002563,22.792667,22.243469,,,,,,,
1523696159.107343,-0.527616,-0.192081,-2.253761,-0.320128,0.040706,-0.391630,-0.494215,0.190902,-0.848120,0.096571,0.211426,0.038611,-7.902237,22.871632,22.167725,,,,,,,
1523696159.137311,-0.528098,-0.195327,-2.269922,-0.317433,0.102715,-0.446036,-0.494309,0.194087,-0.847342,0.078996,0.203832,0.020575,-8.283646,22.048664,22.470764,,,,,,,
1523696159.167279,-0.526870,-0.196618,-2.286915,-0.250719,0.141254,-0.511018,-0.493142,0.195354,-0.847731,0.056375,0.185369,-0.014955,-7.376038,22.495106,22.994507,,,,,,,
1523696159.197248,-0.525979,-0.196232,-2.304349,-0.223940,0.134969,-0.533369,-0.492424,0.194975,-0.848235,0.056938,0.190798,-0.015870,-8.130341,21.749027,23.522034,,,,,,,
1523696159.227216,-0.523353,-0.195163,-2.321034,-0.178956,0.196298,-0.506756,-0.490299,0.193927,-0.849705,0.047153,0.211988,-0.055202,-8.431229,21.750217,23.371948,,,,,,,
1523696159.257184,-0.517415,-0.192710,-2.335830,-0.130417,0.378506,-0.444036,-0.485479,0.191519,-0.853013,0.031987,0.225046,-0.172393,-8.811157,21.526478,22.922607,,,,,,,
1523696159.287152,-0.508310,-0.191146,-2.347732,-0.182600,0.323501,-0.310823,-0.477837,0.189984,-0.857658,0.014718,0.221134,-0.254921,-10.163498,21.157795,23.148376,,,,,,,
1523696159.317121,-0.504533,-0.195015,-2.358028,-0.355244,0.053244,-0.197740,-0.474235,0.193782,-0.858807,0.041130,0.182332,-0.265415,-10.242081,21.157551,22.548401,,,,,,,
1523696159.347089,-0.509773,-0.203188,-2.368885,-0.443764,-0.175968,-0.210364,-0.477940,0.201793,-0.854899,0.100163,0.140004,-0.109624,-9.867981,20.706470,23.150330,,,,,,,
1523696159.377057,-0.516661,-0.211110,-2.382335,-0.433420,-0.088404,-0.275442,-0.483012,0.209545,-0.850170,0.068935,0.047306,-0.030277,-10.017975,20.482517,23.526184,,,,,,,
1523696159.407026,-0.521162,-0.216408,-2.397129,-0.368542,-0.016705,-0.370297,-0.486275,0.214723,-0.847013,0.073677,-0.005998,-0.028293,-9.425644,19.804707,23.379211,,,,,,,
1523696159.436994,-0.524904,-0.220376,-2.414170,-0.418371,-0.012959,-0.433199,-0.489010,0.218597,-0.844443,0.054181,-0.028320,-0.035440,-9.869293,20.032368,24.053101,,,,,,,
1523696159.466962,-0.530429,-0.225871,-2.433247,-0.508238,-0.080577,-0.456640,-0.493053,0.223955,-0.840680,0.067821,0.022810,0.027631,-10.630493,18.910801,24.057190,,,,,,,
1523696159.496930,-0.535517,-0.232012,-2.453600,-0.511073,0.003374,-0.455665,-0.496613,0.229936,-0.836962,0.064667,0.106520,-0.009062,-10.781540,18.536930,24.508606,,,,,,,
1523696159.526899,-0.537362,-0.236629,-2.472713,-0.421007,0.097660,-0.447167,-0.497608,0.234427,-0.835123,0.050953,0.193292,-0.074988,-10.105072,18.683887,24.508362,,,,,,,
1523696159.556867,-0.539101,-0.239318,-2.489674,-0.314731,0.041793,-0.399075,-0.498734,0.237040,-0.833712,0.087509,0.228780,-0.086362,-11.381485,18.090382,25.260132,,,,,,,
1523696159.586835,-0.542123,-0.241063,-2.503678,-0.257546,0.014637,-0.334014,-0.501037,0.238735,-0.831846,0.106613,0.216313,-0.037142,-11.604233,18.091770,25.635010,,,,,,,
1523696159.616803,-0.544308,-0.243855,-2.516264,-0.286596,0.008071,-0.296735,-0.502506,0.241446,-0.830176,0.139728,0.222589,-0.012582,-12.276810,18.244938,25.783997,,,,,,,
1523696159.646772,-0.545676,-0.246975,-2.529074,-0.246540,0.095325,-0.327695,-0.503248,0.244471,-0.828840,0.154493,0.208821,0.011594,-12.802963,18.172230,25.709106,,,,,,,
1523696159.676740,-0.543604,-0.246612,-2.541408,-0.128324,0.190066,-0.393765,-0.501575,0.244120,-0.829956,0.132053,0.204229,-0.016296,-12.436829,17.869617,24.735413,,,,,,,
1523696159.706708,-0.538768,-0.242522,-2.553653,-0.018867,0.254951,-0.442759,-0.498063,0.240152,-0.833222,0.133012,0.186789,-0.087829,-13.786484,17.725986,25.035339,,,,,,,
1523696159.736676,-0.534616,-0.238228,-2.566486,-0.116174,0.201127,-0.460891,-0.495121,0.235981,-0.836163,0.069614,0.167370,-0.145512,-14.025543,16.676472,24.439453,,,,,,,
1523696159.766645,-0.533086,-0.237548,-2.581246,-0.292035,0.074840,-0.422531,-0.493923,0.235320,-0.837057,0.064617,0.144853,-0.196344,-13.355392,16.373158,24.140991,,,,,,,
1523696159.796613,-0.537676,-0.241153,-2.598157,-0.421926,-0.060944,-0.407583,-0.497322,0.238822,-0.834047,0.071144,0.116479,-0.134016,-14.856049,15.855656,24.892334,,,,,,,
1523696159.826581,-0.544857,-0.245434,-2.615565,-0.406130,-0.128909,-0.421343,-0.502764,0.242977,-0.829573,0.061571,0.077580,-0.080629,-14.856628,15.481190,25.418762,,,,,,,
1523696159.856549,-0.552688,-0.248206,-2.633239,-0.353541,-0.099074,-0.450112,-0.508889,0.245666,-0.825033,0.068581,0.058290,-0.092203,-14.485565,15.179371,25.270203,,,,,,,
1523696159.886518,-0.559163,-0.250729,-2.650469,-0.394221,-0.073768,-0.407546,-0.513890,0.248110,-0.821193,0.045903,0.039518,-0.105320,-15.234909,14.883335,25.870972,,,,,,,
1523696159.916486,-0.566918,-0.255821,-2.669875,-0.539253,-0.114369,-0.475808,-0.519558,0.253040,-0.816107,0.007168,0.008664,-0.040689,-15.013641,14.507343,25.872620,,,,,,,
1523696159.946454,-0.577226,-0.261866,-2.693452,-0.602842,-0.144200,-0.593038,-0.527098,0.258884,-0.809412,-0.003984,0.019498,0.026758,-14.789673,13.907169,26.700134,,,,,,,
1523696159.976422,-0.586063,-0.266374,-2.721061,-0.629424,-0.023230,-0.712511,-0.533579,0.263235,-0.803742,-0.040197,0.031321,-0.023101,-16.289017,13.839130,26.924622,,,,,,,
1523696160.006375,-0.595933,-0.270942,-2.752042,-0.729817,-0.079009,-0.754084,-0.540805,0.267639,-0.797433,-0.067136,0.083725,-0.054557,-16.153671,11.964207,27.607239,,,,,,,
1523696160.036343,-0.607668,-0.279623,-2.785236,-0.911874,-0.115182,-0.681735,-0.548778,0.275993,-0.789095,-0.093235,0.101555,-0.058440,-16.297958,12.040684,28.431824,,,,,,,
,,,,,,,,,,,,,,,,25.320078,51.453184,15.125976,5.200000,151.875000,1523696159.998257,
1523696160.066311,-0.619674,-0.291293,-2.816015,-0.838120,-0.111398,-0.489889,-0.556304,0.287191,-0.779774,-0.097535,0.109645,0.011616,-17.436218,10.396336,28.962830,,,,,,,
1523696160.096280,-0.630007,-0.302400,-2.839524,-0.640341,-0.110895,-0.330966,-0.562417,0.297812,-0.771359,-0.049201,0.084558,0.076855,-16.846115,9.493534,28.816711,,,,,,,
1523696160.126248,-0.636129,-0.308533,-2.855878,-0.354759,0.043286,-0.295744,-0.566033,0.303661,-0.766418,0.017953,0.077793,0.115722,-16.098999,9.339954,28.592712,,,,,,,
1523696160.156216,-0.636694,-0.309299,-2.869125,-0.205511,0.176097,-0.344791,-0.566328,0.304391,-0.765911,0.055036,0.075034,0.131847,-16.625168,9.042622,28.893677,,,,,,,
1523696160.186184,-0.631370,-0.306511,-2.881437,-0.099552,0.413150,-0.395033,-0.562741,0.301734,-0.769597,0.054532,0.131173,0.099385,-17.230530,8.595188,28.745178,,,,,,,
1523696160.216153,-0.624084,-0.301089,-2.893961,-0.038387,0.386971,-0.473799,-0.558066,0.296561,-0.774993,0.023856,0.185617,0.036254,-17.611969,8.446079,27.920593,,,,,,,
1523696160.246121,-0.616248,-0.295239,-2.908510,-0.136338,0.404490,-0.512252,-0.552970,0.290968,-0.780744,0.032859,0.206178,-0.048617,-18.583923,8.525837,28.294739,,,,,,,
1523696160.276089,-0.612812,-0.293109,-2.925526,-0.251527,0.191230,-0.516391,-0.550639,0.288930,-0.783145,0.031581,0.225535,0.013354,-18.892014,7.851994,28.072266,,,,,,,
1523696160.306057,-0.614211,-0.292799,-2.943344,-0.278716,0.108212,-0.489678,-0.551785,0.288634,-0.782447,0.053372,0.235262,0.076636,-18.373322,7.399372,27.774353,,,,,,,
1523696160.336026,-0.615408,-0.292073,-2.960623,-0.265729,0.142227,-0.495035,-0.552843,0.287938,-0.781957,0.042009,0.199016,0.081853,-19.500488,6.730183,28.526489,,,,,,,
1523696160.365994,-0.612458,-0.290134,-2.976802,-0.163647,0.318168,-0.467429,-0.550854,0.286081,-0.784039,0.003231,0.168600,-0.024097,-19.280136,6.354053,28.378113,,,,,,,
1523696160.395962,-0.605733,-0.286319,-2.990521,-0.114326,0.388049,-0.448288,-0.546186,0.282423,-0.788618,-0.049258,0.096132,-0.104403,-19.879959,6.281895,28.528076,,,,,,,
1523696160.425930,-0.598823,-0.283993,-3.004053,-0.226259,0.273057,-0.375799,-0.541092,0.280191,-0.792914,-0.023330,0.064444,-0.124979,-20.632645,6.284840,28.077637,,,,,,,
1523696160.455899,-0.601605,-0.287640,-3.019403,-0.486547,-0.098509,-0.331938,-0.542714,0.283690,-0.790557,0.036794,0.027589,0.023025,-19.890472,5.681202,27.780457,,,,,,,
1523696160.485867,-0.610010,-0.294206,-3.037432,-0.449679,-0.026023,-0.377800,-0.548261,0.289980,-0.784424,0.008939,-0.010347,0.076233,-20.123245,5.081944,27.482727,,,,,,,
1523696160.515835,-0.608197,-0.294249,-3.053408,-0.192566,0.314972,-0.454669,-0.546830,0.290021,-0.785407,-0.071334,-0.016050,-0.101998,-20.802551,4.784779,27.258606,,,,,,,
1523696160.545803,-0.602841,-0.290774,-3.068307,-0.216406,0.281798,-0.414157,-0.543184,0.286694,-0.789150,-0.059157,0.010547,-0.227452,-20.889084,3.809879,26.962463,,,,,,,
1523696160.575772,-0.602631,-0.296095,-3.083591,-0.557823,0.050899,-0.249017,-0.542146,0.291787,-0.787996,-0.039916,0.065208,-0.165785,-20.152313,2.980732,26.141174,,,,,,,
1523696160.605740,-0.608622,-0.305575,-3.100606,-0.528104,-0.048684,-0.302174,-0.545251,0.300842,-0.782429,0.005746,0.059891,-0.089840,-20.973068,2.910252,26.966003,,,,,,,
1523696160.635708,-0.613048,-0.309457,-3.116910,-0.319952,0.062022,-0.403358,-0.548033,0.304542,-0.779047,0.001814,0.078011,-0.069845,-21.355682,2.236835,26.818542,,,,,,,
1523696160.665677,-0.615686,-0.308489,-3.132925,-0.274735,0.082469,-0.456619,-0.550256,0.303619,-0.777839,0.007883,0.104660,-0.037850,-21.438004,1.412357,26.971741,,,,,,,
1523696160.695675,-0.618391,-0.307425,3.132865,-0.280956,0.089108,-0.489674,-0.552545,0.302606,-0.776610,0.013528,0.127433,-0.032304,-21.436035,1.337788,27.422058,,,,,,,
1523696160.725644,-0.619378,-0.303590,3.116478,-0.146079,0.149419,-0.502412,-0.553981,0.298948,-0.777004,0.009303,0.161761,-0.078923,-21.140121,1.111164,27.123108,,,,,,,
1523696160.755612,-0.620628,-0.298810,3.100513,-0.197723,0.069772,-0.492770,-0.555776,0.294383,-0.777464,0.035894,0.194844,-0.074525,-22.112061,0.966282,27.873230,,,,,,,
1523696160.785580,-0.625714,-0.296578,3.083923,-0.273281,-0.056802,-0.446890,-0.560106,0.292250,-0.775159,0.082186,0.191347,-0.021671,-21.818954,0.364826,27.725769,,,,,,,
1523696160.815548,-0.632804,-0.295929,3.068415,-0.270444,-0.081606,-0.396778,-0.565701,0.291629,-0.771321,0.092236,0.201398,0.050740,-22.571030,0.292973,27.500671,,,,,,,
1523696160.845517,-0.637615,-0.294586,3.053994,-0.183436,0.006583,-0.424517,-0.569637,0.290344,-0.768904,0.115078,0.192490,0.064421,-23.241501,0.521366,27.874451,,,,,,,
1523696160.875485,-0.638050,-0.289580,3.042500,0.015731,0.119848,-0.435128,-0.570830,0.285550,-0.769814,0.113204,0.175540,0.014779,-22.797195,-0.005703,27.801758,,,,,,,
1523696160.905453,-0.635033,-0.280957,3.032932,0.137015,0.230244,-0.461787,-0.569945,0.277276,-0.773486,0.058806,0.158286,-0.096860,-23.477570,-0.452785,27.653259,,,,,,,
1523696160.935421,-0.627527,-0.271906,3.023957,0.028561,0.378969,-0.418327,-0.565574,0.268568,-0.779742,-0.018365,0.134661,-0.300336,-24.758072,-0.597698,26.978149,,,,,,,
1523696160.965390,-0.625511,-0.271065,3.010048,-0.460575,-0.048479,-0.354341,-0.564132,0.267757,-0.781064,0.076462,0.103169,-0.272678,-24.312271,-0.750149,26.528992,,,,,,,
1523696160.995351,-0.641915,-0.282499,2.989743,-0.800403,-0.537833,-0.307212,-0.574998,0.278756,-0.769203,0.109086,0.097251,0.028159,-22.748428,-1.957027,26.684570,,,,,,,
1523696161.025319,-0.664632,-0.293476,2.965795,-0.698797,-0.433965,-0.456416,-0.590399,0.289281,-0.753489,0.130896,0.016719,0.181010,-23.338348,-1.578320,27.732788,,,,,,,
1523696161.055287,-0.676535,-0.297085,2.941606,-0.495294,0.001247,-0.614405,-0.598668,0.292734,-0.745589,0.084111,-0.027064,0.116637,-23.727692,-3.151333,27.963928,,,,,,,
,,,,,,,,,,,,,,,,25.320044,51.453199,15.049796,4.380000,184.218750,1523696160.998247,
1523696161.085256,-0.678117,-0.293060,2.918468,-0.280213,0.242509,-0.699719,-0.600581,0.288883,-0.745553,0.024668,-0.010365,0.021828,-23.280396,-3.378429,27.890015,,,,,,,
1523696161.115224,-0.677683,-0.285894,2.896319,-0.247479,0.218708,-0.650657,-0.601540,0.282015,-0.747407,0.004937,0.078901,-0.079589,-23.667664,-4.651608,27.969910,,,,,,,
1523696161.145192,-0.679203,-0.282547,2.874002,-0.445730,0.117879,-0.597426,-0.603265,0.278802,-0.747222,-0.041358,0.148368,-0.138429,-23.673950,-5.101864,27.671753,,,,,,,
1523696161.175160,-0.683258,-0.284235,2.851861,-0.499263,0.024511,-0.446073,-0.605992,0.280423,-0.744404,0.061146,0.227008,-0.150753,-22.780411,-5.705959,27.599609,,,,,,,
1523696161.205129,-0.689439,-0.287784,2.834726,-0.405416,-0.080789,-0.312710,-0.609944,0.283828,-0.739871,0.050054,0.237092,-0.017102,-23.900253,-5.774944,28.574280,,,,,,,
1523696161.235097,-0.692577,-0.290850,2.821417,-0.281093,0.103294,-0.242470,-0.611705,0.286766,-0.737280,0.099559,0.156334,-0.010080,-23.831573,-6.225552,28.276123,,,,,,,
1523696161.265065,-0.688984,-0.289748,2.812094,-0.104922,0.307113,-0.274520,-0.609253,0.285710,-0.739717,0.080093,0.104396,-0.069259,-22.863342,-6.455669,27.527527,,,,,,,
1523696161.295034,-0.682510,-0.287300,2.800779,-0.224463,0.247238,-0.332081,-0.604890,0.283364,-0.744186,0.111070,0.051399,-0.134552,-24.438889,-6.598431,27.677368,,,,,,,
1523696161.325002,-0.682636,-0.286483,2.785321,-0.298261,0.079285,-0.450232,-0.605130,0.282580,-0.744289,0.138104,0.078534,-0.076588,-23.933823,-8.101513,26.858582,,,,,,,
1523696161.354970,-0.683658,-0.284095,2.767486,-0.279314,0.133143,-0.558966,-0.606314,0.280289,-0.744191,0.079276,0.150802,-0.081980,-23.038818,-8.330990,26.409973,,,,,,,
1523696161.384938,-0.683278,-0.278594,2.746989,-0.251760,0.157420,-0.699605,-0.606996,0.275004,-0.745606,0.072648,0.189962,-0.151031,-23.418869,-9.153759,26.938049,,,,,,,
1523696161.414907,-0.687562,-0.271317,2.725592,-0.306137,-0.022235,-0.667511,-0.611438,0.268000,-0.744526,0.051166,0.221349,-0.112270,-23.281433,-10.279598,26.717590,,,,,,,
1523696161.444875,-0.693072,-0.269074,2.704446,-0.394219,0.039563,-0.509933,-0.615914,0.265839,-0.741606,0.071831,0.220840,-0.131746,-21.936005,-10.735638,26.720093,,,,,,,
1523696161.474843,-0.696943,-0.269583,2.686779,-0.384388,0.005700,-0.379908,-0.618694,0.266329,-0.739112,0.043788,0.213758,-0.138970,-23.210800,-10.804760,26.869751,,,,,,,
1523696161.504811,-0.700796,-0.272823,2.670345,-0.441443,-0.007477,-0.300017,-0.620977,0.269451,-0.736059,0.114507,0.140919,-0.153436,-22.843002,-11.256863,26.421753,,,,,,,
1523696161.534780,-0.711260,-0.279143,2.653369,-0.568916,-0.305951,-0.272105,-0.627520,0.275532,-0.728217,0.153659,0.079845,-0.023355,-21.577927,-12.162701,26.276001,,,,,,,
1523696161.564748,-0.724420,-0.286865,2.634309,-0.586270,-0.195014,-0.327632,-0.635620,0.282947,-0.718281,0.150788,0.015424,0.106876,-22.993576,-11.630657,26.948181,,,,,,,
1523696161.594716,-0.731087,-0.290816,2.614709,-0.444533,0.099736,-0.434386,-0.639643,0.286734,-0.713190,0.139827,-0.031332,0.078424,-21.958435,-12.985531,26.729126,,,,,,,
1523696161.624684,-0.729154,-0.287298,2.595650,-0.250616,0.279020,-0.612365,-0.638932,0.283362,-0.715173,0.067887,-0.021383,-0.020820,-21.434341,-12.988049,26.579407,,,,,,,
1523696161.654653,-0.727848,-0.280013,2.574407,-0.331521,0.248893,-0.682715,-0.639354,0.276368,-0.717528,0.086787,0.068007,-0.071931,-22.121765,-13.960400,26.132935,,,,,,,
1523696161.684621,-0.729636,-0.278399,2.549604,-0.610612,0.015214,-0.597444,-0.640932,0.274817,-0.716716,0.051134,0.157892,-0.156926,-21.606979,-14.488537,25.310303,,,,,,,
1523696161.714589,-0.741277,-0.283174,2.520900,-0.780286,-0.170528,-0.568610,-0.648338,0.279404,-0.708230,0.056511,0.217407,-0.019980,-21.915344,-15.461910,25.539001,,,,,,,
1523696161.744557,-0.752638,-0.287423,2.493983,-0.585850,-0.134934,-0.561044,-0.655525,0.283482,-0.699946,0.076454,0.211666,0.089869,-21.397415,-15.989544,25.241394,,,,,,,
1523696161.774526,-0.758754,-0.286224,2.472017,-0.326561,0.045198,-0.580211,-0.660027,0.282332,-0.696170,0.042717,0.182344,0.111011,-19.834000,-16.747250,24.570190,,,,,,,
1523696161.804494,-0.758006,-0.278659,2.455294,-0.112198,0.261219,-0.550427,-0.660955,0.275067,-0.698195,0.058218,0.177082,0.036497,-19.313660,-17.349361,24.797852,,,,,,,
1523696161.834462,-0.753209,-0.271797,2.441129,-0.103664,0.307700,-0.512121,-0.658874,0.268463,-0.702718,0.040557,0.196976,-0.025828,-20.139816,-17.420727,24.722778,,,,,,,
1523696161.864431,-0.746560,-0.264749,2.427550,-0.048932,0.345944,-0.531292,-0.655456,0.261667,-0.708454,0.029922,0.224524,-0.118023,-19.919632,-17.722012,24.424072,,,,,,,
1523696161.894399,-0.741605,-0.255899,2.413456,-0.130493,0.219910,-0.561064,-0.653476,0.253115,-0.713373,0.020999,0.228742,-0.164129,-18.870422,-17.577114,24.049011,,,,,,,
1523696161.924367,-0.742281,-0.253255,2.395013,-0.488442,0.056361,-0.446096,-0.654408,0.250556,-0.713422,0.023442,0.235299,-0.175311,-19.325500,-18.174908,24.201172,,,,,,,
1523696161.954335,-0.749639,-0.257879,2.373391,-0.604768,-0.112674,-0.394858,-0.658844,0.255030,-0.707731,0.035461,0.215551,-0.073931,-19.553482,-18.473888,24.202271,,,,,,,
1523696161.984302,-0.758026,-0.262047,2.352535,-0.522292,-0.052355,-0.390584,-0.664019,0.259059,-0.701403,0.080141,0.172704,0.012332,-19.263824,-19.375408,23.981018,,,,,,,
1523696162.014270,-0.762069,-0.262688,2.334522,-0.319776,0.068578,-0.429998,-0.666735,0.259678,-0.698592,0.091769,0.137448,0.040435,-18.890930,-19.452312,23.756470,,,,,,,
1523696162.044238,-0.760676,-0.258754,2.318539,-0.254638,0.252548,-0.474876,-0.666460,0.255876,-0.700255,0.065768,0.125807,-0.046586,-18.146072,-19.606258,23.157532,,,,,,,
1523696162.074206,-0.758078,-0.256285,2.301044,-0.373462,0.186952,-0.472771,-0.665071,0.253488,-0.702441,0.035280,0.165381,-0.132321,-18.749634,-20.053387,23.308960,,,,,,,
,,,,,,,,,,,,,,,,25.320013,51.453187,15.102952,3.540000,216.914062,1523696161.998237,
1523696162.104175,-0.760777,-0.257219,2.281693,-0.489777,-0.006344,-0.446022,-0.666801,0.254392,-0.700472,0.075629,0.182985,-0.089857,-18.610306,-20.579922,22.411194,,,,,,,
1523696162.134143,-0.768927,-0.262077,2.259073,-0.655871,-0.154591,-0.459855,-0.671621,0.259088,-0.694117,0.105291,0.149741,0.068202,-16.973251,-21.338177,21.515015,,,,,,,
1523696162.164111,-0.777523,-0.266610,2.234261,-0.575983,-0.026877,-0.517459,-0.676732,0.263462,-0.687475,0.102894,0.130886,0.117818,-16.609329,-22.315044,21.294128,,,,,,,
1523696162.194079,-0.779513,-0.264715,2.212617,-0.351551,0.190796,-0.575044,-0.678448,0.261634,-0.686481,0.063626,0.161614,0.048953,-16.615479,-22.840160,21.146179,,,,,,,
1523696162.224048,-0.777336,-0.260403,2.193519,-0.269268,0.230819,-0.553711,-0.677737,0.257470,-0.688754,0.050555,0.216224,0.007510,-14.973358,-23.223217,20.473572,,,,,,,
1523696162.254016,-0.774825,-0.256139,2.176769,-0.217294,0.220732,-0.497191,-0.676767,0.253347,-0.691232,0.052820,0.247812,-0.040351,-16.166550,-22.767483,20.846130,,,,,,,
1523696162.283984,-0.773540,-0.253003,2.161813,-0.233996,0.141688,-0.433189,-0.676430,0.250312,-0.692666,0.055245,0.274346,-0.025321,-15.648178,-23.295040,20.623535,,,,,,,
1523696162.313952,-0.771783,-0.251395,2.148279,-0.217024,0.174258,-0.385267,-0.675492,0.248755,-0.694141,0.070985,0.275659,-0.033505,-14.605118,-23.675259,20.100525,,,,,,,
1523696162.343921,-0.769942,-0.249528,2.134943,-0.240669,0.135019,-0.388438,-0.674535,0.246946,-0.695715,0.095022,0.237398,-0.011179,-15.802505,-23.594570,20.399597,,,,,,,
1523696162.373889,-0.769171,-0.247149,2.120524,-0.263701,0.180039,-0.436447,-0.674405,0.244641,-0.696655,0.088727,0.206440,0.009232,-14.833374,-24.049145,20.176941,,,,,,,
1523696162.403888,-0.766297,-0.243780,2.104794,-0.225858,0.211221,-0.501451,-0.672968,0.241373,-0.699180,0.076288,0.172430,-0.032555,-13.785828,-24.204006,20.028076,,,,,,,
1523696162.433856,-0.763582,-0.240044,2.088489,-0.291091,0.193278,-0.496151,-0.671686,0.237745,-0.701652,0.041559,0.185351,-0.105996,-14.541046,-24.500988,19.653870,,,,,,,
1523696162.463824,-0.764259,-0.239459,2.070127,-0.425507,0.032857,-0.452407,-0.672257,0.237177,-0.701297,0.036393,0.192587,-0.096509,-14.240616,-24.277645,19.353149,,,,,,,
1523696162.493793,-0.769517,-0.241516,2.050170,-0.498532,-0.026651,-0.424706,-0.675594,0.239175,-0.697401,0.036251,0.168739,-0.047304,-12.689529,-25.636333,17.634338,,,,,,,
1523696162.523761,-0.773453,-0.243301,2.031158,-0.434401,0.018665,-0.395922,-0.678034,0.240908,-0.694430,0.043101,0.135465,-0.009748,-13.737061,-25.706097,18.159058,,,,,,,
1523696162.553729,-0.775743,-0.244208,2.013746,-0.419164,0.111967,-0.371500,-0.679470,0.241788,-0.692719,0.051906,0.127017,0.005051,-12.401062,-26.388317,16.962463,,,,,,,
1523696162.583697,-0.775010,-0.245992,1.997049,-0.385859,0.158631,-0.370455,-0.678659,0.243519,-0.692908,0.053781,0.113415,-0.006464,-11.724915,-26.091656,16.661621,,,,,,,
1523696162.613666,-0.774527,-0.245844,1.981395,-0.280164,0.129863,-0.395926,-0.678349,0.243375,-0.693261,0.065205,0.143389,0.000848,-12.096741,-26.089458,17.186462,,,,,,,
1523696162.643634,-0.772658,-0.243580,1.967807,-0.183846,0.166872,-0.405473,-0.677436,0.241178,-0.694920,0.063849,0.183947,0.001805,-11.876678,-26.315899,16.737488,,,,,,,
1523696162.673602,-0.768842,-0.239879,1.956270,-0.113188,0.246192,-0.375674,-0.675394,0.237585,-0.698137,0.071192,0.240106,-0.007750,-10.533951,-26.547756,15.914062,,,,,,,
1523696162.703570,-0.763225,-0.236938,1.945671,-0.157198,0.224838,-0.346908,-0.671942,0.234727,-0.702422,0.086356,0.248809,-0.017900,-11.575363,-26.092403,16.586670,,,,,,,
1523696162.733539,-0.760548,-0.233968,1.934816,-0.105077,0.114572,-0.402155,-0.670537,0.231839,-0.704720,0.079656,0.232821,0.039223,-10.983475,-26.770290,16.364746,,,,,,,
1523696162.763507,-0.757033,-0.227680,1.925325,0.068681,0.240911,-0.446911,-0.669044,0.225718,-0.708118,0.087211,0.226309,0.037845,-10.001755,-26.324337,16.738403,,,,,,,
1523696162.793475,-0.746990,-0.216906,1.919134,0.234092,0.459419,-0.449145,-0.663513,0.215209,-0.716544,0.053451,0.235322,-0.034143,-11.048584,-25.869854,16.511108,,,,,,,
1523696162.823443,-0.732271,-0.206252,1.912677,0.070473,0.471078,-0.387474,-0.654390,0.204793,-0.727896,0.070848,0.194499,-0.207025,-10.753555,-25.872005,15.686279,,,,,,,
1523696162.853412,-0.727394,-0.200773,1.902623,-0.096746,0.099517,-0.377638,-0.651569,0.199427,-0.731906,0.079029,0.183538,-0.122968,-9.563797,-26.627804,15.239868,,,,,,,
1523696162.883380,-0.728519,-0.194192,1.892626,0.001086,0.001568,-0.385988,-0.653251,0.192974,-0.732136,0.089424,0.197513,0.008824,-9.560944,-26.477581,15.464233,,,,,,,
1523696162.913348,-0.728525,-0.184924,1.884615,0.057105,0.100328,-0.396702,-0.654419,0.183872,-0.733435,0.097168,0.190380,-0.017694,-9.116653,-27.004665,15.391602,,,,,,,
1523696162.943316,-0.726261,-0.177372,1.875913,-0.045450,0.105784,-0.380801,-0.653660,0.176443,-0.735933,0.090473,0.195612,-0.062300,-8.736588,-26.406521,15.239380,,,,,,,
1523696162.973285,-0.725672,-0.172066,1.866194,-0.051006,0.065363,-0.373302,-0.653838,0.171218,-0.737007,0.097518,0.232789,-0.032158,-9.408264,-26.253201,15.538452,,,,,,,
1523696163.003258,-0.725008,-0.165469,1.858226,0.091000,0.037575,-0.399813,-0.654084,0.164715,-0.738270,0.106782,0.228977,0.020726,-8.286606,-26.408550,15.239624,,,,,,,
1523696163.033226,-0.721481,-0.156975,1.852085,0.131098,0.161833,-0.405231,-0.652376,0.156332,-0.741597,0.098162,0.203074,-0.011196,-8.128067,-25.958584,15.912903,,,,,,,
1523696163.063194,-0.717008,-0.152023,1.842449,-0.165747,0.150894,-0.407568,-0.649553,0.151438,-0.745082,0.082872,0.176458,-0.071126,-8.580002,-26.106625,15.838257,,,,,,,
,,,,,,,,,,,,,,,,25.319990,51.453186,15.656320,2.580000,247.851562,1523696162.998226,
1523696163.093163,-0.715327,-0.152806,1.827517,-0.302879,0.047139,-0.410776,-0.648222,0.152212,-0.746083,0.050795,0.175272,-0.083584,-7.225723,-25.587872,15.686890,,,,,,,
1523696163.123131,-0.716508,-0.150457,1.814261,-0.098130,-0.023422,-0.423333,-0.649335,0.149890,-0.745584,0.037290,0.177548,-0.048407,-6.562561,-26.641079,15.466370,,,,,,,
1523696163.153099,-0.717398,-0.143343,1.805440,0.078098,0.029028,-0.389156,-0.650683,0.142853,-0.745791,0.038302,0.166443,-0.027128,-7.007767,-26.114147,15.389099,,,,,,,
1523696163.183068,-0.715773,-0.135453,1.798992,0.040700,0.084016,-0.337032,-0.650190,0.135039,-0.747675,0.014600,0.122224,-0.073080,-6.639359,-26.641033,15.166382,,,,,,,
1523696163.213036,-0.713475,-0.133096,1.791026,-0.184100,0.102812,-0.209359,-0.648677,0.132703,-0.749405,0.031505,0.091982,-0.104813,-6.723648,-27.166332,14.493408,,,,,,,
1523696163.243004,-0.714964,-0.135727,1.781461,-0.258895,-0.121384,-0.185742,-0.649561,0.135310,-0.748172,0.079370,0.082982,-0.043683,-6.192398,-26.493786,14.416016,,,,,,,
1523696163.272972,-0.720863,-0.136121,1.773623,-0.092219,-0.145935,-0.229278,-0.653928,0.135701,-0.744287,0.076367,0.072994,0.068445,-5.147369,-26.948574,14.343323,,,,,,,
1523696163.302941,-0.719848,-0.132127,1.767588,0.049199,0.138837,-0.279534,-0.653524,0.131743,-0.745352,0.067281,0.050890,-0.011941,-5.442123,-26.646877,14.716980,,,,,,,
1523696163.332909,-0.714746,-0.126337,1.762728,0.047222,0.174975,-0.279575,-0.650202,0.126001,-0.749241,0.033991,0.057180,-0.102383,-5.369965,-27.022045,14.868530,,,,,,,
1523696163.362877,-0.709374,-0.123733,1.755659,-0.142970,0.179475,-0.247756,-0.646379,0.123417,-0.752969,0.042787,0.060390,-0.177374,-3.950119,-27.179028,14.269897,,,,,,,
1523696163.392845,-0.709412,-0.123532,1.746528,-0.184765,-0.087155,-0.244325,-0.646424,0.123218,-0.752963,0.056519,0.068386,-0.115201,-5.213394,-26.497524,15.091492,,,,,,,
1523696163.422814,-0.714429,-0.121391,1.738800,-0.041933,-0.151203,-0.253742,-0.650365,0.121093,-0.749908,0.061589,0.062516,-0.009827,-4.470764,-26.876461,14.493408,,,,,,,
1523696163.452782,-0.716740,-0.115998,1.733739,0.063305,-0.019688,-0.255926,-0.652516,0.115738,-0.748884,0.031224,0.046264,-0.008165,-3.346863,-26.806820,14.193726,,,,,,,
1523696163.482750,-0.715937,-0.111051,1.728490,-0.034710,0.035760,-0.248596,-0.652282,0.110823,-0.749831,0.006362,0.007310,-0.042558,-3.945328,-26.654125,14.192810,,,,,,,
1523696163.512718,-0.714107,-0.109775,1.720570,-0.186217,0.079566,-0.229569,-0.651001,0.109555,-0.751130,0.008148,0.007816,-0.073700,-4.479919,-27.476940,13.970764,,,,,,,
1523696163.542687,-0.714557,-0.110443,1.711706,-0.176176,-0.037474,-0.210271,-0.651290,0.110219,-0.750781,0.032989,0.031764,-0.044537,-2.610703,-27.561184,13.147095,,,,,,,
1523696163.572655,-0.716235,-0.109394,1.705028,-0.068631,-0.070870,-0.183519,-0.652625,0.109176,-0.749774,0.061393,0.068192,-0.041989,-3.353317,-27.182247,13.745178,,,,,,,
1523696163.602623,-0.719344,-0.105795,1.700623,0.029614,-0.084840,-0.197276,-0.655208,0.105598,-0.748032,0.070354,0.077691,0.008011,-3.199265,-26.733013,13.668457,,,,,,,
1523696163.632591,-0.719663,-0.101476,1.696776,0.022714,0.031055,-0.205917,-0.655740,0.101301,-0.748159,0.065591,0.083070,-0.004129,-1.779861,-27.114697,13.370728,,,,,,,
1523696163.662560,-0.717510,-0.099716,1.691047,-0.112616,0.073996,-0.219914,-0.654245,0.099551,-0.749702,0.047006,0.084821,-0.058296,-2.671158,-26.510235,13.817871,,,,,,,
1523696163.692528,-0.714762,-0.098637,1.683865,-0.049321,0.113342,-0.245486,-0.652252,0.098477,-0.751578,0.046036,0.065006,-0.053415,-2.215637,-26.136990,14.116577,,,,,,,
1523696163.722496,-0.709752,-0.094350,1.678583,0.040615,0.160977,-0.251857,-0.648747,0.094210,-0.755150,0.041051,0.059278,-0.104042,-2.289139,-25.986660,14.115906,,,,,,,
1523696163.752465,-0.708077,-0.090691,1.673688,-0.046066,-0.046466,-0.187780,-0.647702,0.090567,-0.756492,0.006878,0.050363,-0.155083,-2.219238,-26.362194,13.892517,,,,,,,
1523696163.772610,-0.715339,-0.091267,1.667575,-0.152426,-0.376985,-0.142777,-0.653144,0.091140,-0.751729,0.029792,0.010728,-0.052729,-2.372513,-26.511806,13.592957,,,,,,,
