timestamp(unix),attitude_roll(radians),attitude_pitch(radians),attitude_yaw(radians),rotation_rate_x(radians/s),rotation_rate_y(radians/s),rotation_rate_z(radians/s),gravity_x(G),gravity_y(G),gravity_z(G),user_acc_x(G),user_acc_y(G),user_acc_z(G),magnetic_field_x(microteslas),magnetic_field_y(microteslas),magnetic_field_z(microteslas),latitude(degree),longitude(degree),altitude(meter),speed(m/s),course(degree),timestamp(unix),User Mark
1523696836.633170,-0.701124,-0.033531,2.017930,0.152688,-0.251711,-0.127506,-0.644713,0.033525,-0.763686,-0.044054,-0.075593,0.115996,-18.969116,-13.710835,18.680725,,,,,,,
1523696836.663138,-0.696274,-0.031651,2.015533,-0.172004,0.290445,-0.045179,-0.641040,0.031645,-0.766851,-0.051114,-0.154585,-0.119914,-18.369003,-13.563771,18.455444,,,,,,,
,,,,,,,,,,,,,,,,25.310100,51.461311,10.117509,11.270000,232.734375,1523696835.995589,
1523696836.693107,-0.692268,-0.039920,2.010974,-0.339408,0.030569,0.098810,-0.637774,0.039909,-0.769185,-0.051008,-0.134239,-0.090495,-19.509537,-14.534612,17.483704,,,,,,,
1523696836.723075,-0.694331,-0.046808,2.008172,-0.161655,-0.108962,0.083098,-0.639169,0.046791,-0.767638,0.030938,-0.066948,-0.087129,-19.145035,-15.586247,17.488098,,,,,,,
1523696836.753043,-0.703027,-0.047290,2.009487,0.079524,-0.406879,0.052677,-0.645805,0.047272,-0.762033,0.022163,-0.008271,0.018305,-18.993988,-15.661626,17.788452,,,,,,,
1523696836.783011,-0.712795,-0.044696,2.011668,0.059254,-0.197293,0.024742,-0.653296,0.044681,-0.755779,0.046194,-0.068164,0.056454,-19.811905,-15.357274,18.461914,,,,,,,
1523696836.812980,-0.708977,-0.047097,2.010205,-0.240579,0.314563,0.024011,-0.650334,0.047080,-0.758184,-0.051845,-0.122382,-0.039164,-19.359222,-15.358861,18.912048,,,,,,,
1523696836.842948,-0.698793,-0.056974,2.005337,-0.415286,0.297188,0.138977,-0.642249,0.056943,-0.764375,-0.039880,-0.145444,-0.145049,-20.191986,-15.730779,18.238159,,,,,,,
1523696836.872916,-0.698407,-0.067348,2.002451,-0.247789,-0.193136,0.147045,-0.641539,0.067297,-0.764129,-0.044862,-0.115530,-0.098756,-20.656647,-16.704517,17.416809,,,,,,,
1523696836.902884,-0.707755,-0.071430,2.003452,-0.025983,-0.288067,0.118542,-0.648469,0.071370,-0.757884,-0.019438,-0.047032,0.041880,-20.794052,-15.803304,18.013184,,,,,,,
1523696836.932883,-0.710090,-0.070866,2.004541,0.028771,0.072049,-0.037345,-0.650264,0.070807,-0.756398,-0.057134,-0.065955,0.045765,-19.437378,-15.359029,18.387085,,,,,,,
1523696836.962851,-0.704178,-0.067633,2.002992,0.040520,0.236136,-0.103573,-0.645926,0.067581,-0.760399,-0.027170,-0.110428,-0.090599,-20.631012,-14.903356,18.684631,,,,,,,
1523696836.992820,-0.699044,-0.066867,2.000720,-0.101398,0.087296,-0.042792,-0.642047,0.066817,-0.763745,-0.039152,-0.098250,-0.172443,-20.408005,-14.829808,18.234436,,,,,,,
1523696837.022788,-0.703037,-0.069921,1.997722,-0.110797,-0.287083,0.006607,-0.644956,0.069864,-0.761016,0.020185,-0.023401,-0.055207,-19.214935,-15.435338,18.087524,,,,,,,
,,,,,,,,,,,,,,,,25.310032,51.461195,10.302370,12.120000,233.085938,1523696836.995579,
1523696837.052756,-0.712359,-0.068913,1.998710,0.135817,-0.278180,0.015295,-0.652068,0.068859,-0.755023,0.046233,0.006260,0.109714,-19.511459,-15.133916,18.161072,,,,,,,
1523696837.082724,-0.717488,-0.063696,2.003276,0.278632,-0.115831,-0.001815,-0.656159,0.063653,-0.751930,0.068970,-0.044030,0.156059,-19.510559,-15.133779,18.311096,,,,,,,
1523696837.112693,-0.717289,-0.057572,2.007572,0.197776,0.134367,-0.043676,-0.656253,0.057541,-0.752340,0.005603,-0.104599,0.123297,-18.596985,-14.087361,18.832397,,,,,,,
1523696837.142661,-0.707919,-0.054483,2.007855,-0.014600,0.376225,-0.059003,-0.649287,0.054456,-0.758587,0.006831,-0.181135,-0.050189,-19.956528,-14.681844,18.234070,,,,,,,
1523696837.172629,-0.701661,-0.057438,2.003859,-0.242475,0.071587,-0.026891,-0.644421,0.057407,-0.762509,-0.029468,-0.163257,-0.123080,-19.297562,-15.885488,17.564209,,,,,,,
1523696837.202598,-0.704093,-0.062198,1.999081,-0.164536,-0.161341,-0.023403,-0.646090,0.062158,-0.760723,-0.014540,-0.087930,-0.060643,-18.770935,-15.812703,17.714233,,,,,,,
1523696837.232566,-0.709880,-0.063182,1.998257,0.017725,-0.156933,0.040663,-0.650440,0.063140,-0.756925,0.004261,-0.066848,0.027616,-19.365372,-15.434728,18.012390,,,,,,,
1523696837.262534,-0.708737,-0.064488,2.000986,-0.030896,0.107915,0.173545,-0.649520,0.064443,-0.757605,-0.005845,-0.041295,-0.006372,-18.987549,-15.286199,18.237000,,,,,,,
1523696837.292502,-0.704349,-0.068638,2.003592,-0.076612,0.117795,0.144731,-0.646012,0.068584,-0.760237,0.036759,-0.072795,-0.037142,-19.450424,-15.810399,16.963867,,,,,,,
1523696837.322471,-0.703207,-0.070299,2.004827,0.005741,0.002628,0.020250,-0.645068,0.070241,-0.760887,0.053698,-0.090733,-0.023171,-19.225876,-16.036106,17.264893,,,,,,,
1523696837.352439,-0.702799,-0.067293,2.004085,0.052574,0.047050,-0.118278,-0.644891,0.067243,-0.761307,-0.020239,-0.117444,-0.037582,-19.677200,-16.034306,17.039612,,,,,,,
1523696837.382407,-0.699747,-0.061655,2.000585,0.033106,0.111592,-0.221724,-0.642799,0.061616,-0.763549,-0.033821,-0.136277,-0.082047,-18.923187,-15.812398,17.339172,,,,,,,
1523696837.412375,-0.697957,-0.058345,1.996599,-0.069628,-0.024052,-0.087402,-0.641559,0.058312,-0.764851,-0.041837,-0.086709,-0.086239,-19.447250,-16.034504,17.864746,,,,,,,
1523696837.442344,-0.701954,-0.060962,1.993252,-0.196945,-0.184991,0.027738,-0.644510,0.060924,-0.762161,-0.025412,-0.026897,-0.047943,-19.464203,-17.010624,16.668640,,,,,,,
1523696837.472312,-0.709094,-0.063553,1.992106,-0.010348,-0.247057,0.022617,-0.649830,0.063510,-0.757418,0.021839,0.022824,0.024584,-18.861664,-17.162663,17.344604,,,,,,,
1523696837.502280,-0.712390,-0.059697,1.994649,0.235535,0.007680,-0.023275,-0.652478,0.059662,-0.755452,0.035077,-0.028564,0.071217,-19.683929,-17.158512,17.794128,,,,,,,
1523696837.532248,-0.706902,-0.051229,1.998003,0.292571,0.202858,-0.145967,-0.648627,0.051207,-0.759378,0.002631,-0.102293,0.021311,-19.307449,-17.010212,17.793701,,,,,,,
1523696837.562217,-0.701428,-0.044141,1.998826,0.116209,0.194578,-0.115188,-0.644679,0.044127,-0.763175,0.010173,-0.145934,-0.022820,-19.913086,-17.757175,18.096436,,,,,,,
1523696837.592175,-0.698731,-0.044086,1.996527,-0.163814,0.003343,-0.020374,-0.642620,0.044072,-0.764913,-0.028431,-0.119176,-0.089564,-20.368011,-18.205204,18.023010,,,,,,,
1523696837.622174,-0.700841,-0.048057,1.992368,-0.205763,-0.041321,-0.000117,-0.644114,0.048038,-0.763416,-0.066305,-0.057835,-0.075024,-19.989731,-18.056614,18.322571,,,,,,,
1523696837.652142,-0.699746,-0.048852,1.991101,0.015691,0.075940,0.018052,-0.643253,0.048832,-0.764091,-0.036160,-0.077443,-0.098183,-20.360962,-18.129185,19.072693,,,,,,,
1523696837.682110,-0.696567,-0.048130,1.993737,0.073065,0.080707,0.075627,-0.640843,0.048112,-0.766159,-0.068828,-0.129151,-0.109695,-21.548340,-16.998631,19.292542,,,,,,,
1523696837.712078,-0.698453,-0.048399,1.997429,0.080242,-0.184135,0.108932,-0.642279,0.048381,-0.764939,0.033880,-0.129771,-0.068878,-21.848343,-16.772648,18.916504,,,,,,,
1523696837.742047,-0.706733,-0.047785,2.002172,0.134140,-0.320188,0.096318,-0.648609,0.047767,-0.759617,0.073841,-0.077033,0.120503,-21.613312,-15.948415,19.213379,,,,,,,
1523696837.772015,-0.713171,-0.045229,2.006156,0.154657,-0.119951,0.021550,-0.653564,0.045213,-0.755516,0.078918,-0.083391,0.171623,-21.080551,-15.125890,19.135315,,,,,,,
1523696837.801983,-0.712159,-0.041309,2.007986,0.106288,0.166731,-0.080007,-0.652911,0.041297,-0.756305,0.023760,-0.130454,0.125567,-21.299408,-14.599751,19.283081,,,,,,,
1523696837.831952,-0.700967,-0.039709,2.005362,-0.127230,0.456437,-0.093261,-0.644447,0.039698,-0.763615,-0.036706,-0.186945,-0.069363,-21.289825,-13.549947,19.128906,,,,,,,
1523696837.861920,-0.690963,-0.045829,1.998446,-0.407482,0.213143,0.000539,-0.636609,0.045813,-0.769821,-0.081104,-0.170691,-0.215698,-21.156784,-14.526753,17.932861,,,,,,,
1523696837.891888,-0.691083,-0.055781,1.992766,-0.289981,-0.122664,0.111790,-0.636379,0.055752,-0.769355,-0.037464,-0.127408,-0.184090,-19.213013,-14.836019,17.410034,,,,,,,
1523696837.921856,-0.698251,-0.061124,1.993345,-0.004648,-0.295548,0.116438,-0.641676,0.061086,-0.764535,0.015059,-0.073812,-0.021384,-19.360138,-14.909749,18.010315,,,,,,,
1523696837.951825,-0.707195,-0.059223,1.998089,0.230655,-0.271245,0.054775,-0.648563,0.059189,-0.758852,0.074848,-0.076645,0.102877,-19.651443,-14.308003,18.457764,,,,,,,
1523696837.981793,-0.710047,-0.055973,2.003092,0.105001,0.051993,0.068218,-0.650847,0.055943,-0.757141,0.041472,-0.154912,0.101761,-19.958023,-14.831838,18.234680,,,,,,,
1523696838.011761,-0.705105,-0.057719,2.004594,-0.053701,0.127848,0.063774,-0.647033,0.057687,-0.760273,0.067748,-0.180398,-0.014935,-19.442169,-15.434682,17.712402,,,,,,,
1523696838.041728,-0.704066,-0.059389,2.004070,-0.067936,-0.001385,0.014859,-0.646179,0.059354,-0.760871,0.012634,-0.160978,-0.036706,-19.217484,-15.510625,17.787781,,,,,,,
,,,,,,,,,,,,,,,,25.309965,51.461084,10.493728,13.030000,233.437500,1523696837.995568,
1523696838.071698,-0.707041,-0.058978,2.002184,-0.030698,-0.135824,-0.073406,-0.648456,0.058944,-0.758963,-0.025830,-0.107085,-0.015543,-18.304947,-14.389501,18.008789,,,,,,,
1523696838.101665,-0.709597,-0.055490,2.000746,0.063529,-0.064932,-0.063817,-0.650523,0.055461,-0.757455,-0.013051,-0.090526,-0.010200,-19.506973,-14.683949,18.159302,,,,,,,
1523696838.131634,-0.709833,-0.052743,2.001404,-0.000835,0.002410,0.053279,-0.650799,0.052719,-0.757413,0.017834,-0.115219,-0.004305,-19.217941,-15.286077,17.336914,,,,,,,
1523696838.161602,-0.710570,-0.054020,2.003242,-0.024783,-0.026636,0.114017,-0.651312,0.053994,-0.756882,0.006873,-0.107064,0.022965,-17.720993,-15.592809,17.338867,,,,,,,
1523696838.191571,-0.710203,-0.055481,2.004938,-0.013669,0.029877,0.080944,-0.650982,0.055453,-0.757061,0.051068,-0.119982,-0.011906,-18.845047,-15.587590,17.488281,,,,,,,
1523696838.221539,-0.709095,-0.054387,2.006069,0.034705,0.009085,-0.001048,-0.650182,0.054360,-0.757827,0.015172,-0.126580,0.005493,-18.389374,-15.289205,17.937317,,,,,,,
1523696838.251507,-0.709049,-0.052272,2.005863,-0.004635,0.015750,-0.027727,-0.650221,0.052248,-0.757943,0.028715,-0.125139,0.022606,-18.687271,-14.988011,17.785950,,,,,,,
1523696838.281475,-0.708488,-0.051298,2.004297,-0.048357,0.010627,-0.040533,-0.649829,0.051275,-0.758345,0.008471,-0.096899,0.020903,-18.702393,-16.188465,17.265747,,,,,,,
1523696838.311444,-0.706867,-0.050715,2.002745,-0.051272,0.096572,-0.021442,-0.648618,0.050693,-0.759420,-0.024890,-0.074238,-0.015512,-19.148911,-16.110996,17.715210,,,,,,,
1523696838.341442,-0.703209,-0.049820,2.000851,-0.045605,0.138210,-0.050256,-0.645865,0.049799,-0.761822,-0.014658,-0.089441,-0.066272,-18.991287,-15.436559,17.862610,,,,,,,
1523696838.371411,-0.699794,-0.047826,1.999707,0.033029,0.070969,-0.036276,-0.643322,0.047808,-0.764098,-0.012257,-0.102831,-0.113648,-20.114441,-15.431203,18.161987,,,,,,,
1523696838.401379,-0.701562,-0.047235,1.999139,-0.044941,-0.111984,0.017130,-0.644690,0.047217,-0.762981,0.015692,-0.068748,-0.085606,-19.671204,-15.883580,17.789001,,,,,,,
1523696838.431347,-0.706643,-0.048467,1.999359,-0.017635,-0.174956,0.048108,-0.648520,0.048448,-0.759650,0.015052,-0.016970,-0.015084,-19.150864,-16.261066,17.640808,,,,,,,
1523696838.461316,-0.709229,-0.048057,2.000836,0.061015,-0.046393,0.022462,-0.650496,0.048039,-0.757986,0.017271,-0.035862,0.041677,-20.047226,-16.031803,17.864441,,,,,,,
1523696838.491284,-0.708246,-0.045584,2.003114,0.106419,0.038730,-0.010617,-0.649825,0.045568,-0.758713,0.003783,-0.106680,0.027786,-19.662201,-15.432866,18.537231,,,,,,,
1523696838.521252,-0.707500,-0.043108,2.003922,0.046549,-0.025643,-0.052158,-0.649330,0.043095,-0.759281,0.007897,-0.168354,0.006077,-20.036148,-15.281270,18.461487,,,,,,,
1523696838.551220,-0.709672,-0.041948,2.003613,-0.017090,-0.118262,-0.006287,-0.651010,0.041936,-0.757906,-0.003867,-0.118077,0.020373,-20.349609,-16.180592,17.714905,,,,,,,
1523696838.581183,-0.712885,-0.042370,2.002446,-0.088461,-0.068198,0.003191,-0.653430,0.042358,-0.755797,-0.015301,-0.055740,0.034651,-19.890930,-15.582219,18.162720,,,,,,,
1523696838.611151,-0.711587,-0.042250,2.000877,-0.046965,0.114590,-0.015072,-0.652452,0.042237,-0.756649,-0.001616,-0.070420,-0.029393,-19.511902,-15.358617,18.462036,,,,,,,
1523696838.641119,-0.707695,-0.041329,2.000110,-0.035296,0.118709,0.000907,-0.649527,0.041318,-0.759212,-0.033182,-0.088666,-0.100026,-20.106796,-14.980718,18.685242,,,,,,,
1523696838.671087,-0.706251,-0.044018,1.998328,-0.168397,0.006087,0.043557,-0.648355,0.044003,-0.760061,-0.019903,-0.075482,-0.122980,-20.570267,-15.654759,17.562683,,,,,,,
1523696838.701056,-0.707650,-0.048244,1.996005,-0.126023,-0.078962,0.034086,-0.649291,0.048225,-0.759006,0.018172,-0.041862,-0.068753,-18.997284,-15.811910,17.489075,,,,,,,
1523696838.731024,-0.709847,-0.049038,1.995661,-0.001801,-0.030166,0.003222,-0.650932,0.049018,-0.757548,-0.001991,-0.044105,0.018305,-20.335403,-14.980290,18.085144,,,,,,,
1523696838.760992,-0.708351,-0.048101,1.995293,0.002107,0.092236,-0.026735,-0.649828,0.048082,-0.758555,0.003039,-0.100100,-0.022741,-20.332397,-14.904927,18.459839,,,,,,,
1523696838.790960,-0.704955,-0.048636,1.993907,-0.089826,0.079628,-0.015067,-0.647231,0.048617,-0.760738,-0.049699,-0.115268,-0.075734,-20.494080,-15.580022,17.637451,,,,,,,
1523696838.820929,-0.705228,-0.051626,1.991302,-0.149356,-0.066028,0.015943,-0.647342,0.051603,-0.760447,0.004809,-0.056837,-0.111227,-20.199478,-16.031498,17.489380,,,,,,,
1523696838.850897,-0.710241,-0.053173,1.989599,-0.036663,-0.205282,-0.014743,-0.651093,0.053148,-0.757131,-0.004409,-0.016634,-0.017726,-20.118195,-15.581563,17.787598,,,,,,,
1523696838.880865,-0.713217,-0.051123,1.989839,0.076205,-0.028199,-0.004167,-0.653413,0.051101,-0.755271,0.023378,-0.047057,0.048774,-19.361481,-15.134603,18.161194,,,,,,,
1523696838.910833,-0.712211,-0.049832,1.991634,0.029205,0.021572,0.039420,-0.652696,0.049811,-0.755977,-0.011611,-0.076758,0.026530,-20.332382,-15.129552,18.835693,,,,,,,
1523696838.940802,-0.711392,-0.052150,1.992013,-0.115067,0.031245,0.074468,-0.651999,0.052126,-0.756422,0.008063,-0.070635,-0.016817,-20.414139,-15.130315,17.710693,,,,,,,
1523696838.970770,-0.712286,-0.055675,1.991035,-0.107740,-0.043955,0.037254,-0.652551,0.055646,-0.755695,-0.001731,-0.061597,-0.005322,-19.372269,-15.810216,17.488892,,,,,,,
1523696839.000738,-0.711884,-0.056195,1.989689,-0.040587,0.083897,-0.035279,-0.652228,0.056165,-0.755935,-0.043038,-0.077024,-0.056840,-20.340790,-15.430409,17.936890,,,,,,,
1523696839.030737,-0.707646,-0.054898,1.987611,-0.030583,0.129819,-0.071546,-0.649066,0.054871,-0.758747,-0.053129,-0.087982,-0.159664,-20.715317,-15.428655,18.011719,,,,,,,
,,,,,,,,,,,,,,,,25.309900,51.460955,10.886472,14.370000,235.546875,1523696838.995556,
1523696839.060705,-0.708168,-0.054676,1.985526,-0.053382,-0.128711,-0.018028,-0.649469,0.054649,-0.758417,-0.006018,-0.057274,-0.135748,-20.940918,-15.352864,17.786255,,,,,,,
1523696839.090674,-0.716327,-0.056304,1.985320,-0.045113,-0.326975,0.067420,-0.655577,0.056274,-0.753025,0.033872,0.025711,0.032703,-20.643906,-15.654195,17.787598,,,,,,,
1523696839.120642,-0.722755,-0.057741,1.986806,0.029461,-0.122122,0.072603,-0.660349,0.057709,-0.748734,0.065760,0.020355,0.121109,-19.815216,-15.282933,17.786560,,,,,,,
1523696839.150610,-0.721768,-0.055554,1.989254,0.153007,0.156757,-0.038404,-0.659691,0.055526,-0.749478,0.029610,-0.051452,0.100919,-20.182861,-14.905675,18.384888,,,,,,,
1523696839.180578,-0.713112,-0.050050,1.990088,0.125385,0.318977,-0.129157,-0.653370,0.050029,-0.755380,-0.044369,-0.132442,-0.052497,-20.860229,-15.052785,18.235107,,,,,,,
1523696839.210547,-0.707382,-0.047878,1.987235,-0.095932,0.062098,-0.088578,-0.649099,0.047860,-0.759192,-0.059916,-0.123879,-0.166497,-19.514908,-15.433980,18.087341,,,,,,,
1523696839.240515,-0.712469,-0.050212,1.984684,-0.103458,-0.278807,0.037496,-0.652878,0.050191,-0.755794,-0.003677,-0.050664,-0.042469,-19.219574,-15.585835,17.563049,,,,,,,
1523696839.270483,-0.718929,-0.054279,1.985184,-0.073527,-0.158422,0.134359,-0.657607,0.054252,-0.751401,0.034331,-0.020042,0.121503,-19.966705,-15.432240,17.787048,,,,,,,
1523696839.300451,-0.720664,-0.057139,1.987977,0.037362,0.021047,0.111879,-0.658804,0.057108,-0.750139,0.011527,-0.075006,0.102678,-19.887207,-14.982610,17.785278,,,,,,,
1523696839.330420,-0.714151,-0.057472,1.990735,0.046388,0.293449,0.053021,-0.653892,0.057440,-0.754399,0.032997,-0.121863,-0.055476,-20.351425,-15.956258,17.038940,,,,,,,
1523696839.360388,-0.708447,-0.057894,1.991816,-0.021696,0.089757,0.031856,-0.649563,0.057861,-0.758099,0.029781,-0.115677,-0.079472,-19.971359,-15.582753,17.262695,,,,,,,
1523696839.390356,-0.709192,-0.058744,1.990916,-0.049822,-0.046926,-0.014907,-0.650095,0.058710,-0.757577,0.039362,-0.117518,-0.011466,-18.542984,-15.064488,16.961365,,,,,,,
1523696839.420324,-0.710174,-0.056892,1.989719,0.028464,-0.032913,-0.070275,-0.650909,0.056861,-0.757019,0.023711,-0.107398,0.000946,-19.736023,-14.908208,17.860107,,,,,,,
1523696839.450293,-0.710758,-0.054446,1.988447,-0.031548,-0.046782,-0.040474,-0.651439,0.054419,-0.756742,0.020656,-0.061163,0.029341,-19.746368,-15.359136,16.886902,,,,,,,
1523696839.480261,-0.712632,-0.054143,1.987318,-0.048002,-0.085369,0.011769,-0.652867,0.054117,-0.755532,0.038014,-0.032434,0.069604,-18.624405,-15.664189,16.888672,,,,,,,
1523696839.510229,-0.713224,-0.054255,1.986763,-0.015224,0.052865,-0.012855,-0.653310,0.054229,-0.755141,0.046499,-0.052184,0.082626,-19.744873,-15.433766,17.262207,,,,,,,
1523696839.540197,-0.709370,-0.051715,1.986235,0.073208,0.152061,-0.097069,-0.650483,0.051692,-0.757755,0.009950,-0.089854,0.012974,-19.518051,-15.434499,17.562317,,,,,,,
1523696839.570166,-0.705062,-0.049488,1.984126,-0.082694,0.166141,-0.080148,-0.647285,0.049468,-0.760637,-0.029503,-0.109649,-0.089308,-19.666885,-15.134130,17.261047,,,,,,,
1523696839.600123,-0.703224,-0.053404,1.979771,-0.246381,-0.038114,0.011570,-0.645756,0.053379,-0.761672,-0.039562,-0.052967,-0.169404,-19.755341,-16.259098,16.890503,,,,,,,
1523696839.630091,-0.708441,-0.058003,1.976075,-0.155492,-0.234960,0.018222,-0.649555,0.057971,-0.758098,-0.018750,-0.006121,-0.098287,-19.903076,-16.033436,16.889526,,,,,,,
1523696839.660060,-0.714641,-0.058769,1.975550,0.013609,-0.144034,0.021464,-0.654213,0.058736,-0.754022,0.014366,-0.028813,0.037591,-19.142654,-15.211476,17.261658,,,,,,,
1523696839.690028,-0.716043,-0.057225,1.977882,0.118648,-0.048677,0.024638,-0.655328,0.057194,-0.753172,0.035439,-0.059254,0.039289,-19.965515,-15.132558,17.485901,,,,,,,
1523696839.719995,-0.716801,-0.055250,1.980462,0.082384,-0.040072,0.023532,-0.655971,0.055222,-0.752758,0.055630,-0.063553,0.036709,-19.752792,-16.183811,17.190186,,,,,,,
1523696839.749995,-0.718768,-0.054322,1.981244,0.002583,-0.040598,-0.026596,-0.657484,0.054296,-0.751505,-0.012727,-0.061940,0.079279,-19.297577,-15.660863,17.188354,,,,,,,
1523696839.779963,-0.716831,-0.053068,1.978926,-0.038979,0.124775,-0.105651,-0.656072,0.053043,-0.752828,-0.020655,-0.100849,-0.030543,-19.966248,-15.432179,17.862061,,,,,,,
1523696839.809931,-0.714196,-0.051126,1.975920,-0.036074,0.055723,-0.108778,-0.654152,0.051104,-0.754630,-0.072243,-0.097322,-0.082192,-19.965515,-15.132558,17.485901,,,,,,,
1523696839.839900,-0.716046,-0.051112,1.973299,-0.094016,-0.133963,-0.011664,-0.655547,0.051089,-0.753419,-0.036271,-0.036487,-0.096541,-19.073639,-15.811788,17.264038,,,,,,,
1523696839.869868,-0.720876,-0.052799,1.971638,-0.079210,-0.132102,0.019255,-0.659121,0.052775,-0.750178,-0.034483,0.010473,-0.029058,-19.824493,-16.033192,17.489563,,,,,,,
1523696839.899836,-0.720201,-0.053134,1.971607,0.019206,0.152431,0.021162,-0.658603,0.053109,-0.750610,0.006839,-0.017571,-0.050095,-19.743210,-15.583257,17.787781,,,,,,,
1523696839.929804,-0.713610,-0.052418,1.971704,0.004727,0.215395,-0.013004,-0.653666,0.052394,-0.754963,-0.021856,-0.062266,-0.137859,-19.590820,-15.209172,17.561401,,,,,,,
1523696839.959773,-0.710981,-0.052835,1.970319,-0.067717,-0.000053,-0.024562,-0.651665,0.052811,-0.756662,-0.025688,-0.053787,-0.141089,-20.647507,-15.654790,17.187622,,,,,,,
1523696839.989741,-0.714405,-0.054062,1.969234,-0.029216,-0.181050,0.011879,-0.654209,0.054036,-0.754377,0.008548,-0.014958,-0.034976,-19.302216,-16.260609,17.415710,,,,,,,
1523696840.019709,-0.718606,-0.053679,1.969764,0.044894,-0.084529,0.010771,-0.657385,0.053653,-0.751637,-0.002847,-0.033771,0.097661,-18.703293,-16.188602,17.115723,,,,,,,
,,,,,,,,,,,,,,,,25.309832,51.460815,11.359701,15.160000,236.953125,1523696839.998543,
1523696840.049677,-0.717808,-0.052560,1.971966,0.083758,0.068025,0.061797,-0.656824,0.052535,-0.752207,0.009348,-0.097839,0.072534,-20.338242,-15.130498,17.860657,,,,,,,
1523696840.079646,-0.713658,-0.053151,1.974122,-0.019515,0.154256,0.077605,-0.653676,0.053126,-0.754902,-0.003993,-0.140437,-0.066646,-20.718475,-15.429158,17.486694,,,,,,,
1523696840.109614,-0.714490,-0.055361,1.974659,-0.065494,-0.117565,0.062936,-0.654226,0.055333,-0.754267,0.015157,-0.077397,-0.021856,-19.901260,-16.257771,17.565430,,,,,,,
1523696840.139582,-0.718582,-0.055752,1.974122,-0.014828,-0.089563,-0.007385,-0.657292,0.055723,-0.751568,0.050847,-0.040800,0.059215,-19.747269,-15.583913,17.112793,,,,,,,
1523696840.169550,-0.718490,-0.052893,1.973766,0.065220,0.064755,-0.071404,-0.657325,0.052869,-0.751745,0.028739,-0.051099,0.027151,-19.443069,-15.434834,17.562378,,,,,,,
1523696840.199519,-0.715549,-0.049632,1.973358,0.029971,0.091269,-0.049095,-0.655221,0.049612,-0.753801,0.010156,-0.043448,-0.028533,-19.671661,-15.659032,17.338196,,,,,,,
1523696840.229487,-0.713157,-0.049847,1.972011,-0.087796,0.078476,-0.000163,-0.653410,0.049827,-0.755358,-0.004778,-0.016792,-0.063398,-19.679001,-16.259220,17.115540,,,,,,,
1523696840.259455,-0.712034,-0.051244,1.969752,-0.076078,0.031901,-0.032061,-0.652515,0.051221,-0.756038,-0.021389,-0.026243,-0.061895,-19.761047,-16.784138,16.817627,,,,,,,
1523696840.289424,-0.709853,-0.049844,1.968236,0.023612,0.078651,-0.067194,-0.650910,0.049823,-0.757513,-0.034072,-0.069553,-0.089914,-18.860184,-16.788044,16.968079,,,,,,,
1523696840.319392,-0.709317,-0.048772,1.966940,-0.043275,-0.029861,-0.026638,-0.650538,0.048753,-0.757902,-0.040853,-0.069749,-0.117571,-19.983490,-16.483219,16.741272,,,,,,,
1523696840.349360,-0.713212,-0.050272,1.965979,-0.044303,-0.192810,0.027860,-0.653437,0.050251,-0.755306,-0.010122,-0.025303,-0.055455,-19.166153,-17.162037,16.594421,,,,,,,
1523696840.379328,-0.717454,-0.050897,1.966620,0.022420,-0.070805,0.032048,-0.656615,0.050875,-0.752503,0.022231,-0.001528,0.048051,-19.455963,-16.410297,17.041260,,,,,,,
1523696840.409297,-0.715872,-0.049928,1.968039,0.049993,0.102467,0.012715,-0.655455,0.049907,-0.753578,-0.014665,-0.073375,0.005440,-19.295166,-15.735341,17.713684,,,,,,,
1523696840.439295,-0.712773,-0.049043,1.968692,0.010532,0.083597,-0.010733,-0.653145,0.049023,-0.755639,-0.035744,-0.085476,-0.088065,-18.265167,-16.791553,16.143372,,,,,,,
1523696840.469264,-0.713306,-0.049433,1.967659,-0.045895,-0.124462,-0.019100,-0.653536,0.049413,-0.755276,-0.002058,-0.015676,-0.050739,-19.833344,-16.558735,16.891663,,,,,,,
1523696840.499232,-0.719286,-0.047600,1.966432,0.053500,-0.163665,-0.071193,-0.658099,0.047582,-0.751421,0.042682,-0.009771,0.084475,-19.230820,-16.486149,17.191650,,,,,,,
1523696840.529200,-0.720583,-0.042270,1.967194,0.164327,0.016763,-0.079817,-0.659231,0.042258,-0.750747,0.030752,-0.026602,0.108398,-18.029816,-16.566257,17.492554,,,,,,,
1523696840.559168,-0.716008,-0.038446,1.968296,0.051862,0.232393,-0.028971,-0.655891,0.038436,-0.753871,-0.015939,-0.062896,0.005626,-18.110214,-16.791416,16.968506,,,,,,,
1523696840.589155,-0.709870,-0.040397,1.967665,-0.145432,0.145132,0.058348,-0.651201,0.040386,-0.757825,-0.015227,-0.036846,-0.135074,-19.085617,-16.787113,16.892944,,,,,,,
1523696840.619123,-0.711240,-0.045133,1.966506,-0.107280,-0.136670,0.074645,-0.652106,0.045118,-0.756779,0.019416,-0.010099,-0.033810,-19.093552,-17.537144,16.820923,,,,,,,
1523696840.649091,-0.714833,-0.045121,1.967199,0.073958,-0.057867,-0.012680,-0.654822,0.045106,-0.754431,0.015326,-0.035142,0.094839,-19.451462,-16.409565,17.791260,,,,,,,
1523696840.679059,-0.712740,-0.041446,1.969001,0.138891,0.118471,-0.027727,-0.653345,0.041434,-0.755920,0.041422,-0.080436,0.048141,-19.237854,-17.011417,16.893799,,,,,,,
1523696840.709028,-0.707986,-0.039849,1.970349,-0.022372,0.151563,0.008345,-0.649786,0.039838,-0.759067,-0.026865,-0.091245,-0.036572,-18.124283,-17.841953,16.372620,,,,,,,
1523696840.738996,-0.706203,-0.042513,1.968525,-0.134106,-0.003327,0.010558,-0.648361,0.042500,-0.760141,-0.007523,-0.071477,-0.097113,-19.538269,-17.234760,17.194519,,,,,,,
1523696840.768964,-0.708228,-0.043068,1.966622,-0.014677,-0.083009,-0.031904,-0.649883,0.043055,-0.758808,0.010875,-0.055384,-0.060665,-19.609253,-16.784519,17.117676,,,,,,,
1523696840.798933,-0.711342,-0.040443,1.966096,0.018475,-0.093599,-0.049976,-0.652314,0.040432,-0.756864,-0.001937,-0.001477,0.016187,-18.715134,-17.014149,16.519043,,,,,,,
1523696840.828901,-0.712741,-0.039584,1.965559,-0.010383,-0.057685,-0.010601,-0.653395,0.039573,-0.755977,-0.000414,0.005898,0.024745,-18.719330,-17.389210,16.445557,,,,,,,
1523696840.858869,-0.711194,-0.039219,1.965314,0.016040,0.120786,-0.011835,-0.652234,0.039209,-0.756997,0.007123,-0.053537,-0.038733,-19.227219,-16.260944,17.415771,,,,,,,
1523696840.888837,-0.708000,-0.037307,1.965600,0.078922,0.058167,-0.044756,-0.649860,0.037299,-0.759132,-0.017010,-0.073706,-0.068428,-19.302368,-15.961141,16.889526,,,,,,,
1523696840.918806,-0.709666,-0.036012,1.966296,-0.001174,-0.095204,0.033129,-0.651155,0.036004,-0.758085,0.032716,-0.052652,-0.011355,-20.049347,-15.657781,16.887939,,,,,,,
1523696840.948774,-0.712951,-0.038912,1.967114,-0.101042,-0.127394,0.114062,-0.653571,0.038902,-0.755859,0.009940,-0.022453,0.074020,-19.151184,-15.886739,16.964355,,,,,,,
1523696840.978742,-0.713671,-0.042023,1.967781,-0.060399,0.073665,0.068067,-0.654032,0.042011,-0.755293,-0.024618,-0.054279,0.078230,-18.917816,-15.137639,17.111450,,,,,,,
1523696841.008710,-0.706250,-0.042071,1.967810,0.009429,0.289918,-0.033329,-0.648408,0.042059,-0.760124,-0.041976,-0.138601,-0.124443,-19.960571,-14.682500,17.559082,,,,,,,
1523696841.038679,-0.701306,-0.040093,1.966648,0.006538,0.053368,-0.091693,-0.644695,0.040083,-0.763383,-0.054509,-0.134565,-0.212737,-19.969864,-15.208135,16.886230,,,,,,,
1523696841.068647,-0.706025,-0.040057,1.964722,-0.066898,-0.285949,-0.017876,-0.648291,0.040047,-0.760333,0.017691,-0.036049,-0.124219,-18.847305,-15.587956,17.113281,,,,,,,
,,,,,,,,,,,,,,,,25.309764,51.460680,11.679312,15.720000,237.656250,1523696840.998624,
1523696841.098615,-0.715841,-0.041668,1.963986,-0.044537,-0.258611,0.016206,-0.655680,0.041656,-0.753883,0.025385,0.048035,0.085014,-19.890793,-15.207814,17.561218,,,,,,,
1523696841.128583,-0.717125,-0.041473,1.964950,0.075492,0.066315,0.006380,-0.656652,0.041461,-0.753047,0.052358,-0.006824,0.091304,-19.741730,-15.208638,17.411255,,,,,,,
1523696841.158552,-0.713019,-0.039340,1.966725,0.076065,0.191733,0.003051,-0.653612,0.039330,-0.755802,-0.028594,-0.083626,0.036899,-18.779480,-16.263340,17.040955,,,,,,,
1523696841.188550,-0.707605,-0.040205,1.967743,-0.070747,0.144854,0.070133,-0.649488,0.040195,-0.759303,-0.057162,-0.112872,-0.096501,-19.308823,-16.561176,16.816956,,,,,,,
1523696841.218519,-0.707548,-0.044020,1.966762,-0.112128,-0.058875,0.045786,-0.649340,0.044006,-0.759218,-0.036146,-0.100433,-0.061003,-19.233521,-16.711216,17.117554,,,,,,,
1523696841.248487,-0.710880,-0.043918,1.966236,0.038499,-0.108800,-0.011582,-0.651869,0.043904,-0.757054,0.018095,-0.072728,0.016819,-18.859589,-16.638203,16.817444,,,,,,,
1523696841.278455,-0.713792,-0.040412,1.967080,0.111263,-0.083397,-0.022215,-0.654167,0.040401,-0.755264,0.058479,-0.023968,0.075362,-20.808899,-16.704197,17.041748,,,,,,,
1523696841.308423,-0.715150,-0.035987,1.969688,0.151966,-0.011516,0.016107,-0.655303,0.035979,-0.754503,0.103438,-0.001296,0.119783,-19.462097,-17.160038,17.269287,,,,,,,
1523696841.338392,-0.712827,-0.034716,1.972257,-0.004475,0.150105,0.057380,-0.653578,0.034709,-0.756057,0.078932,-0.034755,0.111190,-18.857178,-16.712681,17.342773,,,,,,,
1523696841.368360,-0.706290,-0.037925,1.971937,-0.143741,0.253707,0.031598,-0.648546,0.037916,-0.760224,-0.013411,-0.084318,0.002534,-20.428223,-16.405460,17.490723,,,,,,,
1523696841.398328,-0.700054,-0.041249,1.968265,-0.135405,0.108689,-0.052420,-0.643708,0.041237,-0.764153,0.003800,-0.094643,-0.134727,-20.219849,-17.532307,16.595398,,,,,,,
1523696841.428297,-0.702310,-0.040180,1.965932,0.034497,-0.150659,-0.101054,-0.645458,0.040169,-0.762732,-0.055043,-0.044640,-0.016870,-19.689026,-17.309086,17.194763,,,,,,,
1523696841.458265,-0.707319,-0.036220,1.966191,0.148328,-0.147270,-0.018925,-0.649369,0.036212,-0.759604,0.095063,-0.042834,0.099921,-19.161804,-17.086460,17.194092,,,,,,,
1523696841.488233,-0.707259,-0.033667,1.969226,0.059276,0.075614,0.051104,-0.649381,0.033661,-0.759711,0.031766,-0.036514,0.114356,-19.157471,-16.561634,17.041992,,,,,,,
1523696841.518201,-0.703516,-0.035540,1.969750,-0.087927,0.105696,0.054173,-0.646491,0.035532,-0.762087,0.054099,-0.027369,-0.042341,-18.337006,-16.790699,16.668335,,,,,,,
1523696841.548170,-0.703698,-0.036601,1.967903,-0.044254,-0.062488,-0.071356,-0.646605,0.036593,-0.761940,0.024337,0.017576,-0.026100,-19.759842,-16.933689,17.268188,,,,,,,
1523696841.578138,-0.706180,-0.032919,1.965820,0.104634,-0.043188,-0.147987,-0.648577,0.032913,-0.760430,0.013308,-0.004120,0.038430,-19.374954,-16.259907,17.790649,,,,,,,
1523696841.608093,-0.704586,-0.027509,1.965106,0.111426,0.089350,-0.108695,-0.647470,0.027506,-0.761588,-0.045890,-0.040796,-0.012643,-18.697449,-15.738408,17.338989,,,,,,,
1523696841.638061,-0.701141,-0.026785,1.965181,-0.048587,0.073726,0.055289,-0.644855,0.026782,-0.763829,-0.054623,-0.059619,-0.113597,-19.149979,-16.036304,17.414917,,,,,,,
1523696841.668030,-0.701925,-0.031519,1.965111,-0.144601,-0.099527,0.095884,-0.645365,0.031514,-0.763217,-0.069738,-0.042286,-0.084729,-19.299225,-15.960622,17.414490,,,,,,,
1523696841.697998,-0.705677,-0.033438,1.965653,0.063792,-0.129362,0.033205,-0.648183,0.033432,-0.760743,0.033925,-0.054993,-0.017318,-19.435440,-14.984334,18.085571,,,,,,,
1523696841.727966,-0.707964,-0.029814,1.968172,0.136163,-0.012222,-0.027599,-0.649996,0.029809,-0.759346,-0.002241,-0.067560,0.015602,-20.117752,-15.356862,17.486694,,,,,,,
1523696841.757934,-0.707640,-0.027985,1.969868,0.029012,-0.043099,0.019235,-0.649784,0.027981,-0.759596,-0.025005,-0.036847,-0.027971,-19.672256,-15.808873,17.488708,,,,,,,
1523696841.787903,-0.709106,-0.029197,1.969239,-0.080732,-0.019330,-0.000036,-0.650874,0.029193,-0.758617,-0.000462,-0.056414,-0.001378,-18.316910,-15.589452,18.013550,,,,,,,
1523696841.817871,-0.708956,-0.028606,1.968587,0.031914,0.039219,-0.054358,-0.650772,0.028602,-0.758727,-0.033768,-0.082603,0.000991,-19.513718,-15.134282,17.786072,,,,,,,
1523696841.847839,-0.706865,-0.026278,1.968130,0.037281,0.059315,-0.042655,-0.649226,0.026275,-0.760135,-0.033971,-0.078506,-0.085828,-19.454910,-16.260380,16.965698,,,,,,,
1523696841.877807,-0.707582,-0.025833,1.968359,-0.016117,-0.103593,0.023530,-0.649778,0.025830,-0.759678,-0.035540,-0.035947,-0.066280,-19.150558,-16.186146,17.565491,,,,,,,
1523696841.907806,-0.711333,-0.027530,1.967883,-0.079006,-0.071608,0.030909,-0.652593,0.027526,-0.757201,0.000677,-0.020950,0.026701,-19.003281,-16.411884,17.491455,,,,,,,
1523696841.937774,-0.709661,-0.027460,1.967212,0.034243,0.112345,-0.027790,-0.651328,0.027457,-0.758292,-0.026575,-0.050101,-0.086068,-18.183411,-16.566166,16.892517,,,,,,,
1523696841.967743,-0.707149,-0.024896,1.967615,0.080837,0.029341,-0.026609,-0.649464,0.024893,-0.759978,0.002766,-0.035849,-0.112032,-19.082474,-16.561970,17.042053,,,,,,,
1523696841.997711,-0.710224,-0.024373,1.968344,-0.032393,-0.156714,0.027835,-0.651807,0.024370,-0.757986,-0.025409,0.021040,0.027288,-18.856140,-16.562763,17.267151,,,,,,,
1523696842.027679,-0.712102,-0.025877,1.967972,-0.023015,0.035561,0.032974,-0.653204,0.025874,-0.756732,0.036276,-0.035289,0.032046,-18.175903,-16.265461,17.641357,,,,,,,
,,,,,,,,,,,,,,,,25.309687,51.460526,11.755116,16.459999,237.656250,1523696841.998708,
1523696842.057648,-0.707862,-0.024776,1.968859,0.062112,0.152557,-0.013958,-0.650008,0.024774,-0.759516,-0.059160,-0.086968,-0.060171,-19.822693,-16.032887,17.789551,,,,,,,
1523696842.087616,-0.704683,-0.023775,1.968790,0.001726,0.027311,-0.010691,-0.647605,0.023773,-0.761598,-0.041710,-0.079284,-0.168624,-18.865265,-17.387867,17.120422,,,,,,,
1523696842.117584,-0.709166,-0.024056,1.968719,-0.021904,-0.196073,0.030014,-0.651009,0.024054,-0.758681,0.002389,-0.035422,-0.036058,-18.554352,-16.339191,17.191406,,,,,,,
1523696842.147552,-0.713581,-0.024670,1.969423,0.006233,-0.111166,0.033154,-0.654343,0.024668,-0.755788,0.017807,-0.038553,0.070241,-19.153412,-16.560978,17.717041,,,,,,,
1523696842.177521,-0.713350,-0.023789,1.970533,0.049715,0.043986,0.017042,-0.654182,0.023786,-0.755955,0.013832,-0.054853,0.033726,-19.300720,-16.335239,17.791016,,,,,,,
1523696842.207489,-0.710440,-0.023792,1.971826,-0.020738,0.098064,0.059550,-0.651979,0.023790,-0.757856,-0.004500,-0.062776,-0.047228,-18.561386,-16.864460,16.893555,,,,,,,
1523696842.237457,-0.709787,-0.026652,1.971711,-0.094881,-0.026996,0.040434,-0.651437,0.026648,-0.758227,-0.013800,-0.054999,-0.041837,-19.526886,-16.184681,17.340332,,,,,,,
1523696842.267425,-0.709920,-0.026740,1.971342,0.029488,0.031444,-0.005338,-0.651536,0.026737,-0.758138,0.041505,-0.089145,-0.000910,-19.445312,-15.659825,17.563232,,,,,,,
1523696842.297394,-0.707487,-0.024916,1.971676,0.005238,0.087889,-0.015001,-0.649720,0.024913,-0.759757,-0.035735,-0.073833,-0.025277,-17.959335,-16.342701,16.366699,,,,,,,
1523696842.327362,-0.707701,-0.024981,1.971544,-0.037409,-0.078101,0.033076,-0.649882,0.024978,-0.759617,-0.017430,-0.019546,-0.009777,-19.306122,-16.336109,16.891052,,,,,,,
1523696842.357330,-0.709335,-0.025866,1.970828,-0.052925,-0.001368,0.005290,-0.651107,0.025863,-0.758537,0.037994,-0.026641,0.017372,-19.225555,-16.185810,17.565491,,,,,,,
1523696842.387298,-0.707899,-0.024084,1.970194,0.065267,0.072219,-0.074611,-0.650046,0.024082,-0.759505,-0.009408,-0.044117,-0.019685,-19.067642,-15.436452,17.637573,,,,,,,
1523696842.417267,-0.705179,-0.021005,1.969232,0.031070,0.077543,-0.063987,-0.648024,0.021004,-0.761323,-0.020220,-0.028862,-0.115279,-19.531235,-16.709507,17.492432,,,,,,,
1523696842.447235,-0.705191,-0.021263,1.967679,-0.088464,-0.076655,-0.003193,-0.648029,0.021261,-0.761311,-0.022839,0.012903,-0.074001,-19.089218,-17.012318,16.668823,,,,,,,
1523696842.477203,-0.709224,-0.022460,1.966620,-0.006572,-0.130107,0.012909,-0.651077,0.022458,-0.758671,0.036682,0.006228,0.055012,-18.860779,-16.937885,17.118652,,,,,,,
1523696842.507171,-0.709823,-0.020723,1.968066,0.098855,0.033320,0.004309,-0.651556,0.020721,-0.758310,0.008382,-0.032684,0.085825,-20.056534,-16.557438,17.191528,,,,,,,
1523696842.537140,-0.706293,-0.019862,1.970248,0.036994,0.122302,0.067032,-0.648887,0.019861,-0.760618,0.026084,-0.056482,0.006025,-19.168839,-17.611729,16.896240,,,,,,,
1523696842.567108,-0.704820,-0.021945,1.971723,-0.066002,0.014157,0.069195,-0.647737,0.021943,-0.761540,-0.007155,-0.065339,0.038045,-18.567978,-17.389652,16.670593,,,,,,,
1523696842.597068,-0.704243,-0.024050,1.971776,-0.028366,0.037645,0.039369,-0.647266,0.024048,-0.761877,0.054416,-0.080200,0.020407,-19.687088,-17.159031,17.269165,,,,,,,
1523696842.627067,-0.702400,-0.023893,1.971437,-0.020302,0.081725,-0.036324,-0.645864,0.023890,-0.763071,-0.029780,-0.071391,-0.021429,-19.162857,-17.236378,17.269714,,,,,,,
1523696842.657035,-0.701593,-0.023151,1.970987,-0.001647,-0.005678,-0.004258,-0.645258,0.023149,-0.763606,0.001383,-0.031709,-0.068929,-18.722763,-17.689259,16.371704,,,,,,,
1523696842.687004,-0.702185,-0.023145,1.970059,-0.058227,-0.019262,-0.017072,-0.645710,0.023143,-0.763224,-0.008892,-0.033229,-0.016668,-19.609695,-17.009220,17.418579,,,,,,,
1523696842.716972,-0.701632,-0.021641,1.969598,0.053285,0.052908,-0.044762,-0.645310,0.021639,-0.763607,-0.006301,-0.044253,-0.022343,-19.677795,-16.408772,17.566162,,,,,,,
1523696842.746940,-0.698436,-0.020062,1.969259,0.004141,0.081516,-0.014996,-0.642888,0.020061,-0.765690,-0.010753,-0.011775,-0.112987,-19.012268,-17.087208,17.119202,,,,,,,
1523696842.776908,-0.699665,-0.020991,1.968299,-0.072670,-0.108691,0.012839,-0.643816,0.020989,-0.764885,-0.008467,0.010657,-0.047371,-19.455505,-16.634846,17.492126,,,,,,,
1523696842.806877,-0.703126,-0.021960,1.967649,0.002202,-0.089708,0.005425,-0.646446,0.021959,-0.762636,0.029991,-0.012315,0.062746,-19.602203,-16.034641,17.039673,,,,,,,
1523696842.836845,-0.703358,-0.019731,1.969064,0.119119,0.011058,-0.010570,-0.646653,0.019730,-0.762521,0.025605,-0.038208,0.066934,-19.305527,-16.410892,17.116333,,,,,,,
1523696842.866813,-0.701337,-0.018033,1.970746,0.040176,0.070521,0.025528,-0.645131,0.018032,-0.763851,0.013722,-0.053295,0.014614,-20.050385,-16.032322,17.339478,,,,,,,
1523696842.896781,-0.700290,-0.018730,1.970812,-0.059211,0.019929,0.001003,-0.644322,0.018729,-0.764517,-0.027080,-0.046470,-0.003168,-19.228424,-16.336018,17.341125,,,,,,,
1523696842.926750,-0.699921,-0.018833,1.968922,-0.023553,0.030964,-0.070370,-0.644040,0.018832,-0.764753,-0.006275,-0.053194,-0.042910,-20.867722,-15.353490,17.486328,,,,,,,
1523696842.956718,-0.699026,-0.016297,1.967125,0.012841,0.025742,-0.094853,-0.643383,0.016297,-0.765363,-0.043506,-0.033890,-0.111483,-19.978531,-16.257786,17.190369,,,,,,,
1523696842.986686,-0.700411,-0.015010,1.965943,-0.017936,-0.102118,-0.035074,-0.644456,0.015009,-0.764487,-0.050048,0.016180,-0.104394,-19.829147,-16.408314,17.341064,,,,,,,
1523696843.016654,-0.704045,-0.016133,1.965378,-0.051512,-0.123818,0.039517,-0.647218,0.016132,-0.762126,-0.010451,0.020946,-0.032506,-19.590363,-15.433721,18.012268,,,,,,,
1523696843.046623,-0.705251,-0.017141,1.966013,0.014287,0.027959,0.041543,-0.648126,0.017140,-0.761333,0.004403,-0.011784,-0.017247,-19.961014,-14.907201,17.859985,,,,,,,
,,,,,,,,,,,,,,,,25.309614,51.460389,11.881186,17.190001,237.656250,1523696842.998792,
1523696843.076591,-0.703322,-0.017192,1.966953,0.021928,0.037654,0.019167,-0.646655,0.017191,-0.762581,-0.047421,-0.036158,-0.126930,-18.994461,-15.212453,16.961731,,,,,,,
1523696843.106559,-0.705539,-0.016622,1.967370,0.032925,-0.156649,-0.006205,-0.648351,0.016622,-0.761153,-0.003703,-0.025533,-0.017564,-18.845810,-15.437963,17.112671,,,,,,,
1523696843.136527,-0.709779,-0.015074,1.967819,0.061030,-0.097107,-0.021162,-0.651588,0.015074,-0.758416,0.020957,-0.047804,0.064308,-19.371536,-15.510594,17.112671,,,,,,,
1523696843.166496,-0.710720,-0.013660,1.968645,0.021797,-0.001579,0.008545,-0.652315,0.013660,-0.757817,-0.007231,-0.062198,0.042165,-19.298782,-15.735921,17.113647,,,,,,,
1523696843.196464,-0.709462,-0.014391,1.969316,-0.023151,0.022681,0.050043,-0.651354,0.014391,-0.758629,-0.009244,-0.044481,-0.024223,-18.999084,-15.812200,17.189087,,,,,,,
1523696843.226432,-0.710058,-0.015512,1.969131,-0.057263,-0.009906,0.011692,-0.651795,0.015511,-0.758229,0.012955,-0.049874,0.029087,-18.846100,-15.512883,17.187988,,,,,,,
1523696843.256401,-0.709427,-0.015398,1.968827,0.022134,0.055906,-0.006430,-0.651318,0.015398,-0.758641,0.029797,-0.056917,0.025822,-18.172043,-15.291448,16.662415,,,,,,,
1523696843.286369,-0.707598,-0.014679,1.968736,-0.013098,0.064453,-0.000075,-0.649936,0.014679,-0.759839,0.024936,-0.029602,-0.011462,-18.849258,-15.513402,16.662964,,,,,,,
1523696843.316368,-0.707189,-0.015172,1.968344,-0.034850,-0.015253,0.008517,-0.649621,0.015171,-0.760099,0.017816,-0.003193,0.035520,-18.400314,-15.889974,17.114685,,,,,,,
1523696843.346336,-0.706626,-0.015230,1.967576,-0.012995,0.059327,-0.025649,-0.649192,0.015229,-0.760464,0.050315,-0.004228,0.067563,-17.274765,-15.745183,16.964722,,,,,,,
1523696843.376304,-0.703522,-0.013489,1.966905,0.036473,0.092395,-0.062929,-0.646845,0.013488,-0.762495,0.040583,-0.027526,-0.013339,-18.547470,-15.514455,16.963135,,,,,,,
1523696843.406272,-0.701872,-0.012407,1.965610,-0.024825,0.015926,-0.045855,-0.645595,0.012407,-0.763571,-0.014607,-0.010927,-0.066827,-18.102264,-16.041386,17.040405,,,,,,,
1523696843.436241,-0.705016,-0.012052,1.964161,-0.008712,-0.198785,-0.043489,-0.647995,0.012052,-0.761541,0.048096,0.012377,-0.012949,-18.405106,-16.414875,17.191772,,,,,,,
1523696843.466209,-0.710884,-0.010827,1.963890,0.030874,-0.163925,-0.028575,-0.652462,0.010827,-0.757737,0.048595,0.002479,0.091049,-18.246109,-15.740209,17.564209,,,,,,,
1523696843.496177,-0.711362,-0.009263,1.964271,0.053159,0.072793,-0.002156,-0.652834,0.009263,-0.757437,-0.005171,-0.027070,-0.014872,-17.957672,-16.492176,16.892334,,,,,,,
1523696843.526145,-0.705791,-0.010488,1.965695,-0.053358,0.228685,0.081774,-0.648597,0.010488,-0.761052,-0.066491,-0.036840,-0.108668,-17.588821,-17.018986,16.744629,,,,,,,
1523696843.556114,-0.703528,-0.014548,1.965549,-0.086605,-0.035876,0.088416,-0.646839,0.014547,-0.762480,0.011814,-0.058096,-0.093523,-19.224060,-16.035816,17.564880,,,,,,,
1523696843.586075,-0.707810,-0.015887,1.966932,0.033617,-0.175075,0.047080,-0.650085,0.015887,-0.759687,0.010742,-0.042391,0.001859,-18.854492,-16.038380,16.665039,,,,,,,
1523696843.616043,-0.711448,-0.015577,1.968248,0.018141,-0.069758,0.035244,-0.652848,0.015576,-0.757321,0.005998,-0.040845,-0.007099,-17.883575,-16.268040,16.366455,,,,,,,
1523696843.646011,-0.712283,-0.015359,1.969397,0.010870,-0.042032,0.022432,-0.653482,0.015358,-0.756778,-0.003027,-0.035698,-0.017575,-19.743958,-15.658254,17.788086,,,,,,,
1523696843.675980,-0.712231,-0.016099,1.968375,-0.064441,-0.008437,-0.043723,-0.653436,0.016098,-0.756803,0.006082,-0.060730,-0.027056,-19.664322,-15.058843,17.560730,,,,,,,
1523696843.705948,-0.713568,-0.014862,1.965821,-0.040695,-0.029267,-0.111881,-0.654459,0.014861,-0.755943,-0.038351,-0.051818,-0.069374,-18.478149,-16.039845,16.890259,,,,,,,
1523696843.735916,-0.713848,-0.014052,1.962242,-0.068484,-0.019756,-0.095920,-0.654678,0.014052,-0.755769,-0.022293,-0.019423,-0.126342,-19.076309,-16.261478,17.565857,,,,,,,
1523696843.765884,-0.716873,-0.013270,1.958528,-0.075263,-0.142742,-0.132034,-0.656968,0.013270,-0.753793,-0.074721,0.046407,-0.031836,-19.299957,-16.260242,17.790710,,,,,,,
1523696843.795853,-0.719757,-0.011648,1.954974,0.007216,-0.050717,-0.102225,-0.659153,0.011648,-0.751910,0.024433,0.027277,0.003009,-18.183716,-16.641087,16.967834,,,,,,,
1523696843.825821,-0.719229,-0.009180,1.953555,0.005591,0.089437,-0.083204,-0.658772,0.009180,-0.752278,-0.034450,0.043143,0.008869,-18.784286,-16.788242,17.118103,,,,,,,
1523696843.855789,-0.716287,-0.008298,1.951902,0.009578,0.045713,-0.063967,-0.656562,0.008298,-0.754218,-0.007882,0.050906,-0.013803,-18.568268,-17.689213,17.121826,,,,,,,
1523696843.885758,-0.715872,-0.006510,1.951308,0.037235,0.029632,-0.055395,-0.656257,0.006510,-0.754501,-0.005303,0.036779,0.019271,-17.884308,-17.016911,17.494446,,,,,,,
1523696843.915726,-0.713904,-0.005623,1.950490,0.007370,0.076237,-0.022439,-0.654775,0.005623,-0.755795,0.015248,0.019615,-0.017551,-18.940247,-17.612156,17.496338,,,,,,,
1523696843.945694,-0.713132,-0.007584,1.950956,-0.070392,-0.014519,0.068158,-0.654183,0.007584,-0.756290,-0.049888,0.058182,0.006458,-18.345215,-18.064915,17.423401,,,,,,,
1523696843.975662,-0.712342,-0.011660,1.951011,-0.061620,0.050196,0.079821,-0.653560,0.011660,-0.756777,0.037074,0.021375,-0.003553,-19.379593,-16.859653,18.018127,,,,,,,
1523696844.005631,-0.711086,-0.011297,1.952971,0.116005,0.050275,0.005367,-0.652611,0.011296,-0.757601,-0.000130,-0.020742,0.020006,-19.681091,-16.783680,17.642639,,,,,,,
1523696844.035629,-0.707761,-0.009228,1.954559,0.081395,0.168430,-0.011825,-0.650102,0.009228,-0.759782,-0.002150,-0.030453,-0.080199,-19.236633,-17.385609,17.720276,,,,,,,
,,,,,,,,,,,,,,,,25.309531,51.460245,12.183758,18.080000,238.710938,1523696843.998866,
1523696844.065598,-0.704684,-0.009115,1.954717,-0.049718,-0.002433,0.004230,-0.647762,0.009115,-0.761780,-0.017445,-0.017080,-0.136154,-18.856262,-16.937168,17.868652,,,,,,,
1523696844.095566,-0.708161,-0.011296,1.952848,-0.097356,-0.154266,0.002226,-0.650392,0.011296,-0.759506,0.023607,0.004558,-0.019241,-19.821777,-16.257374,18.315491,,,,,,,
1523696844.125534,-0.713505,-0.012299,1.952216,-0.019815,-0.214124,0.025781,-0.654434,0.012299,-0.756011,0.039840,0.013977,0.045760,-19.087555,-17.161793,17.194458,,,,,,,
1523696844.155502,-0.717141,-0.012435,1.953696,0.051204,-0.067801,0.045931,-0.657178,0.012435,-0.753624,0.037732,0.007051,0.096993,-18.260193,-17.015369,17.344299,,,,,,,
1523696844.185471,-0.716098,-0.011731,1.955491,0.047701,0.066300,0.015963,-0.656397,0.011731,-0.754316,0.040674,-0.021222,0.093992,-19.142776,-15.810506,18.239014,,,,,,,
1523696844.215439,-0.712928,-0.010734,1.955764,0.022708,0.142209,-0.040609,-0.654010,0.010734,-0.756401,0.046664,-0.076179,0.047249,-19.224655,-16.185658,17.715515,,,,,,,
1523696844.245407,-0.708076,-0.009758,1.954386,-0.026323,0.141404,-0.058765,-0.650339,0.009758,-0.759573,-0.003211,-0.042198,-0.074106,-19.151764,-16.261219,17.490784,,,,,,,
1523696844.275375,-0.706356,-0.009940,1.951620,-0.105872,0.000364,-0.073587,-0.649029,0.009940,-0.760690,-0.018008,0.010034,-0.091025,-18.922729,-16.036945,17.789978,,,,,,,
1523696844.305344,-0.708827,-0.010518,1.948260,-0.078760,-0.119896,-0.055340,-0.650903,0.010518,-0.759079,0.034342,0.035076,-0.018143,-19.969711,-15.507604,17.412354,,,,,,,
1523696844.335312,-0.710900,-0.011081,1.946540,-0.059409,-0.031081,-0.001061,-0.652471,0.011081,-0.757724,0.019049,0.044766,-0.014615,-17.648376,-15.967900,17.565369,,,,,,,
1523696844.365280,-0.709514,-0.012650,1.946229,-0.028203,0.058986,0.026561,-0.651409,0.012649,-0.758613,0.008800,0.040680,-0.034539,-18.695953,-15.588414,17.338379,,,,,,,
1523696844.395249,-0.708465,-0.013289,1.946702,0.012196,0.005831,0.014929,-0.650607,0.013288,-0.759290,0.033038,0.001589,0.000470,-18.323212,-15.815099,17.339478,,,,,,,
1523696844.425217,-0.707528,-0.013192,1.946688,0.014610,0.030502,-0.018129,-0.649896,0.013191,-0.759900,0.026209,-0.032005,-0.021884,-17.947342,-15.592015,17.113708,,,,,,,
1523696844.455185,-0.707656,-0.013357,1.946109,-0.025280,-0.038563,-0.004240,-0.649992,0.013357,-0.759815,-0.001055,-0.005300,-0.042309,-18.475601,-15.964559,17.189941,,,,,,,
1523696844.485153,-0.708578,-0.014696,1.945153,-0.077675,-0.043859,0.009591,-0.650680,0.014696,-0.759201,-0.019501,-0.000917,-0.026352,-18.770508,-15.588002,17.413269,,,,,,,
1523696844.515122,-0.709455,-0.015313,1.944386,0.017500,-0.022758,-0.002083,-0.651340,0.015312,-0.758623,0.044910,-0.032433,-0.011808,-19.368668,-15.585011,17.713013,,,,,,,
1523696844.545090,-0.708993,-0.014235,1.945584,0.031628,0.051506,0.011694,-0.650999,0.014235,-0.758936,-0.025987,-0.021803,-0.025579,-18.847153,-15.662816,17.263611,,,,,,,
1523696844.575058,-0.707368,-0.015080,1.945521,-0.040125,0.007009,0.017020,-0.649758,0.015080,-0.759983,0.003472,-0.009998,-0.118724,-17.582092,-16.344028,16.741943,,,,,,,
1523696844.605046,-0.709138,-0.014954,1.944831,0.008877,-0.076676,-0.036144,-0.651103,0.014953,-0.758834,0.049678,-0.009201,0.004271,-18.767044,-15.512563,17.862976,,,,,,,
1523696844.635015,-0.710064,-0.013753,1.944208,0.007986,-0.026812,-0.025534,-0.651816,0.013752,-0.758244,0.044303,0.006069,0.006321,-18.702545,-16.113605,17.115417,,,,,,,
1523696844.664983,-0.709308,-0.014094,1.944183,-0.017645,0.039774,0.034052,-0.651240,0.014094,-0.758733,0.029963,0.012807,-0.036769,-17.732681,-16.493198,16.892456,,,,,,,
1523696844.694951,-0.707681,-0.015477,1.944699,-0.039043,0.049283,0.050007,-0.649991,0.015477,-0.759776,0.009000,-0.019413,-0.001958,-18.843246,-15.587300,17.788269,,,,,,,
1523696844.724919,-0.706379,-0.016992,1.944541,-0.022923,0.018757,0.003165,-0.648986,0.016991,-0.760603,0.022948,-0.033669,0.028455,-19.293991,-15.435658,17.412415,,,,,,,
1523696844.754918,-0.703925,-0.016576,1.944440,0.016047,0.111239,-0.017136,-0.647122,0.016575,-0.762198,0.023266,-0.042759,-0.021112,-19.220932,-15.586049,17.338074,,,,,,,
1523696844.784886,-0.701078,-0.016418,1.943291,-0.075768,0.086121,-0.039554,-0.644951,0.016418,-0.764040,-0.024788,-0.030211,-0.092817,-18.624405,-15.888814,17.264587,,,,,,,
1523696844.814855,-0.699837,-0.017637,1.940404,-0.090105,-0.009492,-0.036279,-0.643989,0.017636,-0.764823,-0.011605,-0.018109,-0.118081,-19.148178,-15.811376,17.339050,,,,,,,
1523696844.844823,-0.700937,-0.018788,1.938138,-0.093695,-0.067050,-0.010646,-0.644816,0.018787,-0.764099,0.009074,-0.003619,-0.105927,-17.959335,-16.342701,16.366699,,,,,,,
1523696844.874791,-0.704215,-0.020574,1.936686,-0.055692,-0.135300,0.011820,-0.647294,0.020572,-0.761954,0.019395,0.049298,-0.025110,-18.554657,-16.414127,17.266724,,,,,,,
1523696844.904759,-0.705968,-0.020898,1.936702,0.014387,0.002700,0.004289,-0.648625,0.020897,-0.760813,0.028218,0.018669,0.041834,-18.625153,-15.739186,16.888977,,,,,,,
1523696844.934728,-0.702571,-0.019297,1.937364,0.085618,0.137708,-0.027768,-0.646057,0.019296,-0.763037,0.029846,-0.032494,-0.003260,-18.544922,-15.214543,16.886963,,,,,,,
1523696844.964696,-0.699306,-0.017489,1.938784,0.050994,0.073830,0.003164,-0.643584,0.017488,-0.765167,0.009979,-0.022554,-0.021637,-18.627243,-16.039021,17.040161,,,,,,,
1523696844.994664,-0.697823,-0.018016,1.938878,-0.031414,0.033620,0.007410,-0.642443,0.018015,-0.766114,0.020876,-0.018305,0.009659,-18.482956,-16.340122,16.591492,,,,,,,
1523696845.024633,-0.696332,-0.017513,1.938116,0.024483,0.047710,-0.052230,-0.641305,0.017513,-0.767078,0.036523,-0.040752,0.013828,-18.478317,-15.740361,16.364075,,,,,,,
,,,,,,,,,,,,,,,,25.309443,51.460085,12.263051,18.680000,239.765625,1523696844.998934,
1523696845.054601,-0.694850,-0.013899,1.938318,0.120513,0.031558,-0.055342,-0.640205,0.013899,-0.768071,0.013373,-0.013227,-0.011653,-18.778000,-15.888722,16.664490,,,,,,,
1523696845.084569,-0.694305,-0.012438,1.938789,-0.029347,0.035635,0.022327,-0.639798,0.012438,-0.768434,0.010587,0.005308,-0.034315,-18.489838,-17.164860,16.819763,,,,,,,
1523696845.114537,-0.693045,-0.014792,1.938263,-0.079647,0.043012,0.049980,-0.638809,0.014792,-0.769215,-0.001191,-0.018378,-0.048762,-17.738388,-16.793613,16.443665,,,,,,,
1523696845.144506,-0.692130,-0.015945,1.938128,0.000472,0.013274,0.018111,-0.638094,0.015944,-0.769786,0.014665,-0.027449,-0.073903,-19.453262,-15.960607,16.739441,,,,,,,
1523696845.174474,-0.691940,-0.016206,1.939339,0.015068,-0.015729,0.058635,-0.637944,0.016206,-0.769904,-0.013179,-0.002000,-0.064981,-19.238312,-17.011494,16.818787,,,,,,,
1523696845.204442,-0.692651,-0.017634,1.940507,-0.030849,-0.030432,0.049032,-0.638477,0.017633,-0.769431,0.029270,-0.027643,-0.018197,-17.445129,-17.469929,16.446472,,,,,,,
1523696845.234410,-0.692276,-0.017986,1.941241,0.023009,0.034501,0.013844,-0.638184,0.017985,-0.769666,0.053528,-0.057872,-0.023669,-19.092072,-17.162525,16.444458,,,,,,,
1523696845.264379,-0.691014,-0.017498,1.941142,-0.021628,0.027497,-0.032002,-0.637218,0.017497,-0.770477,-0.015172,-0.052989,-0.086044,-18.789230,-17.013660,16.669006,,,,,,,
1523696845.294347,-0.691425,-0.017866,1.939883,-0.047700,-0.057551,-0.018078,-0.637530,0.017865,-0.770211,0.010760,-0.017102,-0.115272,-17.966049,-17.242298,16.745300,,,,,,,
1523696845.324315,-0.693968,-0.018946,1.938164,-0.071360,-0.098885,-0.023391,-0.639474,0.018945,-0.768572,0.008202,-0.007821,-0.032362,-19.082779,-16.636890,17.117310,,,,,,,
1523696845.354283,-0.695682,-0.018393,1.937644,0.046276,-0.050362,-0.015884,-0.640797,0.018392,-0.767483,0.011463,-0.007344,0.010448,-18.045258,-17.392384,16.295837,,,,,,,
1523696845.384252,-0.694784,-0.017999,1.938198,-0.013374,0.031328,0.025536,-0.640112,0.017998,-0.768063,0.021063,0.002708,-0.019092,-17.294693,-17.245914,16.145691,,,,,,,
1523696845.414220,-0.694129,-0.019065,1.938292,-0.015637,-0.006886,0.019187,-0.639596,0.019064,-0.768467,0.043939,-0.009482,0.022129,-19.154022,-16.261585,17.115784,,,,,,,
1523696845.444219,-0.693771,-0.018085,1.938179,0.043603,0.047526,-0.033034,-0.639333,0.018084,-0.768710,0.047978,-0.020495,0.012011,-18.341202,-16.941135,16.218933,,,,,,,
1523696845.474187,-0.691003,-0.016932,1.938367,0.006313,0.106859,0.004176,-0.637215,0.016932,-0.770492,-0.009498,-0.005518,-0.066926,-17.365204,-16.795597,16.143860,,,,,,,
1523696845.504155,-0.689386,-0.018556,1.937523,-0.096775,-0.001366,0.020177,-0.635951,0.018555,-0.771499,0.001811,-0.013641,-0.079774,-18.485809,-16.490330,16.367065,,,,,,,
1523696845.534123,-0.691041,-0.019722,1.936551,-0.014632,-0.061900,-0.015917,-0.637212,0.019721,-0.770428,0.019018,-0.025305,-0.019321,-18.181320,-16.041706,16.365417,,,,,,,
1523696845.564092,-0.691586,-0.018471,1.936513,0.043319,-0.008828,-0.027651,-0.637647,0.018470,-0.770100,0.022931,-0.003394,-0.043881,-18.335968,-16.416157,16.216858,,,,,,,
1523696845.594035,-0.691017,-0.017273,1.936648,0.018793,0.005001,-0.021289,-0.637223,0.017272,-0.770479,0.006089,0.022050,-0.050994,-18.563507,-16.715061,16.292908,,,,,,,
1523696845.624003,-0.690906,-0.016615,1.936322,0.009120,-0.008825,-0.018075,-0.637144,0.016614,-0.770558,0.039290,0.003909,-0.020702,-18.476517,-15.740071,16.664062,,,,,,,
1523696845.653972,-0.690746,-0.015884,1.936422,0.024025,0.003804,-0.003175,-0.637028,0.015884,-0.770669,0.055790,-0.001327,-0.004279,-18.112930,-16.567234,16.142578,,,,,,,
1523696845.683940,-0.690212,-0.016236,1.936863,-0.007099,-0.002687,0.023451,-0.636613,0.016235,-0.771005,0.018663,0.010453,0.003015,-17.894821,-17.168369,15.995056,,,,,,,
1523696845.713908,-0.689934,-0.016414,1.937281,0.011267,0.031340,0.012781,-0.636397,0.016413,-0.771180,0.043974,-0.021113,0.049897,-18.419342,-17.390553,16.445679,,,,,,,
1523696845.743876,-0.688651,-0.015827,1.938166,0.050704,0.017444,0.011752,-0.635413,0.015826,-0.772003,0.053687,-0.056262,0.046951,-18.194351,-17.166935,16.069885,,,,,,,
1523696845.773845,-0.687689,-0.016036,1.939444,-0.025172,0.061921,0.061722,-0.634668,0.016035,-0.772611,0.013162,-0.047621,-0.020938,-18.265610,-17.016254,16.444275,,,,,,,
1523696845.803813,-0.685621,-0.019948,1.938499,-0.174583,0.052836,0.044582,-0.633025,0.019946,-0.773867,-0.003984,-0.053668,-0.107282,-18.273682,-17.691425,16.221985,,,,,,,
1523696845.833781,-0.685310,-0.022238,1.936116,-0.051708,-0.027604,-0.043688,-0.632753,0.022236,-0.774027,0.014985,-0.030445,-0.104681,-19.084732,-16.562336,16.667053,,,,,,,
1523696845.863749,-0.686629,-0.020525,1.935201,0.022849,-0.066050,-0.042529,-0.633796,0.020523,-0.773220,0.026863,0.008514,-0.069355,-18.566635,-17.164814,16.519714,,,,,,,
1523696845.893718,-0.688740,-0.020467,1.935259,-0.027858,-0.080358,0.045886,-0.635428,0.020465,-0.771881,0.040854,0.043042,-0.018219,-17.442886,-17.244953,16.445618,,,,,,,
1523696845.923686,-0.689510,-0.022792,1.935087,-0.078727,-0.007921,0.037257,-0.635990,0.022790,-0.771353,0.030506,0.001227,0.012198,-18.185211,-16.791080,16.968445,,,,,,,
1523696845.953654,-0.688228,-0.023300,1.934288,0.014909,0.063619,-0.044793,-0.634994,0.023298,-0.772159,0.012282,-0.041105,-0.026715,-19.095520,-17.237965,15.994751,,,,,,,
1523696845.983622,-0.686952,-0.021641,1.933317,0.015765,-0.019051,-0.075609,-0.634031,0.021639,-0.772997,-0.028978,-0.036287,-0.080564,-18.868881,-17.163837,16.144592,,,,,,,
1523696846.013591,-0.688983,-0.020775,1.931370,-0.041162,-0.080646,-0.061731,-0.635612,0.020773,-0.771722,-0.007546,-0.010290,-0.040610,-18.789078,-17.088520,16.819275,,,,,,,
1523696846.043559,-0.690632,-0.020260,1.929318,-0.026060,-0.050899,-0.066012,-0.636890,0.020258,-0.770681,0.003757,0.003286,-0.024286,-18.716919,-17.239063,16.594971,,,,,,,
,,,,,,,,,,,,,,,,25.309358,51.459920,12.101676,19.100000,239.765625,1523696845.998999,
1523696846.073527,-0.691307,-0.019166,1.927892,-0.000480,-0.030927,-0.042581,-0.637424,0.019165,-0.770268,-0.004696,0.034653,-0.067821,-18.042114,-17.167255,16.445007,,,,,,,
1523696846.103495,-0.692135,-0.018827,1.927430,-0.011360,-0.032258,-0.002088,-0.638065,0.018826,-0.769745,0.006184,0.059711,-0.015106,-18.191635,-17.391132,16.895813,,,,,,,
1523696846.133464,-0.692267,-0.019717,1.927793,-0.010250,0.022718,0.037282,-0.638156,0.019716,-0.769647,0.025989,0.008650,0.048853,-19.165115,-17.012119,16.518799,,,,,,,
1523696846.163462,-0.689485,-0.020631,1.928872,0.023204,0.100224,0.035095,-0.636001,0.020629,-0.771406,0.002151,-0.022048,-0.024371,-17.748856,-17.618946,16.071960,,,,,,,
1523696846.193431,-0.686371,-0.021089,1.929941,0.018876,0.073777,0.021259,-0.633590,0.021087,-0.773375,-0.009919,-0.030135,-0.048631,-18.792969,-17.388645,16.670471,,,,,,,
1523696846.223399,-0.686512,-0.021380,1.930240,-0.010419,-0.037720,0.018167,-0.633695,0.021378,-0.773281,0.024900,-0.042054,0.007671,-19.308517,-16.710880,17.117493,,,,,,,
1523696846.253367,-0.686830,-0.021934,1.930223,-0.009190,0.004759,0.022381,-0.633934,0.021933,-0.773070,0.051826,-0.036993,-0.015001,-18.265915,-16.866550,16.143677,,,,,,,
1523696846.283336,-0.685969,-0.022615,1.930341,-0.051712,0.053703,0.028691,-0.633258,0.022614,-0.773604,-0.024747,-0.005844,-0.069505,-19.091614,-17.162449,16.519470,,,,,,,
1523696846.313304,-0.684057,-0.024260,1.928778,-0.078265,0.027547,-0.020316,-0.631753,0.024258,-0.774783,0.010812,-0.012554,-0.116391,-18.565735,-17.164677,16.669678,,,,,,,
1523696846.343272,-0.685198,-0.023254,1.927608,0.051744,-0.077682,-0.062730,-0.632652,0.023251,-0.774081,0.047737,0.000278,-0.018003,-17.969070,-17.093021,15.994690,,,,,,,
1523696846.373240,-0.686522,-0.021504,1.927477,0.004828,-0.004627,-0.009555,-0.633701,0.021502,-0.773272,0.040058,0.027296,0.011554,-18.414261,-16.790730,16.293274,,,,,,,
1523696846.403209,-0.685507,-0.022493,1.927095,-0.044267,0.016655,0.004235,-0.632902,0.022491,-0.773898,0.003187,0.015335,0.006061,-18.413040,-16.940281,16.743896,,,,,,,
1523696846.433177,-0.684250,-0.022839,1.926544,-0.000271,0.030579,-0.026649,-0.631924,0.022837,-0.774687,0.036313,-0.029413,0.019987,-18.193451,-17.166798,16.219910,,,,,,,
1523696846.463145,-0.683871,-0.021947,1.926143,0.020941,-0.002397,-0.028734,-0.631643,0.021945,-0.774942,0.028418,-0.024722,0.014841,-18.417999,-17.165714,16.294800,,,,,,,
1523696846.493113,-0.684166,-0.021866,1.926297,0.001414,-0.022829,0.012828,-0.631872,0.021864,-0.774757,0.029608,0.007555,0.027550,-17.899002,-17.543415,15.921570,,,,,,,
1523696846.523082,-0.684269,-0.022840,1.925993,-0.062523,0.009190,0.015942,-0.631939,0.022838,-0.774675,0.017315,-0.013469,0.016771,-17.294846,-17.171070,15.995361,,,,,,,
1523696846.553050,-0.682729,-0.024395,1.924706,-0.056837,0.059258,-0.005407,-0.630722,0.024393,-0.775619,-0.002197,-0.016413,-0.085236,-18.338058,-16.715992,16.368042,,,,,,,
1523696846.583018,-0.681995,-0.025485,1.923644,-0.069915,0.013528,0.005281,-0.630135,0.025483,-0.776061,-0.024116,0.014389,-0.123185,-18.418457,-16.941151,15.843933,,,,,,,
1523696846.612993,-0.682697,-0.027991,1.921711,-0.107642,-0.070280,0.000004,-0.630637,0.027988,-0.775566,-0.009377,0.017621,-0.105400,-16.549362,-17.399799,15.621643,,,,,,,
1523696846.642962,-0.685859,-0.028377,1.920485,0.019371,-0.101303,-0.016911,-0.633080,0.028373,-0.773560,0.040184,0.009285,-0.018570,-18.492249,-17.090382,16.294434,,,,,,,
1523696846.672930,-0.686747,-0.028680,1.920958,-0.050858,0.027008,0.046834,-0.633761,0.028676,-0.772991,-0.019804,0.012751,-0.032292,-18.496277,-17.540287,16.371216,,,,,,,
1523696846.702898,-0.686513,-0.031651,1.920394,-0.078794,-0.044977,0.018115,-0.633523,0.031646,-0.773070,-0.010886,-0.005202,-0.038576,-17.375229,-17.620853,15.847168,,,,,,,
