timestamp(unix),attitude_roll(radians),attitude_pitch(radians),attitude_yaw(radians),rotation_rate_x(radians/s),rotation_rate_y(radians/s),rotation_rate_z(radians/s),gravity_x(G),gravity_y(G),gravity_z(G),user_acc_x(G),user_acc_y(G),user_acc_z(G),magnetic_field_x(microteslas),magnetic_field_y(microteslas),magnetic_field_z(microteslas),latitude(degree),longitude(degree),altitude(meter),speed(m/s),course(degree),timestamp(unix),User Mark
1523695497.685509,-0.592803,0.031136,1.280643,0.377743,0.104323,-0.640388,-0.558417,-0.031131,-0.828976,-0.026270,0.257129,0.084820,-0.790451,-23.175222,-22.112061,,,,,,,
,,,,,,,,,,,,,,,,25.299899,51.441017,14.018826,5.900000,282.656250,1523695496.995415,
1523695497.715478,-0.594339,0.027943,1.269679,-0.851440,-0.013866,0.132392,-0.559743,-0.027939,-0.828195,-0.156413,0.018738,-0.004157,-0.726990,-23.926184,-22.783997,,,,,,,
1523695497.745446,-0.583710,-0.025580,1.249780,-2.531050,0.755123,0.623714,-0.550943,0.025577,-0.834151,-0.249976,-0.081394,-0.017076,-1.412582,-24.673620,-23.306396,,,,,,,
1523695497.775414,-0.546292,-0.115302,1.225194,-3.002038,1.424013,1.022256,-0.516073,0.115047,-0.848783,-0.109446,0.050877,-0.413210,-1.518951,-25.876364,-26.526611,,,,,,,
1523695497.805382,-0.517542,-0.182435,1.213601,-1.186987,0.669235,0.575785,-0.486535,0.181425,-0.854616,-0.274741,0.114809,-0.343687,-2.651245,-26.246862,-27.125732,,,,,,,
1523695497.835351,-0.501222,-0.178010,1.223735,1.156592,0.442412,-0.034919,-0.472905,0.177072,-0.863138,-0.183498,-0.017053,-0.417472,-2.504257,-26.322897,-27.500366,,,,,,,
1523695497.865319,-0.495072,-0.132721,1.236236,1.502429,-0.165880,-0.543373,-0.470917,0.132332,-0.872196,-0.004807,-0.105049,-0.282010,-1.064163,-25.802725,-25.851685,,,,,,,
1523695497.895287,-0.502661,-0.092353,1.235974,0.979814,-0.159631,-0.642863,-0.479706,0.092222,-0.872569,0.005417,-0.153898,0.039851,-1.507385,-25.574987,-25.102783,,,,,,,
1523695497.925255,-0.500700,-0.065440,1.233932,0.535928,0.230507,-0.356959,-0.479012,0.065393,-0.875369,-0.011252,-0.206705,0.028628,-0.079453,-25.506033,-24.727356,,,,,,,
1523695497.955224,-0.487313,-0.064365,1.231563,-0.425929,0.566436,0.115081,-0.467283,0.064320,-0.881765,-0.060213,-0.206883,-0.099101,0.150330,-25.206778,-24.428467,,,,,,,
1523695497.985192,-0.470305,-0.091600,1.227990,-1.052133,0.519325,0.386382,-0.451259,0.091472,-0.887693,-0.090337,-0.168971,-0.166491,-1.136002,-25.801886,-25.326721,,,,,,,
1523695498.015160,-0.464258,-0.117329,1.225265,-0.508065,-0.017412,0.211510,-0.444681,0.117060,-0.888007,-0.097571,-0.099345,-0.194574,-0.915680,-25.953390,-25.851013,,,,,,,
1523695498.045128,-0.469764,-0.121934,1.224960,0.021801,-0.253857,-0.049978,-0.449315,0.121632,-0.885055,-0.075115,0.032375,-0.195634,-0.531998,-25.354681,-25.403198,,,,,,,
,,,,,,,,,,,,,,,,25.299941,51.440986,13.990597,5.770000,288.984375,1523695497.995404,
1523695498.075097,-0.481627,-0.119251,1.219922,-0.056196,-0.529416,-0.276714,-0.459932,0.118969,-0.879948,0.006166,0.128300,-0.149440,-1.055161,-25.127401,-25.479370,,,,,,,
1523695498.105065,-0.505710,-0.119953,1.210888,-0.183137,-0.848643,-0.166747,-0.480948,0.119665,-0.868544,0.065069,0.125559,0.113738,0.069183,-24.833059,-26.079956,,,,,,,
1523695498.135033,-0.525860,-0.118856,1.210356,0.221909,-0.534347,0.027159,-0.498415,0.118577,-0.858791,0.112292,0.023284,0.293483,-0.221359,-24.380926,-25.256958,,,,,,,
1523695498.165002,-0.535728,-0.109650,1.220118,0.516141,-0.226893,0.174113,-0.507401,0.109430,-0.854733,0.087357,-0.118295,0.293866,-0.828690,-24.529165,-26.231628,,,,,,,
1523695498.194970,-0.535438,-0.098004,1.232365,0.548806,0.099540,0.131194,-0.507770,0.097847,-0.855918,0.109561,-0.210884,0.285560,-1.426590,-24.226629,-26.383179,,,,,,,
1523695498.224938,-0.524191,-0.088053,1.241845,0.309394,0.477592,0.097607,-0.498573,0.087939,-0.862375,0.090675,-0.186846,0.126169,-0.671967,-24.079504,-25.858398,,,,,,,
1523695498.254906,-0.514507,-0.085139,1.245595,0.060206,0.085455,0.041333,-0.490323,0.085036,-0.867382,0.048093,-0.170836,0.051724,-1.121933,-24.302099,-25.482727,,,,,,,
1523695498.284875,-0.517457,-0.086062,1.246422,-0.076599,-0.173556,0.051087,-0.492840,0.085956,-0.865864,0.046597,-0.223209,0.015507,-1.201569,-24.676886,-25.631287,,,,,,,
1523695498.314843,-0.528577,-0.090067,1.241973,-0.254556,-0.488467,-0.286499,-0.502261,0.089945,-0.860025,-0.285810,0.155416,0.238916,-1.352020,-24.676291,-25.706299,,,,,,,
1523695498.344811,-0.531153,-0.080363,1.215147,0.133731,0.415083,-1.077744,-0.504893,0.080277,-0.859441,0.187450,0.003677,-0.002391,-0.679581,-24.979239,-25.629822,,,,,,,
1523695498.374779,-0.528376,-0.045750,1.200630,0.999011,-0.334684,-0.993226,-0.503604,0.045734,-0.862723,0.149844,0.407025,-0.099283,1.131454,-24.686041,-24.280029,,,,,,,
1523695498.404742,-0.555138,-0.004788,1.192327,0.994994,-1.076195,-0.865693,-0.527055,0.004788,-0.849818,-0.049056,0.570942,0.054743,1.738007,-24.388174,-23.680969,,,,,,,
1523695498.434710,-0.577832,0.015980,1.186519,-0.102600,-0.367980,-0.248146,-0.546140,-0.015979,-0.837542,-0.043948,0.260425,0.104983,1.366318,-24.236197,-23.381775,,,,,,,
1523695498.464678,-0.566377,-0.013801,1.169945,-1.782252,0.841120,0.218212,-0.536528,0.013801,-0.843770,-0.084536,0.217599,0.061284,1.583237,-24.687765,-23.979797,,,,,,,
1523695498.494646,-0.542049,-0.069870,1.144746,-1.874735,0.702094,0.225744,-0.514634,0.069813,-0.854563,-0.026336,0.123546,-0.050558,1.879013,-24.614935,-24.804993,,,,,,,
1523695498.524615,-0.534813,-0.094570,1.130753,-0.179795,-0.079504,-0.141941,-0.507403,0.094429,-0.856520,-0.108106,0.034248,-0.182665,1.868362,-25.140783,-25.702820,,,,,,,
1523695498.554613,-0.545517,-0.071449,1.130889,1.081960,-0.385699,-0.565841,-0.517536,0.071388,-0.852678,-0.157772,-0.169380,-0.125044,1.867920,-25.365469,-25.401978,,,,,,,
1523695498.584582,-0.547353,-0.033418,1.132054,0.957512,0.153588,-0.599507,-0.520138,0.033412,-0.853428,-0.055423,-0.333400,-0.101726,2.851578,-25.218695,-24.202026,,,,,,,
1523695498.614550,-0.543667,-0.011364,1.129074,0.283533,-0.024369,-0.289756,-0.517244,0.011364,-0.855762,-0.108091,-0.326733,-0.019253,2.930634,-24.769140,-24.278809,,,,,,,
1523695498.644518,-0.547861,-0.020151,1.125719,-0.741136,-0.011957,0.275255,-0.520757,0.020150,-0.853467,-0.070735,-0.293374,0.049146,3.829361,-24.623632,-24.728943,,,,,,,
1523695498.674486,-0.538628,-0.054765,1.120182,-1.189474,0.503992,0.501365,-0.512189,0.054738,-0.857126,-0.024706,-0.248738,0.012263,2.924774,-24.770086,-25.253845,,,,,,,
1523695498.704455,-0.524734,-0.086052,1.115497,-0.746837,0.399175,0.290821,-0.499129,0.085946,-0.862255,-0.049241,-0.130654,-0.090245,2.090775,-24.992453,-26.378357,,,,,,,
1523695498.734423,-0.518102,-0.094560,1.112324,-0.003759,0.155782,-0.117536,-0.493019,0.094419,-0.864880,-0.004646,0.070651,-0.067692,2.692703,-24.845083,-26.303650,,,,,,,
1523695498.764391,-0.513446,-0.086220,1.109636,0.277175,0.061288,-0.226989,-0.489357,0.086113,-0.867821,-0.011558,0.113670,-0.061302,2.393616,-24.843588,-26.153748,,,,,,,
1523695498.794360,-0.519533,-0.076497,1.109198,0.244116,-0.295264,-0.132888,-0.495023,0.076423,-0.865513,-0.024188,0.018075,0.033542,2.842255,-25.070456,-26.002686,,,,,,,
1523695498.824328,-0.524612,-0.074139,1.109257,-0.077021,-0.064959,0.021143,-0.499501,0.074072,-0.863141,0.045277,-0.036901,0.031094,2.770096,-24.695288,-26.154175,,,,,,,
1523695498.854296,-0.522259,-0.082568,1.106548,-0.387680,0.260483,0.090908,-0.497140,0.082474,-0.863742,0.033624,-0.051270,0.011019,2.916351,-24.846319,-26.528503,,,,,,,
1523695498.884264,-0.508144,-0.096283,1.101780,-0.469759,0.522123,0.086320,-0.484303,0.096135,-0.869603,0.000019,-0.115529,-0.109447,2.615173,-24.920034,-26.603394,,,,,,,
1523695498.914233,-0.500508,-0.106313,1.097073,-0.322101,0.035572,0.015534,-0.477162,0.106113,-0.872386,0.023503,-0.190677,-0.127340,3.216171,-24.548193,-27.054565,,,,,,,
1523695498.944201,-0.508934,-0.116516,1.091504,-0.524959,-0.406165,0.043532,-0.483943,0.116252,-0.867343,-0.004918,-0.043529,0.061084,2.539398,-24.545446,-27.354919,,,,,,,
1523695498.974169,-0.519091,-0.132697,1.083967,-0.621380,-0.204258,0.076287,-0.491730,0.132308,-0.860637,-0.084717,0.101853,0.096599,2.235672,-24.694464,-27.729492,,,,,,,
1523695499.004137,-0.518132,-0.141881,1.069733,-0.362641,0.428359,-0.674287,-0.490282,0.141406,-0.860016,-0.221022,0.083387,0.009812,3.142944,-24.098318,-27.506409,,,,,,,
1523695499.034106,-0.501709,-0.124903,1.052052,0.617344,0.568713,-0.731239,-0.477178,0.124578,-0.869932,0.103246,0.229685,-0.090823,3.216614,-24.548117,-26.979553,,,,,,,
,,,,,,,,,,,,,,,,25.299947,51.440969,14.181576,4.250000,294.257812,1523695498.995392,
1523695499.064074,-0.497782,-0.094263,1.045310,0.838243,-0.203434,-0.558749,-0.475358,0.094123,-0.874743,-0.034392,0.522484,0.191927,3.893982,-24.401022,-26.829773,,,,,,,
1523695499.094042,-0.516963,-0.066435,1.047427,0.848948,-0.822791,-0.280013,-0.493152,0.066386,-0.867406,0.109897,0.258321,0.309514,4.958176,-23.654684,-25.707214,,,,,,,
1523695499.124010,-0.532146,-0.046382,1.052022,0.458318,-0.161793,-0.147789,-0.506838,0.046366,-0.860793,0.101534,0.116095,0.374099,4.805359,-23.804220,-25.931763,,,,,,,
1523695499.153979,-0.517518,-0.044416,1.055147,-0.173828,0.922289,0.193763,-0.494237,0.044401,-0.868192,0.003255,0.045916,0.248930,3.980530,-24.099981,-25.405945,,,,,,,
1523695499.183947,-0.480864,-0.064890,1.055702,-0.816340,1.206200,0.394381,-0.461572,0.064844,-0.884729,-0.127188,0.019735,-0.196417,4.131744,-24.025595,-25.331177,,,,,,,
1523695499.213915,-0.461519,-0.086288,1.054070,-0.403611,0.094429,0.136885,-0.443652,0.086181,-0.892046,-0.136976,-0.036757,-0.459211,3.301682,-24.397085,-25.555115,,,,,,,
1523695499.243883,-0.476612,-0.085479,1.052525,0.208170,-0.736938,-0.172959,-0.457096,0.085375,-0.885310,-0.096203,-0.087297,-0.286123,3.450607,-24.323050,-25.855347,,,,,,,
1523695499.273852,-0.497702,-0.071549,1.050532,0.470233,-0.565464,-0.322111,-0.476186,0.071488,-0.876434,-0.053920,-0.110871,-0.025544,4.278412,-23.951925,-26.006409,,,,,,,
1523695499.303820,-0.505396,-0.054661,1.051240,0.495261,-0.052308,-0.170224,-0.483431,0.054634,-0.873676,-0.001097,-0.131126,0.042835,3.520813,-24.623663,-26.154114,,,,,,,
1523695499.333788,-0.500786,-0.042254,1.055474,0.411438,0.261279,-0.003328,-0.479687,0.042241,-0.876422,0.059399,-0.184712,0.071033,3.526947,-24.098547,-26.006226,,,,,,,
1523695499.363757,-0.496293,-0.031834,1.063306,0.454245,-0.101719,0.073789,-0.475928,0.031828,-0.878908,0.046973,-0.201063,0.097963,4.348618,-24.252539,-26.305176,,,,,,,
1523695499.393719,-0.509453,-0.018630,1.072541,0.581391,-0.574782,0.057313,-0.487615,0.018629,-0.872860,0.015889,-0.205579,0.173916,4.125000,-24.251318,-26.080261,,,,,,,
1523695499.423687,-0.526104,-0.002281,1.082195,0.702560,-0.550065,-0.023611,-0.502167,0.002281,-0.864768,0.009338,-0.156028,0.223044,4.805801,-23.804144,-25.856750,,,,,,,
1523695499.453655,-0.541492,0.020187,1.091606,0.850097,-0.419896,-0.152555,-0.515310,-0.020185,-0.856766,0.011053,-0.006762,0.263824,4.810455,-23.653646,-25.332336,,,,,,,
1523695499.483624,-0.547687,0.039732,1.098536,0.508380,-0.064980,-0.034878,-0.520303,-0.039721,-0.853057,-0.038642,-0.026364,0.185791,4.589661,-23.726828,-24.507202,,,,,,,
1523695499.513592,-0.540840,0.034900,1.100676,-0.666867,0.630500,0.307702,-0.514542,-0.034893,-0.856754,-0.140456,-0.115818,0.059101,5.038895,-23.803854,-24.506653,,,,,,,
1523695499.543560,-0.496274,-0.012723,1.087572,-2.235462,1.927743,0.438417,-0.476114,0.012723,-0.879291,-0.200461,-0.068371,-0.505383,5.112686,-23.654638,-24.957153,,,,,,,
1523695499.573528,-0.458606,-0.079245,1.064950,-1.959714,0.736669,0.173440,-0.441309,0.079162,-0.893857,-0.076452,0.031998,-0.541690,4.044601,-24.476477,-26.604431,,,,,,,
1523695499.603527,-0.460587,-0.106479,1.048929,-0.425283,-0.413983,-0.240881,-0.441957,0.106278,-0.890718,-0.037749,0.157715,-0.288496,4.193375,-24.327597,-27.054993,,,,,,,
1523695499.633495,-0.478803,-0.097830,1.042665,0.489359,-0.592040,-0.327398,-0.458514,0.097674,-0.883303,0.031711,0.207563,0.026583,4.499954,-23.803747,-26.831848,,,,,,,
1523695499.663464,-0.489998,-0.075691,1.045399,0.752042,-0.188842,-0.186945,-0.469276,0.075619,-0.879807,0.016182,0.156818,0.039750,4.801437,-23.655111,-26.832336,,,,,,,
1523695499.693432,-0.487034,-0.060967,1.052330,0.351104,0.226903,0.071248,-0.467138,0.060929,-0.882083,-0.017237,-0.026734,-0.056226,4.806992,-23.504461,-26.157898,,,,,,,
1523695499.723400,-0.480572,-0.056776,1.058585,0.163708,0.172757,0.130834,-0.461541,0.056745,-0.885302,-0.002829,-0.143049,-0.101682,4.584381,-23.353308,-26.008667,,,,,,,
1523695499.753368,-0.482070,-0.056506,1.062178,-0.022841,-0.303482,0.072571,-0.462874,0.056476,-0.884623,0.019225,-0.201511,-0.054006,3.687286,-23.199041,-25.784729,,,,,,,
1523695499.783337,-0.499919,-0.058645,1.059023,-0.143103,-0.697012,-0.135964,-0.478531,0.058612,-0.876112,-0.042816,-0.166613,0.135771,3.384598,-23.198126,-26.234863,,,,,,,
1523695499.813305,-0.515685,-0.061277,1.052150,-0.251264,-0.301410,-0.141772,-0.492206,0.061239,-0.868322,-0.074796,-0.113286,0.114401,3.456116,-23.273901,-26.684570,,,,,,,
1523695499.843273,-0.517939,-0.072824,1.043546,-0.659261,0.046179,-0.015617,-0.493778,0.072760,-0.866538,-0.195217,0.021402,-0.010430,3.003311,-23.422094,-26.909180,,,,,,,
1523695499.873241,-0.516557,-0.089368,1.030672,-0.593598,0.061546,-0.107228,-0.491919,0.089249,-0.866055,-0.019815,0.099670,-0.089375,4.051758,-23.352179,-27.283936,,,,,,,
1523695499.903210,-0.524528,-0.092687,1.024341,0.117278,-0.489377,-0.137048,-0.498655,0.092554,-0.861845,0.094312,0.268255,0.064970,3.598160,-23.350744,-27.884155,,,,,,,
1523695499.933178,-0.544204,-0.074337,1.029672,0.951390,-0.742875,-0.197963,-0.516307,0.074268,-0.853177,0.105617,0.190518,0.293591,4.049057,-23.352621,-27.733948,,,,,,,
1523695499.963146,-0.562972,-0.040234,1.041918,1.218757,-0.493281,-0.274739,-0.533270,0.040224,-0.844988,0.086722,0.016631,0.295473,5.030319,-23.131369,-27.059326,,,,,,,
1523695499.993115,-0.566294,-0.012282,1.051546,0.679158,0.237361,-0.174644,-0.536468,0.012282,-0.843831,-0.026490,-0.124739,0.240300,4.734222,-23.054510,-26.534790,,,,,,,
1523695500.023083,-0.540419,-0.010564,1.051190,-0.477150,1.192990,0.036628,-0.514467,0.010564,-0.857445,-0.081587,-0.154012,-0.115242,4.809982,-23.204473,-26.159119,,,,,,,
,,,,,,,,,,,,,,,,25.299964,51.440935,14.024563,3.340000,298.125000,1523695499.995379,
1523695500.053051,-0.511309,-0.038672,1.036701,-1.259357,0.560581,0.031367,-0.488953,0.038663,-0.871453,-0.044265,-0.094617,-0.293892,5.108017,-23.355886,-26.233398,,,,,,,
1523695500.083019,-0.516462,-0.063144,1.019830,-0.684604,-0.526566,-0.156782,-0.492822,0.063102,-0.867839,0.004892,-0.065787,0.030604,5.174011,-23.357687,-27.733337,,,,,,,
1523695500.112988,-0.536584,-0.066502,1.012296,0.091193,-0.600824,-0.145482,-0.510073,0.066453,-0.857560,-0.018339,-0.054673,0.150285,5.400482,-23.208700,-27.733826,,,,,,,
1523695500.142956,-0.549130,-0.052503,1.015996,0.722178,-0.357021,-0.134591,-0.521226,0.052479,-0.851804,0.050965,-0.063297,0.185635,6.005417,-22.985983,-27.284424,,,,,,,
1523695500.172924,-0.559594,-0.024201,1.027035,1.145526,-0.346756,-0.232320,-0.530686,0.024199,-0.847222,0.115617,-0.064299,0.216241,5.335098,-22.832434,-26.760376,,,,,,,
1523695500.202892,-0.571407,0.011441,1.040102,1.263646,-0.483808,-0.276851,-0.540781,-0.011441,-0.841086,0.113886,-0.058674,0.208243,5.944839,-22.534048,-25.636292,,,,,,,
1523695500.232861,-0.587246,0.042267,1.052397,0.849951,-0.467639,-0.164222,-0.553576,-0.042255,-0.831726,0.005724,-0.081998,0.140182,6.328506,-21.935339,-25.188477,,,,,,,
1523695500.262829,-0.589162,0.043761,1.051671,-0.771713,0.480862,0.014754,-0.555133,-0.043747,-0.830610,-0.301282,-0.084213,-0.037508,5.430634,-22.080694,-24.588318,,,,,,,
1523695500.292797,-0.549380,-0.006508,1.021616,-2.544427,1.371339,0.035978,-0.522148,0.006508,-0.852830,-0.128106,0.106529,-0.584731,5.346497,-22.456213,-25.486877,,,,,,,
1523695500.322765,-0.523641,-0.058080,0.987401,-1.447069,0.467701,-0.293672,-0.499194,0.058048,-0.864544,-0.127409,0.309979,-0.447575,5.713974,-22.533987,-26.611389,,,,,,,
1523695500.352734,-0.531073,-0.063286,0.967165,0.062374,-0.620085,-0.571690,-0.505445,0.063244,-0.860538,-0.026583,0.268802,0.039142,5.937027,-22.460440,-27.061584,,,,,,,
1523695500.382715,-0.553030,-0.045565,0.960526,0.500627,-0.556441,-0.408399,-0.524723,0.045549,-0.850054,-0.072369,0.022871,0.262285,6.238495,-22.311804,-27.062012,,,,,,,
1523695500.412683,-0.547659,-0.033468,0.964530,0.250970,0.771057,0.090881,-0.520398,0.033462,-0.853268,-0.167117,-0.171356,-0.033192,7.062866,-22.240744,-27.286865,,,,,,,
1523695500.442652,-0.510537,-0.041309,0.970802,-0.402936,1.295236,0.430829,-0.488229,0.041298,-0.871738,-0.165854,-0.262870,-0.502804,6.159012,-22.761435,-27.060242,,,,,,,
1523695500.472620,-0.482170,-0.066907,0.973067,-0.829138,0.531266,0.423824,-0.462666,0.066857,-0.884008,0.039814,-0.238824,-0.439554,5.327728,-22.758749,-28.110657,,,,,,,
1523695500.502589,-0.487562,-0.086025,0.969628,-0.417080,-0.629606,0.047035,-0.466741,0.085918,-0.880211,0.054098,-0.200314,-0.012612,5.999237,-22.612600,-28.935913,,,,,,,
1523695500.532557,-0.512759,-0.092148,0.965869,-0.152793,-0.789374,0.005843,-0.488502,0.092018,-0.867697,-0.005409,-0.192207,0.238516,5.249878,-22.459372,-29.086853,,,,,,,
1523695500.562525,-0.526761,-0.095101,0.966604,-0.032349,-0.232590,0.117256,-0.500464,0.094957,-0.860534,-0.080575,-0.148912,0.221419,5.399704,-22.385199,-29.237122,,,,,,,
1523695500.592494,-0.528026,-0.098808,0.970649,-0.058441,0.004864,0.207569,-0.501372,0.098647,-0.859590,-0.080095,-0.117889,0.099733,6.153870,-22.013525,-29.163208,,,,,,,
1523695500.622462,-0.528757,-0.102358,0.975058,0.045033,-0.079992,0.150187,-0.501820,0.102179,-0.858916,-0.039852,0.002877,0.136793,5.031464,-21.933172,-28.864136,,,,,,,
1523695500.652461,-0.534992,-0.096744,0.976198,0.241858,-0.289816,-0.305495,-0.507450,0.096593,-0.856250,-0.125042,0.075236,0.234104,4.808578,-21.632315,-29.015442,,,,,,,
1523695500.682429,-0.543243,-0.078832,0.968001,0.495862,-0.228570,-0.643144,-0.515309,0.078751,-0.853378,0.093770,0.135193,0.171997,5.863754,-21.336691,-28.641113,,,,,,,
1523695500.712397,-0.552691,-0.053494,0.958970,0.541361,-0.388707,-0.703688,-0.524228,0.053468,-0.849897,0.047788,0.319930,0.166975,5.942825,-21.336370,-27.966003,,,,,,,
1523695500.742366,-0.564592,-0.033938,0.948139,0.177202,-0.281249,-0.594314,-0.534763,0.033932,-0.844320,0.008503,0.240360,0.241873,6.774231,-20.740042,-27.893066,,,,,,,
1523695500.772334,-0.561327,-0.032768,0.936821,-0.431698,0.412027,-0.139425,-0.532024,0.032762,-0.846095,0.005458,0.108092,0.184352,7.597977,-20.818823,-27.967285,,,,,,,
1523695500.802301,-0.548665,-0.054809,0.927262,-1.025227,0.392796,0.236291,-0.520765,0.054781,-0.851940,-0.056048,0.110945,0.104885,6.392197,-21.263617,-28.191101,,,,,,,
1523695500.832269,-0.541862,-0.085889,0.918844,-0.890173,0.147373,0.333606,-0.513831,0.085784,-0.853592,-0.000238,0.064836,0.135681,6.239349,-21.413153,-28.415588,,,,,,,
1523695500.862238,-0.539605,-0.100503,0.919218,-0.063436,0.045474,0.176623,-0.511204,0.100334,-0.853582,-0.094112,0.001869,0.110144,6.541580,-21.189520,-28.416321,,,,,,,
1523695500.892206,-0.533527,-0.096401,0.925039,0.315553,0.357862,0.044467,-0.506212,0.096252,-0.857021,-0.151198,-0.064849,-0.024235,5.717514,-21.185659,-28.266785,,,,,,,
1523695500.922174,-0.519017,-0.090838,0.928376,0.110262,0.451281,-0.021840,-0.493981,0.090713,-0.864727,-0.077842,-0.151428,-0.221058,5.868713,-21.111273,-28.192017,,,,,,,
1523695500.952142,-0.515734,-0.088971,0.926020,0.070938,-0.149016,-0.168319,-0.491223,0.088854,-0.866490,0.047314,-0.127794,0.033925,5.862259,-21.486685,-28.640503,,,,,,,
1523695500.982111,-0.526401,-0.075005,0.924687,0.605406,-0.421358,-0.315740,-0.501012,0.074935,-0.862190,0.103307,-0.152556,0.284584,6.310913,-21.488928,-28.865234,,,,,,,
1523695501.012079,-0.535565,-0.050869,0.928056,0.787630,-0.184233,-0.250854,-0.509667,0.050847,-0.858868,-0.000374,-0.154866,0.303997,7.287354,-21.343328,-28.865356,,,,,,,
1523695501.042048,-0.532370,-0.033592,0.934606,0.364004,0.408988,0.010353,-0.507290,0.033586,-0.861120,-0.103718,-0.196779,0.098013,6.987534,-21.866079,-27.963379,,,,,,,
,,,,,,,,,,,,,,,,25.299995,51.440915,14.015987,3.670000,305.156250,1523695500.995368,
1523695501.072016,-0.503799,-0.044670,0.933393,-0.864590,1.136685,0.170661,-0.482274,0.044655,-0.874881,-0.124889,-0.184243,-0.359509,6.461670,-22.088476,-27.737793,,,,,,,
1523695501.101985,-0.479564,-0.077215,0.919890,-1.169876,0.549520,0.061282,-0.460017,0.077138,-0.884553,-0.098912,0.003306,-0.371246,6.533798,-22.014410,-28.338013,,,,,,,
1523695501.131953,-0.477969,-0.097159,0.908329,-0.496767,-0.193013,-0.057879,-0.457808,0.097006,-0.883743,-0.080278,0.029916,-0.312409,7.286011,-21.792791,-28.338501,,,,,,,
1523695501.161921,-0.482138,-0.106692,0.902528,-0.359040,0.094322,-0.015451,-0.461038,0.106490,-0.880968,-0.192069,0.072252,-0.380324,7.209976,-21.942373,-28.263000,,,,,,,
1523695501.191890,-0.470507,-0.118635,0.893728,-0.532716,0.496273,-0.145980,-0.450152,0.118357,-0.885073,-0.159956,0.060019,-0.596860,8.181168,-21.647863,-29.388733,,,,,,,
1523695501.221858,-0.469172,-0.124642,0.883874,-0.122679,-0.292714,-0.218385,-0.448640,0.124319,-0.885024,-0.012999,-0.095144,-0.117006,7.657074,-21.420736,-29.614868,,,,,,,
1523695501.251826,-0.488455,-0.118928,0.880367,0.205082,-0.677687,-0.138905,-0.465947,0.118648,-0.876821,0.003758,-0.209224,0.159002,7.509171,-20.895605,-30.142029,,,,,,,
1523695501.281794,-0.499503,-0.114579,0.883438,0.171650,-0.175953,0.151445,-0.475848,0.114329,-0.872065,-0.030301,-0.278406,0.116511,8.186554,-20.748495,-29.992249,,,,,,,
1523695501.311763,-0.501763,-0.112109,0.892910,0.260013,-0.080394,0.282474,-0.477952,0.111875,-0.871232,-0.035765,-0.304456,0.103288,6.991089,-20.293127,-29.994690,,,,,,,
1523695501.341731,-0.499798,-0.110871,0.903447,0.130298,0.053727,0.295030,-0.476306,0.110644,-0.872291,-0.026243,-0.279971,0.092399,6.993790,-20.292685,-29.544678,,,,,,,
1523695501.371699,-0.500838,-0.116348,0.910343,-0.193110,-0.158050,0.301408,-0.476914,0.116085,-0.871250,-0.045745,-0.216076,0.119740,6.844086,-19.992468,-29.995972,,,,,,,
1523695501.401653,-0.507864,-0.130849,0.912551,-0.463976,-0.315723,0.305619,-0.482155,0.130476,-0.866315,-0.005913,-0.044798,0.173216,6.246643,-19.689856,-30.072510,,,,,,,
1523695501.431622,-0.518220,-0.148446,0.913108,-0.498341,-0.360281,0.306709,-0.489887,0.147901,-0.859148,0.023411,0.087832,0.211611,5.498169,-19.536489,-30.073486,,,,,,,
1523695501.461590,-0.526714,-0.159962,0.910628,-0.250894,-0.118241,-0.050305,-0.496278,0.159281,-0.853427,-0.001220,0.132147,0.281680,6.624619,-19.391546,-30.073486,,,,,,,
1523695501.491558,-0.524257,-0.155723,0.908670,0.369016,0.171927,-0.130048,-0.494512,0.155094,-0.855221,0.225408,0.256817,0.156445,5.428268,-19.385565,-29.474060,,,,,,,
1523695501.521526,-0.518376,-0.138261,0.913214,0.610020,0.276925,-0.187509,-0.490742,0.137820,-0.860336,0.105290,0.415570,0.190139,6.327652,-19.539465,-29.323059,,,,,,,
1523695501.551495,-0.499647,-0.125480,0.911762,0.130396,0.816549,-0.292842,-0.475348,0.125151,-0.870851,0.118277,0.193864,0.041505,6.853973,-19.541601,-29.097717,,,,,,,
1523695501.581463,-0.475935,-0.125624,0.900549,-0.390457,0.772647,-0.363510,-0.454559,0.125294,-0.881860,0.103454,0.138103,-0.128348,6.253113,-19.763678,-28.872192,,,,,,,
1523695501.611431,-0.463912,-0.133074,0.884109,-0.494101,0.243933,-0.393949,-0.443494,0.132681,-0.886402,0.039319,0.240747,-0.083401,6.175262,-19.913549,-29.096619,,,,,,,
1523695501.641399,-0.467850,-0.138758,0.867755,-0.290203,-0.248481,-0.405025,-0.446634,0.138313,-0.883961,-0.046515,0.270623,0.119084,7.073135,-19.992819,-29.320862,,,,,,,
1523695501.671398,-0.478443,-0.135745,0.858155,0.100608,-0.257140,-0.217197,-0.456162,0.135329,-0.879547,-0.123580,0.136705,0.142944,7.148727,-20.067938,-29.095520,,,,,,,
1523695501.701366,-0.483474,-0.130332,0.858207,0.149159,-0.156631,-0.021200,-0.460915,0.129963,-0.877876,-0.111625,0.018932,-0.040550,6.849045,-19.991659,-29.170959,,,,,,,
1523695501.731335,-0.489237,-0.126983,0.858693,0.142811,-0.228356,-0.094655,-0.466169,0.126642,-0.875585,-0.092685,-0.147623,-0.065761,8.116791,-20.447805,-29.618530,,,,,,,
1523695501.761303,-0.500272,-0.114878,0.857695,0.479287,-0.432833,-0.300908,-0.476503,0.114626,-0.871669,0.042375,-0.282854,0.095790,7.067902,-20.517797,-29.318787,,,,,,,
1523695501.791271,-0.512408,-0.094099,0.855620,0.581981,-0.320514,-0.444785,-0.488108,0.093960,-0.867711,0.051585,-0.306714,0.236119,7.517563,-20.370108,-29.619141,,,,,,,
1523695501.821240,-0.511675,-0.079867,0.851062,0.049983,0.281094,-0.279570,-0.488078,0.079782,-0.869146,-0.070714,-0.297479,-0.019038,8.795517,-20.300497,-29.243774,,,,,,,
1523695501.851208,-0.501303,-0.092167,0.838968,-0.983788,0.431165,-0.099350,-0.478529,0.092037,-0.873235,-0.192171,-0.287425,-0.474513,8.269806,-20.597754,-28.867859,,,,,,,
1523695501.881176,-0.491273,-0.126508,0.815838,-1.430248,0.291562,-0.186915,-0.467979,0.126171,-0.874687,-0.145348,-0.097668,-0.589348,7.966644,-20.372290,-29.768921,,,,,,,
1523695501.911144,-0.495446,-0.143689,0.792719,-0.385401,-0.273457,-0.597931,-0.470525,0.143195,-0.870690,-0.020152,0.042748,-0.188041,8.793854,-19.926382,-30.145264,,,,,,,
1523695501.941113,-0.506762,-0.131634,0.782792,0.501629,-0.236185,-0.319198,-0.481150,0.131255,-0.866757,-0.101446,-0.147200,0.105923,8.569138,-19.625830,-30.596558,,,,,,,
1523695501.971081,-0.507184,-0.111769,0.789174,0.756668,0.046033,-0.046506,-0.482687,0.111537,-0.868662,0.007681,-0.255397,0.030664,8.648026,-19.326025,-30.447754,,,,,,,
1523695502.001049,-0.501592,-0.092204,0.800219,0.705839,0.227378,0.025715,-0.478779,0.092073,-0.873094,0.095784,-0.248415,0.001878,9.782120,-18.730612,-29.924561,,,,,,,
1523695502.031017,-0.490687,-0.079189,0.809803,0.405889,0.323268,0.095719,-0.469755,0.079106,-0.879245,0.088209,-0.175358,0.023227,8.356140,-18.874121,-29.849670,,,,,,,
,,,,,,,,,,,,,,,,25.300018,51.440864,13.754543,3.480000,309.375000,1523695501.995357,
1523695502.060986,-0.487950,-0.072344,0.815007,0.162362,-0.033615,0.009585,-0.467589,0.072281,-0.880986,0.020141,-0.185165,0.075749,8.659561,-18.575415,-29.775757,,,,,,,
1523695502.090954,-0.487685,-0.071011,0.812848,-0.164737,0.007171,-0.084464,-0.467402,0.070951,-0.881193,-0.046621,-0.205793,0.026045,9.333801,-18.428823,-30.151001,,,,,,,
1523695502.120922,-0.488768,-0.079833,0.806243,-0.588586,-0.074513,0.046363,-0.468043,0.079748,-0.880100,-0.064946,-0.065192,-0.033505,8.281723,-18.499319,-30.376221,,,,,,,
1523695502.150890,-0.495361,-0.103114,0.799569,-0.939882,-0.290958,0.275411,-0.472825,0.102931,-0.875124,-0.007736,0.107915,0.041017,8.808212,-18.351675,-30.376526,,,,,,,
1523695502.180859,-0.502339,-0.132894,0.795644,-0.833990,-0.107202,0.398913,-0.477232,0.132503,-0.868731,0.030576,0.175480,0.123095,8.278427,-18.424978,-31.051514,,,,,,,
1523695502.210827,-0.499194,-0.151303,0.797827,-0.258528,0.260722,0.309464,-0.473249,0.150727,-0.867938,0.069151,0.158264,0.065723,8.123642,-18.949194,-30.974487,,,,,,,
1523695502.240795,-0.491980,-0.152580,0.802559,0.234334,0.088219,0.034035,-0.466884,0.151989,-0.871159,0.083538,0.186512,0.087819,9.254440,-18.279440,-31.126648,,,,,,,
1523695502.270763,-0.490167,-0.138845,0.805817,0.592338,0.089188,-0.232076,-0.466243,0.138399,-0.873764,0.056865,0.218886,0.210724,8.580826,-18.725424,-30.150208,,,,,,,
1523695502.300732,-0.485846,-0.118648,0.805185,0.486001,0.234054,-0.395330,-0.463673,0.118370,-0.878063,-0.043346,0.227928,0.158352,8.437881,-18.424109,-29.476440,,,,,,,
1523695502.330700,-0.472204,-0.111814,0.797369,-0.278423,0.656751,-0.242897,-0.452010,0.111581,-0.885007,-0.093889,0.238867,-0.001972,9.413300,-18.428427,-29.400940,,,,,,,
1523695502.360668,-0.450656,-0.132874,0.784452,-1.041612,0.738797,-0.004866,-0.431717,0.132483,-0.892227,-0.080536,0.178872,-0.205506,9.937958,-18.505713,-29.325378,,,,,,,
1523695502.390636,-0.440191,-0.159038,0.772536,-0.728667,0.097022,0.031169,-0.420735,0.158369,-0.893253,-0.048778,0.013888,-0.100597,8.956406,-18.801901,-29.924683,,,,,,,
1523695502.420605,-0.446549,-0.164140,0.769512,0.148662,-0.316802,-0.062587,-0.426051,0.163404,-0.889820,0.010097,-0.067014,0.076832,9.028854,-18.877523,-30.224304,,,,,,,
1523695502.450573,-0.451339,-0.152644,0.773340,0.503234,-0.036196,-0.046630,-0.431099,0.152052,-0.889401,-0.011558,-0.105803,0.085674,9.406250,-18.953695,-29.698853,,,,,,,
1523695502.480541,-0.445008,-0.139556,0.778404,0.369246,0.325361,-0.039624,-0.426280,0.139103,-0.893832,-0.045827,-0.144825,-0.058133,9.557739,-19.028997,-29.323486,,,,,,,
1523695502.510510,-0.435528,-0.137439,0.778580,-0.173787,0.219164,-0.006894,-0.417911,0.137007,-0.898098,-0.014706,-0.192641,-0.190327,10.158463,-18.732077,-29.699341,,,,,,,
1523695502.540478,-0.435921,-0.147481,0.773723,-0.428379,-0.140326,-0.020577,-0.417661,0.146947,-0.896641,-0.013644,-0.224752,-0.115688,8.807159,-18.726217,-29.925049,,,,,,,
1523695502.570446,-0.445046,-0.155456,0.768162,-0.219644,-0.301041,-0.057552,-0.425308,0.154831,-0.891706,0.017364,-0.216583,-0.006121,9.331085,-18.429251,-30.600952,,,,,,,
1523695502.600414,-0.451206,-0.155576,0.767055,0.078703,-0.120552,0.009619,-0.430784,0.154949,-0.889053,0.001524,-0.223064,0.044372,9.480621,-18.205374,-31.051819,,,,,,,
1523695502.630383,-0.451042,-0.151435,0.770512,0.136621,0.029632,0.089428,-0.430915,0.150857,-0.889693,-0.045083,-0.218484,-0.020387,8.576157,-18.651312,-31.050476,,,,,,,
1523695502.660351,-0.449872,-0.149367,0.775781,0.106084,-0.023936,0.164038,-0.430009,0.148812,-0.890476,-0.029891,-0.182686,-0.018810,8.652054,-18.426870,-31.276367,,,,,,,
1523695502.690319,-0.453225,-0.143035,0.782082,0.304263,-0.204541,0.087653,-0.433395,0.142548,-0.889859,0.011353,-0.101288,0.025357,8.501297,-18.501196,-31.276123,,,,,,,
1523695502.720318,-0.457863,-0.132437,0.786742,0.276581,-0.091008,-0.031813,-0.438161,0.132050,-0.889144,0.014440,-0.055024,0.054382,9.104294,-18.428534,-30.901123,,,,,,,
1523695502.750286,-0.457700,-0.127624,0.785605,-0.072603,0.053828,-0.103619,-0.438292,0.127278,-0.889775,-0.011018,-0.038258,-0.010844,8.651016,-18.801428,-30.824829,,,,,,,
1523695502.780254,-0.455593,-0.131889,0.779696,-0.339465,0.090496,-0.084682,-0.436174,0.131507,-0.890201,-0.041655,-0.020576,-0.095303,9.554276,-18.430563,-30.900879,,,,,,,
1523695502.810223,-0.456021,-0.141302,0.773617,-0.379937,-0.025852,0.002787,-0.435990,0.140832,-0.888864,-0.070083,-0.001260,-0.066550,9.327484,-18.654470,-30.825073,,,,,,,
1523695502.840191,-0.457987,-0.149427,0.771099,-0.217317,-0.111741,0.070126,-0.437216,0.148872,-0.886949,-0.053690,0.053277,-0.045531,9.102631,-18.503683,-31.050781,,,,,,,
1523695502.870159,-0.464160,-0.152704,0.771839,-0.025706,-0.220696,0.084226,-0.442463,0.152111,-0.883792,-0.022824,0.111088,0.025257,9.331680,-18.054785,-31.127502,,,,,,,
1523695502.900127,-0.469521,-0.152434,0.774069,0.097686,-0.162085,0.017126,-0.447213,0.151845,-0.881444,-0.007789,0.168361,0.108556,8.809250,-17.977133,-30.828064,,,,,,,
1523695502.930096,-0.469320,-0.146491,0.775217,0.255641,0.161374,-0.100286,-0.447436,0.145967,-0.882323,-0.021024,0.167006,0.087478,9.784805,-18.056295,-30.602234,,,,,,,
1523695502.960064,-0.463791,-0.138815,0.774961,0.234430,0.129916,-0.153542,-0.443038,0.138369,-0.885760,-0.018586,0.070554,-0.021634,9.789764,-17.830877,-30.153198,,,,,,,
1523695502.990032,-0.464257,-0.134081,0.772591,0.121701,-0.050169,-0.191812,-0.443739,0.133680,-0.886129,-0.046373,0.038348,0.040823,9.187088,-18.053228,-30.227539,,,,,,,
1523695503.020001,-0.467668,-0.131587,0.767916,0.027714,-0.058452,-0.190800,-0.446908,0.131208,-0.884905,-0.036948,-0.026258,0.091631,9.115540,-17.752844,-30.153809,,,,,,,
1523695503.049969,-0.468230,-0.130836,0.762870,-0.083153,0.044513,-0.135582,-0.447450,0.130463,-0.884742,-0.106551,-0.053086,0.093253,10.014435,-17.682180,-30.453613,,,,,,,
,,,,,,,,,,,,,,,,25.300054,51.440827,13.212429,3.390000,313.945312,1523695502.995344,
1523695503.079937,-0.466008,-0.135269,0.757951,-0.296803,0.135732,-0.035676,-0.445219,0.134857,-0.885208,-0.151827,-0.071624,-0.041504,9.568359,-17.604650,-29.929138,,,,,,,
1523695503.109905,-0.464199,-0.145345,0.752490,-0.406114,0.095305,0.009040,-0.442986,0.144833,-0.884752,-0.137352,-0.074811,-0.177641,8.967789,-17.527182,-30.154785,,,,,,,
1523695503.139874,-0.467639,-0.151352,0.748008,-0.101759,-0.250046,-0.098006,-0.445627,0.150775,-0.882430,-0.078864,-0.067737,-0.059861,9.791397,-17.531103,-30.379333,,,,,,,
1523695503.169842,-0.478377,-0.147929,0.745750,0.168991,-0.375952,-0.121114,-0.455311,0.147390,-0.878048,-0.029537,-0.066061,0.090053,9.114319,-17.603292,-30.604370,,,,,,,
1523695503.199810,-0.487450,-0.139908,0.746391,0.300661,-0.260686,-0.088101,-0.463798,0.139452,-0.874897,-0.019647,-0.102618,0.163273,8.815521,-17.302237,-30.905762,,,,,,,
1523695503.229778,-0.492349,-0.128560,0.750047,0.430449,-0.093338,-0.057268,-0.468796,0.128207,-0.873952,-0.020065,-0.118349,0.155126,9.114014,-17.453588,-30.905029,,,,,,,
1523695503.259747,-0.492000,-0.117463,0.754248,0.340332,0.058787,-0.048969,-0.469135,0.117193,-0.875316,-0.024884,-0.133062,0.134075,9.037521,-17.603247,-30.904480,,,,,,,
1523695503.289715,-0.484493,-0.113430,0.755126,-0.056609,0.365697,-0.033591,-0.462767,0.113187,-0.879224,-0.110140,-0.092435,-0.017901,9.559357,-17.830740,-31.053223,,,,,,,
1523695503.319683,-0.472237,-0.122188,0.749294,-0.524990,0.448628,-0.025501,-0.451488,0.121884,-0.883913,-0.119710,-0.099545,-0.184461,9.559814,-17.830664,-30.978210,,,,,,,
1523695503.349651,-0.467376,-0.137132,0.741201,-0.520830,-0.039192,-0.015414,-0.446316,0.136703,-0.884372,-0.134525,-0.054122,-0.148525,9.185425,-17.903753,-30.753174,,,,,,,
1523695503.379620,-0.475545,-0.146190,0.735690,-0.197496,-0.321523,-0.023420,-0.452939,0.145670,-0.879560,-0.102618,0.037649,0.034300,8.884689,-17.752783,-31.128906,,,,,,,
1523695503.409591,-0.485510,-0.144495,0.736581,0.256064,-0.315535,0.021668,-0.461796,0.143993,-0.875220,-0.067363,0.047215,0.164420,9.936417,-17.307959,-31.580200,,,,,,,
1523695503.439559,-0.490615,-0.132867,0.743797,0.550741,-0.084605,0.018465,-0.467016,0.132476,-0.874269,-0.017863,0.042283,0.179231,9.037979,-17.603170,-30.829468,,,,,,,
1523695503.469527,-0.485974,-0.119596,0.751917,0.421709,0.214160,0.040439,-0.463733,0.119312,-0.877904,-0.005978,-0.005405,0.055685,9.489304,-17.604971,-30.604187,,,,,,,
1523695503.499496,-0.478586,-0.116927,0.754752,-0.076716,0.233611,0.020862,-0.457380,0.116661,-0.881586,-0.013781,-0.080284,-0.074301,9.269272,-17.378531,-30.155212,,,,,,,
1523695503.529464,-0.474511,-0.122186,0.751422,-0.265110,0.046472,-0.047281,-0.453497,0.121882,-0.882884,-0.034082,-0.100078,-0.074086,9.717148,-17.455770,-30.379700,,,,,,,
1523695503.559432,-0.478966,-0.128208,0.745682,-0.253172,-0.212438,-0.103485,-0.457079,0.127857,-0.880188,-0.087995,-0.062657,0.051773,10.618744,-17.160055,-30.605408,,,,,,,
1523695503.589400,-0.483940,-0.131745,0.739440,-0.192560,-0.037212,-0.110010,-0.461239,0.131364,-0.877498,-0.123203,-0.014359,0.080226,9.947235,-17.081579,-30.156067,,,,,,,
1523695503.619369,-0.481441,-0.135237,0.735836,-0.170965,0.157393,0.012348,-0.458829,0.134825,-0.878236,-0.151156,0.001467,-0.037505,9.051163,-16.777411,-30.007751,,,,,,,
1523695503.649337,-0.477782,-0.139313,0.734538,-0.127424,0.129503,0.033722,-0.455356,0.138862,-0.879414,-0.100873,0.012291,-0.086193,10.398102,-16.858847,-30.381714,,,,,,,
1523695503.679305,-0.476497,-0.141768,0.734331,-0.028796,-0.033209,0.019035,-0.454068,0.141293,-0.879692,-0.049136,-0.011044,-0.093132,8.748169,-16.851416,-30.382568,,,,,,,
1523695503.709274,-0.480923,-0.140349,0.734510,0.082882,-0.202020,-0.042505,-0.458049,0.139889,-0.877851,-0.002522,-0.018261,0.021558,9.575989,-16.704916,-30.157776,,,,,,,
1523695503.739272,-0.488125,-0.135435,0.733751,0.173911,-0.244124,-0.131899,-0.464676,0.135021,-0.875126,-0.022750,-0.032360,0.132725,9.499023,-16.630026,-30.608093,,,,,,,
1523695503.769241,-0.493053,-0.129056,0.733960,0.160171,-0.106578,-0.041484,-0.469381,0.128698,-0.873566,-0.020121,-0.099157,0.116212,9.570129,-16.930487,-30.756836,,,,,,,
1523695503.799209,-0.494825,-0.128056,0.735067,-0.026760,-0.018563,0.050988,-0.470990,0.127706,-0.872846,-0.072483,-0.138189,0.091367,9.194702,-16.928869,-30.832092,,,,,,,
1523695503.829177,-0.494119,-0.130835,0.735520,-0.092604,0.053874,0.047676,-0.470203,0.130462,-0.872863,-0.118603,-0.137221,0.040175,9.791382,-17.081854,-31.131165,,,,,,,
1523695503.859145,-0.493534,-0.133479,0.734367,-0.145980,0.009640,0.009326,-0.469527,0.133083,-0.872830,-0.084199,-0.163921,-0.026523,9.642136,-17.006186,-31.131531,,,,,,,
1523695503.889114,-0.496153,-0.137987,0.731021,-0.243420,-0.077076,-0.014110,-0.471521,0.137549,-0.871061,-0.094976,-0.055137,0.063841,9.416397,-17.080175,-31.131348,,,,,,,
1523695503.919082,-0.501162,-0.140307,0.727200,-0.132397,-0.106976,-0.034232,-0.475723,0.139847,-0.868406,-0.036041,0.020141,0.083021,10.540741,-17.010458,-31.356018,,,,,,,
1523695503.949050,-0.503232,-0.142118,0.725069,-0.093592,-0.002005,-0.015132,-0.477397,0.141640,-0.867196,-0.083485,0.042381,0.119256,9.791382,-17.081854,-31.131165,,,,,,,
1523695503.979018,-0.502367,-0.138227,0.725446,0.249695,0.090868,-0.044812,-0.476909,0.137787,-0.868085,-0.021550,0.043579,0.066831,10.241806,-17.083807,-31.055908,,,,,,,
1523695504.008987,-0.497892,-0.131668,0.729139,0.194384,0.210619,0.020028,-0.473441,0.131288,-0.870986,-0.063882,0.021819,-0.050950,10.696274,-16.635855,-31.057434,,,,,,,
1523695504.038955,-0.491570,-0.132964,0.729107,-0.169444,0.236146,-0.005841,-0.467845,0.132573,-0.873811,-0.056844,0.031612,-0.147551,9.345749,-17.004248,-30.531677,,,,,,,
1523695504.068923,-0.489713,-0.138344,0.723572,-0.243641,-0.009382,-0.119672,-0.465878,0.137904,-0.874037,-0.034763,0.023184,-0.111040,9.651123,-16.555471,-30.383301,,,,,,,
,,,,,,,,,,,,,,,,25.300073,51.440811,12.830318,3.590000,315.703125,1523695503.995333,
1523695504.098891,-0.494418,-0.141239,0.717035,-0.153333,-0.128517,-0.135461,-0.469794,0.140770,-0.871480,-0.035455,0.020943,0.083196,10.248535,-16.408850,-31.058594,,,,,,,
1523695504.128860,-0.496417,-0.143532,0.713891,-0.084111,-0.013800,-0.002333,-0.471381,0.143040,-0.870253,-0.091119,-0.022038,0.016112,10.100357,-16.632498,-30.382812,,,,,,,
1523695504.158828,-0.496433,-0.145857,0.715317,-0.019661,-0.027555,0.117073,-0.471235,0.145341,-0.869951,-0.103549,-0.084794,-0.104476,10.175491,-16.483068,-30.608337,,,,,,,
1523695504.188796,-0.498297,-0.146508,0.718856,0.091081,-0.127494,0.086351,-0.472810,0.145985,-0.868987,-0.056715,-0.155674,-0.060578,10.626373,-16.260321,-30.834045,,,,,,,
1523695504.218764,-0.505195,-0.141612,0.722262,0.245687,-0.290840,-0.012453,-0.479134,0.141139,-0.866320,-0.020424,-0.159953,0.136263,9.047699,-16.628210,-30.833313,,,,,,,
1523695504.248733,-0.512957,-0.134533,0.725020,0.215149,-0.210963,-0.026414,-0.486321,0.134128,-0.863424,-0.003639,-0.139468,0.193945,9.046951,-16.703207,-30.833069,,,,,,,
1523695504.278701,-0.513127,-0.132573,0.726797,-0.052772,0.145035,0.064666,-0.486596,0.132185,-0.863569,-0.072440,-0.077925,0.019254,10.022202,-16.632681,-30.907837,,,,,,,
1523695504.308669,-0.503841,-0.141383,0.724754,-0.429532,0.411620,0.065182,-0.477976,0.140912,-0.866997,-0.147406,-0.017804,-0.182305,8.668976,-17.001516,-30.832031,,,,,,,
1523695504.338638,-0.494531,-0.151770,0.718345,-0.323995,0.218935,-0.072006,-0.469164,0.151188,-0.870073,-0.089735,0.032726,-0.186872,9.563828,-17.156134,-31.430969,,,,,,,
1523695504.368606,-0.495049,-0.153965,0.713665,-0.012563,-0.116408,-0.093813,-0.469455,0.153358,-0.869536,-0.072766,0.028130,0.011901,10.388351,-17.159918,-31.505554,,,,,,,
1523695504.398551,-0.500529,-0.152428,0.713401,0.049489,-0.194953,0.021400,-0.474325,0.151839,-0.867156,-0.041132,-0.022078,0.147079,10.015457,-17.083014,-31.281067,,,,,,,
1523695504.428519,-0.503936,-0.152494,0.716550,0.045392,-0.022515,0.134158,-0.477272,0.151903,-0.865527,-0.014534,-0.114657,0.180514,10.013214,-17.083380,-31.656067,,,,,,,
1523695504.458488,-0.498693,-0.152718,0.722166,0.126396,0.229875,0.176595,-0.472712,0.152125,-0.867987,-0.042150,-0.142222,0.062460,10.989212,-16.937857,-31.731079,,,,,,,
1523695504.488456,-0.491951,-0.149583,0.727672,0.201387,0.121254,0.032909,-0.467072,0.149026,-0.871570,-0.054428,-0.172143,-0.072293,9.713974,-17.231665,-31.280579,,,,,,,
1523695504.518424,-0.490974,-0.145341,0.728296,0.014511,-0.013540,-0.075773,-0.466514,0.144830,-0.872576,-0.036980,-0.156701,-0.086759,10.315903,-17.084295,-31.205872,,,,,,,
1523695504.548392,-0.493526,-0.150976,0.722948,-0.410871,-0.113430,-0.075988,-0.468345,0.150403,-0.870650,-0.097191,-0.048810,0.003829,10.245682,-16.559057,-31.283020,,,,,,,
1523695504.578361,-0.499515,-0.159140,0.713474,-0.296194,-0.150089,-0.192011,-0.472947,0.158469,-0.866723,-0.114104,0.021371,0.138283,10.620529,-16.710516,-31.057190,,,,,,,
1523695504.608329,-0.501848,-0.156018,0.709107,0.220840,-0.004196,-0.118246,-0.475204,0.155386,-0.866046,-0.037049,0.028833,0.153034,10.929504,-16.261160,-30.308838,,,,,,,
1523695504.638297,-0.500657,-0.145018,0.713896,0.453109,0.062178,0.032099,-0.474963,0.144510,-0.868059,-0.033627,0.052969,0.048555,10.477722,-16.259420,-30.609070,,,,,,,
1523695504.668265,-0.493786,-0.137760,0.719881,0.173494,0.332751,0.036939,-0.469473,0.137325,-0.872202,-0.074305,-0.005519,-0.117238,9.579269,-16.330008,-30.234253,,,,,,,
1523695504.698234,-0.485199,-0.138388,0.718682,-0.185040,0.239883,-0.080434,-0.461926,0.137947,-0.876125,-0.035083,-0.058510,-0.213734,9.351578,-16.554052,-30.308472,,,,,,,
1523695504.728202,-0.485487,-0.142096,0.711809,-0.157545,-0.185486,-0.194003,-0.461936,0.141619,-0.875534,-0.076470,0.005430,-0.011979,9.278076,-16.179098,-30.684998,,,,,,,
1523695504.758201,-0.496586,-0.139594,0.704950,0.060484,-0.396287,-0.213872,-0.471793,0.139141,-0.870661,-0.016351,0.002232,0.189662,9.349030,-16.404715,-30.984070,,,,,,,
1523695504.788169,-0.503712,-0.137613,0.705161,0.015284,-0.103022,0.107586,-0.478117,0.137179,-0.867517,-0.111559,0.008771,0.162118,9.496017,-16.480764,-31.358643,,,,,,,
1523695504.818137,-0.501159,-0.142690,0.710269,-0.143320,0.222290,0.294667,-0.475559,0.142207,-0.868113,-0.140224,-0.092127,-0.004522,9.420578,-16.705114,-31.057800,,,,,,,
1523695504.848106,-0.491817,-0.150309,0.716728,-0.025107,0.143411,0.286319,-0.466904,0.149743,-0.871538,-0.037735,-0.161645,-0.187987,9.790466,-17.082006,-31.281189,,,,,,,
1523695504.878074,-0.495091,-0.149093,0.723027,0.214499,-0.261484,0.055686,-0.469841,0.148541,-0.870164,-0.003228,-0.146893,-0.045852,10.393143,-16.859640,-31.206726,,,,,,,
1523695504.908042,-0.504203,-0.140710,0.724752,0.286653,-0.360113,-0.148745,-0.478335,0.140246,-0.866906,0.014193,-0.098590,0.114358,9.718475,-17.006308,-30.906494,,,,,,,
1523695504.938010,-0.510727,-0.135283,0.720610,-0.084958,0.014304,-0.222918,-0.484345,0.134871,-0.864418,-0.092742,-0.065001,0.138176,10.092545,-16.783514,-31.432190,,,,,,,
1523695504.967979,-0.507063,-0.139800,0.713868,-0.324341,0.177287,-0.042132,-0.480874,0.139345,-0.865646,-0.098365,0.000502,-0.036408,11.217957,-16.788504,-31.356567,,,,,,,
1523695504.997947,-0.502700,-0.148207,0.709685,-0.232018,0.168869,0.062381,-0.476512,0.147665,-0.866678,-0.086492,0.001230,-0.057867,10.166504,-16.933767,-31.356506,,,,,,,
1523695505.027915,-0.500321,-0.149346,0.712521,0.147997,0.005863,0.140609,-0.474368,0.148791,-0.867661,-0.073499,-0.026080,0.010087,10.243607,-16.858892,-31.131836,,,,,,,
1523695505.057883,-0.499871,-0.146069,0.718241,0.192188,0.043295,0.091584,-0.474208,0.145550,-0.868298,-0.008977,-0.091488,-0.009296,10.321899,-16.708944,-30.832397,,,,,,,
,,,,,,,,,,,,,,,,25.300095,51.440790,13.183285,3.830000,316.406250,1523695504.995320,
1523695505.087852,-0.499924,-0.141516,0.722041,0.177119,-0.096255,-0.005248,-0.474567,0.141044,-0.868846,0.005603,-0.088187,0.032283,9.578979,-16.404928,-30.158997,,,,,,,
1523695505.117820,-0.504188,-0.138514,0.721341,-0.018947,-0.129065,-0.106582,-0.478469,0.138072,-0.867181,-0.031586,-0.077677,0.066385,9.424179,-16.704535,-30.457825,,,,,,,
1523695505.147788,-0.507782,-0.139154,0.717623,-0.168256,-0.024969,-0.048193,-0.481540,0.138705,-0.865379,-0.072949,-0.072223,0.029639,10.548233,-16.485113,-30.983154,,,,,,,
1523695505.177756,-0.507118,-0.143849,0.713104,-0.236519,0.012284,-0.031241,-0.480644,0.143354,-0.865119,-0.079644,-0.047635,-0.009499,9.797806,-16.481817,-31.058533,,,,,,,
1523695505.207725,-0.510020,-0.145400,0.709882,0.013914,-0.130501,-0.063941,-0.483043,0.144889,-0.863526,-0.013905,-0.040473,0.088791,9.642563,-16.781485,-31.432434,,,,,,,
1523695505.237693,-0.514026,-0.139980,0.711339,0.207128,-0.061337,0.004334,-0.486878,0.139523,-0.862255,-0.030548,-0.023785,0.137920,10.316345,-16.859594,-31.506775,,,,,,,
1523695505.267661,-0.510965,-0.137650,0.712827,-0.001964,0.205958,-0.003553,-0.484393,0.137216,-0.864022,-0.080167,-0.032541,0.044168,9.566986,-17.155630,-30.906006,,,,,,,
1523695505.297629,-0.503416,-0.138309,0.712492,-0.052123,0.244123,0.026210,-0.477813,0.137869,-0.867575,-0.014954,-0.040991,-0.101938,9.791824,-17.081793,-31.056152,,,,,,,
1523695505.327598,-0.499384,-0.142628,0.710397,-0.216916,0.112017,-0.017470,-0.474022,0.142145,-0.868963,-0.049324,-0.015436,-0.123453,10.689682,-17.161047,-31.280396,,,,,,,
1523695505.357566,-0.500599,-0.144112,0.706397,0.028219,-0.091972,-0.109778,-0.474976,0.143614,-0.868201,-0.026886,0.006975,-0.025629,10.167267,-17.083395,-30.980896,,,,,,,
1523695505.387538,-0.501604,-0.140568,0.706035,0.054747,0.008104,0.006277,-0.476090,0.140106,-0.868164,-0.029327,-0.042892,-0.038941,9.794067,-16.856802,-31.057007,,,,,,,
1523695505.417506,-0.501051,-0.144283,0.706991,-0.162763,-0.034634,0.116972,-0.475356,0.143783,-0.867964,-0.094773,-0.036941,-0.007753,10.914978,-17.087133,-31.355530,,,,,,,
1523695505.447475,-0.501915,-0.148612,0.706582,-0.063873,-0.005497,0.016865,-0.475802,0.148066,-0.866999,-0.023114,-0.086390,-0.002080,10.388199,-17.309698,-31.279968,,,,,,,
1523695505.477443,-0.503222,-0.146530,0.707478,0.177328,-0.062202,-0.013798,-0.477082,0.146006,-0.866645,-0.012771,-0.100169,0.029838,10.539551,-17.310156,-31.054871,,,,,,,
1523695505.507411,-0.505571,-0.139150,0.710607,0.231808,-0.033745,0.002185,-0.479626,0.138701,-0.866441,0.006054,-0.095030,0.042680,10.691345,-17.085913,-31.130676,,,,,,,
1523695505.537380,-0.506642,-0.134954,0.712449,0.065347,-0.018414,-0.003283,-0.480832,0.134545,-0.866428,-0.000538,-0.078423,0.077183,10.020264,-17.007360,-30.606323,,,,,,,
1523695505.567348,-0.502948,-0.137491,0.712368,-0.247641,0.210617,0.023971,-0.477461,0.137058,-0.867897,-0.121065,-0.063984,-0.089928,10.244659,-16.933599,-30.831543,,,,,,,
1523695505.597316,-0.497984,-0.143591,0.708404,-0.220966,0.184154,0.001631,-0.472739,0.143098,-0.869506,-0.035241,-0.050431,-0.181443,10.093323,-17.157766,-30.680664,,,,,,,
1523695505.627284,-0.498655,-0.145659,0.707950,0.013384,-0.167136,0.007492,-0.473181,0.145144,-0.868926,-0.075098,-0.000445,-0.053223,9.716980,-17.156301,-30.905884,,,,,,,
1523695505.657253,-0.503575,-0.143633,0.710758,0.167659,-0.170323,0.105630,-0.477590,0.143139,-0.866844,0.051580,-0.020626,0.068702,9.338684,-17.080267,-31.581360,,,,,,,
1523695505.687221,-0.507586,-0.140101,0.716563,0.165791,-0.090790,0.126874,-0.481306,0.139643,-0.865358,0.009916,-0.055231,0.100938,10.162003,-17.159124,-31.730652,,,,,,,
1523695505.717189,-0.507116,-0.138611,0.720043,0.086750,0.058660,0.057404,-0.481000,0.138168,-0.865764,0.024289,-0.104446,0.051586,9.935226,-17.607656,-31.278992,,,,,,,
1523695505.747188,-0.506057,-0.137129,0.721815,0.065359,-0.045890,-0.026687,-0.480181,0.136700,-0.866452,-0.009565,-0.065029,0.011532,9.933884,-17.607870,-31.503967,,,,,,,
1523695505.777156,-0.507760,-0.133029,0.720254,0.104539,-0.003772,-0.135394,-0.481925,0.132637,-0.866115,-0.008828,-0.056602,0.059779,10.312607,-17.234579,-31.505249,,,,,,,
1523695505.807124,-0.508507,-0.129025,0.717368,0.031747,-0.038740,-0.125810,-0.482826,0.128667,-0.866212,-0.045799,-0.033834,0.058793,10.388062,-17.459463,-31.054321,,,,,,,
1523695505.837093,-0.507670,-0.130086,0.715249,-0.140451,0.075391,0.027370,-0.482035,0.129719,-0.866496,-0.068548,-0.043522,-0.016942,10.385956,-17.534689,-31.279053,,,,,,,
1523695505.867061,-0.502784,-0.136889,0.714077,-0.238387,0.207000,0.084700,-0.477359,0.136462,-0.868047,-0.056759,-0.067095,-0.127940,10.236282,-17.683706,-30.978516,,,,,,,
1523695505.897029,-0.501723,-0.138694,0.714491,0.067061,-0.069740,0.038345,-0.476319,0.138250,-0.868336,-0.001953,-0.045842,-0.099514,10.241669,-17.233587,-30.830322,,,,,,,
1523695505.926997,-0.506831,-0.135894,0.717079,0.144199,-0.233580,0.043869,-0.480934,0.135476,-0.866226,0.021919,0.004966,0.067871,11.067230,-17.087454,-30.980469,,,,,,,
1523695505.956966,-0.512976,-0.131523,0.719745,0.166148,-0.148367,0.005449,-0.486534,0.131145,-0.863762,0.052085,-0.029841,0.181862,11.144455,-16.862799,-30.981323,,,,,,,
1523695505.986934,-0.511526,-0.129764,0.722512,0.010221,0.161772,0.079616,-0.485393,0.129401,-0.864667,-0.004994,-0.072134,0.019131,9.795883,-17.081121,-30.381165,,,,,,,
1523695506.016902,-0.504610,-0.133092,0.722690,-0.108704,0.234795,0.014446,-0.479190,0.132699,-0.867621,-0.083493,-0.093591,-0.176904,10.315918,-17.308920,-30.829956,,,,,,,
,,,,,,,,,,,,,,,,25.300121,51.440762,13.414028,4.280000,315.351562,1523695505.995309,
1523695506.046870,-0.502614,-0.132448,0.720066,0.022245,-0.024842,-0.134356,-0.477498,0.132061,-0.868651,-0.063761,-0.088360,-0.206743,9.944077,-17.082098,-30.681030,,,,,,,
1523695506.076839,-0.506791,-0.128312,0.715636,0.095556,-0.192365,-0.211922,-0.481384,0.127960,-0.867119,-0.032334,-0.061355,-0.042381,10.016678,-17.232565,-30.830444,,,,,,,
1523695506.106807,-0.514792,-0.120977,0.712225,0.181497,-0.283096,-0.185122,-0.488755,0.120682,-0.864033,-0.025680,-0.014557,0.112553,9.565048,-17.305685,-30.980347,,,,,,,
1523695506.136775,-0.520032,-0.118407,0.713111,-0.019690,-0.057152,0.095787,-0.493429,0.118130,-0.861726,-0.036662,0.016697,0.130403,9.713821,-17.156805,-31.430847,,,,,,,
1523695506.166744,-0.516483,-0.123684,0.716633,-0.072944,0.146968,0.250055,-0.490052,0.123369,-0.862918,-0.060653,-0.042604,0.011966,9.562195,-17.455908,-31.204773,,,,,,,
1523695506.196712,-0.510332,-0.127703,0.721941,0.009703,0.179052,0.192539,-0.484489,0.127357,-0.865476,-0.060143,-0.101890,-0.110644,10.532959,-17.610723,-31.653687,,,,,,,
1523695506.226680,-0.508540,-0.127409,0.724939,0.108856,-0.044253,0.027685,-0.482955,0.127065,-0.866376,-0.006714,-0.101872,-0.117221,9.935226,-17.607656,-31.278992,,,,,,,
1523695506.256648,-0.511557,-0.125235,0.724119,-0.001885,-0.142847,-0.116151,-0.485701,0.124908,-0.865154,-0.021638,-0.076583,-0.086430,10.008591,-17.907751,-31.052734,,,,,,,
1523695506.286617,-0.517104,-0.122851,0.721451,0.029837,-0.181371,-0.089447,-0.490639,0.122542,-0.862702,-0.012245,-0.051314,-0.012832,10.837891,-17.386648,-31.204407,,,,,,,
1523695506.316585,-0.522051,-0.120705,0.721796,0.079513,-0.157890,0.028845,-0.495031,0.120412,-0.860491,-0.036555,-0.035054,0.048860,10.239120,-17.308874,-31.130005,,,,,,,
1523695506.346553,-0.527477,-0.117720,0.725811,0.207997,-0.223573,0.106788,-0.499870,0.117448,-0.858099,-0.003151,-0.049623,0.134314,10.090912,-17.083288,-31.205994,,,,,,,
1523695506.376521,-0.531498,-0.113156,0.732075,0.240707,-0.099160,0.083243,-0.503584,0.112915,-0.856535,-0.046831,-0.072418,0.139265,10.616791,-17.085501,-31.055725,,,,,,,
1523695506.406489,-0.530265,-0.106989,0.736168,0.229581,0.155545,-0.019310,-0.502870,0.106785,-0.857740,-0.035460,-0.090641,0.055372,10.166519,-17.158392,-30.980652,,,,,,,
1523695506.436457,-0.524778,-0.104161,0.733591,-0.099504,0.142690,-0.190030,-0.498305,0.103972,-0.860744,-0.061830,-0.070037,-0.075337,9.794983,-17.081274,-30.531189,,,,,,,
1523695506.466425,-0.522762,-0.103802,0.724821,-0.132519,0.044637,-0.289044,-0.496587,0.103616,-0.861779,-0.019450,0.006186,-0.060614,10.696136,-17.010260,-30.455994,,,,,,,
1523695506.496393,-0.526431,-0.100756,0.715543,-0.066095,-0.112954,-0.265400,-0.499903,0.100585,-0.860220,-0.023443,0.047806,0.002600,9.944077,-17.082098,-30.681030,,,,,,,
1523695506.526362,-0.530456,-0.099790,0.710435,-0.048221,-0.126414,-0.019235,-0.503410,0.099625,-0.858284,-0.012841,0.087799,0.128335,10.165024,-17.308386,-30.980042,,,,,,,
1523695506.556330,-0.532900,-0.101712,0.714027,0.056368,-0.096483,0.220560,-0.505407,0.101537,-0.856885,-0.012324,0.076533,0.140638,10.242264,-17.308355,-30.604980,,,,,,,
1523695506.586298,-0.531597,-0.104664,0.721768,0.026387,0.174226,0.267152,-0.504136,0.104473,-0.857281,-0.086791,-0.027477,0.002316,9.785706,-17.831533,-30.828186,,,,,,,
1523695506.616266,-0.524520,-0.107865,0.726583,-0.000552,0.212360,0.142426,-0.497886,0.107656,-0.860534,-0.053292,-0.144598,-0.238710,9.937042,-17.831991,-30.603027,,,,,,,
1523695506.646235,-0.521253,-0.110062,0.727393,-0.069142,-0.060288,-0.045959,-0.494954,0.109840,-0.861948,-0.022365,-0.185478,-0.191458,10.759293,-17.836142,-31.052612,,,,,,,
1523695506.676203,-0.532350,-0.106459,0.723801,0.100536,-0.492131,-0.197766,-0.504686,0.106258,-0.856738,0.029649,-0.104457,0.081073,10.162476,-17.608297,-30.903870,,,,,,,
1523695506.706171,-0.543348,-0.103754,0.720918,-0.059005,-0.195191,-0.057531,-0.514224,0.103568,-0.851379,-0.073835,-0.078284,0.098220,10.384323,-17.834448,-31.052795,,,,,,,
1523695506.736140,-0.543815,-0.107568,0.719904,-0.111834,0.089783,0.083864,-0.514413,0.107360,-0.850794,-0.134177,-0.101348,-0.015508,10.834442,-17.686697,-31.278198,,,,,,,
1523695506.766138,-0.538246,-0.110208,0.722641,0.024876,0.184570,0.156326,-0.509521,0.109986,-0.853399,-0.059785,-0.086289,-0.125742,9.788986,-17.456625,-30.904663,,,,,,,
1523695506.796107,-0.536997,-0.108198,0.726265,0.216706,-0.051893,0.018183,-0.508566,0.107987,-0.854223,-0.016672,-0.074174,-0.003290,10.389420,-17.459249,-30.829346,,,,,,,
1523695506.826075,-0.540873,-0.098073,0.728710,0.359082,-0.134133,-0.124408,-0.512410,0.097916,-0.853139,0.021932,-0.029373,0.089803,10.616806,-17.310125,-30.679810,,,,,,,
1523695506.856043,-0.541106,-0.090309,0.729349,0.042864,0.166732,-0.033310,-0.512985,0.090186,-0.853646,0.017395,-0.038627,0.034432,9.344269,-17.378866,-30.155212,,,,,,,
1523695506.886011,-0.533990,-0.092726,0.726424,-0.196886,0.249294,-0.053818,-0.506785,0.092593,-0.857085,-0.078023,0.007428,-0.075136,9.719406,-17.455404,-30.004700,,,,,,,
1523695506.915980,-0.531808,-0.092615,0.722551,0.066621,-0.099494,-0.110811,-0.504919,0.092482,-0.858197,0.028143,0.047502,0.017972,10.691956,-17.385305,-30.529480,,,,,,,
1523695506.945948,-0.537288,-0.089271,0.723489,0.082621,-0.177067,0.033138,-0.509769,0.089153,-0.855678,-0.057888,0.050984,0.149807,9.866394,-17.531439,-30.379333,,,,,,,
1523695506.975916,-0.539444,-0.089010,0.724768,0.014008,0.031191,0.060574,-0.511625,0.088893,-0.854597,0.003599,-0.030619,0.097242,9.336014,-17.754583,-30.903687,,,,,,,
1523695507.005884,-0.536041,-0.092151,0.727845,-0.104634,0.144316,0.183976,-0.508569,0.092021,-0.856089,-0.029822,-0.106364,-0.043462,10.160675,-17.608587,-31.203857,,,,,,,
1523695507.035853,-0.534525,-0.100164,0.732209,-0.154171,-0.087758,0.265137,-0.506878,0.099997,-0.856197,-0.004154,-0.097021,-0.004353,9.330017,-18.129934,-31.277222,,,,,,,
1523695507.065821,-0.537493,-0.105793,0.736929,-0.032903,-0.048168,0.182082,-0.509121,0.105596,-0.854192,-0.034779,-0.100347,0.029088,9.556366,-18.130728,-31.052063,,,,,,,
,,,,,,,,,,,,,,,,25.300147,51.440730,13.915829,4.430000,314.296875,1523695506.995297,
1523695507.095789,-0.539337,-0.103532,0.740575,0.227011,-0.140102,0.015090,-0.510817,0.103347,-0.853454,0.034987,-0.130142,0.054702,9.480331,-18.280310,-30.976501,,,,,,,
1523695507.125757,-0.540664,-0.097348,0.743716,0.155156,-0.010066,-0.015996,-0.512268,0.097194,-0.853307,0.007034,-0.127422,0.026723,9.185867,-17.679052,-31.054016,,,,,,,
1523695507.155726,-0.540339,-0.095573,0.741759,-0.129848,0.133685,-0.109054,-0.512078,0.095428,-0.853620,-0.066962,-0.065597,-0.005587,9.332886,-18.204336,-30.676880,,,,,,,
1523695507.185694,-0.532082,-0.097831,0.736533,-0.201742,0.373528,-0.039029,-0.504902,0.097675,-0.857631,-0.017559,-0.033756,-0.216954,9.337067,-17.829290,-30.603333,,,,,,,
1523695507.215662,-0.527849,-0.101895,0.731234,-0.175180,0.005353,-0.127077,-0.501064,0.101719,-0.859411,-0.088521,0.039089,-0.106882,9.936600,-17.832067,-30.678040,,,,,,,
1523695507.245631,-0.530540,-0.100426,0.730094,0.143518,-0.218339,-0.011533,-0.503449,0.100257,-0.858188,0.029801,0.116234,0.083301,10.764236,-17.610708,-30.603516,,,,,,,
1523695507.275599,-0.535568,-0.097557,0.734403,0.088213,-0.026730,0.111830,-0.507902,0.097402,-0.855889,-0.067461,0.048258,0.145349,10.469055,-17.309088,-30.304871,,,,,,,
1523695507.305568,-0.530724,-0.099234,0.739002,0.021482,0.139978,0.153166,-0.503667,0.099071,-0.858197,-0.034800,-0.095470,-0.043597,9.568649,-17.305105,-30.380371,,,,,,,
1523695507.335535,-0.529952,-0.100197,0.742791,0.033724,-0.061506,0.089451,-0.502956,0.100030,-0.858503,-0.009984,-0.132867,0.000502,9.263870,-17.604040,-30.679321,,,,,,,
1523695507.365505,-0.534671,-0.099317,0.744719,0.102808,-0.230050,0.005500,-0.507047,0.099154,-0.856195,-0.006625,-0.110933,0.043177,9.485123,-17.980032,-30.677673,,,,,,,
1523695507.395460,-0.542677,-0.095523,0.745418,0.054115,-0.189212,-0.041468,-0.514075,0.095377,-0.852425,-0.038751,-0.097300,0.001915,9.257736,-18.129156,-30.827209,,,,,,,
1523695507.425428,-0.543258,-0.095023,0.744155,-0.076090,0.102020,-0.005634,-0.514595,0.094880,-0.852167,-0.088188,-0.022751,-0.092597,10.230591,-18.208761,-31.051392,,,,,,,
1523695507.455396,-0.540800,-0.095929,0.740074,-0.061541,0.110250,-0.124963,-0.512454,0.095782,-0.853355,-0.049679,0.027097,-0.064171,9.781067,-18.431280,-30.600708,,,,,,,
1523695507.485365,-0.538723,-0.090659,0.740830,0.250087,0.013868,0.022410,-0.510933,0.090535,-0.854839,0.036857,0.017284,-0.006169,9.406982,-18.204824,-30.826843,,,,,,,
1523695507.515333,-0.539384,-0.090044,0.745616,-0.020203,-0.013504,0.234271,-0.511527,0.089923,-0.854548,0.055487,0.011472,0.097026,10.157700,-18.133200,-30.826782,,,,,,,
1523695507.545301,-0.538877,-0.096735,0.751786,-0.115291,0.066891,0.318305,-0.510773,0.096585,-0.854272,-0.002579,-0.047467,0.084009,9.782562,-18.281286,-30.601318,,,,,,,
1523695507.575269,-0.530589,-0.105064,0.756636,-0.169127,0.340724,0.231679,-0.503250,0.104871,-0.857753,-0.033493,-0.121045,-0.121022,9.408630,-18.129690,-30.677124,,,,,,,
1523695507.605238,-0.524591,-0.110151,0.758209,-0.079111,-0.037543,0.045658,-0.497824,0.109928,-0.860282,0.008047,-0.115040,-0.231606,9.561325,-18.129919,-30.227051,,,,,,,
1523695507.635206,-0.534487,-0.106838,0.756507,0.202196,-0.413954,-0.171118,-0.506495,0.106635,-0.855623,0.020014,-0.073615,0.107027,9.263870,-17.828665,-30.303406,,,,,,,
1523695507.665174,-0.545767,-0.096399,0.754603,0.246999,-0.271147,-0.245819,-0.516664,0.096250,-0.850760,-0.072448,-0.150312,0.186347,9.190369,-17.678320,-30.304016,,,,,,,
1523695507.695142,-0.546405,-0.092755,0.750970,-0.116205,0.130163,-0.066418,-0.517385,0.092622,-0.850725,-0.125102,-0.131807,-0.001372,9.643188,-17.305517,-30.455322,,,,,,,
1523695507.725111,-0.541572,-0.098506,0.745044,-0.268621,0.218577,-0.042121,-0.512984,0.098346,-0.852745,-0.057237,-0.059436,-0.075798,9.342026,-17.603857,-30.154297,,,,,,,
1523695507.755109,-0.536383,-0.102432,0.741985,-0.090867,0.143464,-0.001420,-0.508352,0.102253,-0.855056,-0.042460,0.013164,-0.077774,9.186325,-17.903601,-30.603149,,,,,,,
1523695507.785078,-0.533545,-0.101503,0.742974,0.146753,0.041897,0.002059,-0.505971,0.101329,-0.856577,0.026402,0.074879,0.040720,10.158447,-18.058203,-30.827087,,,,,,,
1523695507.815046,-0.534258,-0.095710,0.747628,0.243078,-0.048153,0.082128,-0.506872,0.095564,-0.856707,0.045126,0.101259,0.152819,9.258484,-18.054159,-30.827515,,,,,,,
