timestamp(unix),attitude_roll(radians),attitude_pitch(radians),attitude_yaw(radians),rotation_rate_x(radians/s),rotation_rate_y(radians/s),rotation_rate_z(radians/s),gravity_x(G),gravity_y(G),gravity_z(G),user_acc_x(G),user_acc_y(G),user_acc_z(G),magnetic_field_x(microteslas),magnetic_field_y(microteslas),magnetic_field_z(microteslas),latitude(degree),longitude(degree),altitude(meter),speed(m/s),course(degree),timestamp(unix),User Mark
1523523389.186915,-0.587638,-0.023410,-0.043015,-0.160163,-0.068513,-0.012323,-0.554244,0.023408,-0.832024,0.047866,-0.094575,0.180444,21.689285,2.151649,-23.480957,,,,,,,
,,,,,,,,,,,,,,,,25.313296,51.456466,11.161884,4.910000,9.843750,1523523388.996006,
1523523389.216879,-0.588099,-0.028104,-0.048462,-0.286498,0.006692,-0.084948,-0.554561,0.028100,-0.831668,0.021602,-0.053628,0.120395,21.835831,2.075539,-23.930603,,,,,,,
1523523389.246847,-0.584980,-0.035882,-0.057213,-0.431748,0.215404,-0.098042,-0.551827,0.035875,-0.833186,-0.076805,-0.054856,0.055095,21.616684,2.526756,-23.707520,,,,,,,
1523523389.276815,-0.575174,-0.047785,-0.067670,-0.583848,0.397173,-0.052524,-0.543360,0.047767,-0.838139,-0.121527,-0.059730,-0.082545,21.768753,2.825920,-23.858643,,,,,,,
1523523389.306784,-0.568610,-0.059801,-0.076989,-0.381293,0.095959,-0.052079,-0.537498,0.059765,-0.841144,-0.128441,0.015171,-0.141309,22.227875,3.648994,-23.711670,,,,,,,
1523523389.336783,-0.569448,-0.062418,-0.084465,-0.082065,-0.069182,-0.247745,-0.538117,0.062378,-0.840558,-0.093948,0.093842,-0.093798,22.001984,3.425240,-23.485901,,,,,,,
1523523389.366751,-0.573097,-0.053522,-0.090276,0.302672,-0.125605,-0.368875,-0.541460,0.053496,-0.839022,-0.038114,0.118425,0.033404,22.754196,3.646858,-23.486450,,,,,,,
1523523389.396719,-0.575004,-0.038182,-0.095193,0.289915,0.042779,-0.436172,-0.543441,0.038173,-0.838578,-0.073059,0.109013,0.078782,22.376526,3.423485,-23.560730,,,,,,,
1523523389.426687,-0.571570,-0.028635,-0.103819,-0.010976,0.138832,-0.389607,-0.540731,0.028631,-0.840708,-0.087824,0.083674,0.048334,22.604355,3.572685,-23.336182,,,,,,,
1523523389.456656,-0.569670,-0.024201,-0.113366,-0.011822,0.026831,-0.326639,-0.539196,0.024198,-0.841832,-0.140095,0.034273,0.075276,23.281723,3.944405,-23.562378,,,,,,,
1523523389.486624,-0.570535,-0.018639,-0.119544,0.122279,0.002693,-0.265779,-0.539989,0.018638,-0.841466,-0.175923,0.062157,0.112950,22.751495,3.646416,-23.936462,,,,,,,
1523523389.516592,-0.570245,-0.010775,-0.121941,0.283293,0.045343,-0.191121,-0.539807,0.010775,-0.841720,-0.116092,0.036848,0.099410,22.454208,3.648201,-23.486572,,,,,,,
1523523389.546560,-0.572252,0.000280,-0.118754,0.425383,-0.036620,-0.071583,-0.541526,-0.000280,-0.840684,-0.101800,0.056493,0.174637,22.826355,3.496300,-23.710754,,,,,,,
1523523389.576529,-0.573326,0.008700,-0.114281,0.259108,0.067677,-0.035584,-0.542408,-0.008700,-0.840069,-0.101116,0.028842,0.173627,22.528152,3.273323,-23.035034,,,,,,,
1523523389.606497,-0.572093,0.013246,-0.111225,0.151086,0.082503,0.011197,-0.541345,-0.013246,-0.840696,-0.060889,0.009141,0.178876,22.972473,2.746254,-23.107727,,,,,,,
1523523389.636465,-0.570575,0.014003,-0.109638,-0.027520,0.037108,0.031360,-0.540063,-0.014002,-0.841508,-0.072867,0.012767,0.179765,23.351059,2.969765,-22.883423,,,,,,,
1523523389.666433,-0.570277,0.008726,-0.111497,-0.298891,0.015359,0.047161,-0.539845,-0.008726,-0.841719,-0.075771,0.031309,0.140044,22.299591,3.049126,-23.259277,,,,,,,
1523523389.696402,-0.568423,-0.003193,-0.117557,-0.527087,0.074404,0.042667,-0.538301,0.003193,-0.842746,-0.105452,-0.007206,0.076984,23.052399,3.420586,-23.410339,,,,,,,
1523523389.726370,-0.565836,-0.019063,-0.124982,-0.596649,0.118711,0.112899,-0.536025,0.019062,-0.843987,-0.101732,-0.041019,-0.045127,22.981003,3.870750,-23.562256,,,,,,,
1523523389.756338,-0.565099,-0.034659,-0.130063,-0.436198,-0.034813,0.128092,-0.535177,0.034652,-0.844028,-0.130167,-0.005538,-0.046627,22.608109,4.172279,-23.713562,,,,,,,
1523523389.786306,-0.569330,-0.042879,-0.132741,-0.218410,-0.130428,0.048434,-0.538572,0.042866,-0.841488,-0.110201,-0.032459,0.014492,22.532333,4.322243,-24.089233,,,,,,,
1523523389.816275,-0.571722,-0.048972,-0.135943,-0.271036,-0.012049,0.005656,-0.540432,0.048953,-0.839962,-0.129032,-0.050418,-0.019688,22.981430,4.320076,-24.239014,,,,,,,
1523523389.846243,-0.573266,-0.056715,-0.141329,-0.312065,-0.118153,-0.000670,-0.541507,0.056685,-0.838783,-0.085004,-0.103956,-0.012490,22.686661,5.071022,-24.617188,,,,,,,
1523523389.876211,-0.578934,-0.062992,-0.144774,-0.165050,-0.159110,0.028258,-0.546046,0.062950,-0.835386,-0.100606,-0.128304,0.084410,22.310928,4.997719,-24.617065,,,,,,,
1523523389.906180,-0.580209,-0.065491,-0.144571,-0.034103,0.048508,0.075029,-0.547023,0.065445,-0.834555,-0.088490,-0.112045,0.088034,22.836807,5.220131,-24.842651,,,,,,,
1523523389.936148,-0.578286,-0.068190,-0.143351,-0.129233,0.052809,0.100532,-0.545319,0.068137,-0.835454,-0.120224,-0.121177,0.032033,22.458817,5.146446,-25.217529,,,,,,,
1523523389.966116,-0.579332,-0.073281,-0.145246,-0.194331,-0.025144,0.027039,-0.545996,0.073215,-0.834583,-0.126642,-0.128009,0.032779,22.237411,5.372673,-24.993591,,,,,,,
1523523389.996084,-0.581228,-0.075323,-0.146942,-0.043754,-0.040265,0.007990,-0.547493,0.075252,-0.833419,-0.124198,-0.090495,-0.013306,22.767792,5.595818,-24.469177,,,,,,,
1523523390.026053,-0.583042,-0.073936,-0.144961,0.122411,-0.055965,0.067791,-0.549062,0.073869,-0.832511,-0.149745,-0.003571,-0.062783,22.235184,4.923058,-24.616821,,,,,,,
,,,,,,,,,,,,,,,,25.313344,51.456488,11.115303,4.910000,13.710938,1523523389.995995,
1523523390.056021,-0.584699,-0.068791,-0.138984,0.342337,-0.070222,0.055170,-0.550643,0.068737,-0.831906,-0.129289,0.021656,-0.033557,21.785049,4.775307,-24.391479,,,,,,,
1523523390.085989,-0.584000,-0.059215,-0.132080,0.382825,0.090447,0.008166,-0.550399,0.059180,-0.832801,0.015029,0.053002,0.078071,22.379349,4.247566,-24.463989,,,,,,,
1523523390.115957,-0.578157,-0.052292,-0.126274,0.255183,0.249837,0.053727,-0.545734,0.052268,-0.836326,0.065845,0.107034,0.080665,22.603149,3.946861,-24.162720,,,,,,,
1523523390.145926,-0.571907,-0.047370,-0.120484,0.234268,0.139195,0.079399,-0.540629,0.047353,-0.839927,0.090648,0.122447,0.045997,22.454803,3.798058,-23.637207,,,,,,,
1523523390.175894,-0.569607,-0.046576,-0.117751,-0.064482,0.103235,0.009952,-0.538716,0.046559,-0.841200,0.030842,0.137340,0.067259,23.129944,3.944786,-23.862427,,,,,,,
1523523390.205848,-0.565157,-0.052200,-0.124508,-0.352859,0.125301,-0.155441,-0.534819,0.052177,-0.843354,0.075163,0.108361,0.016144,22.233871,4.024345,-23.338196,,,,,,,
1523523390.235816,-0.564853,-0.060015,-0.134476,-0.446433,0.023202,-0.110650,-0.534328,0.059979,-0.843146,0.064495,0.054401,0.068595,23.064819,4.845222,-23.716064,,,,,,,
1523523390.265785,-0.561117,-0.073654,-0.145246,-0.662595,0.233652,-0.040703,-0.530689,0.073587,-0.844366,-0.032894,0.056265,0.011434,23.369431,5.443626,-23.943298,,,,,,,
1523523390.295783,-0.553263,-0.092170,-0.158016,-0.755283,0.281678,-0.037624,-0.523236,0.092040,-0.847203,-0.043155,0.058992,-0.088512,23.148926,5.894615,-23.945251,,,,,,,
1523523390.325752,-0.552177,-0.110306,-0.170153,-0.662059,-0.091665,-0.016941,-0.521354,0.110082,-0.846210,-0.002984,0.043498,-0.147641,22.851181,6.120964,-23.946289,,,,,,,
1523523390.355720,-0.558721,-0.123516,-0.178032,-0.376273,-0.132984,0.015282,-0.526063,0.123202,-0.841474,-0.061766,0.061857,-0.098346,22.925858,6.494942,-24.622742,,,,,,,
1523523390.385688,-0.559040,-0.127379,-0.180536,0.010325,0.075694,-0.028328,-0.526075,0.127034,-0.840896,-0.074297,0.100123,-0.141938,22.625137,6.421303,-24.622620,,,,,,,
1523523390.415656,-0.557101,-0.120318,-0.180072,0.336192,-0.020915,-0.155855,-0.524905,0.120028,-0.842655,-0.081571,0.075468,-0.180294,22.327393,6.647636,-24.623657,,,,,,,
1523523390.445625,-0.565996,-0.105949,-0.175214,0.588738,-0.484509,-0.051842,-0.533250,0.105751,-0.839322,0.047898,0.040016,-0.090824,24.128387,6.340218,-23.946533,,,,,,,
1523523390.475593,-0.577135,-0.094622,-0.164045,0.376986,-0.250005,0.220549,-0.543184,0.094481,-0.834280,-0.062575,0.031801,-0.047678,22.471405,5.822365,-24.245300,,,,,,,
1523523390.505561,-0.576236,-0.095941,-0.154713,0.011022,0.126570,0.292350,-0.542366,0.095794,-0.834663,-0.081078,-0.004898,-0.137490,22.167496,5.748207,-24.770142,,,,,,,
1523523390.535530,-0.573212,-0.100141,-0.147780,0.052281,0.005592,0.257325,-0.539616,0.099973,-0.835954,-0.036281,-0.128202,-0.112426,22.549088,5.822472,-23.795227,,,,,,,
1523523390.565498,-0.573972,-0.101053,-0.139365,0.149221,-0.074212,0.235121,-0.540201,0.100881,-0.835467,-0.059912,-0.178518,-0.085859,21.413651,5.002205,-24.167542,,,,,,,
1523523390.595466,-0.576689,-0.100692,-0.132204,0.110811,-0.156447,0.157386,-0.542489,0.100522,-0.834026,-0.065513,-0.168515,-0.084690,21.562927,4.701912,-23.791260,,,,,,,
1523523390.625434,-0.586386,-0.104189,-0.130562,-0.235205,-0.499360,0.083955,-0.550353,0.104001,-0.828429,0.002975,-0.123441,-0.006563,20.886444,4.779579,-24.166870,,,,,,,
1523523390.655403,-0.607335,-0.116339,-0.137667,-0.608168,-0.665765,0.004991,-0.566823,0.116077,-0.815620,0.038671,-0.010242,0.185722,20.512955,5.155876,-24.543579,,,,,,,
1523523390.685371,-0.619918,-0.133654,-0.149637,-0.711647,-0.169312,0.009749,-0.575787,0.133256,-0.806667,0.104092,-0.017152,0.258113,20.815002,5.903618,-25.446472,,,,,,,
1523523390.715339,-0.618548,-0.149006,-0.162579,-0.611467,0.340414,-0.130278,-0.573427,0.148455,-0.805693,0.053683,-0.001635,0.266035,19.695007,6.358727,-25.373840,,,,,,,
1523523390.745307,-0.605654,-0.160410,-0.178463,-0.671950,0.529440,-0.243459,-0.561991,0.159723,-0.811575,0.050913,-0.018060,0.061667,20.980576,7.328087,-25.227051,,,,,,,
1523523390.775276,-0.593115,-0.173449,-0.195741,-0.600853,0.511809,-0.177336,-0.550560,0.172580,-0.816761,-0.037224,-0.007984,-0.123638,21.661224,7.850105,-25.153809,,,,,,,
1523523390.805244,-0.580356,-0.178971,-0.203509,0.002456,0.379048,-0.098960,-0.539563,0.178017,-0.822910,-0.136035,0.058372,-0.400784,21.438934,7.851555,-24.703918,,,,,,,
1523523390.835212,-0.580119,-0.160772,-0.196324,1.050109,-0.341462,-0.158192,-0.541055,0.160081,-0.825611,-0.101264,0.036880,-0.212811,21.510651,7.476311,-24.627380,,,,,,,
1523523390.865180,-0.592416,-0.125368,-0.177500,1.416404,-0.500025,-0.104476,-0.553985,0.125040,-0.823083,0.031478,0.041205,0.013818,21.430115,6.652122,-24.174133,,,,,,,
1523523390.895149,-0.597752,-0.092049,-0.156949,1.138398,-0.020684,-0.020988,-0.560403,0.091919,-0.823103,0.102350,0.019852,-0.025026,20.748734,5.605873,-23.495300,,,,,,,
1523523390.925117,-0.591528,-0.071500,-0.143696,0.597220,0.195636,-0.066369,-0.556206,0.071439,-0.827968,0.038856,0.038196,-0.078968,20.969543,5.005180,-23.192749,,,,,,,
1523523390.955085,-0.588923,-0.062594,-0.142757,0.028757,-0.040154,-0.182701,-0.554378,0.062553,-0.829911,0.015987,0.025338,-0.049179,21.344986,5.003563,-23.117554,,,,,,,
1523523390.985053,-0.592974,-0.060223,-0.151876,-0.136977,-0.089341,-0.383094,-0.557816,0.060186,-0.827779,-0.072830,0.034784,0.080190,21.344986,5.003563,-23.117554,,,,,,,
1523523391.015022,-0.596177,-0.058624,-0.165085,-0.250726,-0.176439,-0.347928,-0.560518,0.058590,-0.826066,0.056932,-0.023648,0.043428,21.130753,6.129448,-23.197205,,,,,,,
1523523391.044990,-0.602805,-0.066386,-0.176164,-0.576729,-0.145841,-0.048794,-0.565706,0.066337,-0.821934,-0.049604,0.072411,0.074619,21.437469,6.803062,-23.199707,,,,,,,
1523523391.074958,-0.602326,-0.087328,-0.190191,-0.961946,0.223294,0.027278,-0.564402,0.087217,-0.820880,-0.065344,0.078952,-0.055829,21.062180,6.954445,-23.500488,,,,,,,
1523523391.104926,-0.601907,-0.111395,-0.206183,-0.973411,-0.140371,0.068122,-0.562706,0.111165,-0.819149,0.029213,0.018047,-0.166401,20.988098,7.179558,-23.726440,,,,,,,
,,,,,,,,,,,,,,,,25.313361,51.456492,10.913074,4.290000,14.765625,1523523390.995984,
1523523391.134895,-0.611881,-0.138510,-0.219179,-1.012217,-0.254150,0.245084,-0.568907,0.138067,-0.810730,0.081999,0.048227,-0.107514,20.772812,8.604774,-24.482239,,,,,,,
1523523391.164863,-0.614044,-0.168801,-0.229966,-0.991497,0.139638,0.299052,-0.567988,0.168001,-0.805708,-0.020239,0.113280,-0.091692,20.323730,8.606941,-24.332520,,,,,,,
1523523391.194852,-0.608198,-0.192737,-0.235956,-0.594694,0.295924,0.299184,-0.560809,0.191546,-0.805483,-0.005857,0.032133,-0.083372,20.553055,9.130760,-24.484436,,,,,,,
1523523391.224821,-0.596592,-0.207503,-0.236170,-0.305534,0.404140,0.221502,-0.549774,0.206017,-0.809509,-0.068985,-0.109719,-0.101090,21.302872,9.202232,-24.634399,,,,,,,
1523523391.254789,-0.590946,-0.213013,-0.235887,-0.014007,-0.024677,0.048480,-0.544555,0.211406,-0.811645,0.043731,-0.165111,-0.064606,21.152130,9.127907,-24.634155,,,,,,,
1523523391.284788,-0.597277,-0.208038,-0.232291,0.335183,-0.306768,-0.003192,-0.550267,0.206541,-0.809041,0.066777,-0.126890,0.045811,20.923096,8.903648,-24.933350,,,,,,,
1523523391.314756,-0.599815,-0.195862,-0.223080,0.595689,-0.032455,0.031895,-0.553697,0.194612,-0.809658,0.011155,-0.051637,-0.000034,20.998383,8.978233,-25.008667,,,,,,,
1523523391.344724,-0.597116,-0.172648,-0.212113,0.906724,-0.023920,-0.233208,-0.553901,0.171791,-0.814666,0.040870,-0.057442,-0.041657,20.466843,7.781532,-24.104065,,,,,,,
1523523391.374692,-0.599918,-0.143343,-0.204563,0.882146,-0.196048,-0.377966,-0.558784,0.142853,-0.816917,0.126137,-0.049408,0.051307,20.389145,7.556801,-24.178223,,,,,,,
1523523391.404661,-0.598932,-0.117765,-0.203547,0.613278,0.201688,-0.479792,-0.559856,0.117493,-0.820217,0.053249,0.067504,-0.037601,21.294662,7.703407,-23.503418,,,,,,,
1523523391.434629,-0.592722,-0.098435,-0.205394,0.443625,0.130043,-0.356240,-0.555917,0.098276,-0.825408,0.081613,0.126028,-0.174028,21.067429,7.254799,-23.126709,,,,,,,
1523523391.464597,-0.595504,-0.082597,-0.205242,0.425158,-0.268198,-0.231190,-0.559013,0.082503,-0.825044,-0.023155,0.153947,-0.125609,21.140350,6.954628,-22.975464,,,,,,,
1523523391.494565,-0.599261,-0.073185,-0.203720,0.245081,-0.014825,-0.082410,-0.562523,0.073120,-0.823542,-0.002007,0.118424,-0.073400,21.285400,6.728523,-23.424500,,,,,,,
1523523391.524534,-0.599404,-0.067540,-0.199238,0.262187,-0.074372,0.067909,-0.562864,0.067489,-0.823790,0.031507,0.077683,-0.009371,20.913406,6.805580,-23.049988,,,,,,,
1523523391.554502,-0.601455,-0.065718,-0.190788,0.156470,-0.066042,0.281988,-0.564621,0.065671,-0.822733,0.076462,-0.029981,0.023051,20.383041,6.357811,-23.198486,,,,,,,
1523523391.584470,-0.598203,-0.072605,-0.182164,-0.154966,0.132661,0.392376,-0.561675,0.072541,-0.824172,0.046202,-0.078462,-0.022188,21.133163,6.504204,-23.423645,,,,,,,
1523523391.614438,-0.596401,-0.088513,-0.178865,-0.522782,-0.031889,0.350704,-0.559470,0.088398,-0.824124,0.002951,-0.110599,-0.076374,20.681213,6.131538,-23.122437,,,,,,,
1523523391.644407,-0.598949,-0.111616,-0.185180,-0.942132,-0.127716,0.222632,-0.560266,0.111385,-0.820789,-0.023123,-0.180400,-0.070110,20.233490,6.583183,-23.499451,,,,,,,
1523523391.674375,-0.604208,-0.139636,-0.198698,-1.113812,-0.137574,0.173503,-0.562581,0.139183,-0.814942,-0.017085,-0.190620,0.058015,20.168045,7.857948,-24.029602,,,,,,,
1523523391.704343,-0.613791,-0.165600,-0.210617,-0.832230,-0.362910,0.235731,-0.568091,0.164844,-0.806287,0.057380,-0.122257,0.199002,19.718048,8.309227,-24.781616,,,,,,,
1523523391.734312,-0.619064,-0.185227,-0.215157,-0.481455,0.041884,0.270750,-0.570347,0.184170,-0.800491,0.052571,-0.019894,0.152511,19.422699,8.910316,-25.009155,,,,,,,
1523523391.764280,-0.610823,-0.197031,-0.214781,-0.213316,0.434000,0.172533,-0.562445,0.195759,-0.803327,0.028997,0.001598,0.018720,20.694199,8.604530,-25.082336,,,,,,,
1523523391.794248,-0.593496,-0.200060,-0.219007,-0.137788,0.619390,-0.228236,-0.548108,0.198728,-0.812456,-0.013889,-0.016645,-0.231428,21.001404,8.828972,-24.258057,,,,,,,
1523523391.824216,-0.588869,-0.196506,-0.228232,-0.008045,-0.074180,-0.319075,-0.544731,0.195244,-0.815566,0.101616,-0.007973,-0.168489,20.923706,8.828865,-24.708069,,,,,,,
1523523391.854185,-0.595329,-0.187645,-0.233075,0.320268,-0.173924,-0.303814,-0.550937,0.186546,-0.813430,0.031330,0.123772,0.016555,20.776413,8.829979,-24.258179,,,,,,,
1523523391.884153,-0.594967,-0.167324,-0.233184,0.717359,0.135174,-0.428490,-0.552654,0.166544,-0.816601,0.038601,0.107656,0.035747,20.624619,8.605736,-24.182312,,,,,,,
1523523391.914121,-0.589877,-0.140997,-0.228730,0.781831,0.133073,-0.303770,-0.550739,0.140530,-0.822762,0.223956,0.067310,-0.011878,21.145401,8.228325,-24.255554,,,,,,,
1523523391.944089,-0.582877,-0.123823,-0.226642,0.312636,0.310385,-0.265954,-0.546214,0.123507,-0.828491,0.084696,0.147093,0.027007,21.224762,8.078941,-23.279968,,,,,,,
1523523391.974058,-0.577164,-0.114620,-0.231455,0.208271,0.046552,-0.338213,-0.542069,0.114369,-0.832515,0.074265,0.073344,-0.015142,21.448380,8.077705,-23.504822,,,,,,,
1523523392.004026,-0.576462,-0.106676,-0.234772,0.119036,0.068174,-0.205127,-0.541963,0.106474,-0.833630,0.011247,0.036425,-0.034122,22.198944,8.224190,-23.655029,,,,,,,
1523523392.033994,-0.571446,-0.106825,-0.239140,-0.143701,0.163723,-0.102048,-0.537766,0.106622,-0.836325,-0.117401,0.072517,-0.184396,22.127716,8.374886,-23.280701,,,,,,,
,,,,,,,,,,,,,,,,25.313397,51.456507,10.926390,4.160000,17.578125,1523523391.995974,
1523523392.063962,-0.572257,-0.110493,-0.243234,-0.150267,-0.199467,0.021904,-0.538229,0.110269,-0.835554,-0.023630,-0.035318,-0.175463,21.377899,8.303398,-23.130737,,,,,,,
1523523392.093931,-0.582229,-0.113112,-0.238355,0.138342,-0.323028,0.263065,-0.546373,0.112871,-0.829901,-0.090498,-0.018846,0.030722,21.674728,8.301537,-23.655640,,,,,,,
1523523392.123899,-0.583684,-0.112793,-0.228143,0.217431,-0.020623,0.300097,-0.547600,0.112554,-0.829136,0.007316,-0.008489,-0.073650,20.919373,7.854790,-23.804199,,,,,,,
1523523392.153867,-0.589873,-0.112581,-0.214354,0.275960,-0.394628,0.425191,-0.552734,0.112344,-0.825751,0.150955,-0.080056,-0.016687,20.769836,7.855537,-23.729248,,,,,,,
1523523392.183835,-0.596622,-0.114004,-0.200628,0.141973,-0.131271,0.344913,-0.558204,0.113757,-0.821868,0.028083,-0.026507,-0.009598,21.510818,7.176826,-24.101135,,,,,,,
1523523392.213790,-0.594910,-0.117500,-0.195696,-0.095109,0.049523,0.103749,-0.556570,0.117230,-0.822488,0.078298,-0.049435,-0.130744,20.609970,6.956108,-23.875732,,,,,,,
1523523392.243758,-0.594471,-0.121067,-0.197426,-0.249748,-0.025914,0.005684,-0.555971,0.120771,-0.822381,0.072816,-0.180876,-0.039039,20.535263,7.031380,-23.951111,,,,,,,
1523523392.273757,-0.594314,-0.135616,-0.205162,-0.799892,0.055363,0.128782,-0.554799,0.135201,-0.820926,0.000416,-0.143303,-0.099027,21.216507,7.927864,-24.404358,,,,,,,
1523523392.303725,-0.592172,-0.163486,-0.217569,-1.090636,0.096817,0.229751,-0.550722,0.162759,-0.818667,-0.038328,-0.120996,-0.128767,20.393784,8.156563,-24.405701,,,,,,,
1523523392.333693,-0.589964,-0.189053,-0.227254,-0.737854,0.166245,0.204375,-0.546419,0.187928,-0.816155,-0.011564,-0.115480,-0.047477,20.774902,8.904610,-24.633484,,,,,,,
1523523392.363662,-0.582033,-0.198316,-0.231455,-0.093353,0.276858,-0.038200,-0.538949,0.197019,-0.818974,-0.009742,-0.076215,-0.098492,21.450760,9.126350,-24.859009,,,,,,,
1523523392.393630,-0.583146,-0.189523,-0.233631,0.331814,-0.214343,-0.301638,-0.540793,0.188390,-0.819788,0.086096,-0.009191,0.070383,20.327927,8.982002,-24.258972,,,,,,,
1523523392.423598,-0.588285,-0.172770,-0.237471,0.329140,-0.038996,-0.455248,-0.546674,0.171912,-0.819508,0.049725,0.009286,0.108495,20.774902,8.904610,-24.633484,,,,,,,
1523523392.453566,-0.589954,-0.159790,-0.245824,0.159074,-0.084398,-0.436151,-0.549235,0.159111,-0.820380,0.102473,0.023857,0.069801,21.157227,9.503120,-24.410706,,,,,,,
1523523392.483535,-0.593597,-0.149524,-0.252766,0.146181,-0.015843,-0.359503,-0.553105,0.148967,-0.819685,0.025471,0.062519,0.075804,20.100983,9.057564,-24.709412,,,,,,,
1523523392.513503,-0.592011,-0.141499,-0.257385,0.132070,0.107480,-0.210471,-0.552454,0.141028,-0.821527,0.037424,0.066004,0.008447,20.629562,9.055794,-24.109131,,,,,,,
1523523392.543471,-0.588282,-0.135388,-0.258655,0.163699,0.124824,-0.118830,-0.549854,0.134975,-0.824283,0.034641,0.047581,0.005099,21.603912,9.126183,-24.333923,,,,,,,
1523523392.573439,-0.585769,-0.130565,-0.257237,0.135106,0.064610,-0.009034,-0.548135,0.130194,-0.826194,0.009652,0.085672,-0.003838,21.076828,8.828697,-24.182983,,,,,,,
1523523392.603408,-0.583724,-0.128610,-0.254980,0.143320,0.032502,0.022958,-0.546583,0.128256,-0.827525,0.042326,0.066035,-0.040929,21.075928,8.828560,-24.333008,,,,,,,
1523523392.633376,-0.582216,-0.122018,-0.250403,0.380653,0.047091,-0.021623,-0.545788,0.121716,-0.829036,0.064357,0.061023,-0.038807,22.053009,8.899391,-24.107788,,,,,,,
1523523392.663344,-0.580482,-0.113269,-0.244590,0.371877,-0.017621,-0.033289,-0.544912,0.113027,-0.830840,0.087256,0.069133,-0.145265,21.450333,8.227776,-23.430420,,,,,,,
1523523392.693312,-0.584381,-0.101567,-0.239373,0.487794,-0.223444,-0.121428,-0.548840,0.101393,-0.829755,0.112683,0.080446,-0.013156,21.147812,7.929222,-23.354370,,,,,,,
1523523392.723281,-0.588187,-0.091294,-0.236435,0.206385,-0.085880,-0.090878,-0.552543,0.091167,-0.828484,0.124869,0.057591,-0.038094,21.670227,8.076180,-24.029724,,,,,,,
1523523392.753249,-0.588674,-0.091723,-0.236334,-0.109019,-0.048713,0.024990,-0.552925,0.091594,-0.828182,0.080421,0.090596,-0.083409,20.243362,7.707909,-23.728882,,,,,,,
1523523392.783217,-0.587996,-0.099004,-0.240508,-0.343459,0.003171,-0.016795,-0.551978,0.098843,-0.827979,0.051933,0.037693,-0.234109,20.695251,8.080574,-24.030212,,,,,,,
1523523392.813185,-0.593566,-0.106300,-0.244697,-0.150737,-0.287786,0.037985,-0.556163,0.106100,-0.824272,0.061290,-0.054250,-0.051704,21.371140,8.302315,-24.255737,,,,,,,
1523523392.843154,-0.596614,-0.106530,-0.242593,0.127089,0.025898,0.060252,-0.558659,0.106329,-0.822553,0.025197,-0.052420,-0.088580,20.543030,8.080879,-24.405273,,,,,,,
1523523392.873122,-0.593754,-0.104457,-0.238595,0.121887,0.048256,0.054904,-0.556427,0.104267,-0.824328,0.045486,-0.060001,-0.186978,20.690460,7.780296,-24.329041,,,,,,,
1523523392.903090,-0.595462,-0.102015,-0.236523,0.076628,-0.120097,-0.013164,-0.557975,0.101838,-0.823585,0.061210,-0.091813,-0.148964,19.787079,7.484291,-24.403320,,,,,,,
1523523392.933058,-0.599272,-0.101755,-0.237467,-0.068374,-0.117369,-0.048432,-0.561123,0.101580,-0.821475,0.034009,-0.069780,-0.149518,19.867905,7.934151,-24.179993,,,,,,,
1523523392.963027,-0.604903,-0.101611,-0.239321,0.019709,-0.238688,-0.052514,-0.565749,0.101436,-0.818315,0.025908,-0.072582,-0.039565,20.541077,7.930824,-24.479675,,,,,,,
1523523392.992995,-0.609603,-0.101606,-0.239184,-0.065434,-0.054362,0.056996,-0.569589,0.101431,-0.815647,0.031610,-0.099676,-0.034756,20.767410,8.154655,-24.630432,,,,,,,
1523523393.022963,-0.611019,-0.108086,-0.238389,-0.189329,-0.124176,0.208273,-0.570354,0.107876,-0.814284,0.042583,-0.169384,-0.025255,20.390778,8.081200,-24.780396,,,,,,,
,,,,,,,,,,,,,,,,25.313435,51.456508,11.147828,4.010000,18.984375,1523523392.995962,
1523523393.052932,-0.614783,-0.115636,-0.235246,-0.173397,-0.106378,0.240234,-0.572929,0.115379,-0.811443,0.001228,-0.126182,0.023555,20.018936,8.308022,-24.631470,,,,,,,
1523523393.082900,-0.615596,-0.124249,-0.233961,-0.275427,-0.049508,0.198540,-0.572993,0.123929,-0.810136,0.024424,-0.132962,-0.034850,20.541809,8.455055,-25.231750,,,,,,,
1523523393.112868,-0.618333,-0.129222,-0.234219,-0.136375,-0.136136,0.076201,-0.574844,0.128863,-0.808052,0.046585,-0.140536,0.055611,19.643646,8.459404,-24.932251,,,,,,,
1523523393.142836,-0.622359,-0.131269,-0.235254,-0.109419,-0.118945,0.039974,-0.577938,0.130892,-0.805515,0.129116,-0.093203,0.069141,19.413559,8.085213,-25.155884,,,,,,,
1523523393.172805,-0.622579,-0.135422,-0.235822,-0.173870,0.085962,0.087670,-0.577793,0.135009,-0.804939,0.055515,-0.028793,-0.003960,19.790649,8.158745,-24.930969,,,,,,,
1523523393.202775,-0.616801,-0.143275,-0.239179,-0.392830,0.273694,0.062816,-0.572502,0.142785,-0.807374,0.004707,-0.009134,-0.168044,19.642899,8.384407,-24.931946,,,,,,,
1523523393.232742,-0.610897,-0.153296,-0.246292,-0.374715,0.126791,-0.057428,-0.566876,0.152696,-0.809528,-0.031315,-0.040757,-0.122402,20.475800,9.355354,-25.235413,,,,,,,
1523523393.262710,-0.612993,-0.155550,-0.254165,-0.128137,-0.083029,-0.227516,-0.568372,0.154924,-0.808054,-0.022586,-0.019426,0.089884,20.253952,9.581505,-25.086426,,,,,,,
1523523393.292709,-0.613549,-0.154251,-0.262418,-0.117451,0.121176,-0.257548,-0.568936,0.153640,-0.807902,-0.006350,0.018631,0.117243,20.099167,9.057274,-25.009399,,,,,,,
1523523393.322677,-0.609523,-0.150289,-0.269955,0.042027,0.169899,-0.291577,-0.566023,0.149724,-0.810679,0.060515,0.032817,0.089762,20.030899,9.732582,-25.012146,,,,,,,
1523523393.352646,-0.606633,-0.143352,-0.273676,0.146652,0.079482,-0.163545,-0.564256,0.142861,-0.813145,0.134645,0.043021,0.110219,21.155258,9.802299,-25.236816,,,,,,,
1523523393.382614,-0.604472,-0.139877,-0.273140,0.054007,0.084933,0.000477,-0.562776,0.139421,-0.814766,0.076128,0.071166,0.133248,20.934021,9.729042,-24.486633,,,,,,,
1523523393.412582,-0.601294,-0.139224,-0.272953,0.017993,0.108688,-0.037949,-0.560236,0.138775,-0.816625,0.015803,0.066487,0.079564,21.002869,9.428215,-25.010437,,,,,,,
1523523393.442550,-0.596287,-0.135222,-0.273990,0.151487,0.223877,-0.147706,-0.556448,0.134810,-0.819873,-0.003611,0.031327,-0.004910,20.782837,9.430031,-24.185547,,,,,,,
1523523393.472519,-0.590143,-0.126542,-0.274499,0.285757,0.127095,-0.182674,-0.552030,0.126205,-0.824217,0.028272,0.055726,-0.117570,20.782394,9.429955,-24.260559,,,,,,,
1523523393.502487,-0.591387,-0.116955,-0.271970,0.331807,-0.152423,-0.040640,-0.553704,0.116689,-0.824497,0.078958,0.092952,-0.068921,21.677704,9.275398,-24.784485,,,,,,,
1523523393.532455,-0.593715,-0.111316,-0.265471,0.257959,-0.010935,0.114726,-0.555981,0.111086,-0.823738,0.052136,0.147672,0.008369,21.305573,9.202675,-24.184387,,,,,,,
1523523393.562424,-0.587824,-0.108864,-0.258267,0.166174,0.253780,0.130368,-0.551268,0.108649,-0.827223,0.020629,0.068230,-0.063219,21.003662,8.829338,-23.883057,,,,,,,
1523523393.592392,-0.578966,-0.108820,-0.254188,0.073245,0.185287,0.080293,-0.543922,0.108606,-0.832077,0.080864,-0.022989,-0.141495,22.055267,8.899757,-23.732788,,,,,,,
1523523393.622360,-0.577392,-0.107689,-0.250802,0.134534,-0.015368,0.031536,-0.542678,0.107481,-0.833035,0.024658,-0.051710,-0.090900,21.600037,8.376808,-23.730896,,,,,,,
1523523393.652328,-0.577104,-0.105762,-0.248673,0.067420,-0.019189,-0.003686,-0.542551,0.105565,-0.833363,-0.050146,-0.046300,-0.118725,21.373077,8.452370,-24.181335,,,,,,,
1523523393.682297,-0.579159,-0.102920,-0.249340,0.080456,-0.094992,-0.110144,-0.544424,0.102738,-0.832494,-0.062616,-0.038209,-0.083140,21.447922,8.302269,-23.955750,,,,,,,
1523523393.712265,-0.581651,-0.097680,-0.249532,0.193542,-0.063689,-0.067475,-0.546785,0.097525,-0.831573,0.010027,-0.000494,-0.052368,21.375946,8.602592,-23.956970,,,,,,,
1523523393.742234,-0.581721,-0.092155,-0.245156,0.232606,0.005313,0.078470,-0.547131,0.092024,-0.831973,0.009014,0.059251,-0.043516,21.524429,8.451912,-23.956299,,,,,,,
1523523393.772201,-0.581030,-0.089180,-0.239072,0.162953,0.008317,0.129559,-0.546704,0.089062,-0.832575,0.036221,0.051853,-0.062551,22.042068,8.073997,-24.554504,,,,,,,
1523523393.802171,-0.579412,-0.088134,-0.232926,0.126747,0.064507,0.160378,-0.545406,0.088020,-0.833537,0.054714,-0.030907,-0.044195,20.843475,7.854988,-23.954224,,,,,,,
1523523393.832138,-0.576062,-0.089450,-0.227239,0.023182,0.086935,0.180526,-0.542548,0.089331,-0.835261,0.038413,-0.048910,-0.089605,20.985840,7.179192,-24.101440,,,,,,,
1523523393.862106,-0.574851,-0.092596,-0.223175,0.008916,-0.042371,0.140144,-0.541380,0.092464,-0.835678,0.045927,-0.069011,-0.048096,22.337875,7.472969,-24.251953,,,,,,,
1523523393.892074,-0.576189,-0.092697,-0.218887,0.085814,-0.052027,0.126358,-0.542493,0.092564,-0.834945,0.053769,-0.118947,0.063292,21.134781,7.253227,-24.401672,,,,,,,
1523523393.922043,-0.573646,-0.093410,-0.213574,-0.005758,0.097428,0.210326,-0.540332,0.093274,-0.836266,0.045733,-0.142179,0.060570,21.209030,7.177895,-24.401367,,,,,,,
1523523393.952011,-0.568226,-0.099421,-0.209031,-0.186063,0.190988,0.266573,-0.535480,0.099257,-0.838695,0.002704,-0.144652,-0.008245,22.263016,7.623070,-24.477539,,,,,,,
1523523393.981979,-0.562603,-0.108823,-0.207125,-0.291701,0.135362,0.205812,-0.530234,0.108609,-0.840866,0.000678,-0.132840,-0.038102,21.812576,7.400398,-24.176880,,,,,,,
1523523394.011947,-0.562213,-0.116857,-0.208329,-0.254515,-0.058251,0.072841,-0.529424,0.116591,-0.840307,0.037404,-0.093566,0.010625,21.510803,7.401466,-24.477051,,,,,,,
1523523394.041916,-0.563487,-0.120360,-0.210002,-0.073303,0.037384,0.007886,-0.530273,0.120070,-0.839281,0.063140,-0.040572,0.049349,22.639938,7.996071,-24.778931,,,,,,,
,,,,,,,,,,,,,,,,25.313457,51.456510,11.424815,2.890000,18.281250,1523523393.995953,
1523523394.071884,-0.558501,-0.119925,-0.210526,-0.022148,0.235014,-0.008258,-0.526109,0.119638,-0.841959,0.063356,0.038672,-0.029699,21.590134,7.925957,-24.629150,,,,,,,
1523523394.101852,-0.549922,-0.120116,-0.211959,-0.070927,0.276759,-0.034969,-0.518855,0.119828,-0.846422,0.089884,0.036148,-0.083006,22.571381,8.147209,-23.954529,,,,,,,
1523523394.131820,-0.544967,-0.121477,-0.213737,-0.102691,0.131078,-0.008213,-0.514570,0.121178,-0.848842,0.076276,0.021095,-0.073979,23.615036,7.916832,-24.628113,,,,,,,
1523523394.161789,-0.538646,-0.126161,-0.216039,-0.187729,0.236379,0.008658,-0.508897,0.125826,-0.851581,0.035066,0.020261,-0.111080,22.796387,8.146202,-23.954407,,,,,,,
1523523394.191757,-0.533331,-0.127589,-0.218179,0.016294,0.130362,-0.099759,-0.504272,0.127243,-0.854118,-0.016571,-0.000275,-0.055931,23.021378,8.145180,-23.954285,,,,,,,
1523523394.221717,-0.527015,-0.125811,-0.221721,-0.065132,0.264680,-0.132982,-0.498980,0.125479,-0.857480,-0.023603,-0.004828,-0.088290,23.548462,8.218040,-23.729309,,,,,,,
1523523394.251686,-0.522282,-0.127694,-0.227972,-0.198322,0.052722,-0.164841,-0.494797,0.127347,-0.859626,-0.052047,0.011554,-0.132775,22.499695,8.297829,-23.655212,,,,,,,
1523523394.281654,-0.526007,-0.128206,-0.233362,0.003399,-0.140486,-0.112280,-0.497963,0.127855,-0.857721,0.007439,-0.001588,0.036462,23.022736,8.145409,-23.729248,,,,,,,
1523523394.311653,-0.525666,-0.124915,-0.232169,0.135181,0.139681,0.043109,-0.497879,0.124591,-0.858250,0.005524,0.065885,0.010990,23.997360,8.290718,-24.029419,,,,,,,
1523523394.341621,-0.519260,-0.123867,-0.228745,0.051742,0.155552,0.084574,-0.492435,0.123551,-0.861535,0.054859,0.058303,-0.085167,23.397430,7.844170,-23.277954,,,,,,,
1523523394.371589,-0.518781,-0.123503,-0.225350,0.104087,-0.067761,0.090162,-0.492045,0.123189,-0.861809,0.094965,0.036860,-0.018669,22.795197,7.846504,-23.653259,,,,,,,
1523523394.401557,-0.519059,-0.121374,-0.220766,0.183738,0.044829,0.066677,-0.492414,0.121076,-0.861898,0.073362,0.057986,0.006170,24.069077,7.915474,-23.952881,,,,,,,
1523523394.431526,-0.514915,-0.117630,-0.216643,0.182010,0.098201,0.033586,-0.489057,0.117359,-0.864320,0.084700,0.035580,-0.065337,23.391434,7.468819,-23.651428,,,,,,,
1523523394.461494,-0.510801,-0.115216,-0.214021,0.085025,0.106043,0.009007,-0.485635,0.114961,-0.866569,0.035317,0.007857,-0.085396,23.094452,7.545540,-23.276855,,,,,,,
1523523394.491462,-0.509539,-0.113756,-0.213616,0.056932,-0.039005,-0.054810,-0.484622,0.113511,-0.867327,0.009250,-0.039322,-0.010252,23.242340,7.469643,-23.501465,,,,,,,
1523523394.521430,-0.509491,-0.112804,-0.215121,-0.036725,0.008056,-0.067698,-0.484633,0.112565,-0.867444,-0.006838,-0.074815,-0.002993,23.240097,7.244652,-23.500610,,,,,,,
1523523394.551399,-0.509536,-0.114396,-0.217352,-0.089588,-0.055897,-0.019731,-0.484584,0.114146,-0.867265,-0.016606,-0.091975,-0.011809,23.467026,7.618324,-23.801941,,,,,,,
1523523394.581367,-0.512643,-0.115621,-0.217346,-0.012418,-0.126803,0.064566,-0.487208,0.115363,-0.865632,-0.015600,-0.068214,0.039232,24.291687,7.764320,-24.102112,,,,,,,
1523523394.611335,-0.514398,-0.115900,-0.213932,0.030370,-0.024366,0.139088,-0.488710,0.115641,-0.864748,-0.002333,-0.023188,0.030840,23.018997,7.770424,-23.727783,,,,,,,
1523523394.641303,-0.514134,-0.116055,-0.210013,0.021974,-0.019933,0.115638,-0.488472,0.115795,-0.864862,0.007912,-0.019390,-0.013602,22.718109,7.771629,-23.877930,,,,,,,
1523523394.671272,-0.515533,-0.116984,-0.209003,-0.070520,-0.046645,0.017569,-0.489629,0.116717,-0.864084,-0.012172,-0.023089,0.007837,22.720505,7.921761,-23.728516,,,,,,,
1523523394.701240,-0.516874,-0.118066,-0.210278,-0.028630,-0.042183,-0.027158,-0.490724,0.117792,-0.863316,-0.022139,-0.056070,0.020420,23.243988,7.769417,-23.727661,,,,,,,
1523523394.731208,-0.518961,-0.116764,-0.210610,0.036314,-0.074276,-0.019619,-0.492601,0.116499,-0.862422,-0.056975,-0.016554,0.054912,23.245331,7.769630,-23.502686,,,,,,,
1523523394.761176,-0.519681,-0.115799,-0.210582,0.019623,0.029836,-0.008029,-0.493277,0.115541,-0.862164,-0.068475,-0.021364,0.035260,23.020187,7.845497,-23.653137,,,,,,,
1523523394.791145,-0.518751,-0.114343,-0.210411,0.034609,0.029800,-0.011197,-0.492558,0.114094,-0.862768,-0.059795,-0.028004,0.039098,23.166885,7.694527,-23.952454,,,,,,,
1523523394.821113,-0.518066,-0.113562,-0.210407,0.010095,0.053184,-0.001659,-0.492011,0.113318,-0.863182,-0.024926,-0.024772,0.020455,23.621643,7.992775,-23.653381,,,,,,,
1523523394.851081,-0.518106,-0.113401,-0.209732,0.009697,0.000875,0.031433,-0.492055,0.113159,-0.863178,-0.021770,0.018632,0.020161,23.773163,7.917473,-23.278015,,,,,,,
1523523394.881050,-0.519121,-0.113554,-0.209171,-0.007407,-0.008590,0.025027,-0.492922,0.113310,-0.862664,-0.024199,0.058046,0.033104,23.327347,8.294563,-23.204773,,,,,,,
1523523394.911018,-0.518005,-0.112846,-0.209221,0.038071,0.071356,-0.027228,-0.491999,0.112607,-0.863282,-0.035345,0.041766,0.016984,23.252228,8.145119,-22.979126,,,,,,,
1523523394.940986,-0.516758,-0.111794,-0.209303,0.018604,0.030924,-0.013346,-0.490980,0.111561,-0.863998,-0.052538,0.003658,0.029205,23.248779,8.069679,-23.428894,,,,,,,
1523523394.970954,-0.516147,-0.112319,-0.208761,0.017265,0.030571,0.037797,-0.490423,0.112083,-0.864247,-0.067118,-0.051307,0.047215,23.249680,8.069832,-23.278931,,,,,,,
1523523395.000923,-0.515823,-0.113872,-0.207267,-0.035439,0.001683,0.085729,-0.490056,0.113626,-0.864253,-0.066310,-0.060464,0.010005,24.144547,7.690575,-23.501892,,,,,,,
1523523395.030891,-0.516724,-0.117780,-0.205676,-0.099848,-0.035623,0.123023,-0.490612,0.117508,-0.863419,-0.077687,-0.050156,-0.028488,23.394440,7.544182,-23.276733,,,,,,,
1523523395.060859,-0.519025,-0.120188,-0.202575,0.025843,-0.072236,0.147660,-0.492455,0.119899,-0.862039,-0.050788,-0.034786,-0.003241,23.767929,7.392509,-23.275940,,,,,,,
,,,,,,,,,,,,,,,,25.313472,51.456513,11.424815,2.170000,17.226562,1523523394.995941,
1523523395.090827,-0.519939,-0.119868,-0.198732,0.059503,-0.014512,0.087950,-0.493262,0.119582,-0.861622,-0.068856,0.000246,-0.035107,24.068329,7.840477,-23.952576,,,,,,,
1523523395.120796,-0.520963,-0.118258,-0.196665,0.095018,-0.045925,0.008099,-0.494240,0.117982,-0.861282,-0.042656,-0.028886,0.010940,23.242188,7.544502,-23.651794,,,,,,,
1523523395.150764,-0.521453,-0.115650,-0.195100,0.087702,-0.000282,0.017638,-0.494813,0.115393,-0.861304,-0.026672,-0.034186,0.024298,23.016754,7.320808,-23.350952,,,,,,,
1523523395.180732,-0.520730,-0.115429,-0.192624,0.005332,0.059919,0.099560,-0.494203,0.115173,-0.861684,-0.073394,-0.016616,-0.016307,23.688873,7.167564,-23.575073,,,,,,,
1523523395.210687,-0.519170,-0.117599,-0.190061,-0.010056,-0.007149,0.124115,-0.492733,0.117329,-0.862235,-0.052250,-0.035175,-0.017175,23.390091,7.243980,-23.500488,,,,,,,
1523523395.240656,-0.520518,-0.117980,-0.185899,0.092185,-0.055326,0.135979,-0.493872,0.117706,-0.861531,-0.042535,-0.028625,0.006993,22.865112,7.246330,-23.500793,,,,,,,
1523523395.270624,-0.521505,-0.117085,-0.180433,0.111346,-0.053300,0.145568,-0.494774,0.116818,-0.861134,-0.045310,-0.033200,-0.007991,23.986313,7.090919,-23.874573,,,,,,,
1523523395.300592,-0.523102,-0.117119,-0.175582,0.023740,-0.059519,0.152975,-0.496148,0.116851,-0.860339,-0.029167,-0.075973,-0.014905,22.859879,6.721367,-23.498657,,,,,,,
1523523395.330591,-0.524858,-0.120594,-0.171956,-0.074760,-0.085999,0.178485,-0.497451,0.120302,-0.859110,-0.026337,-0.092577,-0.028799,22.781296,6.496498,-23.722778,,,,,,,
1523523395.360559,-0.527840,-0.125444,-0.168130,-0.061187,-0.123450,0.208382,-0.499711,0.125115,-0.857109,-0.033035,-0.096810,0.014351,23.903381,6.565849,-24.322571,,,,,,,
1523523395.390528,-0.531751,-0.125989,-0.162384,0.152489,-0.160779,0.151047,-0.503025,0.125656,-0.855089,-0.043820,-0.081039,0.118577,22.255249,6.573555,-24.023438,,,,,,,
1523523395.420496,-0.534949,-0.120484,-0.156361,0.252433,-0.109440,0.069017,-0.506101,0.120192,-0.854058,-0.038225,-0.056731,0.155892,22.630234,6.571877,-24.023193,,,,,,,
1523523395.450464,-0.536580,-0.115573,-0.151965,0.153583,-0.037819,0.044358,-0.507789,0.115315,-0.853729,-0.031823,-0.088796,0.169402,22.929321,6.345757,-23.797119,,,,,,,
1523523395.480432,-0.535859,-0.113969,-0.149952,0.021671,0.049755,0.028190,-0.507268,0.113722,-0.854252,-0.093791,-0.115080,0.117314,22.476807,6.047874,-23.721130,,,,,,,
1523523395.510401,-0.534563,-0.117476,-0.150702,-0.213465,0.020418,0.051491,-0.505953,0.117206,-0.854561,-0.133939,-0.121463,0.059334,22.929779,6.345833,-23.722107,,,,,,,
1523523395.540369,-0.537082,-0.124169,-0.151956,-0.150338,-0.138348,0.092184,-0.507692,0.123850,-0.852590,-0.114562,-0.063745,0.098043,23.680176,6.567146,-24.022705,,,,,,,
1523523395.570337,-0.539214,-0.124781,-0.149170,0.132108,0.008526,0.109300,-0.509470,0.124457,-0.851440,-0.071554,0.001534,0.021195,22.626938,6.196968,-23.946716,,,,,,,
1523523395.600305,-0.536094,-0.122438,-0.144114,0.106989,0.128622,0.115551,-0.506958,0.122133,-0.853274,-0.039062,0.079985,-0.130078,22.699402,5.672096,-23.494568,,,,,,,
1523523395.630274,-0.536148,-0.118886,-0.141638,0.196684,-0.076482,-0.064253,-0.507223,0.118606,-0.853614,-0.022745,0.178864,-0.019845,23.672256,5.592491,-23.718750,,,,,,,
1523523395.660242,-0.537341,-0.109630,-0.141069,0.284441,0.062288,-0.186855,-0.508781,0.109411,-0.853915,-0.057534,0.188182,0.049426,23.000137,5.745735,-23.494690,,,,,,,
1523523395.690210,-0.529183,-0.100016,-0.144419,0.193653,0.379016,-0.316171,-0.502305,0.099850,-0.858906,-0.116454,0.087101,-0.022640,23.600861,5.593407,-23.118774,,,,,,,
1523523395.720178,-0.522349,-0.090534,-0.151002,0.149822,0.110405,-0.332983,-0.496874,0.090411,-0.863100,-0.135359,-0.043246,0.026965,23.829468,5.817604,-22.894592,,,,,,,
1523523395.750147,-0.523361,-0.086373,-0.154167,-0.006516,-0.100743,-0.018558,-0.497931,0.086266,-0.862915,-0.128443,-0.112282,0.091080,23.904465,5.817268,-22.894592,,,,,,,
1523523395.780115,-0.527124,-0.091004,-0.151075,-0.128871,-0.125960,0.287184,-0.500968,0.090878,-0.860681,-0.242852,-0.090786,0.145593,23.907455,6.341881,-23.271667,,,,,,,
1523523395.810083,-0.529894,-0.101607,-0.142099,-0.146220,-0.126625,0.540761,-0.502835,0.101433,-0.858411,-0.217960,-0.117805,0.120999,24.429718,6.339073,-23.721313,,,,,,,
1523523395.840051,-0.532473,-0.111023,-0.126686,0.065918,-0.071640,0.653820,-0.504540,0.110795,-0.856250,-0.172935,-0.191712,0.169071,23.678238,6.192467,-23.721130,,,,,,,
1523523395.870020,-0.538238,-0.111917,-0.105915,0.486754,-0.319944,0.608555,-0.509417,0.111683,-0.853242,-0.093138,-0.207127,0.283799,23.142792,5.369499,-24.093079,,,,,,,
1523523395.899988,-0.547884,-0.101188,-0.081543,0.855642,-0.395131,0.440553,-0.518217,0.101015,-0.849262,-0.019579,-0.191668,0.375996,23.286194,4.619011,-23.940063,,,,,,,
1523523395.929956,-0.559387,-0.080001,-0.058972,1.085362,-0.495457,0.117976,-0.528970,0.079916,-0.844870,0.054803,-0.096960,0.452688,21.621002,3.276207,-24.235535,,,,,,,
1523523395.959924,-0.569687,-0.046390,-0.043221,1.322014,-0.188765,-0.363773,-0.538789,0.046374,-0.841164,-0.024413,0.051069,0.614662,21.760956,2.225655,-24.156250,,,,,,,
1523523395.989893,-0.556771,-0.003765,-0.047028,0.819693,1.051261,-1.241259,-0.528444,0.003765,-0.848960,-0.297819,-0.163510,0.464438,23.341782,1.994896,-22.804565,,,,,,,
1523523396.019861,-0.502752,0.004833,-0.084724,-1.451194,1.947394,-1.092546,-0.481833,-0.004833,-0.876249,-0.194589,-0.233875,-0.259371,24.930939,2.963493,-22.057617,,,,,,,
1523523396.049829,-0.464481,-0.055764,-0.134906,-2.904489,0.940832,-0.083559,-0.447262,0.055735,-0.892665,-0.224735,0.137655,-0.821950,27.580215,5.576256,-22.366760,,,,,,,
1523523396.079798,-0.468950,-0.122849,-0.153145,-1.576153,-1.062916,0.612033,-0.448544,0.122540,-0.885321,-0.331882,0.556400,-0.899058,26.382950,6.255959,-23.045044,,,,,,,
,,,,,,,,,,,,,,,,25.313492,51.456517,11.735221,2.110000,14.062500,1523523395.995930,
1523523396.109766,-0.505247,-0.132088,-0.145830,0.751056,-0.912739,0.190603,-0.479808,0.131704,-0.867432,-0.194494,0.565363,-0.076766,24.579254,6.787575,-24.548096,,,,,,,
1523523396.139734,-0.513459,-0.107927,-0.126774,0.891535,-0.185534,0.086617,-0.488335,0.107718,-0.865982,0.042046,0.461221,0.023606,24.335815,5.213234,-24.991882,,,,,,,
1523523396.169702,-0.520235,-0.091696,-0.119906,0.454515,-0.202137,-0.270639,-0.494996,0.091567,-0.864057,0.095994,0.137452,0.001173,24.707657,4.986397,-25.140869,,,,,,,
1523523396.199678,-0.521224,-0.077790,-0.124048,0.255879,0.175050,-0.345756,-0.496436,0.077712,-0.864588,0.026419,0.024980,-0.074484,24.184204,4.914146,-24.765808,,,,,,,
1523523396.229646,-0.509585,-0.069830,-0.127922,0.092992,0.476045,-0.175697,-0.486626,0.069774,-0.870819,-0.060676,-0.179622,-0.103760,24.937469,5.061043,-24.466003,,,,,,,
1523523396.259614,-0.505459,-0.069699,-0.133636,-0.211262,-0.403383,-0.124967,-0.483033,0.069642,-0.872828,-0.274550,-0.308717,-0.028310,25.391037,5.508858,-24.617554,,,,,,,
1523523396.289582,-0.523164,-0.079679,-0.135159,-0.361166,-0.521608,0.268235,-0.498038,0.079595,-0.863494,-0.208871,-0.426473,0.110900,25.089066,5.809395,-25.443909,,,,,,,
1523523396.319551,-0.536646,-0.090711,-0.127623,-0.014026,-0.447618,0.506020,-0.509154,0.090587,-0.855895,-0.224931,-0.432323,0.188842,25.310165,5.957497,-26.344360,,,,,,,
1523523396.349549,-0.539210,-0.095680,-0.107544,0.341687,0.110807,0.752938,-0.511109,0.095534,-0.854190,-0.168914,-0.377684,0.093982,24.106323,5.438133,-26.117920,,,,,,,
1523523396.379518,-0.531693,-0.095434,-0.080319,0.489539,-0.000125,0.761677,-0.504686,0.095289,-0.858028,-0.092253,-0.415052,-0.029591,24.546005,4.086693,-25.587280,,,,,,,
1523523396.409486,-0.542902,-0.095670,-0.057804,0.312268,-0.714471,0.560878,-0.514261,0.095525,-0.852297,-0.091178,-0.393681,-0.015897,24.545563,4.086617,-25.662292,,,,,,,
1523523396.439454,-0.564719,-0.092183,-0.038783,0.504094,-0.655924,0.476792,-0.532906,0.092053,-0.841152,-0.016075,-0.290493,0.296154,22.956680,2.968315,-26.108643,,,,,,,
1523523396.469422,-0.570979,-0.086417,-0.019493,0.424223,0.013194,0.400403,-0.538439,0.086309,-0.838233,-0.010404,-0.154745,0.291098,23.028549,2.518227,-25.881836,,,,,,,
1523523396.499391,-0.562247,-0.089541,-0.010005,-0.203700,0.313166,0.274966,-0.530953,0.089421,-0.842670,-0.074562,-0.138875,0.112583,22.954163,2.443779,-25.656494,,,,,,,
1523523396.529359,-0.555960,-0.106335,-0.013167,-0.676865,0.166199,0.185265,-0.524778,0.106134,-0.844597,-0.148058,-0.166361,0.066368,23.180481,2.892235,-26.183228,,,,,,,
1523523396.559327,-0.553590,-0.126340,-0.019476,-0.620801,0.044974,0.179029,-0.521554,0.126004,-0.843863,-0.245521,-0.236737,0.047217,23.409195,3.490837,-26.560486,,,,,,,
1523523396.589295,-0.556063,-0.138187,-0.019806,-0.072836,-0.082096,0.225378,-0.522814,0.137748,-0.841243,-0.261426,-0.262046,0.177471,24.079056,3.561836,-27.535400,,,,,,,
1523523396.619264,-0.552768,-0.131721,-0.007900,0.477258,0.240422,0.254237,-0.520496,0.131340,-0.843702,-0.177013,-0.211922,-0.011126,23.553345,3.039955,-26.783569,,,,,,,
1523523396.649232,-0.551544,-0.122074,0.005003,0.436632,-0.319025,0.190838,-0.520104,0.121771,-0.845378,-0.124397,-0.142599,-0.045430,23.398880,2.366035,-26.406006,,,,,,,
1523523396.679200,-0.569184,-0.116631,0.015263,0.265095,-0.703312,0.198552,-0.535284,0.116367,-0.836618,-0.074915,-0.050846,0.114069,22.048187,2.297112,-26.406372,,,,,,,
