timestamp(unix),attitude_roll(radians),attitude_pitch(radians),attitude_yaw(radians),rotation_rate_x(radians/s),rotation_rate_y(radians/s),rotation_rate_z(radians/s),gravity_x(G),gravity_y(G),gravity_z(G),user_acc_x(G),user_acc_y(G),user_acc_z(G),magnetic_field_x(microteslas),magnetic_field_y(microteslas),magnetic_field_z(microteslas),latitude(degree),longitude(degree),altitude(meter),speed(m/s),course(degree),timestamp(unix),User Mark
1522136875.683108,-0.374587,-0.031709,-1.613467,-0.094245,-0.004546,0.002753,-0.365704,0.031704,-0.930191,0.049649,0.056004,0.010071,19.868622,3.683439,-4.465454,,,,,,,
,,,,,,,,,,,,,,,,25.311004,51.444851,10.444881,-1.000000,-1.000000,1522136872.110439,
1522136875.713076,-0.373279,-0.032993,-1.614198,0.008486,0.040942,-0.003614,-0.364472,0.032987,-0.930630,0.019730,0.057039,-0.023365,20.235794,3.755369,-5.890564,,,,,,,
1522136875.743045,-0.377032,-0.029951,-1.613508,0.156935,-0.233316,-0.042645,-0.367998,0.029946,-0.929344,0.033235,0.060142,-0.017158,20.530807,3.977842,-7.091309,,,,,,,
1522136875.773013,-0.382995,-0.024773,-1.614286,0.155371,-0.172332,-0.100251,-0.373585,0.024770,-0.927265,0.041615,0.036845,0.001957,20.676285,4.201063,-8.217163,,,,,,,
1522136875.802981,-0.387600,-0.020624,-1.614602,0.119870,-0.159907,-0.039563,-0.377887,0.020622,-0.925622,0.066181,0.039726,0.001336,18.642960,4.133940,-9.492920,,,,,,,
1522136875.832949,-0.391014,-0.018039,-1.614654,0.064661,-0.096016,-0.041787,-0.381064,0.018038,-0.924372,0.033927,0.059324,-0.011297,18.562088,4.133314,-10.467957,,,,,,,
1522136875.862918,-0.394050,-0.016874,-1.615173,0.022788,-0.127890,-0.025811,-0.383876,0.016873,-0.923230,0.033474,0.064960,-0.001697,17.513641,4.288038,-10.469055,,,,,,,
1522136875.892886,-0.396342,-0.016718,-1.614265,0.025007,-0.024291,0.048679,-0.385992,0.016718,-0.922350,0.072134,0.050391,-0.014036,16.688065,4.141905,-10.318909,,,,,,,
1522136875.922854,-0.394774,-0.017667,-1.612590,-0.031361,0.041628,0.063488,-0.384540,0.017666,-0.922939,0.034168,0.045200,-0.082279,16.237076,3.769377,-9.867676,,,,,,,
1522136875.952822,-0.396291,-0.021347,-1.611477,-0.126299,-0.155914,0.081733,-0.385912,0.021345,-0.922289,0.007662,0.055040,-0.066038,16.985687,3.765791,-10.092285,,,,,,,
1522136875.982791,-0.402874,-0.024916,-1.611086,-0.056108,-0.245159,0.056296,-0.391942,0.024913,-0.919652,0.023778,0.018528,0.014486,16.675644,3.166517,-10.765015,,,,,,,
1522136876.012759,-0.406088,-0.025686,-1.608205,0.058958,0.008094,0.116861,-0.394888,0.025683,-0.918370,0.070028,0.000379,0.021886,16.145874,3.093229,-11.439941,,,,,,,
1522136876.042727,-0.402260,-0.026015,-1.605206,0.013812,0.113798,0.061311,-0.391366,0.026012,-0.919867,-0.006202,0.031377,-0.087152,14.780472,2.497801,-13.013306,,,,,,,
1522136876.072695,-0.403232,-0.026983,-1.604571,-0.052431,-0.180114,0.022139,-0.392250,0.026979,-0.919463,0.000084,0.036634,-0.052324,13.875259,2.201490,-13.387573,,,,,,,
1522136876.102664,-0.412053,-0.028130,-1.605338,-0.017756,-0.330910,-0.002197,-0.400332,0.028126,-0.915938,0.049563,0.007717,0.022185,11.096054,1.913771,-13.612793,,,,,,,
,,,,,,,,,,,,,,,,25.311001,51.444882,10.568358,0.204366,-1.000000,1522136876.107810,
1522136876.132632,-0.417580,-0.027559,-1.603749,0.072983,-0.023446,0.062566,-0.405395,0.027556,-0.913726,0.072296,0.028078,0.001555,9.219498,1.397825,-13.011658,,,,,,,
1522136876.162600,-0.410795,-0.027261,-1.601610,0.020175,0.333772,0.055772,-0.399190,0.027257,-0.916463,0.048299,0.072688,-0.125743,7.877228,1.180510,-11.361511,,,,,,,
1522136876.192568,-0.406277,-0.026985,-1.600891,0.029347,-0.083348,-0.016258,-0.395048,0.026982,-0.918264,0.015608,0.041209,-0.155055,7.370590,1.036085,-8.061096,,,,,,,
1522136876.222537,-0.417018,-0.025227,-1.600445,0.094598,-0.490719,0.017229,-0.404906,0.025224,-0.914010,0.058593,0.007735,-0.026145,7.453247,0.812376,-6.410217,,,,,,,
1522136876.252518,-0.430961,-0.022709,-1.597155,0.149128,-0.392547,0.088571,-0.417636,0.022708,-0.908330,0.069797,0.022062,0.030233,9.183136,0.356169,-4.832520,,,,,,,
1522136876.282486,-0.437124,-0.020666,-1.592536,0.102152,-0.137518,0.104264,-0.423245,0.020665,-0.905779,0.069470,0.043086,-0.010191,9.407974,0.205381,-4.606812,,,,,,,
1522136876.312455,-0.440728,-0.019720,-1.590189,0.047010,-0.149529,0.020050,-0.426515,0.019719,-0.904265,0.035936,0.042552,-0.009584,11.131714,0.571791,-5.432373,,,,,,,
1522136876.342423,-0.448042,-0.017820,-1.589837,0.089338,-0.309623,-0.045822,-0.433132,0.017819,-0.901154,0.010830,0.024753,0.054505,11.578217,0.718962,-6.257751,,,,,,,
1522136876.372391,-0.455204,-0.014413,-1.588542,0.136694,-0.155021,0.014790,-0.439600,0.014413,-0.898078,0.035547,-0.008126,0.064231,11.944946,0.566191,-7.381958,,,,,,,
1522136876.402359,-0.451517,-0.012670,-1.586838,0.016023,0.319168,0.019550,-0.436296,0.012670,-0.899714,0.056718,0.034892,-0.005803,11.118942,0.419981,-7.306763,,,,,,,
1522136876.432328,-0.438317,-0.015043,-1.587883,-0.136820,0.460157,-0.030779,-0.424368,0.015042,-0.905365,0.008093,0.055835,-0.134903,10.668808,0.272230,-7.081421,,,,,,,
1522136876.462296,-0.430661,-0.018597,-1.590867,-0.135271,0.071355,-0.048495,-0.417399,0.018596,-0.908533,0.032145,0.020589,-0.085379,11.649918,0.568342,-6.557129,,,,,,,
1522136876.492264,-0.432844,-0.019381,-1.593528,0.001846,-0.127298,-0.103607,-0.419375,0.019380,-0.907606,0.061099,0.011839,-0.001101,10.823471,0.197432,-6.181030,,,,,,,
1522136876.522232,-0.432857,-0.015893,-1.597154,0.083226,0.064375,-0.188987,-0.419413,0.015892,-0.907656,0.038188,0.034324,-0.011121,12.394653,-0.184633,-6.178711,,,,,,,
1522136876.552201,-0.430427,-0.010363,-1.601077,0.148329,0.050436,-0.195312,-0.417237,0.010363,-0.908739,0.020142,0.053266,-0.001769,14.041733,-0.342272,-6.402283,,,,,,,
1522136876.582169,-0.430567,-0.002621,-1.603875,0.223745,-0.034787,-0.193032,-0.417384,0.002621,-0.908726,0.020625,0.050358,0.011235,14.867874,0.178343,-7.078979,,,,,,,
1522136876.612137,-0.429449,0.004917,-1.605912,0.168617,0.101100,-0.152732,-0.416365,-0.004917,-0.909184,0.049666,0.053852,-0.028972,15.018478,0.552137,-7.605408,,,,,,,
1522136876.642105,-0.422477,0.007903,-1.608158,0.008860,0.290017,-0.064598,-0.410008,-0.007903,-0.912048,0.035390,0.040343,-0.080079,14.943741,1.301268,-8.808411,,,,,,,
1522136876.672074,-0.415365,0.006269,-1.608227,-0.053328,0.138400,0.060179,-0.403516,-0.006268,-0.914951,0.058453,0.043378,-0.107555,14.188675,1.154066,-9.408203,,,,,,,
1522136876.702042,-0.417301,0.005404,-1.607354,0.024541,-0.190725,-0.006566,-0.405289,-0.005404,-0.914173,0.041230,0.030047,-0.050107,12.462967,1.536070,-10.160583,,,,,,,
1522136876.732010,-0.423524,0.007299,-1.608852,0.050402,-0.214785,-0.071512,-0.410965,-0.007299,-0.911622,0.055756,0.022634,0.010407,11.943085,1.913633,-9.937317,,,,,,,
1522136876.761978,-0.427704,0.009448,-1.609761,0.063788,-0.051390,-0.040768,-0.414765,-0.009448,-0.909880,0.025543,0.023303,0.073530,10.675064,1.621000,-8.286865,,,,,,,
1522136876.791947,-0.422438,0.009088,-1.609275,-0.057644,0.342599,0.038648,-0.409968,-0.009088,-0.912055,0.041621,0.035028,0.048941,10.824493,1.021223,-7.384338,,,,,,,
1522136876.821915,-0.406323,0.005197,-1.610049,-0.146091,0.606403,0.029796,-0.395229,-0.005197,-0.918568,0.062115,0.052835,-0.093029,12.556625,1.014631,-6.183411,,,,,,,
1522136876.851883,-0.389468,0.001280,-1.611017,-0.115535,0.505414,0.022473,-0.379696,-0.001280,-0.925111,0.038387,0.048246,-0.160568,14.060333,0.708998,-5.056458,,,,,,,
1522136876.881851,-0.379417,-0.002545,-1.610706,-0.102334,0.199937,0.092042,-0.370378,0.002545,-0.928878,0.076112,0.002155,-0.120271,14.504013,0.256697,-5.354492,,,,,,,
1522136876.911820,-0.377660,-0.005569,-1.607686,-0.008546,-0.017416,0.141346,-0.368740,0.005569,-0.929516,0.082501,-0.010802,-0.058979,16.673203,0.171110,-6.177979,,,,,,,
1522136876.941788,-0.379472,-0.005851,-1.604437,0.049232,-0.093440,0.051961,-0.370423,0.005851,-0.928845,0.066560,0.016687,-0.038303,16.365891,-0.427721,-6.400818,,,,,,,
1522136876.971756,-0.383967,-0.005172,-1.604556,-0.015838,-0.197785,-0.048135,-0.374597,0.005172,-0.927173,0.057565,-0.003967,-0.014019,16.352982,-0.729326,-8.049561,,,,,,,
1522136877.001725,-0.389580,-0.005898,-1.607217,-0.073148,-0.158081,-0.081257,-0.379793,0.005898,-0.925053,0.010988,-0.018074,0.034458,16.723770,-0.881441,-8.498779,,,,,,,
1522136877.031693,-0.390584,-0.006434,-1.609437,-0.004260,0.024155,-0.030242,-0.380721,0.006434,-0.924668,0.019179,0.009237,0.023789,16.116013,-1.479006,-8.796692,,,,,,,
1522136877.061661,-0.385849,-0.005867,-1.608683,0.032596,0.218100,0.030323,-0.376339,0.005867,-0.926463,0.058712,0.072502,-0.059087,17.460709,-1.785433,-9.169800,,,,,,,
1522136877.091629,-0.377138,-0.004410,-1.609482,0.022175,0.341324,-0.114708,-0.368258,0.004410,-0.929713,0.051684,0.124893,-0.149159,18.649399,-2.017275,-10.668274,,,,,,,
,,,,,,,,,,,,,,,,25.311002,51.444890,10.607635,-1.000000,-1.000000,1522136877.105484,
1522136877.121598,-0.368771,-0.002097,-1.613980,0.032371,0.153728,-0.185910,-0.360468,0.002097,-0.932769,0.060038,0.053811,-0.215729,19.770142,-2.172762,-11.117126,,,,,,,
1522136877.151566,-0.374861,0.001374,-1.617665,0.092411,-0.442917,-0.134113,-0.366143,-0.001374,-0.930558,0.036644,0.000169,-0.117233,20.439255,-1.952120,-12.467712,,,,,,,
1522136877.181534,-0.394006,0.007252,-1.620166,0.192962,-0.702026,-0.191327,-0.383880,-0.007252,-0.923354,0.118652,0.023594,0.065871,21.098267,-1.208986,-16.370300,,,,,,,
1522136877.211502,-0.410880,0.014780,-1.623060,0.126996,-0.367438,-0.150151,-0.399372,-0.014780,-0.916670,0.078389,0.009622,0.088758,19.662491,-0.530458,-19.298706,,,,,,,
1522136877.241471,-0.413919,0.016514,-1.626974,-0.049578,-0.020352,-0.182604,-0.402146,-0.016513,-0.915427,0.042374,0.107761,0.046606,17.322510,0.226316,-23.052917,,,,,,,
1522136877.271440,-0.415468,0.017083,-1.633501,-0.057368,-0.113699,-0.202762,-0.403559,-0.017082,-0.914794,0.040537,0.078255,0.055816,15.981247,1.506666,-23.733765,,,,,,,
1522136877.301408,-0.420089,0.018747,-1.636747,0.036859,-0.104423,-0.042876,-0.407770,-0.018746,-0.912892,0.051478,0.059197,0.057408,10.138489,2.732130,-24.566528,,,,,,,
1522136877.331376,-0.415841,0.017986,-1.635770,-0.064252,0.348672,0.083393,-0.403894,-0.017985,-0.914629,0.081262,0.060481,-0.059782,7.292526,3.045088,-24.419250,,,,,,,
1522136877.361345,-0.400534,0.011887,-1.634647,-0.231101,0.565579,0.122479,-0.389883,-0.011887,-0.920788,0.056341,0.070359,-0.134174,3.637497,3.289457,-21.497070,,,,,,,
1522136877.391313,-0.386235,0.003208,-1.633627,-0.247045,0.355150,0.132272,-0.376702,-0.003208,-0.926329,0.060997,0.051212,-0.104539,2.603302,3.521360,-19.248474,,,,,,,
1522136877.421281,-0.380304,-0.002728,-1.632750,-0.102826,0.064074,0.069807,-0.371201,0.002728,-0.928548,0.077363,0.002749,-0.067683,1.794586,2.629194,-15.045349,,,,,,,
1522136877.451249,-0.381672,-0.003060,-1.632313,0.043020,-0.141736,-0.027916,-0.372471,0.003060,-0.928039,0.057789,0.017188,-0.064042,1.500931,2.406950,-13.619568,,,,,,,
1522136877.481218,-0.387768,-0.000771,-1.634191,0.041888,-0.255891,-0.114108,-0.378123,0.000771,-0.925755,0.046519,0.048210,-0.039394,3.831451,1.199385,-10.688538,,,,,,,
1522136877.511186,-0.396236,0.002206,-1.637265,0.071663,-0.291012,-0.119367,-0.385948,-0.002206,-0.922518,0.071785,0.048363,0.014849,5.261353,0.969160,-9.486938,,,,,,,
1522136877.541154,-0.402479,0.004826,-1.637826,0.078252,-0.116480,-0.005537,-0.391696,-0.004826,-0.920082,0.078128,0.056996,0.060997,5.934830,0.816130,-9.486023,,,,,,,
1522136877.571122,-0.399397,0.004556,-1.635820,-0.031650,0.235966,0.081402,-0.388859,-0.004556,-0.921286,0.044910,0.074640,-0.056695,8.179367,-0.317995,-8.505310,,,,,,,
1522136877.601091,-0.390160,-0.000168,-1.634074,-0.158845,0.265642,0.135628,-0.380336,0.000168,-0.924848,0.031154,0.050125,-0.102801,8.923660,-1.071047,-8.201965,,,,,,,
1522136877.631059,-0.385842,-0.006658,-1.632113,-0.155660,0.035005,0.143314,-0.376331,0.006658,-0.926462,0.032520,-0.005300,-0.082160,10.339767,-1.827639,-8.423157,,,,,,,
1522136877.661027,-0.386223,-0.012947,-1.629567,-0.166679,-0.014013,0.166798,-0.376661,0.012947,-0.926261,0.070066,-0.028724,-0.035775,10.931183,-2.280962,-9.096130,,,,,,,
1522136877.690996,-0.385439,-0.019264,-1.627417,-0.149101,0.037295,0.116682,-0.375896,0.019263,-0.926462,0.061489,0.002542,-0.039465,11.598053,-2.509951,-10.069824,,,,,,,
1522136877.720964,-0.385789,-0.023344,-1.627356,-0.101845,-0.041653,-0.005743,-0.376188,0.023342,-0.926249,0.012998,0.029240,-0.022390,10.546906,-2.804918,-9.769226,,,,,,,
1522136877.750932,-0.389039,-0.025099,-1.628395,-0.064971,-0.154337,-0.009874,-0.379180,0.025096,-0.924983,0.073012,0.016850,0.015528,10.622040,-2.655474,-9.994751,,,,,,,
1522136877.780900,-0.391392,-0.027220,-1.628701,-0.075220,-0.018575,0.027286,-0.381334,0.027217,-0.924037,0.052522,0.016789,0.031230,10.848373,-2.207018,-10.521423,,,,,,,
1522136877.810869,-0.388631,-0.029077,-1.628450,-0.027498,0.139685,0.020766,-0.378761,0.029073,-0.925038,0.065193,0.063350,-0.007580,9.800079,-2.576403,-9.620483,,,,,,,
1522136877.840837,-0.383977,-0.028953,-1.628102,0.024748,0.118343,0.015497,-0.374454,0.028949,-0.926793,0.079792,0.056897,-0.067546,9.425705,-2.649492,-9.395386,,,,,,,
1522136877.870805,-0.380897,-0.027650,-1.628105,0.050476,0.084601,-0.032392,-0.371612,0.027646,-0.927976,0.058577,0.019824,-0.075060,10.025543,-2.577333,-9.545349,,,,,,,
1522136877.900773,-0.379589,-0.026060,-1.628596,0.055492,0.012325,-0.032312,-0.370412,0.026057,-0.928502,0.076894,0.000142,-0.067256,8.757339,-2.570513,-8.421021,,,,,,,
1522136877.930711,-0.380239,-0.024644,-1.628386,0.058316,-0.065273,-0.027976,-0.371029,0.024641,-0.928294,0.045880,0.023409,-0.049489,8.529221,-2.794634,-8.570251,,,,,,,
1522136877.960679,-0.382375,-0.022238,-1.629426,0.068039,-0.103171,-0.082272,-0.373032,0.022236,-0.927552,0.060975,0.056637,-0.038009,8.913193,-2.345613,-7.821838,,,,,,,
1522136877.990648,-0.386251,-0.019229,-1.630926,0.078372,-0.162796,-0.068355,-0.376649,0.019228,-0.926156,0.084428,0.022795,-0.014823,8.539108,-2.343782,-7.671997,,,,,,,
1522136878.020616,-0.390227,-0.017139,-1.631010,0.062305,-0.114228,-0.017276,-0.380342,0.017139,-0.924687,0.058488,0.044629,-0.020000,8.699738,-2.043230,-6.398193,,,,,,,
1522136878.050584,-0.391901,-0.016094,-1.630560,0.019874,-0.021876,0.010308,-0.381896,0.016094,-0.924065,0.050262,0.065602,-0.030494,8.926544,-1.819323,-6.473999,,,,,,,
1522136878.080552,-0.390405,-0.017018,-1.630120,-0.041657,0.082289,0.026149,-0.380508,0.017017,-0.924621,0.022155,0.046231,-0.050263,8.858307,-1.593264,-5.724915,,,,,,,
1522136878.110521,-0.386826,-0.019758,-1.629716,-0.092985,0.100282,0.055921,-0.377177,0.019757,-0.925930,0.065974,0.024402,-0.088764,8.935410,-1.518389,-5.500122,,,,,,,
,,,,,,,,,,,,,,,,25.311003,51.444899,10.635126,-1.000000,-1.000000,1522136878.109979,
1522136878.140489,-0.384492,-0.023432,-1.629721,-0.113329,0.056955,0.029309,-0.374985,0.023429,-0.926735,0.070175,0.015511,-0.110192,9.692566,-1.071352,-5.051514,,,,,,,
1522136878.170457,-0.385871,-0.026735,-1.630676,-0.105386,-0.136094,-0.022701,-0.376231,0.026732,-0.926140,0.011562,0.026781,-0.064323,9.012497,-1.668139,-4.899536,,,,,,,
1522136878.200425,-0.392701,-0.028244,-1.632092,-0.030266,-0.287202,-0.020353,-0.382532,0.028240,-0.923510,0.037806,0.028003,0.035586,9.689285,-1.446260,-4.975098,,,,,,,
1522136878.230394,-0.397789,-0.027710,-1.633362,0.015577,-0.091641,-0.042889,-0.387232,0.027706,-0.921566,0.071788,0.025272,0.032039,11.863892,-1.530962,-4.898621,,,,,,,
1522136878.260334,-0.396809,-0.027947,-1.634727,-0.057172,0.110472,-0.046352,-0.386326,0.027943,-0.921939,0.043186,0.040080,-0.006284,11.713745,-1.680071,-4.673096,,,,,,,
1522136878.290302,-0.393331,-0.029301,-1.635541,-0.016146,0.050413,0.018732,-0.383102,0.029297,-0.923241,0.055282,0.051742,-0.040702,13.502106,-2.214159,-5.720093,,,,,,,
1522136878.320271,-0.393381,-0.028619,-1.634159,0.062472,-0.007350,0.044426,-0.383156,0.028615,-0.923240,0.049553,0.036021,-0.029107,14.091888,-2.742632,-6.542664,,,,,,,
1522136878.350239,-0.392240,-0.028114,-1.632097,0.040155,0.022408,0.050777,-0.382108,0.028110,-0.923690,0.058973,0.030621,-0.041001,13.329330,-2.965929,-8.267151,,,,,,,
1522136878.380207,-0.392197,-0.028170,-1.631380,-0.007943,-0.037752,0.009248,-0.382068,0.028166,-0.923705,0.069263,0.010942,-0.013017,12.799820,-2.964296,-9.017456,,,,,,,
1522136878.410175,-0.391914,-0.029757,-1.631944,-0.079070,0.036908,-0.004734,-0.381789,0.029753,-0.923770,0.046569,0.011690,-0.011319,10.170258,-2.653749,-10.294983,,,,,,,
1522136878.440144,-0.390021,-0.031392,-1.633312,-0.039484,0.034817,-0.022820,-0.380021,0.031387,-0.924445,0.063935,0.035615,-0.034661,8.901169,-2.197802,-10.072449,,,,,,,
1522136878.470112,-0.391687,-0.030775,-1.633947,0.054064,-0.094832,-0.055646,-0.381567,0.030770,-0.923829,0.051428,0.039649,0.020936,7.499313,-0.914782,-8.353333,,,,,,,
1522136878.500080,-0.392363,-0.027846,-1.634647,0.093042,0.016714,-0.064260,-0.382224,0.027843,-0.923650,0.078483,0.036412,-0.003703,7.217178,-0.611040,-5.879639,,,,,,,
1522136878.530048,-0.390614,-0.024173,-1.635614,0.117870,0.055026,-0.082389,-0.380645,0.024171,-0.924405,0.066864,0.049407,-0.060245,7.769333,0.214628,-2.732666,,,,,,,
1522136878.560017,-0.390083,-0.020862,-1.635914,0.089621,-0.014197,-0.049314,-0.380182,0.020861,-0.924676,0.042277,0.058775,-0.058234,8.753876,0.361540,-1.382751,,,,,,,
1522136878.589985,-0.389998,-0.019469,-1.635944,0.018832,-0.017633,0.010310,-0.380114,0.019468,-0.924735,0.057879,0.047457,-0.054101,10.787064,0.952772,-1.009094,,,,,,,
1522136878.619953,-0.390340,-0.020871,-1.634771,-0.050915,-0.025313,0.069933,-0.380420,0.020869,-0.924578,0.066317,0.024083,-0.020139,13.792770,1.389463,-0.784363,,,,,,,
1522136878.649921,-0.389413,-0.024048,-1.634046,-0.095290,0.051491,0.045307,-0.379535,0.024046,-0.924865,0.061405,0.012239,-0.016465,14.915314,1.458891,-1.309021,,,,,,,
1522136878.679890,-0.387972,-0.026639,-1.634702,-0.059856,0.019973,-0.019627,-0.378177,0.026635,-0.925350,0.035343,0.003806,-0.013234,16.489899,2.499998,-3.112488,,,,,,,
1522136878.709858,-0.386954,-0.026907,-1.635928,0.002198,0.024203,-0.039825,-0.377232,0.026904,-0.925728,0.052419,0.015378,-0.018578,16.492447,3.024534,-3.564514,,,,,,,
1522136878.739826,-0.385563,-0.025664,-1.636524,0.045017,0.060158,-0.030240,-0.375957,0.025661,-0.926282,0.045085,0.037602,-0.041873,17.244766,4.069792,-4.918335,,,,,,,
1522136878.769794,-0.382673,-0.024760,-1.636584,0.007729,0.095213,-0.015385,-0.373287,0.024757,-0.927386,0.040706,0.047737,-0.090238,15.816086,3.701231,-4.917603,,,,,,,
1522136878.799763,-0.381705,-0.025144,-1.637002,-0.018630,-0.046189,0.003921,-0.372385,0.025142,-0.927738,0.048579,0.030950,-0.069195,15.818787,3.701674,-4.467590,,,,,,,
1522136878.829731,-0.384635,-0.025581,-1.636784,0.009726,-0.123965,0.025320,-0.375098,0.025579,-0.926632,0.053122,0.008845,-0.007374,17.396576,3.844801,-4.242371,,,,,,,
1522136878.859699,-0.387118,-0.025454,-1.635119,0.046172,-0.052051,0.060442,-0.377399,0.025452,-0.925701,0.053699,0.027786,0.018154,18.439819,2.940474,-3.863220,,,,,,,
1522136878.889667,-0.386650,-0.025594,-1.632533,-0.002496,0.062719,0.075213,-0.376965,0.025591,-0.925874,0.066128,0.056456,-0.017928,19.859360,2.483946,-4.010681,,,,,,,
1522136878.919636,-0.383014,-0.027945,-1.632525,-0.108712,0.120770,0.018597,-0.373572,0.027942,-0.927180,0.047965,0.017255,-0.043157,21.350754,2.026564,-4.683105,,,,,,,
1522136878.949604,-0.381246,-0.030982,-1.633677,-0.080115,0.023225,-0.021775,-0.371899,0.030978,-0.927756,0.021145,-0.011156,-0.030419,22.235840,1.795485,-6.781738,,,,,,,
1522136878.979572,-0.381683,-0.031612,-1.633939,0.023999,-0.056956,0.009289,-0.372297,0.031606,-0.927575,0.062406,0.016825,-0.023917,23.348190,1.339125,-8.129333,,,,,,,
1522136879.009541,-0.381787,-0.030138,-1.633524,0.057576,0.035504,-0.003570,-0.372411,0.030134,-0.927579,0.077611,0.038150,-0.038760,23.253662,1.186552,-11.128784,,,,,,,
1522136879.039509,-0.380566,-0.029054,-1.633963,0.005522,0.025433,-0.063273,-0.371289,0.029050,-0.928063,0.053144,0.039996,-0.065452,22.048935,1.116301,-11.804077,,,,,,,
1522136879.069477,-0.380311,-0.028758,-1.636363,-0.005252,-0.022219,-0.084536,-0.371055,0.028754,-0.928165,0.042778,0.048974,-0.061092,19.858109,0.749128,-13.828735,,,,,,,
1522136879.099445,-0.383627,-0.026836,-1.637330,0.079175,-0.170540,-0.024662,-0.374152,0.026833,-0.926979,0.049399,0.002708,-0.000770,18.801834,0.528212,-14.503418,,,,,,,
1522136879.129414,-0.386002,-0.024475,-1.636299,0.107348,-0.031707,0.016780,-0.376375,0.024473,-0.926144,0.094591,0.024386,-0.024982,16.764343,-0.363222,-15.100891,,,,,,,
,,,,,,,,,,,,,,,,25.311005,51.444904,10.659135,-1.000000,-1.000000,1522136879.120335,
1522136879.159382,-0.386477,-0.021437,-1.635559,0.102410,-0.024846,-0.052482,-0.376841,0.021435,-0.926030,0.037424,0.051593,-0.042567,15.779785,-0.734758,-16.074890,,,,,,,
1522136879.189350,-0.388855,-0.018700,-1.635814,0.061314,-0.121562,-0.035365,-0.379063,0.018699,-0.925182,0.058446,0.047173,-0.001378,14.799728,-1.105577,-16.298828,,,,,,,
1522136879.219318,-0.389623,-0.017577,-1.636552,0.019335,0.041132,-0.035567,-0.379781,0.017576,-0.924909,0.043767,0.032137,-0.020434,12.843216,-1.846621,-16.146912,,,,,,,
1522136879.249287,-0.387459,-0.017326,-1.636484,0.014821,0.036594,0.007055,-0.377780,0.017325,-0.925733,0.050769,0.040277,-0.051974,12.690689,-2.145861,-16.070740,,,,,,,
1522136879.279273,-0.386814,-0.017714,-1.636393,-0.017451,-0.008003,0.014532,-0.377180,0.017713,-0.925970,0.047651,0.049197,-0.042413,10.512939,-2.510912,-15.920349,,,,,,,
1522136879.309241,-0.386980,-0.019378,-1.636414,-0.066740,-0.013376,0.042196,-0.377323,0.019376,-0.925879,0.064197,0.042544,-0.030252,8.713181,-2.802279,-15.395142,,,,,,,
1522136879.339209,-0.386243,-0.022652,-1.635775,-0.094435,0.030061,0.068779,-0.376614,0.022650,-0.926093,0.053814,0.026239,-0.015283,6.246414,-3.014452,-13.670471,,,,,,,
1522136879.369178,-0.385365,-0.025511,-1.634765,-0.050735,0.003462,0.059243,-0.375775,0.025508,-0.926360,0.060925,0.016484,-0.005678,5.802139,-2.936632,-12.846069,,,,,,,
1522136879.399146,-0.385996,-0.026978,-1.633380,-0.005940,-0.029475,0.041203,-0.376345,0.026974,-0.926087,0.045748,0.017734,0.020752,3.192139,-3.371660,-9.620605,,,,,,,
1522136879.429114,-0.384733,-0.026958,-1.633048,0.012811,0.055779,-0.000424,-0.375175,0.026955,-0.926562,0.064262,0.023735,-0.006849,3.123154,-3.669863,-8.119446,,,,,,,
1522136879.459082,-0.381949,-0.026262,-1.633410,0.039794,0.101530,-0.017504,-0.372601,0.026259,-0.927620,0.026760,0.023317,-0.035881,4.717194,-3.973345,-4.442444,,,,,,,
1522136879.489051,-0.381047,-0.023833,-1.632318,0.124607,-0.015682,-0.002399,-0.371787,0.023830,-0.928012,0.065085,0.031239,-0.036206,4.424728,-4.120531,-2.942017,,,,,,,
1522136879.519019,-0.380982,-0.020162,-1.630451,0.134293,0.002366,-0.002415,-0.371756,0.020160,-0.928111,0.063544,0.034527,-0.062291,7.360123,-4.431490,-0.689270,,,,,,,
1522136879.548987,-0.381399,-0.017285,-1.629485,0.080553,-0.077201,-0.002372,-0.372164,0.017284,-0.928006,0.045183,0.021809,-0.024616,8.936569,-4.513201,-0.313171,,,,,,,
1522136879.578956,-0.382417,-0.016011,-1.629115,0.031687,-0.007048,0.011376,-0.373116,0.016011,-0.927646,0.073479,0.022228,-0.013363,11.416260,-4.448687,0.362793,,,,,,,
1522136879.608924,-0.380807,-0.016127,-1.628214,-0.002211,0.084244,0.037891,-0.371622,0.016126,-0.928244,0.074441,0.011645,-0.049707,11.868942,-4.225649,0.437134,,,,,,,
1522136879.638892,-0.377871,-0.018285,-1.627287,-0.094009,0.079202,0.030376,-0.368881,0.018284,-0.929296,0.027115,0.020596,-0.077478,12.774734,-3.554888,0.284912,,,,,,,
1522136879.668860,-0.377367,-0.021688,-1.628433,-0.126548,-0.060802,0.005979,-0.368387,0.021687,-0.929419,0.072794,0.007580,-0.055047,13.824371,-3.185289,-0.391052,,,,,,,
1522136879.698829,-0.380527,-0.025579,-1.629020,-0.130018,-0.098120,0.025195,-0.371288,0.025576,-0.928165,0.028011,-0.011538,0.016727,14.354004,-2.812517,-0.242249,,,,,,,
1522136879.728797,-0.379611,-0.029294,-1.629473,-0.105748,0.071862,0.021843,-0.370400,0.029290,-0.928410,0.053002,0.012443,-0.001827,16.089706,-1.695406,-0.320862,,,,,,,
1522136879.758765,-0.376142,-0.031034,-1.630736,-0.047765,0.093287,-0.022889,-0.367158,0.031029,-0.929640,0.049165,0.027580,-0.060014,17.069885,-1.174822,-0.322449,,,,,,,
1522136879.788733,-0.375483,-0.031147,-1.632473,-0.004483,-0.052204,-0.052536,-0.366544,0.031142,-0.929879,0.059080,0.022401,-0.067191,19.104065,0.689451,-1.903870,,,,,,,
1522136879.818702,-0.379005,-0.029797,-1.633450,0.044111,-0.140674,-0.030038,-0.369832,0.029793,-0.928621,0.042622,0.024971,-0.020675,19.408066,1.587248,-2.732361,,,,,,,
1522136879.848670,-0.381959,-0.028551,-1.633504,0.049535,-0.084574,0.000802,-0.372587,0.028547,-0.927558,0.063276,0.032946,0.000449,18.590958,3.688749,-4.916138,,,,,,,
1522136879.878638,-0.382794,-0.027426,-1.632894,0.042624,0.022853,-0.013155,-0.373373,0.027423,-0.927276,0.069982,0.020505,-0.003099,18.213089,4.214094,-6.268433,,,,,,,
1522136879.908606,-0.380661,-0.027144,-1.632767,-0.001987,0.075023,-0.012175,-0.371397,0.027140,-0.928077,0.053328,0.027471,-0.043115,16.270493,5.721556,-7.550476,,,,,,,
1522136879.938575,-0.379623,-0.027995,-1.632516,-0.035726,-0.016583,0.031579,-0.370425,0.027991,-0.928440,0.015628,0.040856,-0.013058,15.074875,6.476408,-8.079041,,,,,,,
1522136879.968543,-0.378408,-0.029652,-1.632520,-0.046054,0.047281,0.019786,-0.369279,0.029647,-0.928845,0.062807,0.026017,-0.029437,13.581360,7.083204,-8.007263,,,,,,,
1522136879.998511,-0.376077,-0.030704,-1.632462,-0.020035,0.104791,-0.006895,-0.367101,0.030699,-0.929674,0.052144,-0.004149,-0.037489,12.393265,7.464888,-6.659363,,,,,,,
1522136880.028479,-0.371886,-0.029870,-1.633095,0.067589,0.093038,-0.030253,-0.363211,0.029866,-0.931228,0.066123,0.011837,-0.092561,12.027893,7.842512,-5.686035,,,,,,,
1522136880.058448,-0.372762,-0.024912,-1.633252,0.210997,-0.120578,-0.075753,-0.364076,0.024910,-0.931036,0.020921,0.044167,-0.089686,13.911240,7.685682,-4.034485,,,,,,,
1522136880.088416,-0.378064,-0.018114,-1.633597,0.184033,-0.207493,-0.098058,-0.369061,0.018113,-0.929228,0.048764,0.051238,-0.051744,14.358521,7.233976,-3.732422,,,,,,,
1522136880.118384,-0.383016,-0.013682,-1.634515,0.091261,-0.127896,-0.051323,-0.373684,0.013681,-0.927455,0.095730,0.037695,-0.017339,17.200897,6.920439,-4.479736,,,,,,,
1522136880.148352,-0.386294,-0.012683,-1.633809,0.014230,-0.074030,0.024210,-0.376727,0.012683,-0.926237,0.073871,0.030500,0.012357,18.472672,7.363432,-5.755920,,,,,,,
1522136880.178321,-0.386829,-0.013163,-1.633114,-0.004591,-0.012197,0.001760,-0.377221,0.013163,-0.926029,0.038415,0.059362,0.007618,18.531464,6.911222,-7.704041,,,,,,,
1522136880.208289,-0.387016,-0.013579,-1.634030,-0.035500,-0.025773,-0.020628,-0.377392,0.013578,-0.925954,0.050289,0.043840,0.013326,17.550354,6.839735,-8.604248,,,,,,,
1522136880.238257,-0.386261,-0.015839,-1.634257,-0.074948,0.066283,0.048512,-0.376680,0.015839,-0.926208,0.064165,-0.005966,0.009521,16.789413,6.916212,-10.554993,,,,,,,
1522136880.268213,-0.382459,-0.018496,-1.632985,-0.046812,0.163879,0.061224,-0.373139,0.018495,-0.927591,0.015962,0.033324,-0.029456,15.743515,6.921598,-9.880554,,,,,,,
1522136880.298181,-0.377278,-0.020085,-1.631966,-0.032919,0.143800,0.041008,-0.368317,0.020083,-0.929483,0.025055,0.023465,-0.076361,14.162598,6.328703,-9.878967,,,,,,,
1522136880.328149,-0.373715,-0.021948,-1.632067,-0.086474,0.086659,0.025046,-0.364988,0.021947,-0.930753,0.047056,-0.018147,-0.092471,14.010529,5.580305,-8.976013,,,,,,,
1522136880.358117,-0.371786,-0.025546,-1.632053,-0.117813,0.037665,0.053834,-0.363161,0.025543,-0.931376,0.044176,-0.019226,-0.079153,13.562363,5.357985,-8.300354,,,,,,,
1522136880.388086,-0.373070,-0.028685,-1.631096,-0.053360,-0.107059,0.059362,-0.364326,0.028681,-0.930829,0.061973,0.013311,-0.028140,14.378510,4.154844,-7.770081,,,,,,,
1522136880.418054,-0.376105,-0.029760,-1.631324,-0.037873,-0.086295,-0.026959,-0.367138,0.029756,-0.929690,0.052548,0.031508,-0.000516,14.972626,3.926573,-8.368958,,,,,,,
1522136880.448022,-0.378368,-0.030463,-1.633695,-0.064230,-0.070992,-0.078142,-0.369233,0.030458,-0.928837,0.096802,0.017729,0.010991,17.651840,2.563322,-9.562073,,,,,,,
1522136880.477990,-0.379705,-0.031850,-1.635881,-0.065253,-0.022371,-0.043018,-0.370459,0.031845,-0.928302,0.053732,0.014679,0.035465,18.771820,2.782087,-10.762390,,,,,,,
1522136880.507959,-0.378288,-0.032431,-1.637357,-0.001837,0.072032,-0.041998,-0.369136,0.032425,-0.928809,0.018656,0.052444,0.032630,19.737305,3.450041,-13.464600,,,,,,,
1522136880.537927,-0.374907,-0.031553,-1.637518,0.026880,0.124665,0.021887,-0.366003,0.031547,-0.930078,0.066199,0.029411,-0.006201,19.130569,3.227018,-14.214050,,,,,,,
1522136880.567895,-0.369185,-0.032655,-1.635451,-0.035127,0.202822,0.108087,-0.360663,0.032649,-0.932124,0.067480,0.005116,-0.086980,18.000336,3.830229,-16.092041,,,,,,,
1522136880.597863,-0.366221,-0.034817,-1.633153,-0.021010,-0.014850,0.079549,-0.357873,0.034810,-0.933121,0.045922,0.008480,-0.097610,17.701218,4.505598,-17.069824,,,,,,,
1522136880.627832,-0.368604,-0.035269,-1.632231,0.013174,-0.097281,0.004001,-0.360090,0.035262,-0.932251,0.053663,-0.003096,-0.015107,16.425369,4.511183,-17.220520,,,,,,,
1522136880.657800,-0.369862,-0.034967,-1.631985,0.008212,-0.009103,0.008171,-0.361266,0.034960,-0.931807,0.083250,-0.024004,-0.011430,14.398193,4.519926,-17.596558,,,,,,,
1522136880.687768,-0.368202,-0.035589,-1.631939,-0.033087,0.059069,0.000606,-0.359710,0.035581,-0.932385,0.043045,0.006152,-0.058429,15.071213,4.366835,-17.670654,,,,,,,
1522136880.717736,-0.368792,-0.035790,-1.633216,-0.008868,-0.095646,-0.068480,-0.360258,0.035782,-0.932166,0.010053,0.028793,-0.037301,13.198380,4.675108,-17.822754,,,,,,,
1522136880.747705,-0.372741,-0.034585,-1.635106,0.024015,-0.152011,-0.074785,-0.363952,0.034578,-0.930775,0.051650,0.015105,0.009877,13.268295,4.074949,-17.670349,,,,,,,
1522136880.777673,-0.374854,-0.033153,-1.636220,0.036052,-0.032289,-0.028017,-0.365936,0.033147,-0.930049,0.091262,0.005138,-0.005452,14.162872,3.845396,-18.193970,,,,,,,
1522136880.807641,-0.375113,-0.032355,-1.636276,0.018097,0.009201,-0.029135,-0.366186,0.032350,-0.929979,0.028524,0.036376,-0.002242,13.258423,3.399458,-18.192627,,,,,,,
1522136880.837610,-0.374671,-0.031791,-1.637148,-0.000059,-0.004495,-0.039789,-0.365781,0.031786,-0.930158,0.028333,0.055190,-0.010043,12.349594,3.327208,-19.542847,,,,,,,
1522136880.867578,-0.373432,-0.032760,-1.637678,-0.058936,0.063053,0.047468,-0.364617,0.032754,-0.930581,0.061349,0.008719,-0.023475,12.346146,3.027143,-19.616638,,,,,,,
1522136880.897546,-0.369639,-0.036309,-1.635573,-0.083654,0.119938,0.127305,-0.361041,0.036301,-0.931843,0.040072,0.012100,-0.073269,9.575790,3.040358,-18.868103,,,,,,,
1522136880.927514,-0.368416,-0.039491,-1.633317,-0.047775,-0.038097,0.072086,-0.359857,0.039481,-0.932171,0.034326,0.004327,-0.057285,9.575333,2.815672,-18.567139,,,,,,,
1522136880.957483,-0.370250,-0.040681,-1.632912,-0.027333,-0.070674,0.013528,-0.361549,0.040670,-0.931465,0.047706,-0.025670,-0.017967,8.153259,2.523039,-17.591736,,,,,,,
1522136880.987451,-0.371050,-0.041181,-1.633075,-0.002329,0.004833,-0.005701,-0.362286,0.041169,-0.931157,0.046139,0.001281,-0.008357,6.949585,1.928831,-17.214905,,,,,,,
1522136881.017419,-0.369403,-0.040609,-1.633482,0.021410,0.042080,-0.021706,-0.360761,0.040597,-0.931774,0.036801,0.024161,-0.047855,6.726852,1.705580,-16.464172,,,,,,,
1522136881.047387,-0.368897,-0.039303,-1.634946,0.024538,-0.015045,-0.057881,-0.360308,0.039293,-0.932005,0.058367,0.025175,-0.048204,6.200256,0.958937,-15.486450,,,,,,,
1522136881.077356,-0.369589,-0.037667,-1.635853,0.058614,-0.000480,-0.026963,-0.360976,0.037658,-0.931814,0.071380,0.015687,-0.053599,5.901779,0.885649,-15.111328,,,,,,,
1522136881.107324,-0.371195,-0.035152,-1.634024,0.133556,-0.119040,0.035006,-0.362505,0.035145,-0.931319,0.048693,0.027066,-0.032015,6.429001,0.659025,-14.360107,,,,,,,
1522136881.137292,-0.374974,-0.031755,-1.632032,0.110165,-0.138932,-0.000149,-0.366063,0.031749,-0.930048,0.037923,0.037510,-0.006140,5.600296,0.287764,-14.359070,,,,,,,
1522136881.167260,-0.378111,-0.030328,-1.631787,-0.002646,-0.063173,-0.004574,-0.368996,0.030323,-0.928936,0.073769,-0.001789,0.016430,5.005569,0.141554,-13.233765,,,,,,,
1522136881.197229,-0.375857,-0.033583,-1.631725,-0.155735,0.151440,0.054765,-0.366863,0.033576,-0.929669,0.048885,-0.005149,-0.024570,4.334961,0.444807,-13.010315,,,,,,,
1522136881.227197,-0.371701,-0.038939,-1.631750,-0.143282,0.066426,0.050601,-0.362925,0.038930,-0.931004,0.019084,0.030422,-0.049678,4.790054,0.368727,-12.034790,,,,,,,
1522136881.257164,-0.372252,-0.041426,-1.632358,-0.049778,-0.091805,0.001823,-0.363402,0.041415,-0.930711,0.033064,0.002775,-0.021987,4.270462,0.821211,-11.886841,,,,,,,
1522136881.287132,-0.374842,-0.041465,-1.632825,0.018944,-0.049200,-0.036530,-0.365811,0.041453,-0.929765,0.047772,0.001119,0.024400,4.948608,0.818693,-11.361511,,,,,,,
1522136881.317101,-0.373941,-0.039460,-1.633183,0.089851,0.042077,-0.044039,-0.365003,0.039450,-0.930170,0.038648,0.028971,-0.011297,4.203903,0.673170,-10.236328,,,,,,,
1522136881.347069,-0.371724,-0.035648,-1.634788,0.096593,0.054117,-0.097318,-0.362991,0.035640,-0.931110,0.045273,0.045872,-0.080868,3.835373,0.825651,-9.412109,,,,,,,
1522136881.377037,-0.371885,-0.032595,-1.636313,0.070400,-0.037429,-0.066339,-0.363179,0.032589,-0.931149,0.035329,0.032489,-0.061680,5.636215,0.593077,-8.885254,,,,,,,
1522136881.407005,-0.373455,-0.030408,-1.636437,0.078570,-0.056941,-0.013043,-0.364665,0.030403,-0.930642,0.065303,0.037987,-0.023582,4.663040,0.148497,-7.833923,,,,,,,
1522136881.436974,-0.374961,-0.028085,-1.634710,0.109407,-0.038176,0.027453,-0.366092,0.028081,-0.930155,0.044925,0.041026,0.001718,5.416763,0.070860,-7.083252,,,,,,,
1522136881.466942,-0.373916,-0.024685,-1.633491,0.131341,0.039645,-0.016295,-0.365152,0.024682,-0.930620,0.085764,0.020194,-0.058790,5.644623,0.220060,-6.858765,,,,,,,
1522136881.496910,-0.373936,-0.021112,-1.632990,0.112012,-0.025930,-0.052475,-0.365200,0.021111,-0.930689,0.019757,0.022911,-0.076711,6.845627,-0.084673,-6.181885,,,,,,,
1522136881.526879,-0.378090,-0.017983,-1.632578,0.095948,-0.229118,-0.013924,-0.369086,0.017982,-0.929221,0.029181,0.026330,-0.012674,7.223007,0.063780,-6.032349,,,,,,,
1522136881.556847,-0.382759,-0.016574,-1.633019,-0.005880,-0.100165,-0.031180,-0.373430,0.016574,-0.927510,0.028185,0.026258,0.023121,9.246124,0.279005,-6.707153,,,,,,,
1522136881.586815,-0.383671,-0.017804,-1.633285,-0.045169,0.001598,0.016644,-0.374267,0.017804,-0.927150,0.054153,0.018207,0.048182,8.499313,0.282896,-6.182556,,,,,,,
1522136881.616783,-0.380342,-0.018324,-1.632635,0.038534,0.127663,0.043211,-0.371175,0.018323,-0.928382,0.055456,0.022540,-0.005060,10.149826,0.649931,-6.708191,,,,,,,
1522136881.646752,-0.378486,-0.015185,-1.631112,0.164131,-0.014729,-0.003424,-0.369472,0.015185,-0.929117,-0.027730,0.030881,-0.071005,11.050995,0.720961,-6.633057,,,,,,,
1522136881.676720,-0.380052,-0.012357,-1.629198,0.063195,-0.088110,0.042387,-0.370940,0.012357,-0.928574,0.050994,-0.009152,-0.063186,10.224976,0.799376,-6.933716,,,,,,,
1522136881.706688,-0.382753,-0.012816,-1.628737,-0.049489,-0.039642,-0.009959,-0.373444,0.012816,-0.927563,-0.015670,-0.004119,0.004987,9.844269,0.500639,-7.382751,,,,,,,
1522136881.736656,-0.383930,-0.015186,-1.629083,-0.073196,-0.056785,0.017748,-0.374524,0.015186,-0.927092,0.050412,0.002759,0.032256,10.516541,0.497160,-7.832397,,,,,,,
1522136881.766625,-0.381525,-0.016646,-1.630400,-0.061263,0.169852,-0.028294,-0.372285,0.016646,-0.927969,0.020677,0.022722,-0.016810,9.545639,0.502211,-7.157959,,,,,,,
1522136881.796593,-0.376369,-0.017399,-1.632143,-0.021802,0.117917,-0.063365,-0.367491,0.017398,-0.929864,0.022352,0.025967,-0.061179,9.696548,0.501677,-7.007812,,,,,,,
1522136881.826561,-0.376745,-0.017369,-1.633246,-0.023090,-0.087616,0.003956,-0.367840,0.017368,-0.929726,0.015774,0.014736,-0.013129,10.370026,0.573271,-7.382751,,,,,,,
1522136881.856529,-0.377976,-0.018627,-1.634273,-0.058683,0.029581,-0.029212,-0.368976,0.018626,-0.929252,0.026706,0.019689,0.015846,9.692642,0.426161,-7.532532,,,,,,,
1522136881.886498,-0.377287,-0.019626,-1.634388,-0.014016,0.036634,0.010237,-0.368329,0.019625,-0.929488,0.047528,0.006529,0.029677,10.142914,0.274443,-7.231750,,,,,,,
1522136881.916466,-0.373713,-0.019930,-1.634285,-0.002794,0.139780,-0.004773,-0.365002,0.019929,-0.930793,0.025570,0.024917,-0.024361,10.891525,0.495481,-7.832214,,,,,,,
1522136881.946434,-0.370135,-0.020333,-1.634346,-0.027753,0.079103,0.019776,-0.361666,0.020331,-0.932085,0.030459,0.016976,-0.048002,10.516708,0.197691,-7.306213,,,,,,,
1522136881.976402,-0.368347,-0.023010,-1.633465,-0.116861,0.053326,0.091123,-0.359978,0.023008,-0.932676,0.023736,0.002993,-0.018938,10.591095,0.272123,-7.531494,,,,,,,
1522136882.006371,-0.365076,-0.028287,-1.633075,-0.161288,0.107850,0.059072,-0.356877,0.028283,-0.933723,0.022649,0.007224,-0.019051,10.218063,0.423887,-7.457275,,,,,,,
1522136882.036339,-0.363285,-0.031441,-1.633374,-0.041969,0.001562,0.018786,-0.355171,0.031436,-0.934272,0.064598,-0.013034,-0.016457,9.619751,0.501722,-7.307861,,,,,,,
1522136882.066307,-0.362841,-0.030773,-1.633971,0.052440,0.024143,-0.050436,-0.354763,0.030768,-0.934449,0.042797,-0.020545,-0.037520,9.019012,0.429426,-7.307861,,,,,,,
1522136882.096275,-0.363171,-0.026868,-1.634990,0.152797,-0.044786,-0.107823,-0.355111,0.026865,-0.934437,0.009897,0.024481,-0.035014,9.543396,0.277220,-7.157043,,,,,,,
1522136882.126244,-0.366346,-0.020498,-1.636534,0.176995,-0.161511,-0.139652,-0.358131,0.020497,-0.933446,0.014457,0.053860,-0.018168,8.497955,0.282667,-6.407593,,,,,,,
1522136882.156212,-0.370589,-0.014662,-1.639243,0.126921,-0.132708,-0.136529,-0.362125,0.014661,-0.932014,0.057743,0.040698,-0.005578,8.349625,-0.090761,-5.506104,,,,,,,
1522136882.186180,-0.372763,-0.011223,-1.640503,0.092609,-0.046217,-0.033282,-0.364167,0.011223,-0.931266,0.068665,0.045967,-0.004281,8.728806,0.057981,-5.056519,,,,,,,
1522136882.216149,-0.374145,-0.009345,-1.638220,0.079224,-0.038494,0.082841,-0.365461,0.009345,-0.930779,0.020734,0.058236,-0.021705,8.806686,-0.690645,-3.328491,,,,,,,
1522136882.246117,-0.373677,-0.011130,-1.635923,-0.105110,0.042747,0.080486,-0.365018,0.011130,-0.930933,0.016035,0.040109,-0.026464,9.858902,-0.694994,-2.952942,,,,,,,
1522136882.276066,-0.371955,-0.017921,-1.635174,-0.248245,0.069395,0.117654,-0.363379,0.017920,-0.931468,0.035437,-0.006232,0.008983,11.281616,-1.151018,-2.575439,,,,,,,
1522136882.306034,-0.368553,-0.026825,-1.633820,-0.235572,0.111428,0.180487,-0.360137,0.026822,-0.932513,0.069808,-0.046247,0.004749,11.953140,-1.454119,-2.648926,,,,,,,
1522136882.336003,-0.364334,-0.032615,-1.632162,-0.095920,0.170317,0.067585,-0.356138,0.032610,-0.933864,-0.012164,-0.015581,-0.037099,14.496735,-1.915865,-2.945740,,,,,,,
1522136882.365971,-0.359990,-0.033423,-1.632470,0.010165,0.121991,-0.048433,-0.352068,0.033417,-0.935377,-0.012724,0.007827,-0.083223,14.645538,-2.216234,-2.644531,,,,,,,
1522136882.395939,-0.358374,-0.031549,-1.633519,0.056787,0.025277,-0.063215,-0.350578,0.031544,-0.936002,0.017188,-0.032993,-0.082278,15.087128,-2.519121,-3.543030,,,,,,,
1522136882.425907,-0.358499,-0.029011,-1.633379,0.090328,-0.044296,-0.003450,-0.350721,0.029007,-0.936030,0.038359,-0.001480,-0.096959,15.307144,-2.296312,-4.743835,,,,,,,
1522136882.455876,-0.362227,-0.025753,-1.632692,0.125103,-0.181241,-0.034188,-0.354240,0.025750,-0.934800,-0.003823,0.037879,-0.065185,16.950333,-2.529451,-5.492065,,,,,,,
1522136882.485844,-0.369481,-0.021512,-1.632630,0.130244,-0.252286,-0.057554,-0.361048,0.021510,-0.932299,0.040079,0.025090,0.014116,16.568909,-2.903185,-5.940796,,,,,,,
1522136882.515812,-0.374486,-0.018808,-1.632865,0.039966,-0.100392,-0.017283,-0.365729,0.018807,-0.930531,0.084754,0.024452,0.031239,15.668335,-2.824358,-6.166504,,,,,,,
1522136882.545780,-0.376692,-0.019385,-1.631400,-0.006300,-0.071166,0.075349,-0.367777,0.019384,-0.929711,0.038447,0.036982,0.046212,16.337143,-2.903261,-7.065918,,,,,,,
1522136882.575749,-0.376652,-0.020933,-1.629765,-0.041032,0.026732,0.065646,-0.367729,0.020932,-0.929697,0.004142,0.033496,0.034205,16.040298,-2.452150,-7.292847,,,,,,,
1522136882.605717,-0.374136,-0.023060,-1.629687,-0.060639,0.114314,0.010129,-0.365371,0.023058,-0.930576,0.030380,-0.012545,0.013568,16.179947,-2.903765,-8.265991,,,,,,,
1522136882.635685,-0.371653,-0.024702,-1.628982,-0.030994,0.094915,0.039997,-0.363045,0.024700,-0.931444,0.038201,-0.036571,-0.007933,15.354538,-3.124743,-7.965515,,,,,,,
1522136882.665653,-0.368237,-0.026560,-1.628538,-0.067116,0.099442,0.011207,-0.359844,0.026557,-0.932634,-0.004277,0.012139,-0.040083,15.429230,-2.975374,-8.266052,,,,,,,
1522136882.695622,-0.366398,-0.027389,-1.630501,-0.028545,0.024535,-0.079258,-0.358120,0.027386,-0.933273,0.001980,0.040134,-0.034317,15.650909,-2.902056,-8.941223,,,,,,,
1522136882.725590,-0.367131,-0.025908,-1.632839,0.044848,-0.043589,-0.086603,-0.358818,0.025905,-0.933047,0.049126,0.025502,-0.003751,15.801956,-2.977434,-8.640869,,,,,,,
1522136882.755558,-0.366546,-0.023656,-1.633486,0.071625,0.056766,-0.014216,-0.358293,0.023654,-0.933309,0.049928,0.028013,-0.034052,14.294083,-3.496096,-9.089600,,,,,,,
1522136882.785527,-0.364866,-0.022369,-1.632027,0.049732,0.018106,0.053989,-0.356734,0.022367,-0.933938,0.042220,0.045519,-0.062553,14.216858,-3.945375,-8.712830,,,,,,,
1522136882.815495,-0.364677,-0.022522,-1.630871,-0.017318,0.019610,0.014514,-0.356557,0.022520,-0.934002,-0.025081,0.035890,-0.029621,13.463882,-4.017351,-9.087891,,,,,,,
1522136882.845463,-0.363975,-0.024035,-1.630294,-0.042434,-0.025435,0.082734,-0.355889,0.024033,-0.934219,0.075844,-0.012482,-0.026536,13.387833,-3.942324,-9.388245,,,,,,,
1522136882.875431,-0.362624,-0.026664,-1.628052,-0.058995,0.118937,0.108153,-0.354603,0.026661,-0.934636,0.037388,-0.022572,-0.025889,13.540207,-3.568224,-9.614624,,,,,,,
1522136882.905400,-0.359128,-0.029933,-1.627079,-0.104305,0.118793,-0.006957,-0.351301,0.029929,-0.935784,-0.016863,0.014612,-0.058204,13.020172,-3.340441,-9.165771,,,,,,,
1522136882.935368,-0.358601,-0.031978,-1.629585,-0.078054,-0.075148,-0.089853,-0.350785,0.031973,-0.935910,0.025864,-0.004904,-0.055256,11.677277,-2.809099,-8.868591,,,,,,,
1522136882.965336,-0.362701,-0.032377,-1.632282,-0.025156,-0.154083,-0.065229,-0.354615,0.032371,-0.934451,0.037980,-0.007423,0.008716,12.732758,-2.213930,-8.945435,,,,,,,
1522136882.995304,-0.366392,-0.030902,-1.633923,0.068954,-0.123479,-0.068386,-0.358078,0.030897,-0.933180,0.054474,0.046633,0.016935,11.461563,-1.833208,-8.947632,,,,,,,
1522136883.025273,-0.370252,-0.027614,-1.635789,0.065097,-0.108130,-0.134467,-0.361712,0.027610,-0.931880,0.001635,0.081688,0.035289,11.462326,-1.758211,-8.947937,,,,,,,
1522136883.055241,-0.372155,-0.024618,-1.639512,0.043916,-0.081449,-0.144097,-0.363513,0.024616,-0.931263,0.059894,0.061734,0.040333,11.843750,-1.159853,-8.875122,,,,,,,
1522136883.085209,-0.373130,-0.022514,-1.642915,0.023773,0.014934,-0.089878,-0.364440,0.022512,-0.930954,0.085646,0.052118,0.010682,10.572388,-1.153536,-8.275818,,,,,,,
1522136883.115147,-0.371846,-0.022679,-1.643555,-0.041746,0.061009,0.027250,-0.363242,0.022677,-0.931418,0.006217,0.044828,-0.005990,10.198288,-0.927080,-8.501892,,,,,,,
1522136883.145115,-0.369320,-0.024871,-1.643031,-0.072479,0.113163,0.027169,-0.360869,0.024869,-0.932284,-0.026399,0.038837,-0.018064,10.424484,-0.628389,-8.802917,,,,,,,
1522136883.175083,-0.367410,-0.029062,-1.641564,-0.146982,0.043590,0.126273,-0.359047,0.029058,-0.932866,0.017968,-0.011129,-0.019389,9.304031,-0.397982,-8.429443,,,,,,,
1522136883.205052,-0.363543,-0.036047,-1.639006,-0.198014,0.165469,0.190044,-0.355357,0.036039,-0.934035,0.013606,-0.022062,-0.036210,7.137070,-0.087404,-7.606812,,,,,,,
1522136883.235020,-0.358705,-0.043131,-1.636056,-0.161782,0.112465,0.158164,-0.350736,0.043118,-0.935481,0.017667,-0.008847,-0.070058,7.141251,0.287657,-7.533264,,,,,,,
1522136883.264992,-0.356377,-0.047831,-1.634909,-0.114521,0.053583,0.052769,-0.348482,0.047813,-0.936095,0.010744,-0.020805,-0.062044,4.448608,-0.372911,-5.206970,,,,,,,
1522136883.294960,-0.356886,-0.049427,-1.635029,0.004772,-0.070661,-0.000297,-0.348932,0.049407,-0.935844,0.053979,-0.033614,-0.014839,4.307449,-0.071291,-4.233276,,,,,,,
1522136883.324929,-0.359863,-0.046838,-1.634718,0.123548,-0.076967,-0.054534,-0.351759,0.046821,-0.934918,0.027708,0.004265,0.002500,3.346802,-0.438967,-1.232300,,,,,,,
1522136883.354897,-0.361437,-0.041994,-1.635629,0.143123,-0.067052,-0.113126,-0.353307,0.041982,-0.934565,0.013646,0.052043,0.013407,3.052689,-0.885927,0.494385,,,,,,,
1522136883.384865,-0.363600,-0.036276,-1.637780,0.148450,-0.076598,-0.118436,-0.355407,0.036268,-0.934007,0.034881,0.025729,0.017961,2.534821,-2.155291,3.799194,,,,,,,
1522136883.414833,-0.364290,-0.032196,-1.638685,0.095185,0.025126,-0.055726,-0.356101,0.032190,-0.933892,0.041953,0.021490,0.001306,3.363724,-2.757372,5.452087,,,,,,,
1522136883.444802,-0.363406,-0.030118,-1.638277,0.059651,0.015291,-0.005657,-0.355298,0.030113,-0.934267,0.013364,0.056755,-0.005750,3.365707,-3.505800,7.030029,,,,,,,
1522136883.474770,-0.362144,-0.029201,-1.638409,0.021207,0.016438,-0.003558,-0.354129,0.029196,-0.934740,0.045993,0.045709,-0.015211,5.844254,-5.088717,10.262634,,,,,,,
1522136883.504738,-0.362108,-0.029309,-1.638392,-0.020578,0.005777,0.015604,-0.354094,0.029304,-0.934750,0.056838,0.002266,-0.020481,8.322784,-5.548525,11.615662,,,,,,,
1522136883.534707,-0.360983,-0.031327,-1.637622,-0.051509,0.042853,0.042186,-0.353021,0.031322,-0.935091,0.017145,0.012242,-0.023192,11.174973,-6.684099,13.871643,,,,,,,
1522136883.564675,-0.359840,-0.032500,-1.637201,-0.008709,0.022821,0.006003,-0.351938,0.032494,-0.935459,-0.006598,0.038123,-0.031674,13.268311,-7.667986,14.401672,,,,,,,
1522136883.594643,-0.358284,-0.032768,-1.637288,-0.018164,0.063204,0.010211,-0.350480,0.032762,-0.935997,0.029648,0.009642,-0.061104,17.910049,-8.588717,14.557617,,,,,,,
1522136883.624611,-0.357192,-0.034056,-1.636520,-0.042229,-0.014635,0.055033,-0.349442,0.034050,-0.936339,0.031052,-0.019218,-0.087313,20.229996,-8.824602,14.109741,,,,,,,
1522136883.654580,-0.359021,-0.036067,-1.636275,-0.065803,-0.087566,0.008205,-0.351130,0.036059,-0.935632,-0.028356,0.011823,-0.022940,25.237976,-9.448946,12.314697,,,,,,,
1522136883.684548,-0.362693,-0.037159,-1.637768,-0.033732,-0.145691,-0.049248,-0.354549,0.037150,-0.934299,0.045238,0.011205,0.044071,26.808685,-9.157213,11.114380,,,,,,,
1522136883.714516,-0.364708,-0.037201,-1.639784,-0.024418,0.007417,-0.065380,-0.356429,0.037193,-0.933581,0.068160,0.009881,0.008578,28.964828,-9.469530,8.491699,,,,,,,
1522136883.744484,-0.364475,-0.036337,-1.642344,0.021583,-0.030603,-0.115386,-0.356223,0.036329,-0.933694,0.012733,0.028841,-0.014777,30.602280,-9.329226,6.166931,,,,,,,
1522136883.774453,-0.367356,-0.034396,-1.645101,0.017902,-0.116801,-0.097182,-0.358937,0.034389,-0.932728,0.003270,0.047627,0.034778,32.474319,-8.364748,4.064026,,,,,,,
1522136883.804421,-0.367770,-0.033999,-1.647703,-0.039039,0.073388,-0.071856,-0.359327,0.033993,-0.932592,0.000792,0.038914,0.027563,31.712753,-7.539629,0.760315,,,,,,,
1522136883.834389,-0.364267,-0.035394,-1.647659,-0.035365,0.101061,0.068783,-0.356042,0.035387,-0.933799,0.070092,0.027953,-0.023751,32.157883,-6.718813,-1.417725,,,,,,,
1522136883.864357,-0.360559,-0.037094,-1.646481,-0.026498,0.134224,0.034657,-0.352554,0.037085,-0.935056,0.028107,0.033411,-0.058780,30.574936,-5.440142,-4.873657,,,,,,,
1522136883.894326,-0.358249,-0.036620,-1.646972,0.053520,0.028317,-0.045088,-0.350400,0.036612,-0.935884,0.027539,0.031473,-0.050444,30.049011,-4.539431,-6.527466,,,,,,,
1522136883.924294,-0.358565,-0.034001,-1.646462,0.101146,-0.001921,0.008250,-0.350728,0.033995,-0.935860,0.013890,0.011126,-0.025307,27.871796,-3.182268,-9.158997,,,,,,,
1522136883.954262,-0.357021,-0.032582,-1.644443,0.044259,0.018960,0.082767,-0.349299,0.032576,-0.936444,0.067530,0.013780,-0.075000,25.477127,-2.646486,-9.162354,,,,,,,
1522136883.984230,-0.357254,-0.033259,-1.642896,-0.022892,-0.013491,0.034810,-0.349509,0.033252,-0.936342,0.017066,0.010815,-0.042311,22.629181,-2.258974,-9.465332,,,,,,,
1522136884.014199,-0.358636,-0.033950,-1.642515,0.004830,-0.067461,-0.005611,-0.350795,0.033944,-0.935836,0.046657,0.003486,0.001297,22.331009,-1.808092,-9.917236,,,,,,,
1522136884.044167,-0.358086,-0.032678,-1.642907,0.045944,0.050385,-0.006758,-0.350295,0.032672,-0.936069,0.056426,-0.007632,-0.037686,19.636658,-1.645296,-9.244263,,,,,,,
1522136884.074135,-0.356818,-0.032311,-1.643020,-0.010778,0.019721,-0.007837,-0.349112,0.032305,-0.936523,0.047233,-0.002307,-0.048477,19.420670,-1.193575,-8.496216,,,,,,,
1522136884.104104,-0.358119,-0.033306,-1.643185,-0.047457,-0.063080,-0.006715,-0.350319,0.033300,-0.936038,0.063774,0.019709,-0.009961,18.747650,-1.040468,-8.422119,,,,,,,
1522136884.134072,-0.359444,-0.034848,-1.644456,-0.070510,-0.011754,-0.045139,-0.351540,0.034840,-0.935524,0.055153,0.017558,0.019112,19.277710,-0.892260,-7.822449,,,,,,,
1522136884.164040,-0.358340,-0.035954,-1.646412,-0.043569,0.037111,-0.051566,-0.350493,0.035946,-0.935875,0.048476,0.012043,0.012794,19.054825,-0.591402,-7.973816,,,,,,,
1522136884.194008,-0.356773,-0.035834,-1.647010,0.029844,0.048207,0.007081,-0.349028,0.035826,-0.936427,0.061354,0.024492,0.000773,20.183060,-0.221544,-8.049683,,,,,,,
1522136884.223977,-0.354697,-0.034636,-1.645494,0.066183,0.086191,0.032642,-0.347098,0.034629,-0.937189,0.018957,0.028253,-0.050451,19.357193,-0.217989,-8.200134,,,,,,,
1522136884.253945,-0.352013,-0.033809,-1.643965,0.021082,0.040531,0.043314,-0.344591,0.033803,-0.938144,0.041369,0.022441,-0.088849,19.661957,0.305571,-8.277100,,,,,,,
1522136884.283916,-0.351617,-0.035145,-1.642870,-0.062478,-0.008222,0.055020,-0.344203,0.035138,-0.938237,0.052318,-0.007382,-0.065333,20.334824,0.451933,-8.877319,,,,,,,
1522136884.313884,-0.352147,-0.038430,-1.642076,-0.098884,-0.031526,0.056089,-0.344659,0.038420,-0.937941,0.071939,-0.027632,-0.027086,19.286057,0.756361,-9.179016,,,,,,,
1522136884.343853,-0.352631,-0.041053,-1.642088,-0.067705,-0.032363,0.013489,-0.345077,0.041041,-0.937676,0.051894,-0.010569,-0.007194,18.761841,1.058332,-9.555542,,,,,,,
1522136884.373821,-0.353225,-0.041942,-1.642984,-0.026721,0.002965,-0.036605,-0.345621,0.041929,-0.937436,0.050089,0.015886,0.020643,19.211639,1.355787,-10.081482,,,,,,,
1522136884.403789,-0.350413,-0.041242,-1.644573,0.016721,0.139003,-0.058008,-0.342994,0.041231,-0.938432,0.104927,0.018340,-0.040282,18.395523,1.885054,-9.484070,,,,,,,
1522136884.433757,-0.345970,-0.039508,-1.645135,0.079490,0.124831,-0.028117,-0.338845,0.039498,-0.940012,0.096078,0.025840,-0.096258,18.475601,2.484541,-9.636353,,,,,,,
1522136884.463726,-0.346689,-0.035239,-1.643790,0.200143,-0.117682,-0.035249,-0.339575,0.035232,-0.939919,0.044104,0.035370,-0.044884,18.697754,2.333311,-9.860718,,,,,,,
1522136884.493694,-0.350349,-0.029115,-1.642367,0.194560,-0.154983,-0.019225,-0.343080,0.029111,-0.938855,0.081850,0.029879,-0.017749,18.322601,2.409864,-10.011169,,,,,,,
1522136884.523662,-0.352770,-0.026099,-1.641611,0.032639,-0.050603,0.001866,-0.345381,0.026096,-0.938099,0.083434,0.017804,-0.001064,18.843369,2.257063,-10.460266,,,,,,,
1522136884.553630,-0.351418,-0.028214,-1.642121,-0.128072,0.075136,0.011198,-0.344092,0.028210,-0.938512,0.079123,0.031071,-0.012782,19.670578,2.478346,-10.460754,,,,,,,
1522136884.583599,-0.348670,-0.032798,-1.643386,-0.152737,0.065542,0.023977,-0.341465,0.032793,-0.939322,0.074985,0.025481,-0.023370,19.218185,2.554853,-10.986328,,,,,,,
1522136884.613567,-0.346427,-0.036836,-1.643997,-0.112193,0.069617,0.033598,-0.339309,0.036828,-0.939954,0.088317,0.010474,-0.031192,19.218781,2.704695,-11.136902,,,,,,,
1522136884.643535,-0.343640,-0.039366,-1.643695,-0.045734,0.116269,0.024014,-0.336655,0.039356,-0.940805,0.060044,0.017544,-0.047003,19.669220,3.151991,-11.813416,,,,,,,
1522136884.673503,-0.340363,-0.039577,-1.643060,0.031977,0.043956,0.004962,-0.333568,0.039567,-0.941895,0.078197,0.012542,-0.098129,18.840042,3.005278,-12.263306,,,,,,,
1522136884.703472,-0.341920,-0.037871,-1.643182,0.056925,-0.146080,-0.028921,-0.335056,0.037862,-0.941437,0.069859,-0.000402,-0.091034,18.161301,3.307203,-13.389832,,,,,,,
1522136884.733440,-0.347595,-0.036887,-1.643807,-0.002054,-0.202245,-0.028913,-0.340406,0.036879,-0.939555,0.063810,0.002840,-0.007192,18.386459,3.455961,-13.615356,,,,,,,
1522136884.763408,-0.350968,-0.036989,-1.645202,-0.019426,-0.061760,-0.055699,-0.343572,0.036980,-0.938398,0.044286,0.040245,0.030988,16.508224,3.314116,-13.915710,,,,,,,
1522136884.793377,-0.348871,-0.036926,-1.647318,-0.030544,0.095455,-0.042025,-0.341604,0.036918,-0.939119,0.075002,0.039269,-0.043166,15.983246,3.316481,-13.915955,,,,,,,
1522136884.823345,-0.344496,-0.037900,-1.647737,-0.026631,0.103397,0.034695,-0.337480,0.037891,-0.940569,0.084306,0.027310,-0.115705,16.283508,3.614683,-14.367004,,,,,,,
1522136884.853313,-0.344743,-0.038760,-1.646585,0.001136,-0.110382,0.053043,-0.337701,0.038750,-0.940455,0.050179,0.014747,-0.073873,15.234772,3.469847,-13.916992,,,,,,,
1522136884.883281,-0.350321,-0.039419,-1.644658,0.001616,-0.226302,0.065949,-0.342932,0.039408,-0.938533,0.067130,0.008184,0.017146,14.407715,3.398344,-14.142090,,,,,,,
1522136884.913250,-0.354097,-0.041246,-1.643191,-0.071216,-0.045427,0.060378,-0.346449,0.041234,-0.937162,0.095518,-0.011907,0.047239,13.353729,2.953169,-14.065796,,,,,,,
1522136884.943218,-0.352313,-0.044400,-1.642623,-0.093010,0.064224,0.036821,-0.344730,0.044386,-0.937652,0.079990,-0.006193,0.005492,13.203720,2.729216,-13.690002,,,,,,,
1522136884.973186,-0.350040,-0.046177,-1.644227,-0.049937,0.048789,-0.048383,-0.342569,0.046161,-0.938358,0.028910,0.008054,0.002612,12.605118,2.732130,-13.465332,,,,,,,
1522136885.003154,-0.348576,-0.046013,-1.644466,0.034273,0.079013,0.004932,-0.341198,0.045997,-0.938865,0.054165,-0.001151,0.010780,10.202515,2.293242,-13.164795,,,,,,,
1522136885.033123,-0.344161,-0.043936,-1.642953,0.111285,0.149763,0.040084,-0.337082,0.043922,-0.940450,0.084426,0.010888,-0.098216,10.199554,1.319380,-12.035889,,,,,,,
1522136885.063091,-0.341932,-0.041487,-1.640557,0.084964,-0.011641,0.033832,-0.335020,0.041475,-0.941298,0.056776,0.013319,-0.141359,9.664993,0.496565,-12.257812,,,,,,,
1522136885.093059,-0.346042,-0.039970,-1.639998,0.042674,-0.225737,-0.027794,-0.338906,0.039960,-0.939971,0.060082,0.008746,-0.064180,7.720215,-0.017946,-10.531738,,,,,,,
1522136885.123027,-0.352646,-0.038608,-1.640520,0.031142,-0.177902,-0.026782,-0.345125,0.038598,-0.937762,0.063143,0.008689,0.022861,7.337173,-1.365328,-9.626526,,,,,,,
1522136885.152996,-0.355442,-0.037589,-1.640740,0.044520,-0.055726,-0.029022,-0.347759,0.037580,-0.936830,0.084347,0.021258,0.038866,7.488235,-1.665331,-8.950256,,,,,,,
1522136885.182964,-0.353643,-0.034413,-1.642167,0.106414,0.094438,-0.098389,-0.346112,0.034406,-0.937562,0.075223,0.035876,-0.034576,8.466537,-2.867174,-6.395020,,,,,,,
1522136885.212932,-0.351103,-0.030302,-1.643369,0.112520,0.052833,-0.077033,-0.343776,0.030297,-0.938563,0.055202,0.028739,-0.071829,9.148422,-2.943972,-5.119324,,,,,,,
1522136885.242900,-0.350352,-0.027537,-1.643272,0.078817,0.000359,-0.006683,-0.343099,0.027533,-0.938895,0.048528,0.034418,-0.069909,12.224838,-3.706301,-3.614746,,,,,,,
1522136885.272863,-0.350793,-0.026710,-1.641528,0.025849,-0.055319,0.071123,-0.343520,0.026707,-0.938765,0.064101,0.023128,-0.051545,12.748474,-4.382769,-2.711792,,,,,,,
1522136885.302831,-0.351557,-0.028179,-1.639637,-0.059432,-0.016868,0.076334,-0.344223,0.028175,-0.938465,0.062561,0.012612,-0.031369,15.676208,-4.470339,-2.109924,,,,,,,
1522136885.332799,-0.351099,-0.031110,-1.639281,-0.093230,0.011128,0.032610,-0.343764,0.031105,-0.938541,0.078230,-0.002296,-0.036038,17.843185,-5.005526,-2.556763,,,,,,,
1522136885.362768,-0.351411,-0.034487,-1.639213,-0.111607,-0.028178,0.040082,-0.344018,0.034480,-0.938329,0.047296,-0.000484,-0.010828,19.562836,-5.089022,-3.305542,,,,,,,
1522136885.392736,-0.351418,-0.038250,-1.639551,-0.126443,-0.013237,0.033675,-0.343977,0.038241,-0.938199,0.066100,0.010786,-0.000141,20.385254,-4.943392,-3.980713,,,,,,,
1522136885.422704,-0.351042,-0.041683,-1.640190,-0.111227,0.028266,0.018731,-0.343578,0.041671,-0.938199,0.078105,-0.010513,-0.014819,22.100540,-4.653215,-6.081055,,,,,,,
1522136885.452672,-0.350794,-0.044318,-1.639665,-0.041014,-0.023982,0.020960,-0.343306,0.044303,-0.938178,0.067778,-0.004356,-0.004434,21.797546,-4.502596,-6.831787,,,,,,,
1522136885.482641,-0.352023,-0.043452,-1.639708,0.067849,-0.085563,-0.024715,-0.344472,0.043439,-0.937791,0.050084,0.015186,0.006761,21.569870,-4.502031,-7.281860,,,,,,,
1522136885.512609,-0.352523,-0.040822,-1.640536,0.056733,0.018790,-0.053589,-0.344979,0.040811,-0.937722,0.036782,0.012351,-0.001914,22.243759,-3.756487,-8.709534,,,,,,,
1522136885.542577,-0.349925,-0.039157,-1.640754,0.056979,0.114181,-0.018525,-0.342564,0.039147,-0.938678,0.040669,0.022651,-0.049634,21.944977,-3.680071,-8.635010,,,,,,,
1522136885.572545,-0.345771,-0.037146,-1.640227,0.079116,0.085255,0.009215,-0.338688,0.037138,-0.940165,0.027226,0.030840,-0.093938,20.894257,-3.301088,-9.387024,,,,,,,
1522136885.602514,-0.344913,-0.035301,-1.639982,0.049677,-0.054937,0.007214,-0.337904,0.035293,-0.940518,0.058225,0.027405,-0.076556,21.942398,-3.081484,-10.062378,,,,,,,
1522136885.632482,-0.347549,-0.034898,-1.639874,-0.003894,-0.080386,0.019979,-0.340387,0.034891,-0.939638,0.088342,0.001287,-0.029235,20.893784,-2.851915,-10.213867,,,,,,,
1522136885.662450,-0.349434,-0.035746,-1.638457,-0.004945,-0.040232,0.051907,-0.342147,0.035739,-0.938966,0.066207,0.012571,-0.000014,21.114563,-3.003359,-10.663086,,,,,,,
1522136885.692418,-0.350230,-0.036274,-1.637379,-0.006911,-0.034703,0.023123,-0.342888,0.036266,-0.938676,0.068352,0.019352,-0.003142,22.011368,-2.783297,-11.563538,,,,,,,
1522136885.722387,-0.349301,-0.037704,-1.638018,-0.086258,0.080529,-0.016473,-0.341998,0.037695,-0.938944,0.042147,0.015604,-0.007620,21.787704,-2.557436,-11.714600,,,,,,,
1522136885.752355,-0.345496,-0.040007,-1.639321,-0.070089,0.113438,-0.017560,-0.338392,0.039996,-0.940155,0.034193,0.005521,-0.051331,21.633072,-2.707262,-12.239014,,,,,,,
1522136885.782323,-0.345042,-0.041018,-1.639408,-0.004985,-0.077251,0.027436,-0.337951,0.041006,-0.940270,0.044021,-0.006888,-0.045143,22.378830,-2.411821,-13.439880,,,,,,,
1522136885.812291,-0.347682,-0.040928,-1.639196,0.012341,-0.072746,-0.015176,-0.340434,0.040916,-0.939377,0.023250,0.012093,-0.024093,21.547104,-2.633837,-14.189392,,,,,,,
1522136885.842260,-0.349144,-0.040483,-1.640888,-0.019158,-0.033935,-0.083432,-0.341813,0.040472,-0.938896,0.018602,0.022486,-0.018212,20.941727,-2.632006,-15.089722,,,,,,,
1522136885.872228,-0.349965,-0.041157,-1.642963,-0.062962,-0.006394,-0.054727,-0.342575,0.041145,-0.938589,0.015258,0.016625,-0.020334,21.465012,-2.260256,-15.990906,,,,,,,
1522136885.902196,-0.350366,-0.043016,-1.644597,-0.085806,-0.051251,-0.013149,-0.342924,0.043002,-0.938378,0.004133,0.026349,-0.039848,19.959229,-2.479082,-16.590820,,,,,,,
1522136885.932164,-0.353371,-0.045876,-1.645293,-0.102421,-0.127012,0.036999,-0.345698,0.045860,-0.937224,0.007609,0.025750,0.026671,19.285461,-2.176363,-16.892334,,,,,,,
1522136885.962133,-0.355162,-0.049847,-1.644946,-0.130870,-0.003918,0.070952,-0.347310,0.049827,-0.936426,0.032414,0.005715,0.022668,18.010803,-1.871080,-17.344238,,,,,,,
1522136885.992101,-0.352773,-0.054637,-1.644668,-0.141938,0.116364,0.045250,-0.344986,0.054609,-0.937018,0.003586,0.012163,-0.005136,16.888260,-1.715868,-17.195374,,,,,,,
