timestamp(unix),attitude_roll(radians),attitude_pitch(radians),attitude_yaw(radians),rotation_rate_x(radians/s),rotation_rate_y(radians/s),rotation_rate_z(radians/s),gravity_x(G),gravity_y(G),gravity_z(G),user_acc_x(G),user_acc_y(G),user_acc_z(G),magnetic_field_x(microteslas),magnetic_field_y(microteslas),magnetic_field_z(microteslas),latitude(degree),longitude(degree),altitude(meter),speed(m/s),course(degree),timestamp(unix),User Mark
1522314240.858718,-0.244701,0.003005,2.693162,0.197243,-0.046806,-0.105043,-0.242265,-0.003005,-0.970205,-0.151092,-0.047196,0.010931,-21.186356,-17.617790,-8.973145,,,,,,,1
1522314240.888686,-0.246255,0.000316,2.690700,-0.274042,0.022418,0.039451,-0.243774,-0.000316,-0.969832,-0.174073,-0.079061,-0.032686,-20.282806,-17.396645,-8.748596,,,,,,,1
1522314240.918655,-0.248774,-0.010716,2.689868,-0.302440,-0.202629,0.170708,-0.246202,0.010715,-0.969159,-0.170500,-0.101444,-0.010455,-21.554932,-16.566826,-9.652527,,,,,,,1
,,,,,,,,,,,,,,,,25.300851,51.443655,14.006893,2.090000,232.382812,1522314239.997053,1
1522314240.948623,-0.261586,-0.014297,2.694443,0.086865,-0.468539,0.221343,-0.258587,0.014296,-0.965882,-0.140019,-0.100982,0.012101,-22.004135,-16.714424,-9.277161,,,,,,,1
1522314240.978591,-0.272053,-0.008075,2.701088,0.323330,-0.190305,0.160510,-0.268701,0.008075,-0.963190,-0.158514,-0.095614,0.095041,-21.246826,-16.342232,-8.678284,,,,,,,1
1522314241.008560,-0.273021,-0.001574,2.704338,0.109391,0.090310,0.071633,-0.269641,0.001574,-0.962960,-0.145077,-0.065783,0.109001,-21.924042,-16.788811,-8.301819,,,,,,,1
1522314241.038528,-0.269703,-0.004388,2.704300,-0.213961,0.120911,0.067091,-0.266443,0.004388,-0.963841,-0.152503,-0.069040,0.073094,-21.550858,-17.015419,-8.225708,,,,,,,1
1522314241.068496,-0.271743,-0.012540,2.703510,-0.312878,-0.181185,0.145115,-0.268390,0.012540,-0.963229,-0.110593,-0.022366,-0.011945,-22.824310,-16.410439,-8.978760,,,,,,,1
,,,,,,,,,,,,,,,,25.300835,51.443642,14.204295,2.340000,232.382812,1522314240.997040,1
1522314241.098464,-0.285460,-0.021883,2.704285,-0.256619,-0.506386,0.131632,-0.281532,0.021881,-0.959302,-0.171319,-0.030304,-0.013644,-22.519547,-16.111504,-8.679810,,,,,,,1
1522314241.128433,-0.295643,-0.019192,2.705076,0.435701,-0.107468,-0.023829,-0.291301,0.019191,-0.956439,-0.245213,-0.013362,-0.140531,-23.644043,-15.881737,-8.981323,,,,,,,1
1522314241.158401,-0.292287,0.011931,2.708680,1.391419,0.210071,-0.186458,-0.288122,-0.011930,-0.957519,-0.286295,-0.073503,-0.298172,-23.190903,-16.107887,-8.080200,,,,,,,1
1522314241.188369,-0.289069,0.053037,2.714331,1.044682,-0.030965,-0.239752,-0.284659,-0.053012,-0.957162,-0.104562,0.019900,-0.332999,-22.288483,-17.309547,-5.674927,,,,,,,1
1522314241.218337,-0.290692,0.054452,2.710307,-0.739441,-0.056530,-0.051397,-0.286191,-0.054426,-0.956626,0.015317,0.057813,-0.087930,-22.066177,-17.535622,-5.748901,,,,,,,1
1522314241.248306,-0.292296,0.015729,2.700178,-1.597785,-0.074775,0.125933,-0.288116,-0.015728,-0.957466,0.055785,0.056408,0.242867,-21.474792,-17.315086,-7.549500,,,,,,,1
1522314241.278274,-0.294418,-0.035862,2.689982,-1.785438,-0.152468,0.212168,-0.289996,0.035854,-0.956356,0.097033,-0.033687,0.447887,-21.402679,-16.791756,-8.901550,,,,,,,1
1522314241.308242,-0.310533,-0.086068,2.684933,-1.509260,-0.744081,0.381318,-0.304435,0.085962,-0.948646,0.063087,0.065894,0.637199,-21.098953,-15.968864,-9.654663,,,,,,,1
1522314241.338210,-0.332077,-0.116090,2.680480,-0.456721,-0.701875,0.047499,-0.323813,0.115830,-0.939004,-0.171045,-0.049836,0.368279,-22.291000,-14.539558,-10.711060,,,,,,,1
1522314241.368179,-0.351107,-0.097920,2.679238,1.185148,-0.528708,-0.376606,-0.342289,0.097764,-0.934495,-0.270610,-0.088105,0.228318,-23.111160,-14.460197,-10.036682,,,,,,,1
1522314241.398147,-0.356694,-0.048396,2.681015,1.772410,0.086754,-0.465219,-0.348769,0.048377,-0.935959,-0.289552,-0.000846,0.082215,-22.957687,-15.059319,-8.459290,,,,,,,1
1522314241.428115,-0.346675,0.004665,2.688176,1.513054,0.307205,-0.291953,-0.339769,-0.004665,-0.940497,-0.131437,-0.056553,-0.329919,-23.180267,-15.132790,-7.934082,,,,,,,1
1522314241.458083,-0.343415,0.045087,2.693100,1.051909,0.145452,-0.245255,-0.336363,-0.045072,-0.940653,-0.106142,-0.124103,-0.641271,-23.105377,-16.406029,-5.828979,,,,,,,1
1522314241.488052,-0.344019,0.045362,2.693240,-0.698050,-0.109086,0.155398,-0.336926,-0.045346,-0.940438,-0.059527,-0.087527,-0.276343,-23.477509,-16.254128,-5.604736,,,,,,,1
1522314241.518020,-0.346336,0.008654,2.688172,-1.387224,-0.062661,0.295487,-0.339441,-0.008654,-0.940587,-0.036322,-0.085493,0.042989,-22.952560,-15.582603,-6.732178,,,,,,,1
1522314241.548001,-0.346343,-0.026509,2.683637,-0.842717,0.079977,0.216908,-0.339341,0.026506,-0.940290,-0.078506,-0.127549,0.048109,-23.476044,-14.981010,-7.484802,,,,,,,1
1522314241.577970,-0.336561,-0.033572,2.685545,0.195484,0.499094,0.088326,-0.330057,0.033565,-0.943364,-0.049933,-0.109936,-0.031139,-23.021744,-14.458199,-7.636719,,,,,,,1
1522314241.607938,-0.322111,-0.022257,2.689046,0.425184,0.390980,-0.032860,-0.316491,0.022256,-0.948334,-0.043051,-0.128838,-0.143142,-23.099411,-14.907555,-7.334961,,,,,,,1
1522314241.637906,-0.317013,-0.017327,2.689163,-0.096615,0.015916,-0.004103,-0.311683,0.017326,-0.950028,-0.045403,-0.153602,-0.149490,-22.722321,-15.058647,-6.734131,,,,,,,1
1522314241.667874,-0.321896,-0.031803,2.684208,-0.740838,-0.240054,0.057468,-0.316206,0.031798,-0.948158,0.037870,-0.107710,0.087516,-22.046463,-14.836906,-6.959717,,,,,,,1
1522314241.697843,-0.327452,-0.057569,2.676319,-0.918317,-0.080101,0.039067,-0.321098,0.057538,-0.945296,0.051216,-0.066342,0.226073,-22.270416,-14.461357,-7.411255,,,,,,,1
1522314241.727811,-0.323947,-0.077865,2.667180,-0.490994,0.291704,-0.097376,-0.317346,0.077787,-0.945114,0.072000,-0.014493,0.237778,-22.642715,-13.560738,-8.465149,,,,,,,1
1522314241.757779,-0.313083,-0.076867,2.662190,0.276179,0.331797,-0.175702,-0.307084,0.076792,-0.948579,0.105042,0.083227,0.178010,-21.894257,-13.714088,-8.464111,,,,,,,1
1522314241.787747,-0.309769,-0.060993,2.658170,0.523852,-0.035749,-0.281692,-0.304271,0.060955,-0.950633,-0.050190,0.169193,0.019054,-22.499924,-14.461082,-8.161377,,,,,,,1
1522314241.817716,-0.314565,-0.049609,2.652394,0.107018,-0.134586,-0.282970,-0.309023,0.049588,-0.949761,-0.174025,0.294726,0.056100,-22.507095,-15.360741,-7.857788,,,,,,,1
1522314241.847684,-0.311965,-0.050301,2.641637,-0.259936,0.217796,-0.246307,-0.306541,0.050280,-0.950529,-0.038109,0.232069,0.129636,-21.164032,-15.966927,-8.004761,,,,,,,1
1522314241.877652,-0.306836,-0.059071,2.632042,-0.402559,0.161326,-0.174961,-0.301517,0.059037,-0.951631,0.030094,0.220962,0.238893,-21.925537,-16.938805,-8.301208,,,,,,,1
1522314241.907620,-0.304059,-0.067587,2.622954,-0.316012,0.096798,-0.245167,-0.298712,0.067535,-0.951951,-0.052942,0.227783,0.386933,-20.971863,-17.770256,-10.472412,,,,,,,1
1522314241.937589,-0.294879,-0.067866,2.611677,0.063427,0.480520,-0.399758,-0.289955,0.067814,-0.954635,-0.244301,0.192867,0.321715,-20.157242,-18.449532,-11.069336,,,,,,,1
1522314241.967557,-0.280648,-0.052861,2.603615,0.595470,0.402184,-0.327892,-0.276592,0.052836,-0.959534,-0.211659,-0.048838,0.275070,-20.849457,-19.497536,-12.190491,,,,,,,1
1522314241.997525,-0.271877,-0.033677,2.604664,0.562984,0.242492,0.030259,-0.268387,0.033671,-0.962722,-0.364227,-0.138758,0.096191,-21.011566,-20.397331,-12.711914,,,,,,,1
1522314242.027493,-0.270340,-0.031089,2.617361,-0.091708,-0.069228,0.619322,-0.266930,0.031084,-0.963215,-0.502113,-0.219180,-0.303646,-21.464279,-20.171120,-13.538086,,,,,,,1
1522314242.057462,-0.267467,-0.041813,2.636508,-0.126254,0.143043,0.669152,-0.264058,0.041801,-0.963601,-0.267467,-0.216300,-0.535759,-24.394684,-20.533226,-13.838074,,,,,,,1
,,,,,,,,,,,,,,,,25.300820,51.443621,14.162697,2.390000,229.921875,1522314241.997027,1
1522314242.087430,-0.263908,-0.048411,2.647499,-0.074233,0.017572,0.207944,-0.260550,0.048393,-0.964247,-0.007166,-0.253547,-0.242708,-23.942596,-20.909279,-12.861389,,,,,,,1
1522314242.117398,-0.268389,-0.049222,2.650896,0.065095,-0.230672,0.098559,-0.264857,0.049202,-0.963032,0.099925,-0.348885,0.032078,-21.528732,-20.693199,-10.911011,,,,,,,1
1522314242.147366,-0.268489,-0.043953,2.653894,0.252072,0.165871,0.005595,-0.265019,0.043939,-0.963242,0.064045,-0.334329,-0.073242,-21.831573,-21.066689,-10.759644,,,,,,,1
1522314242.177335,-0.267991,-0.041013,2.655891,-0.025101,-0.111398,0.094105,-0.264572,0.041001,-0.963494,0.038299,-0.278504,-0.171729,-22.199661,-20.914131,-9.860474,,,,,,,1
1522314242.207303,-0.270993,-0.044449,2.660400,-0.015469,-0.000476,0.184565,-0.267424,0.044435,-0.962554,0.068053,-0.186403,-0.066911,-21.358932,-19.792168,-9.114563,,,,,,,1
1522314242.237271,-0.261466,-0.041249,2.662874,0.194710,0.446657,-0.011774,-0.258277,0.041237,-0.965190,0.042854,-0.215218,-0.182408,-21.426163,-19.191566,-8.817017,,,,,,,1
1522314242.267240,-0.253518,-0.038354,2.662027,-0.086647,0.093462,-0.005234,-0.250627,0.038344,-0.967324,0.113649,-0.113128,-0.143363,-21.271515,-18.817116,-8.668396,,,,,,,1
1522314242.297208,-0.255713,-0.054759,2.656430,-0.882198,-0.123733,0.035939,-0.252556,0.054731,-0.966033,0.110573,0.009737,0.009231,-21.275131,-18.593056,-9.644287,,,,,,,1
1522314242.327176,-0.260633,-0.088222,2.648030,-1.242010,-0.164036,0.001613,-0.256690,0.088107,-0.962469,0.017158,0.089017,0.050909,-22.244278,-17.689232,-10.173401,,,,,,,1
1522314242.357144,-0.266595,-0.113295,2.640099,-0.418139,-0.115503,-0.089459,-0.261759,0.113052,-0.958489,-0.098745,0.144836,-0.106895,-23.146500,-17.236305,-11.300659,,,,,,,1
1522314242.387113,-0.265514,-0.101667,2.637742,0.758969,0.072778,-0.232617,-0.261051,0.101492,-0.959975,-0.191907,0.151637,-0.236039,-22.922424,-17.237465,-11.450562,,,,,,,1
1522314242.417081,-0.268190,-0.076015,2.636210,0.672354,-0.223298,-0.257955,-0.264221,0.075942,-0.961468,-0.153274,0.092683,-0.142155,-22.625092,-18.137749,-10.396729,,,,,,,1
1522314242.447049,-0.278029,-0.072558,2.633070,-0.374470,-0.296734,-0.021050,-0.273739,0.072495,-0.959068,0.027416,0.100158,0.114631,-21.424683,-18.816948,-9.193481,,,,,,,1
1522314242.477017,-0.284793,-0.093804,2.629236,-0.790137,-0.213779,0.116010,-0.279723,0.093666,-0.955501,0.079726,0.093834,0.249888,-21.424835,-18.292854,-10.095520,,,,,,,1
1522314242.506986,-0.290384,-0.110990,2.625689,-0.326684,-0.079264,0.012868,-0.284558,0.110762,-0.952239,0.043439,0.076692,0.280760,-22.249969,-17.989662,-10.622192,,,,,,,1
1522314242.536954,-0.287259,-0.105281,2.623800,0.483498,0.181163,-0.135962,-0.281756,0.105086,-0.953714,0.001040,0.075669,0.144861,-22.173782,-17.914925,-10.547424,,,,,,,1
1522314242.566901,-0.280998,-0.087276,2.621289,0.521387,0.208174,-0.212681,-0.276259,0.087165,-0.957122,-0.038636,0.131753,0.060424,-21.424393,-18.292778,-10.020508,,,,,,,1
1522314242.596869,-0.280880,-0.078798,2.616797,-0.007817,-0.119231,-0.157347,-0.276341,0.078717,-0.957831,0.009648,0.171253,0.062216,-20.900742,-18.744606,-9.493530,,,,,,,1
1522314242.626838,-0.286178,-0.086516,2.611079,-0.385658,-0.128044,0.019269,-0.281232,0.086408,-0.955742,0.081570,0.143649,0.185173,-20.529800,-18.971581,-9.792419,,,,,,,1
1522314242.656806,-0.288638,-0.097047,2.609501,-0.290032,-0.089829,0.141840,-0.283307,0.096895,-0.954122,0.090574,0.079771,0.259328,-20.977844,-18.594856,-10.094116,,,,,,,1
1522314242.686774,-0.292227,-0.105721,2.612455,-0.197583,-0.081106,0.231392,-0.286477,0.105524,-0.952258,0.078072,0.047918,0.330417,-20.908386,-18.970467,-10.392578,,,,,,,1
1522314242.716743,-0.286423,-0.109078,2.617224,0.089528,0.350757,0.215200,-0.280844,0.108862,-0.953560,0.171316,-0.048879,0.360573,-20.233261,-19.048363,-10.241943,,,,,,,1
1522314242.746711,-0.271682,-0.097850,2.624918,0.712345,0.506400,0.074854,-0.267069,0.097694,-0.958713,0.096430,-0.108833,0.033099,-20.752396,-19.045052,-9.267212,,,,,,,1
1522314242.776680,-0.265320,-0.067224,2.632961,1.232792,-0.068506,-0.105316,-0.261626,0.067173,-0.962829,0.057433,-0.113270,-0.433228,-22.327576,-20.011375,-7.689148,,,,,,,1
1522314242.806648,-0.272173,-0.033497,2.636460,0.896899,-0.342080,-0.219307,-0.268674,0.033491,-0.962649,0.077848,-0.172681,-0.475080,-22.022614,-20.236549,-6.488098,,,,,,,1
1522314242.836617,-0.282279,-0.021890,2.632671,-0.076878,-0.330234,-0.198737,-0.278479,0.021888,-0.960193,0.048330,-0.203117,-0.254895,-21.346725,-20.688698,-5.585938,,,,,,,1
1522314242.866585,-0.294774,-0.030899,2.622947,-0.423951,-0.434076,-0.271334,-0.290385,0.030894,-0.956411,-0.089040,-0.204249,-0.134699,-21.193756,-20.389381,-5.587036,,,,,,,1
1522314242.896553,-0.308073,-0.034411,2.610931,0.015722,-0.378025,-0.388277,-0.303044,0.034404,-0.952355,-0.323879,-0.326610,-0.164771,-20.671814,-19.793221,-7.089172,,,,,,,1
1522314242.926521,-0.316964,-0.018706,2.612610,0.845129,-0.232129,0.181187,-0.311629,0.018705,-0.950020,-0.658510,-0.591841,-0.190575,-21.868927,-19.413002,-7.241333,,,,,,,1
1522314242.956490,-0.319262,0.000077,2.636868,0.638679,-0.046979,0.824423,-0.313866,-0.000077,-0.949467,-0.401573,-0.347930,-0.144298,-22.612015,-18.809502,-7.094055,,,,,,,1
1522314242.986458,-0.322956,-0.011432,2.661320,-0.675808,-0.103109,0.809648,-0.317350,0.011432,-0.948239,-0.054491,0.046414,0.062223,-22.245728,-18.962349,-8.293274,,,,,,,1
1522314243.016426,-0.320113,-0.050141,2.664345,-1.410247,0.287973,0.305780,-0.314278,0.050120,-0.948007,-0.045600,0.157659,0.212960,-23.991653,-19.482109,-10.917114,,,,,,,1
1522314243.046394,-0.314396,-0.087032,2.654625,-1.049719,0.049379,-0.041087,-0.308072,0.086922,-0.947384,-0.149662,0.076423,0.175671,-23.104614,-19.563133,-12.941345,,,,,,,1
1522314243.076363,-0.316650,-0.105998,2.647495,-0.488833,-0.074467,-0.008562,-0.309638,0.105799,-0.944950,-0.161386,0.104177,0.189106,-24.383911,-19.632973,-13.541687,,,,,,,1
,,,,,,,,,,,,,,,,25.300797,51.443593,14.177953,2.880000,232.382812,1522314242.997016,1
1522314243.106331,-0.318919,-0.114500,2.643025,-0.155780,0.030636,-0.111783,-0.311487,0.114250,-0.943357,-0.143377,0.173257,0.246641,-24.323593,-20.609062,-14.362732,,,,,,,1
1522314243.136298,-0.316538,-0.108266,2.638132,0.334400,0.116565,-0.264943,-0.309455,0.108055,-0.944755,-0.179299,0.183586,0.205238,-23.877075,-20.911156,-14.436340,,,,,,,1
1522314243.166266,-0.312717,-0.092914,2.635552,0.482623,0.130716,-0.215824,-0.306318,0.092780,-0.947397,-0.146761,0.088876,-0.016852,-23.499069,-21.062111,-13.685547,,,,,,,1
1522314243.196235,-0.305628,-0.082811,2.633484,0.171599,0.384916,-0.138532,-0.299861,0.082716,-0.950390,-0.081075,0.073518,0.045925,-23.344589,-21.062050,-12.935486,,,,,,,1
1522314243.226203,-0.297555,-0.085825,2.628332,-0.289395,0.210685,-0.131244,-0.292104,0.085720,-0.952537,-0.053797,0.020985,0.053734,-23.039490,-20.688210,-12.711792,,,,,,,1
1522314243.256171,-0.299521,-0.094983,2.621775,-0.295442,-0.128615,-0.082954,-0.293732,0.094841,-0.951171,-0.027771,-0.016014,0.110046,-22.215591,-20.392586,-13.387512,,,,,,,1
1522314243.286139,-0.302464,-0.098846,2.618460,-0.006877,-0.010628,-0.038111,-0.296420,0.098685,-0.949946,-0.112134,-0.021841,0.120432,-22.825897,-21.290062,-13.609314,,,,,,,1
1522314243.316108,-0.301239,-0.095305,2.617569,0.163486,0.100639,-0.056203,-0.295358,0.095161,-0.950636,-0.160834,-0.036537,0.054670,-23.122894,-20.988716,-13.610657,,,,,,,1
1522314243.346076,-0.299971,-0.089926,2.615395,0.143000,0.011714,-0.095559,-0.294299,0.089805,-0.951485,-0.162916,-0.065300,0.075112,-21.776077,-21.444557,-13.383118,,,,,,,1
1522314243.376045,-0.302609,-0.086441,2.613407,0.046448,-0.081589,-0.089151,-0.296899,0.086333,-0.950998,-0.181540,-0.050566,0.051096,-21.931168,-22.043709,-13.230835,,,,,,,1
1522314243.406013,-0.305172,-0.085804,2.612073,-0.019845,-0.009752,-0.007220,-0.299352,0.085698,-0.950286,-0.193598,-0.062703,0.008727,-22.532028,-22.041161,-13.381104,,,,,,,1
1522314243.435982,-0.306009,-0.085677,2.612139,0.007996,0.028299,0.010882,-0.300150,0.085572,-0.950046,-0.205739,-0.098466,-0.010693,-21.709915,-21.970451,-13.981018,,,,,,,1
1522314243.465950,-0.304373,-0.082694,2.612964,0.208020,0.080045,-0.014592,-0.298671,0.082600,-0.950775,-0.147664,-0.099339,-0.001084,-22.160645,-22.268044,-13.605042,,,,,,,1
1522314243.495918,-0.302322,-0.076553,2.612978,0.101878,0.149815,-0.075483,-0.296866,0.076478,-0.951852,-0.089411,-0.067903,-0.032996,-22.158081,-22.417381,-12.929443,,,,,,,1
1522314243.525887,-0.299259,-0.079557,2.610475,-0.306759,0.049452,-0.012826,-0.293879,0.079474,-0.952533,-0.111470,-0.111731,-0.103345,-21.334457,-22.421318,-13.153992,,,,,,,1
