timestamp(unix),attitude_roll(radians),attitude_pitch(radians),attitude_yaw(radians),rotation_rate_x(radians/s),rotation_rate_y(radians/s),rotation_rate_z(radians/s),gravity_x(G),gravity_y(G),gravity_z(G),user_acc_x(G),user_acc_y(G),user_acc_z(G),magnetic_field_x(microteslas),magnetic_field_y(microteslas),magnetic_field_z(microteslas),latitude(degree),longitude(degree),altitude(meter),speed(m/s),course(degree),timestamp(unix),User Mark
1522139784.862621,-0.067040,-0.045141,-0.538559,0.024044,-0.005886,-0.036372,-0.066922,0.045126,-0.996737,0.007016,-0.049047,0.005694,74.520706,-4.081161,-6.522705,,,,,,,
,,,,,,,,,,,,,,,,25.311192,51.444723,11.649899,-1.000000,-1.000000,1522139784.090754,
1522139784.892589,-0.067429,-0.044207,-0.539560,0.017706,0.018541,-0.030019,-0.067312,0.044193,-0.996753,0.021658,-0.017658,-0.050855,76.456665,-4.316833,-8.470825,,,,,,,
1522139784.922557,-0.068084,-0.043321,-0.540558,0.020695,-0.028216,-0.029973,-0.067967,0.043308,-0.996747,-0.048686,-0.053928,-0.065387,75.323013,-4.687546,-9.294922,,,,,,,
1522139784.952526,-0.068067,-0.042466,-0.541496,0.015603,0.024916,-0.030023,-0.067953,0.042453,-0.996785,-0.033167,-0.049289,-0.056743,75.837784,-4.766434,-10.869385,,,,,,,
1522139784.982463,-0.068514,-0.041658,-0.542336,0.010076,-0.010187,-0.023595,-0.068401,0.041646,-0.996788,-0.019505,-0.054448,0.042763,77.029907,-4.698227,-12.294006,,,,,,,
1522139785.012432,-0.068491,-0.041077,-0.542924,0.017715,0.030133,-0.019360,-0.068380,0.041066,-0.996814,-0.033992,-0.061863,-0.083447,76.270935,-4.920929,-13.418518,,,,,,,
1522139785.042400,-0.068936,-0.040129,-0.543263,0.024802,-0.043246,-0.010770,-0.068825,0.040118,-0.996822,-0.040931,-0.071154,0.069774,76.556061,-5.149323,-15.517456,,,,,,,
1522139785.072368,-0.068695,-0.039056,-0.543465,0.025148,0.041691,-0.002323,-0.068588,0.039047,-0.996881,-0.019119,-0.088744,-0.100669,76.996735,-5.227722,-16.941956,,,,,,,
1522139785.102336,-0.068956,-0.038213,-0.543492,0.014194,-0.017823,0.000934,-0.068851,0.038203,-0.996895,-0.008008,-0.092784,0.020943,74.061768,-4.916687,-19.119629,,,,,,,
,,,,,,,,,,,,,,,,25.311201,51.444693,11.686428,-1.000000,-1.000000,1522139785.081554,
1522139785.132305,-0.068854,-0.037663,-0.543336,0.009081,0.041667,0.007253,-0.068751,0.037654,-0.996923,-0.055059,-0.087291,-0.072932,72.927658,-5.062866,-20.394592,,,,,,,
1522139785.162273,-0.069139,-0.037022,-0.543114,0.015206,-0.019992,0.008388,-0.069036,0.037014,-0.996927,-0.028071,-0.055904,0.038324,69.698853,-4.449997,-22.048706,,,,,,,
1522139785.192241,-0.069128,-0.036126,-0.542918,0.006793,0.006596,0.007293,-0.069028,0.036118,-0.996961,-0.064944,-0.086030,-0.008731,66.773087,-4.436981,-22.200256,,,,,,,
1522139785.222209,-0.069428,-0.035578,-0.542738,0.014067,-0.039073,0.004135,-0.069328,0.035570,-0.996960,-0.037209,-0.109972,0.022213,61.606400,-3.963135,-21.604675,,,,,,,
1522139785.252178,-0.069346,-0.034952,-0.542541,0.002543,0.007711,0.003019,-0.069248,0.034945,-0.996987,-0.019818,-0.088092,0.038125,59.139877,-3.426514,-21.083069,,,,,,,
1522139785.282146,-0.069584,-0.034680,-0.542434,0.001393,-0.014564,-0.001226,-0.069486,0.034673,-0.996980,-0.009997,-0.079138,0.042619,53.828659,-3.849609,-18.084045,,,,,,,
1522139785.312114,-0.069547,-0.034266,-0.542326,0.002410,-0.026260,-0.001211,-0.069450,0.034260,-0.996997,-0.022149,-0.099018,0.055469,51.064880,-3.760452,-16.360779,,,,,,,
1522139785.342083,-0.069789,-0.034005,-0.542249,-0.006108,-0.016709,0.003038,-0.069692,0.033998,-0.996989,-0.028803,-0.086199,0.030406,49.803757,-3.677597,-14.186707,,,,,,,
1522139785.372051,-0.069551,-0.033707,-0.542094,-0.000570,0.025786,0.001936,-0.069455,0.033700,-0.997016,-0.032656,-0.081262,-0.062951,46.304153,-4.106903,-9.236755,,,,,,,
1522139785.402019,-0.070039,-0.033336,-0.542027,-0.001867,-0.025218,0.001987,-0.069942,0.033329,-0.996994,-0.013432,-0.076954,0.132340,46.465118,-4.180679,-7.286377,,,,,,,
1522139785.431987,-0.069830,-0.033065,-0.541913,-0.009124,0.028990,0.005111,-0.069735,0.033059,-0.997018,-0.037672,-0.075310,-0.040550,46.938995,-4.178833,-3.311157,,,,,,,
1522139785.461956,-0.070013,-0.032858,-0.541778,0.003286,-0.061356,0.004146,-0.069918,0.032852,-0.997012,-0.017667,-0.052414,0.075472,49.268112,-4.263489,-2.484619,,,,,,,
1522139785.491924,-0.069696,-0.032669,-0.541665,-0.009198,0.009859,0.004073,-0.069602,0.032664,-0.997040,-0.013741,-0.079676,-0.062775,52.050217,-4.274811,-1.283203,,,,,,,
1522139785.521862,-0.069789,-0.032621,-0.541513,0.004566,-0.015677,0.004108,-0.069696,0.032615,-0.997035,-0.014624,-0.045310,-0.008351,54.527054,-4.135880,-1.207520,,,,,,,
1522139785.551830,-0.069648,-0.032300,-0.541365,-0.003780,0.034253,0.009377,-0.069556,0.032295,-0.997055,-0.014795,-0.093727,-0.008652,56.173508,-3.994110,-2.032227,,,,,,,
1522139785.581798,-0.069756,-0.032214,-0.541098,-0.005191,-0.041201,0.010520,-0.069663,0.032208,-0.997050,-0.015756,-0.035275,-0.007756,56.392670,-4.220703,-2.631287,,,,,,,
1522139785.611766,-0.069515,-0.032046,-0.540877,-0.003785,0.032120,0.009384,-0.069423,0.032040,-0.997073,-0.004338,-0.106503,-0.059675,55.341965,-4.290970,-2.631531,,,,,,,
1522139785.641735,-0.069619,-0.031907,-0.540551,-0.009402,-0.025265,0.012631,-0.069527,0.031901,-0.997070,0.005516,-0.027827,0.013290,53.693085,-4.582870,-1.956177,,,,,,,
1522139785.671703,-0.069476,-0.031568,-0.540196,0.013319,0.038449,0.010454,-0.069385,0.031563,-0.997090,-0.014401,-0.070839,-0.065638,52.719955,-4.802826,-1.280701,,,,,,,
1522139785.701671,-0.069683,-0.030970,-0.539874,0.005721,0.010838,0.010477,-0.069593,0.030965,-0.997095,0.002378,-0.049382,-0.059439,51.386993,-4.943756,1.794128,,,,,,,
1522139785.731639,-0.069817,-0.030265,-0.539590,0.021782,0.020373,0.009411,-0.069728,0.030260,-0.997107,-0.030797,-0.078463,-0.088541,50.947830,-4.939972,3.593933,,,,,,,
1522139785.761576,-0.070177,-0.029489,-0.539374,0.014083,-0.030602,0.008389,-0.070089,0.029485,-0.997105,-0.016215,-0.045079,0.032215,51.868652,-4.790894,6.818787,,,,,,,
1522139785.791544,-0.070295,-0.028710,-0.539162,0.018585,0.014067,0.001950,-0.070208,0.028706,-0.997119,-0.017454,-0.064015,-0.031155,52.552658,-4.792465,8.319153,,,,,,,
1522139785.821512,-0.070603,-0.027954,-0.539036,0.013122,-0.011440,0.004105,-0.070517,0.027950,-0.997119,-0.042154,-0.097789,-0.036115,56.616577,-4.434021,10.044617,,,,,,,
1522139785.851480,-0.070979,-0.027444,-0.538827,0.006749,-0.000808,0.006217,-0.070892,0.027440,-0.997106,-0.015747,-0.075292,0.092596,59.841599,-4.298752,9.820740,,,,,,,
1522139785.881449,-0.071141,-0.027014,-0.538636,0.009863,-0.019972,0.008379,-0.071055,0.027011,-0.997107,-0.034368,-0.091388,0.047384,64.790451,-3.647324,8.545654,,,,,,,
1522139785.911417,-0.071281,-0.026695,-0.538346,-0.004012,-0.018874,0.008368,-0.071195,0.026692,-0.997105,-0.020587,-0.076665,0.069691,67.332535,-3.585175,7.121704,,,,,,,
1522139785.941385,-0.071344,-0.026358,-0.538023,0.003376,-0.034825,0.009445,-0.071259,0.026355,-0.997110,0.009156,-0.099490,0.020806,70.764053,-3.453918,3.822876,,,,,,,
1522139785.971354,-0.071358,-0.026138,-0.537652,-0.010328,0.006637,0.011523,-0.071273,0.026135,-0.997114,-0.050355,-0.047345,-0.061510,70.976135,-3.981140,2.550049,,,,,,,
1522139786.001322,-0.071163,-0.025902,-0.537268,-0.000770,-0.006149,0.011551,-0.071079,0.025899,-0.997134,-0.013210,-0.077794,0.100009,71.044083,-4.057495,1.500427,,,,,,,
1522139786.031290,-0.071195,-0.025712,-0.536951,-0.007094,0.010893,0.009391,-0.071112,0.025710,-0.997137,-0.038080,-0.073592,-0.034037,71.856445,-4.512497,0.152649,,,,,,,
1522139786.061228,-0.071008,-0.025609,-0.536623,-0.002812,0.008755,0.007277,-0.070925,0.025607,-0.997153,-0.024122,-0.057650,-0.017740,72.078140,-4.888428,0.229309,,,,,,,
1522139786.091196,-0.070753,-0.025373,-0.536344,-0.002848,0.008715,0.013667,-0.070671,0.025370,-0.997177,-0.017204,-0.054240,-0.015808,74.239853,-5.274719,-1.343079,,,,,,,
,,,,,,,,,,,,,,,,25.311286,51.444656,11.973019,-1.000000,-1.000000,1522139786.083587,
1522139786.121164,-0.070527,-0.025337,-0.536060,-0.000830,-0.022057,0.008364,-0.070446,0.025334,-0.997194,-0.012898,-0.054097,0.049211,75.508499,-5.281479,-2.392395,,,,,,,
1522139786.151133,-0.070216,-0.025069,-0.535799,-0.000688,0.005591,0.005141,-0.070136,0.025067,-0.997222,-0.010247,-0.086209,-0.004502,75.948547,-5.060486,-4.418091,,,,,,,
1522139786.181101,-0.069970,-0.024954,-0.535592,0.000468,0.024695,0.006197,-0.069892,0.024952,-0.997243,-0.000100,-0.069767,-0.015254,76.318573,-5.062973,-5.242920,,,,,,,
1522139786.211069,-0.069782,-0.024659,-0.535361,0.001510,0.019382,0.006201,-0.069704,0.024656,-0.997263,-0.001844,-0.097486,0.007700,76.986923,-4.692703,-6.969055,,,,,,,
1522139786.241037,-0.069698,-0.024340,-0.535086,0.006656,-0.019974,0.009444,-0.069621,0.024338,-0.997277,-0.014088,-0.078537,0.018746,75.933960,-4.763351,-7.344299,,,,,,,
1522139786.271006,-0.069596,-0.023768,-0.534783,0.013175,0.005534,0.008348,-0.069520,0.023766,-0.997297,-0.031722,-0.075936,0.009932,75.174698,-5.285614,-8.017578,,,,,,,
1522139786.300974,-0.069441,-0.023030,-0.534468,0.003572,0.005548,0.008348,-0.069367,0.023028,-0.997325,-0.017745,-0.081057,-0.034749,75.325882,-4.986588,-8.318726,,,,,,,
1522139786.330942,-0.069359,-0.022632,-0.534103,0.003551,0.003424,0.009410,-0.069286,0.022630,-0.997340,-0.017338,-0.059023,0.011851,74.644760,-5.508667,-8.466980,,,,,,,
1522139786.360910,-0.069402,-0.022042,-0.533695,-0.003884,0.017212,0.014723,-0.069330,0.022040,-0.997350,0.001703,-0.069831,-0.001048,74.635925,-6.258850,-8.689026,,,,,,,
1522139786.390879,-0.069486,-0.022079,-0.533291,-0.006060,0.006596,0.013668,-0.069413,0.022077,-0.997344,-0.004119,-0.035734,0.020964,75.157303,-6.261795,-9.288696,,,,,,,
1522139786.420847,-0.069570,-0.021789,-0.532934,-0.000800,-0.008291,0.014746,-0.069498,0.021788,-0.997344,0.010477,-0.066908,0.038818,75.825836,-6.640259,-9.736877,,,,,,,
1522139786.450815,-0.069646,-0.021762,-0.532574,-0.009316,-0.002958,0.014735,-0.069573,0.021760,-0.997339,0.001611,-0.035905,0.002527,76.498215,-6.269333,-10.788025,,,,,,,
1522139786.480783,-0.069716,-0.021411,-0.532225,0.005557,-0.022110,0.012636,-0.069644,0.021409,-0.997342,0.047366,-0.066423,0.049100,77.171661,-5.523865,-12.290649,,,,,,,
1522139786.510752,-0.069682,-0.020909,-0.531895,0.011058,0.008736,0.007277,-0.069611,0.020907,-0.997355,0.007690,-0.071048,0.002986,76.946213,-5.073669,-13.117554,,,,,,,
1522139786.540720,-0.069432,-0.020177,-0.531632,0.015354,0.008718,0.005164,-0.069362,0.020176,-0.997387,0.011928,-0.104206,-0.033222,76.195450,-4.022171,-14.997192,,,,,,,
1522139786.570688,-0.069214,-0.019650,-0.531357,0.004682,0.016163,0.009404,-0.069145,0.019649,-0.997413,0.007286,-0.075374,-0.006142,76.576401,-3.199265,-15.375244,,,,,,,
1522139786.600626,-0.069065,-0.019068,-0.531123,0.011042,0.003444,0.005147,-0.068997,0.019067,-0.997435,-0.014850,-0.088616,-0.025774,74.933044,-1.992783,-16.280884,,,,,,,
1522139786.630594,-0.068945,-0.018606,-0.530942,-0.002732,0.025786,0.005119,-0.068879,0.018605,-0.997452,0.010560,-0.047123,0.017212,74.412247,-1.390732,-16.583618,,,,,,,
1522139786.660563,-0.068632,-0.018369,-0.530734,-0.006006,0.014085,0.008324,-0.068567,0.018368,-0.997477,-0.020346,-0.075664,-0.112615,74.265228,-0.865463,-16.960754,,,,,,,
1522139786.690531,-0.068654,-0.018284,-0.530543,-0.003905,0.008750,0.010463,-0.068589,0.018283,-0.997477,-0.014038,-0.074069,-0.017476,72.322968,-0.630814,-16.062622,,,,,,,
1522139786.720499,-0.068714,-0.018029,-0.530233,-0.007251,-0.019977,0.014761,-0.068649,0.018028,-0.997478,0.044311,-0.032173,0.025630,71.723007,-0.852737,-15.687073,,,,,,,
1522139786.750467,-0.068696,-0.017996,-0.529875,-0.002858,0.006607,0.012597,-0.068631,0.017995,-0.997480,0.006543,-0.057714,-0.012560,72.252930,-0.854309,-14.861755,,,,,,,
1522139786.780449,-0.068681,-0.017546,-0.529445,0.006749,0.007641,0.013667,-0.068617,0.017545,-0.997489,0.010893,-0.075071,0.018225,71.652496,-0.851685,-14.937073,,,,,,,
1522139786.810417,-0.068786,-0.016946,-0.528949,0.016266,-0.009410,0.016890,-0.068722,0.016945,-0.997492,0.005765,-0.057580,0.001886,72.763351,-1.233398,-16.659973,,,,,,,
1522139786.840385,-0.068820,-0.016160,-0.528470,0.015295,0.006540,0.013686,-0.068757,0.016159,-0.997503,0.006226,-0.044922,-0.001811,72.237152,-0.856857,-17.486755,,,,,,,
1522139786.870353,-0.068755,-0.015212,-0.527992,0.026925,-0.016851,0.013708,-0.068693,0.015211,-0.997522,-0.006671,-0.058683,0.010858,69.446686,-1.371017,-19.211182,,,,,,,
1522139786.900322,-0.068738,-0.014363,-0.527578,0.014191,-0.001945,0.012624,-0.068677,0.014363,-0.997536,-0.023731,-0.061055,0.025505,68.018143,-1.589813,-19.435974,,,,,,,
1522139786.930290,-0.068633,-0.013759,-0.527193,0.012203,0.033129,0.013646,-0.068573,0.013758,-0.997551,0.004333,-0.062708,0.000923,63.964859,-1.647034,-19.887756,,,,,,,
1522139786.960258,-0.068275,-0.013291,-0.526893,0.000490,0.036351,0.011510,-0.068216,0.013291,-0.997582,0.006356,-0.063035,-0.093711,62.395782,-1.638992,-18.913574,,,,,,,
1522139786.990226,-0.068273,-0.012974,-0.526579,-0.002987,-0.026315,0.009437,-0.068214,0.012974,-0.997586,-0.004219,-0.065724,0.015332,60.749451,-1.630997,-18.314453,,,,,,,
1522139787.020195,-0.067955,-0.012872,-0.526259,-0.003885,0.006659,0.005140,-0.067897,0.012872,-0.997609,0.047130,-0.058007,0.068380,57.612350,-1.689621,-16.065796,,,,,,,
1522139787.050163,-0.067135,-0.012562,-0.525911,-0.006808,0.076760,0.011456,-0.067080,0.012561,-0.997669,0.007967,-0.063449,-0.119214,55.964569,-2.280853,-14.714233,,,,,,,
1522139787.080131,-0.067142,-0.012497,-0.525518,-0.003034,-0.030603,0.014768,-0.067087,0.012497,-0.997669,-0.042700,-0.037399,0.058948,54.926804,-2.723404,-11.937988,,,,,,,
1522139787.110099,-0.066125,-0.011907,-0.525228,0.013404,0.057612,0.008289,-0.066072,0.011906,-0.997744,0.086183,-0.069463,-0.162107,54.256638,-3.093964,-10.511841,,,,,,,
,,,,,,,,,,,,,,,,25.311295,51.444648,12.026333,-1.000000,-1.000000,1522139787.095362,
1522139787.140037,-0.065721,-0.011446,-0.524936,0.004757,0.032114,0.008320,-0.065669,0.011446,-0.997776,0.014995,-0.017580,0.005008,54.562210,-3.618546,-8.709595,,,,,,,
1522139787.170005,-0.065456,-0.010938,-0.524688,0.012155,0.016146,0.009409,-0.065405,0.010938,-0.997799,0.014319,-0.042585,-0.116398,55.612320,-3.698120,-8.558716,,,,,,,
1522139787.199974,-0.065430,-0.010522,-0.524470,-0.000686,0.014052,0.011523,-0.065379,0.010522,-0.997805,0.022411,-0.024453,-0.062299,55.907684,-4.748459,-7.579407,,,,,,,
1522139787.229942,-0.065743,-0.010376,-0.524221,0.001379,-0.004003,0.009412,-0.065693,0.010376,-0.997786,-0.011334,-0.062622,-0.074037,56.130432,-4.974457,-7.578369,,,,,,,
1522139787.259910,-0.066192,-0.010411,-0.523915,-0.010333,0.008736,0.014721,-0.066140,0.010411,-0.997756,0.013223,-0.044499,-0.074433,56.501099,-5.950226,-6.674255,,,,,,,
1522139787.289878,-0.066856,-0.010466,-0.523529,-0.003059,-0.035915,0.014773,-0.066803,0.010465,-0.997711,-0.025559,-0.055113,-0.037796,55.073334,-6.543274,-6.147583,,,,,,,
1522139787.319847,-0.067701,-0.010457,-0.523109,-0.011439,-0.000849,0.015806,-0.067646,0.010456,-0.997655,-0.035336,-0.088307,-0.077251,55.069901,-7.292572,-5.469604,,,,,,,
1522139787.349815,-0.068444,-0.010587,-0.522614,-0.007227,-0.009344,0.016867,-0.068387,0.010587,-0.997603,-0.011340,-0.094510,-0.070329,55.295380,-7.967392,-4.266785,,,,,,,
1522139787.379783,-0.069645,-0.010646,-0.522076,-0.012795,-0.056138,0.022248,-0.069585,0.010645,-0.997519,-0.061244,-0.013285,0.081702,54.996918,-8.489929,-3.139832,,,,,,,
1522139787.409752,-0.070536,-0.010416,-0.521600,0.003455,-0.010434,0.015817,-0.070473,0.010416,-0.997459,-0.050346,-0.102029,-0.088829,55.297836,-8.940384,-2.237915,,,,,,,
1522139787.439720,-0.071719,-0.010331,-0.521096,0.002143,-0.066748,0.014811,-0.071653,0.010331,-0.997376,-0.000811,-0.043504,-0.016738,56.581146,-8.420624,-1.714355,,,,,,,
1522139787.469688,-0.072592,-0.010274,-0.520678,0.004529,-0.015698,0.009425,-0.072524,0.010273,-0.997314,-0.026200,-0.080174,0.096954,56.967987,-8.046021,-0.365662,,,,,,,
1522139787.499656,-0.072408,-0.010392,-0.520333,-0.022956,0.048099,0.012540,-0.072340,0.010392,-0.997326,-0.063188,-0.059281,-0.079929,56.899445,-7.894897,0.458679,,,,,,,
1522139787.529625,-0.072930,-0.010663,-0.520009,-0.001980,-0.042242,0.007322,-0.072861,0.010663,-0.997285,-0.008407,-0.060437,0.014131,59.611343,-7.380966,1.583008,,,,,,,
1522139787.559593,-0.072847,-0.010418,-0.519771,-0.006949,0.040644,0.008303,-0.072779,0.010418,-0.997294,-0.010687,-0.105007,-0.107977,60.283325,-7.908615,1.960449,,,,,,,
1522139787.589561,-0.072505,-0.010573,-0.519605,-0.008141,0.011982,0.006192,-0.072438,0.010573,-0.997317,-0.010784,-0.015441,-0.016080,61.108017,-8.436493,2.787964,,,,,,,
1522139787.619529,-0.072019,-0.010449,-0.519475,-0.002798,0.007746,0.001940,-0.071952,0.010448,-0.997353,-0.005425,-0.067303,0.037392,62.378784,-9.041916,3.091064,,,,,,,
1522139787.649498,-0.071464,-0.010545,-0.519415,-0.008118,0.010940,0.001938,-0.071399,0.010545,-0.997392,0.013035,-0.064195,0.040101,64.099838,-9.799057,3.694885,,,,,,,
1522139787.679435,-0.070931,-0.010625,-0.519373,-0.016647,0.015207,0.002990,-0.070868,0.010624,-0.997429,-0.009363,-0.047001,0.022454,66.280884,-9.283722,3.843933,,,,,,,
1522139787.709404,-0.070273,-0.010968,-0.519316,-0.018832,0.005660,0.002991,-0.070211,0.010968,-0.997472,-0.025629,-0.054440,-0.008067,68.078705,-9.142410,3.244324,,,,,,,
1522139787.739372,-0.069698,-0.011479,-0.519138,-0.033677,0.032207,0.008293,-0.069637,0.011479,-0.997506,0.017665,-0.079640,0.000818,71.074493,-8.482697,1.443115,,,,,,,
1522139787.769327,-0.069236,-0.012301,-0.518901,-0.033790,0.007772,0.008314,-0.069176,0.012300,-0.997529,0.036552,-0.043901,0.053162,72.873032,-7.817139,0.091370,,,,,,,
1522139787.799295,-0.068781,-0.013063,-0.518612,-0.037012,0.008797,0.013644,-0.068721,0.013063,-0.997550,0.030986,-0.058687,0.049278,72.800659,-6.019363,-2.465820,,,,,,,
1522139787.829264,-0.068373,-0.013934,-0.518262,-0.036010,-0.003958,0.014719,-0.068314,0.013934,-0.997567,-0.001572,-0.019549,-0.075843,73.025024,-5.271729,-3.818726,,,,,,,
1522139787.859232,-0.068389,-0.014535,-0.517901,-0.031780,-0.013521,0.013663,-0.068328,0.014535,-0.997557,-0.004822,-0.016412,0.056319,73.492935,-2.799973,-4.953430,,,,,,,
1522139787.889200,-0.068164,-0.014785,-0.517574,-0.012440,0.007707,0.009398,-0.068104,0.014784,-0.997569,0.040958,0.000536,-0.014165,73.497849,-1.900665,-5.631958,,,,,,,
1522139787.919168,-0.068268,-0.014640,-0.517348,0.001434,0.005574,0.007272,-0.068208,0.014640,-0.997564,-0.010024,-0.057578,-0.059748,73.515503,0.048935,-5.939758,,,,,,,
1522139787.949137,-0.068743,-0.014691,-0.517198,-0.003960,-0.013524,0.003035,-0.068681,0.014690,-0.997531,-0.003905,-0.030269,-0.046186,74.271576,1.244553,-6.919128,,,,,,,
1522139787.979105,-0.069121,-0.014774,-0.517115,-0.003981,-0.017770,0.003036,-0.069058,0.014774,-0.997503,-0.001178,-0.039340,0.029364,75.476608,2.288239,-7.822754,,,,,,,
1522139788.009073,-0.069391,-0.014757,-0.517089,-0.008057,0.023703,0.000856,-0.069328,0.014756,-0.997485,-0.013222,-0.032121,-0.094190,76.005157,2.960327,-8.350220,,,,,,,
1522139788.039042,-0.070139,-0.014717,-0.517160,0.002481,-0.013481,-0.004424,-0.070073,0.014716,-0.997433,0.003103,-0.053229,0.009823,76.306488,3.183823,-8.500916,,,,,,,
1522139788.069010,-0.070617,-0.014502,-0.517308,0.001406,-0.014535,-0.004428,-0.070551,0.014502,-0.997403,-0.014746,-0.038977,-0.023883,76.598206,2.806763,-9.249268,,,,,,,
1522139788.098979,-0.071198,-0.014256,-0.517428,0.001359,-0.025180,-0.003344,-0.071130,0.014255,-0.997365,-0.004111,-0.044208,0.023870,77.044601,2.804153,-9.849060,,,,,,,
,,,,,,,,,,,,,,,,25.311350,51.444599,12.064083,-1.000000,-1.000000,1522139788.087891,
1522139788.128947,-0.071426,-0.013927,-0.517546,0.002580,0.009892,-0.003384,-0.071359,0.013927,-0.997353,-0.013373,-0.038600,-0.053763,78.527161,1.821213,-11.119324,,,,,,,
1522139788.158916,-0.071919,-0.013410,-0.517575,0.005589,-0.031563,-0.002275,-0.071850,0.013409,-0.997325,0.005444,0.044910,0.065685,78.439102,0.920929,-11.790771,,,,,,,
1522139788.188884,-0.071662,-0.012847,-0.517636,0.015419,0.018346,-0.001252,-0.071594,0.012847,-0.997351,0.010788,-0.062316,-0.061090,78.568741,-0.355911,-13.060608,,,,,,,
1522139788.218822,-0.071460,-0.012720,-0.517619,-0.005978,0.011997,0.001938,-0.071393,0.012720,-0.997367,0.007596,-0.014780,-0.031411,79.083511,-0.884064,-13.883240,,,,,,,
1522139788.248790,-0.070984,-0.012657,-0.517547,0.001537,0.026831,0.006187,-0.070918,0.012656,-0.997402,-0.000127,-0.031608,-0.027378,78.164368,-1.856506,-15.454834,,,,,,,
1522139788.278758,-0.070380,-0.012636,-0.517443,-0.006016,0.008816,0.004058,-0.070317,0.012636,-0.997445,-0.009914,0.001006,0.013497,77.406738,-2.078979,-16.354309,,,,,,,
1522139788.308726,-0.069503,-0.012393,-0.517413,0.003716,0.030049,0.000859,-0.069442,0.012393,-0.997509,0.032989,-0.054568,0.031918,77.683914,-2.608154,-19.277039,,,,,,,
1522139788.338695,-0.068596,-0.012345,-0.517324,0.000518,0.036404,0.005111,-0.068537,0.012344,-0.997572,0.002955,-0.018875,0.001204,75.129517,-2.597412,-20.028381,,,,,,,
1522139788.368663,-0.067810,-0.011717,-0.517282,0.022801,-0.001878,-0.000155,-0.067753,0.011717,-0.997633,0.011296,-0.035735,0.060194,73.923248,-2.593033,-21.079041,,,,,,,
1522139788.398630,-0.067003,-0.011086,-0.517360,0.005751,0.001372,-0.003365,-0.066948,0.011086,-0.997695,0.003502,-0.062035,0.013808,70.623398,-2.353561,-21.456665,,,,,,,
1522139788.428598,-0.066304,-0.010617,-0.517400,0.015497,0.030076,-0.006594,-0.066252,0.010616,-0.997746,-0.011232,-0.054058,0.001698,68.528564,-2.193527,-20.858276,,,,,,,
1522139788.458567,-0.066110,-0.009939,-0.517541,0.006794,-0.007070,-0.008700,-0.066059,0.009939,-0.997766,0.021976,-0.025045,0.081125,65.011993,-2.475830,-18.983948,,,,,,,
1522139788.488535,-0.065825,-0.009828,-0.517653,-0.004886,0.005699,-0.008714,-0.065775,0.009828,-0.997786,0.001490,-0.053514,0.004119,64.495850,-1.947922,-18.386292,,,,,,,
1522139788.518503,-0.065742,-0.009816,-0.517732,0.004655,-0.001807,-0.002307,-0.065692,0.009816,-0.997792,-0.017835,-0.058232,-0.067318,62.857498,-1.863739,-16.587463,,,,,,,
1522139788.548471,-0.065947,-0.009314,-0.517795,0.007837,-0.009258,-0.003354,-0.065896,0.009314,-0.997783,-0.012595,-0.046500,-0.021168,61.664444,-1.707474,-15.688660,,,,,,,
1522139788.578440,-0.066412,-0.009231,-0.517859,-0.009301,-0.012418,0.001949,-0.066360,0.009230,-0.997753,-0.019074,-0.023131,0.032787,60.474548,-1.101456,-15.016724,,,,,,,
1522139788.608408,-0.066706,-0.009038,-0.517860,0.017418,-0.010372,0.000914,-0.066654,0.009038,-0.997735,-0.026089,-0.073308,-0.100684,58.002197,-1.464279,-13.966492,,,,,,,
1522139788.638376,-0.067303,-0.008382,-0.517904,0.002596,0.012023,-0.004451,-0.067250,0.008382,-0.997701,-0.025264,-0.035756,-0.067683,55.312119,-2.049545,-11.340515,,,,,,,
1522139788.668344,-0.067799,-0.008274,-0.517961,0.000312,-0.013520,0.001967,-0.067744,0.008274,-0.997668,-0.002675,-0.020466,-0.071042,54.867111,-2.271332,-10.139832,,,,,,,
1522139788.698313,-0.068211,-0.008230,-0.518036,-0.002906,-0.020929,-0.001223,-0.068156,0.008229,-0.997641,0.010829,-0.038259,-0.020121,53.003769,-2.410782,-7.965210,,,,,,,
1522139788.728251,-0.068474,-0.008239,-0.518035,-0.009242,-0.004971,-0.001246,-0.068418,0.008239,-0.997623,-0.006182,-0.031691,-0.040982,51.209137,-3.674698,-4.961060,,,,,,,
1522139788.758220,-0.068727,-0.008455,-0.518032,-0.006014,0.005617,0.003008,-0.068671,0.008455,-0.997604,0.010840,-0.045213,-0.004212,51.214859,-4.048157,-3.384521,,,,,,,
1522139788.788188,-0.069046,-0.008139,-0.518030,0.002337,-0.044321,-0.002255,-0.068989,0.008139,-0.997584,-0.017987,-0.018316,0.046321,50.037445,-4.039093,0.364868,,,,,,,
1522139788.818156,-0.069070,-0.008096,-0.518123,-0.005970,0.007785,-0.003386,-0.069013,0.008096,-0.997583,-0.074710,-0.041604,-0.080435,50.046463,-4.037643,1.864868,,,,,,,
1522139788.848125,-0.068982,-0.007938,-0.518209,0.005775,0.006702,-0.004443,-0.068925,0.007938,-0.997590,-0.010161,-0.040988,0.022584,51.869614,-3.068604,4.111877,,,,,,,
1522139788.878093,-0.068919,-0.007675,-0.518446,0.000466,0.006766,-0.010844,-0.068862,0.007675,-0.997597,-0.010483,-0.045440,0.075996,53.451935,-2.700119,4.711243,,,,,,,
1522139788.908061,-0.068641,-0.007908,-0.518732,-0.014481,0.006787,-0.009784,-0.068584,0.007908,-0.997614,-0.031864,-0.068653,0.045237,56.253464,-0.986160,6.280701,,,,,,,
1522139788.938029,-0.068315,-0.008275,-0.519051,-0.010215,0.000444,-0.015106,-0.068260,0.008274,-0.997633,-0.010430,-0.014012,0.057188,58.287231,-0.245087,6.503845,,,,,,,
1522139788.967998,-0.068084,-0.008350,-0.519437,-0.017651,0.011072,-0.012990,-0.068029,0.008350,-0.997648,-0.000407,-0.043308,0.069411,59.879562,0.499390,8.151611,,,,,,,
1522139788.997966,-0.067693,-0.008804,-0.519820,-0.013339,0.019574,-0.014064,-0.067638,0.008804,-0.997671,0.011089,-0.030762,-0.025675,61.305252,0.343353,8.527954,,,,,,,
1522139789.027934,-0.067565,-0.008579,-0.520244,0.007852,-0.024018,-0.019325,-0.067511,0.008579,-0.997682,-0.007791,-0.030506,0.020036,63.629715,0.108185,8.830078,,,,,,,
1522139789.057902,-0.067308,-0.008425,-0.520603,0.013271,-0.007020,-0.020405,-0.067255,0.008425,-0.997700,-0.041129,-0.002718,-0.029659,67.062347,-1.182999,8.086975,,,,,,,
1522139789.087871,-0.067107,-0.007837,-0.520953,0.018561,-0.008158,-0.011874,-0.067055,0.007837,-0.997719,-0.031883,-0.050150,0.051017,68.554794,-1.715073,7.714844,,,,,,,
1522139789.117839,-0.066880,-0.007369,-0.521311,0.012115,-0.016640,-0.011872,-0.066829,0.007368,-0.997737,-0.046971,0.022478,0.032863,71.977203,-3.082809,5.397034,,,,,,,
,,,,,,,,,,,,,,,,25.311391,51.444566,12.117886,-1.000000,-1.000000,1522139789.080787,
1522139789.147807,-0.066922,-0.006782,-0.521727,0.013186,-0.025096,-0.019319,-0.066870,0.006782,-0.997739,0.007971,-0.058860,0.063596,73.458099,-3.916260,3.601074,,,,,,,
1522139789.177775,-0.066828,-0.006581,-0.522094,-0.003861,-0.011280,-0.014016,-0.066777,0.006581,-0.997746,0.000447,-0.019673,0.009572,74.037064,-4.446487,0.978516,,,,,,,
1522139789.207744,-0.066947,-0.006541,-0.522502,0.005598,-0.048456,-0.018239,-0.066896,0.006541,-0.997739,0.011354,-0.047389,0.111188,75.979645,-5.055450,0.756897,,,,,,,
1522139789.237712,-0.066891,-0.006557,-0.522935,-0.014492,0.004663,-0.009783,-0.066840,0.006557,-0.997742,-0.007181,-0.062999,0.013215,77.318314,-5.287979,-0.741516,,,,,,,
1522139789.267650,-0.066815,-0.007052,-0.523226,-0.008203,-0.018727,-0.008696,-0.066763,0.007052,-0.997744,0.026602,0.007978,0.055865,78.438904,-5.143997,-1.716492,,,,,,,
1522139789.297618,-0.066585,-0.006808,-0.523562,0.002596,0.000397,-0.014026,-0.066535,0.006808,-0.997761,0.020438,-0.053042,-0.050716,81.588745,-4.035034,-3.594360,,,,,,,
1522139789.327586,-0.066637,-0.006633,-0.523874,0.005758,-0.004946,-0.010822,-0.066586,0.006633,-0.997759,0.082699,0.007558,0.047701,84.060730,-3.297897,-5.321106,,,,,,,
1522139789.357554,-0.066436,-0.006241,-0.524130,0.010147,0.023719,-0.008716,-0.066386,0.006241,-0.997774,0.032664,-0.062043,-0.045911,86.607605,-2.486237,-7.198120,,,,,,,
1522139789.387523,-0.066406,-0.005976,-0.524402,0.002434,-0.028323,-0.008674,-0.066356,0.005976,-0.997778,0.019191,-0.034861,-0.095209,90.268997,-0.782822,-12.303040,,,,,,,
1522139789.417491,-0.066275,-0.005980,-0.524692,-0.005919,0.009960,-0.010845,-0.066225,0.005980,-0.997787,-0.009458,-0.056929,-0.052613,91.085999,-0.188812,-14.630066,,,,,,,
1522139789.447459,-0.066197,-0.006035,-0.525007,-0.006059,-0.018729,-0.009757,-0.066148,0.006035,-0.997792,0.023423,-0.071480,0.011570,91.146484,1.156250,-19.285339,,,,,,,
1522139789.477428,-0.066247,-0.006060,-0.525413,-0.013527,-0.020846,-0.010814,-0.066197,0.006060,-0.997788,0.031911,-0.028109,0.016740,88.888046,0.940369,-20.335693,,,,,,,
1522139789.507396,-0.066244,-0.006111,-0.525851,0.000464,-0.002748,-0.018291,-0.066194,0.006111,-0.997788,0.026201,-0.019554,-0.011489,85.882462,0.878067,-21.161865,,,,,,,
1522139789.537364,-0.066375,-0.005966,-0.526438,-0.001655,-0.002719,-0.021490,-0.066325,0.005966,-0.997780,0.049190,-0.028000,0.010216,85.430206,1.104355,-21.913025,,,,,,,
1522139789.567332,-0.066658,-0.005766,-0.527028,0.001421,-0.029298,-0.020397,-0.066607,0.005766,-0.997763,0.061847,-0.020278,0.026770,82.192322,0.442871,-22.962036,,,,,,,
1522139789.597301,-0.066917,-0.006072,-0.527571,-0.023005,0.004722,-0.015117,-0.066866,0.006072,-0.997743,0.057375,-0.000716,-0.040495,80.755386,-0.301407,-23.709778,,,,,,,
1522139789.627269,-0.067064,-0.006451,-0.528092,-0.012363,-0.008010,-0.020429,-0.067012,0.006451,-0.997731,0.040920,-0.042034,-0.082942,77.732117,-1.414825,-25.731812,,,,,,,
1522139789.657237,-0.067514,-0.007084,-0.528625,-0.038066,-0.016496,-0.012983,-0.067461,0.007084,-0.997697,0.027010,-0.050557,-0.053496,73.974945,-2.222763,-25.580505,,,,,,,
1522139789.687205,-0.067858,-0.007993,-0.529063,-0.018823,-0.010180,-0.011907,-0.067804,0.007993,-0.997667,0.060815,-0.002958,-0.013900,68.872330,-2.799286,-25.055725,,,,,,,
1522139789.717174,-0.068047,-0.008284,-0.529539,-0.021925,0.008981,-0.015128,-0.067992,0.008284,-0.997651,0.031844,-0.025603,-0.122588,66.848022,-3.089569,-24.455566,,,,,,,
1522139789.747142,-0.068374,-0.008338,-0.529997,-0.002858,-0.024021,-0.014011,-0.068318,0.008338,-0.997629,-0.014003,-0.033209,-0.142569,64.532440,-2.778091,-23.408020,,,,,,,
1522139789.777081,-0.068726,-0.008088,-0.530432,0.020739,-0.002798,-0.017216,-0.068670,0.008088,-0.997607,0.055975,0.041640,0.052554,61.851151,-2.163940,-21.311768,,,,,,,
1522139789.807049,-0.068796,-0.007260,-0.530849,0.017467,-0.011357,-0.009742,-0.068740,0.007260,-0.997608,0.044006,-0.022335,0.012959,61.863281,-1.488098,-20.414429,,,,,,,
1522139789.837017,-0.069075,-0.006955,-0.531238,0.012017,-0.039995,-0.013985,-0.069019,0.006955,-0.997591,0.005145,0.017612,0.108873,60.011322,-0.577438,-18.094055,,,,,,,
1522139789.866985,-0.068966,-0.006288,-0.531674,0.010052,-0.003841,-0.016158,-0.068910,0.006288,-0.997603,-0.001769,0.008818,0.052474,59.343872,-0.498322,-16.969727,,,,,,,
1522139789.896954,-0.068699,-0.006673,-0.532051,-0.007965,0.026996,-0.014065,-0.068643,0.006673,-0.997619,0.011866,-0.009114,-0.050492,59.070267,0.480682,-14.198730,,,,,,,
1522139789.926922,-0.068192,-0.006621,-0.532444,-0.001674,0.004655,-0.011910,-0.068138,0.006621,-0.997654,0.040702,-0.057783,0.057484,58.179001,0.860519,-13.375671,,,,,,,
1522139789.956890,-0.067328,-0.007120,-0.532865,-0.021987,-0.003796,-0.012976,-0.067275,0.007120,-0.997709,0.017486,0.001531,0.083662,57.444183,1.390472,-11.728210,,,,,,,
1522139789.986858,-0.066283,-0.007199,-0.533233,-0.006822,0.048213,-0.009822,-0.066233,0.007199,-0.997778,0.008127,-0.040341,-0.008386,57.900940,1.389542,-10.602966,,,,,,,
1522139790.016827,-0.064703,-0.007444,-0.533481,-0.011072,0.056703,-0.006638,-0.064656,0.007444,-0.997880,0.008412,0.011218,-0.061431,55.737183,0.577499,-7.375732,,,,,,,
1522139790.046795,-0.063500,-0.007079,-0.533754,0.000546,0.027978,-0.006596,-0.063456,0.007079,-0.997960,0.006754,0.015138,0.027363,55.975662,0.803314,-5.501526,,,,,,,
1522139790.076763,-0.062033,-0.006975,-0.533942,0.004912,0.052416,-0.005563,-0.061992,0.006975,-0.998052,0.005336,0.006514,0.014791,57.779678,0.346619,-4.073853,,,,,,,
1522139790.106731,-0.060449,-0.006433,-0.534166,0.026303,0.057686,-0.007680,-0.060411,0.006433,-0.998153,0.021929,-0.058283,-0.045350,59.597900,0.865616,-1.900024,,,,,,,
,,,,,,,,,,,,,,,,25.311441,51.444534,12.130123,-1.000000,-1.000000,1522139790.086875,
1522139790.136700,-0.059396,-0.005961,-0.534461,0.005910,0.035416,-0.006609,-0.059360,0.005961,-0.998219,0.053318,-0.073451,-0.001613,61.398727,1.082275,-2.124939,,,,,,,
1522139790.166668,-0.058724,-0.006062,-0.534704,0.000493,0.014200,-0.009788,-0.058689,0.006062,-0.998258,0.032719,-0.030918,0.022306,65.076859,1.889908,-2.951355,,,,,,,
1522139790.196636,-0.058956,-0.005986,-0.535037,-0.008219,-0.024036,-0.009754,-0.058921,0.005986,-0.998245,0.004615,-0.065892,-0.038727,66.501007,2.257751,-3.702087,,,,,,,
1522139790.226605,-0.059327,-0.006186,-0.535303,-0.015708,-0.028257,-0.010823,-0.059291,0.006186,-0.998222,0.050669,-0.031881,-0.025948,70.985367,1.860626,-5.648315,,,,,,,
1522139790.256573,-0.060279,-0.006202,-0.535608,-0.005043,-0.037817,-0.016128,-0.060242,0.006202,-0.998165,0.003158,-0.039314,0.013851,72.544571,0.952484,-6.768860,,,,,,,
1522139790.286541,-0.061782,-0.006274,-0.535888,-0.013842,-0.088820,-0.011828,-0.061741,0.006274,-0.998073,0.032688,-0.045489,0.072566,73.651077,0.495178,-9.091492,,,,,,,
1522139790.316479,-0.063403,-0.006458,-0.536095,-0.004062,-0.045303,-0.007605,-0.063359,0.006458,-0.997970,0.022679,0.005215,-0.065095,73.412262,0.194458,-10.890442,,,,,,,
1522139790.346447,-0.065392,-0.006044,-0.536266,0.017126,-0.084693,-0.007536,-0.065344,0.006044,-0.997844,0.031195,0.008345,0.036052,73.629456,0.042419,-11.939697,,,,,,,
1522139790.376415,-0.067086,-0.005283,-0.536470,0.012950,-0.061304,-0.006503,-0.067034,0.005283,-0.997737,0.022601,-0.031452,-0.072225,72.798172,0.045120,-12.990112,,,,,,,
1522139790.406384,-0.068770,-0.005242,-0.536607,0.001264,-0.041131,-0.000138,-0.068715,0.005242,-0.997623,-0.008922,-0.014748,-0.097516,72.426605,0.571487,-13.292358,,,,,,,
1522139790.436352,-0.069893,-0.004886,-0.536735,0.005544,-0.041107,-0.003340,-0.069836,0.004886,-0.997547,-0.001652,-0.011188,-0.085187,71.679153,1.324020,-14.120789,,,,,,,
1522139790.466320,-0.070595,-0.004693,-0.536985,-0.007229,-0.039985,-0.008672,-0.070536,0.004693,-0.997498,0.010309,-0.002130,-0.032150,71.604294,1.698761,-14.722351,,,,,,,
1522139790.496288,-0.070418,-0.004879,-0.537284,-0.007936,0.039710,-0.008750,-0.070359,0.004879,-0.997510,-0.010176,-0.022457,-0.095081,71.756546,2.147705,-15.099060,,,,,,,
1522139790.526257,-0.070143,-0.005219,-0.537494,-0.020083,-0.043195,-0.002278,-0.070085,0.005219,-0.997527,-0.005629,-0.023758,-0.065430,70.481445,2.003662,-14.874084,,,,,,,
1522139790.556225,-0.069165,-0.005669,-0.537705,-0.009077,0.029063,-0.004482,-0.069109,0.005669,-0.997593,0.020708,-0.001793,0.015415,69.645370,1.481445,-15.847473,,,,,,,
1522139790.586193,-0.067528,-0.005934,-0.537851,-0.013281,0.045021,-0.004507,-0.067476,0.005934,-0.997703,0.005388,-0.004119,0.034202,69.416168,1.556656,-16.672852,,,,,,,
1522139790.616161,-0.065837,-0.006104,-0.537968,0.002751,0.046057,-0.006626,-0.065789,0.006104,-0.997815,0.013665,-0.044816,0.050488,65.964676,1.272415,-16.448425,,,,,,,
1522139790.646130,-0.063984,-0.006044,-0.538055,-0.003639,0.053457,-0.001299,-0.063939,0.006044,-0.997936,0.018468,-0.040590,0.047740,65.516800,1.349655,-16.223999,,,,,,,
1522139790.676098,-0.062001,-0.006080,-0.538161,0.003842,0.053459,-0.003429,-0.061960,0.006080,-0.998060,0.018229,-0.014228,0.024885,63.278458,1.661148,-14.801331,,,,,,,
1522139790.706066,-0.060144,-0.005868,-0.538361,-0.003579,0.063059,-0.005577,-0.060107,0.005868,-0.998175,0.025897,-0.061731,0.005789,61.109268,1.297485,-13.226013,,,,,,,
1522139790.736034,-0.058761,-0.005974,-0.538591,-0.012295,0.023759,-0.005541,-0.058726,0.005974,-0.998256,0.035853,-0.041557,0.059795,60.285538,0.702393,-12.023987,,,,,,,
1522139790.765994,-0.057654,-0.006331,-0.538888,-0.013481,-0.011253,-0.012964,-0.057621,0.006331,-0.998318,0.059940,-0.026137,0.081952,59.697891,0.407593,-9.473145,,,,,,,
1522139790.795962,-0.056983,-0.006198,-0.539225,0.002636,0.011020,-0.012974,-0.056951,0.006198,-0.998358,0.056112,0.032789,0.026846,58.650085,-0.186340,-8.121277,,,,,,,
1522139790.825900,-0.056783,-0.005642,-0.539681,0.016414,-0.015544,-0.017203,-0.056751,0.005642,-0.998372,0.030338,-0.026257,-0.059168,59.555756,-1.013107,-5.792480,,,,,,,
1522139790.855868,-0.057164,-0.005420,-0.540064,-0.000793,-0.038914,-0.012926,-0.057132,0.005420,-0.998352,0.028156,-0.001804,0.024612,60.687027,-1.017136,-4.741882,,,,,,,
1522139790.885836,-0.057772,-0.005363,-0.540430,0.011940,-0.052765,-0.010778,-0.057739,0.005363,-0.998317,0.004929,-0.006095,0.024501,63.532593,-2.004028,-3.836548,,,,,,,
1522139790.915805,-0.058590,-0.005389,-0.540735,-0.024258,-0.025076,-0.006571,-0.058555,0.005389,-0.998270,0.024665,-0.022372,0.010522,65.556168,-2.013367,-4.060486,,,,,,,
1522139790.945773,-0.059549,-0.005904,-0.541039,-0.008335,-0.052699,-0.012925,-0.059513,0.005904,-0.998210,0.035801,-0.036162,-0.001027,69.359253,-3.306976,-5.553406,,,,,,,
1522139790.975741,-0.060535,-0.006136,-0.541283,-0.023148,-0.016603,-0.005502,-0.060496,0.006136,-0.998150,0.056544,-0.017092,-0.057026,70.395569,-3.912903,-6.825500,,,,,,,
1522139791.005709,-0.061584,-0.006607,-0.541442,-0.002974,-0.040037,-0.004399,-0.061543,0.006607,-0.998083,0.076619,0.019729,0.003637,70.830383,-4.216888,-8.849060,,,,,,,
1522139791.035678,-0.062295,-0.006620,-0.541538,-0.004972,-0.003928,-0.000177,-0.062253,0.006620,-0.998038,0.045896,-0.053312,-0.187066,71.719559,-4.447311,-10.272644,,,,,,,
1522139791.065646,-0.062888,-0.006420,-0.541608,0.007750,-0.028384,-0.003336,-0.062845,0.006419,-0.998003,0.030527,0.010136,-0.031691,70.587402,-4.668045,-11.097351,,,,,,,
1522139791.095614,-0.063029,-0.006011,-0.541642,0.009956,-0.006090,0.000896,-0.062986,0.006011,-0.997996,0.024976,-0.025695,-0.032720,70.043945,-5.117920,-13.420837,,,,,,,
,,,,,,,,,,,,,,,,25.311468,51.444509,12.130332,0.327897,-1.000000,1522139791.096911,
1522139791.125582,-0.062984,-0.005945,-0.541642,-0.002767,0.010956,-0.001260,-0.062941,0.005945,-0.997999,0.061065,0.010077,-0.039842,69.364914,-4.890915,-14.472107,,,,,,,
1522139791.155551,-0.062707,-0.005829,-0.541696,0.006759,-0.013469,-0.006557,-0.062664,0.005829,-0.998018,0.068280,-0.041412,0.033296,66.280884,-5.477554,-14.996277,,,,,,,
1522139791.185519,-0.062150,-0.005843,-0.541755,-0.004813,0.030082,-0.001277,-0.062109,0.005843,-0.998052,0.052923,-0.022246,-0.037333,64.708374,-5.544968,-14.471802,,,,,,,
1522139791.215487,-0.061522,-0.005879,-0.541829,0.001331,-0.027291,-0.002291,-0.061482,0.005879,-0.998091,0.063206,-0.003011,0.009489,61.263046,-5.977951,-12.971802,,,,,,,
1522139791.245455,-0.060655,-0.005750,-0.541919,0.000595,0.043889,-0.002351,-0.060617,0.005750,-0.998145,0.076105,-0.026075,0.047354,60.292892,-6.122543,-11.921692,,,,,,,
1522139791.275424,-0.059765,-0.005473,-0.542069,0.006814,0.000340,-0.005507,-0.059728,0.005473,-0.998200,0.083288,-0.003612,0.019821,58.879379,-6.189148,-9.897095,,,,,,,
1522139791.305392,-0.058656,-0.005186,-0.542263,0.005838,0.020531,-0.005527,-0.058622,0.005186,-0.998267,0.051252,-0.009550,-0.004876,58.588409,-6.186340,-8.397278,,,,,,,
1522139791.335360,-0.057421,-0.004755,-0.542465,0.001588,0.022648,-0.005520,-0.057389,0.004755,-0.998341,0.088547,-0.024377,0.042759,57.034195,-6.175903,-4.948120,,,,,,,
1522139791.365298,-0.056497,-0.004765,-0.542736,-0.008155,-0.010242,-0.008694,-0.056466,0.004765,-0.998393,0.088525,-0.021839,0.021983,57.498428,-5.426865,-3.825867,,,,,,,
1522139791.395266,-0.055457,-0.004666,-0.543034,-0.003688,0.028045,-0.014061,-0.055428,0.004666,-0.998452,0.073784,-0.017041,0.052666,59.008133,-5.132538,-2.701294,,,,,,,
1522139791.425234,-0.054730,-0.004853,-0.543239,-0.005979,-0.000680,-0.008704,-0.054702,0.004853,-0.998491,0.098205,-0.034668,0.038103,59.330734,-3.857346,-1.056213,,,,,,,
1522139791.455203,-0.054097,-0.004936,-0.543493,-0.003806,0.005708,-0.010842,-0.054070,0.004936,-0.998525,0.054696,-0.019340,0.020940,60.613922,-3.262741,-0.682983,,,,,,,
1522139791.485171,-0.053444,-0.005024,-0.543746,-0.004892,0.003551,-0.007636,-0.053418,0.005024,-0.998560,0.055890,-0.033299,0.024789,61.147751,-2.514938,-0.460693,,,,,,,
1522139791.515139,-0.053135,-0.005099,-0.543969,-0.001631,0.017381,-0.008724,-0.053109,0.005099,-0.998576,0.117684,-0.033404,0.037547,62.054596,-2.143478,0.063293,,,,,,,
1522139791.545108,-0.052680,-0.004888,-0.544075,-0.003863,0.003512,-0.001247,-0.052655,0.004888,-0.998601,0.052671,0.019190,-0.089000,64.235794,-1.927628,0.738464,,,,,,,
1522139791.575076,-0.052983,-0.004752,-0.544285,0.010013,-0.006018,-0.009758,-0.052958,0.004752,-0.998585,0.090708,-0.019156,0.055928,64.314850,-1.702667,1.037598,,,,,,,
1522139791.605044,-0.052844,-0.004620,-0.544459,-0.002907,-0.023035,-0.003355,-0.052819,0.004620,-0.998593,0.101998,-0.068662,-0.029849,66.345474,-1.411362,1.487488,,,,,,,
1522139791.635012,-0.053108,-0.004850,-0.544606,-0.000733,-0.018774,-0.006550,-0.053083,0.004850,-0.998578,0.031491,0.014437,-0.010348,67.837906,-1.718826,0.739441,,,,,,,
1522139791.664981,-0.053149,-0.004650,-0.544822,-0.004949,-0.012346,-0.011890,-0.053124,0.004650,-0.998577,0.029610,-0.040111,-0.011539,70.078354,-1.955124,-0.458496,,,,,,,
1522139791.694949,-0.052971,-0.004670,-0.545098,-0.002667,0.018468,-0.012982,-0.052945,0.004670,-0.998586,0.052228,-0.009599,-0.020182,70.976944,-1.734756,-1.058899,,,,,,,
1522139791.724917,-0.052934,-0.004437,-0.545415,-0.006024,-0.009187,-0.007631,-0.052908,0.004437,-0.998590,0.095358,-0.001110,0.001382,71.943497,-1.815384,-2.333130,,,,,,,
1522139791.754885,-0.052401,-0.004789,-0.545651,-0.009077,0.029028,-0.002338,-0.052376,0.004789,-0.998616,0.098641,0.051165,-0.019450,73.363449,-1.148712,-4.285034,,,,,,,
1522139791.784843,-0.052199,-0.004646,-0.545899,-0.004921,0.006711,-0.001257,-0.052174,0.004646,-0.998627,0.053258,0.003960,-0.038269,74.555878,-1.005585,-5.784973,,,,,,,
1522139791.814811,-0.051715,-0.004857,-0.546215,-0.015527,0.015251,-0.005524,-0.051692,0.004857,-0.998651,0.111476,-0.003926,0.023538,76.413818,-0.642395,-9.235535,,,,,,,
1522139791.844779,-0.050939,-0.004874,-0.546489,0.000560,0.029041,-0.007658,-0.050916,0.004874,-0.998691,0.092267,-0.017188,0.011051,75.882080,-0.865753,-9.984924,,,,,,,
1522139791.874717,-0.050151,-0.004795,-0.546679,-0.005890,0.019497,-0.007655,-0.050130,0.004795,-0.998731,0.014378,0.015423,-0.100512,75.044785,-0.789154,-12.160645,,,,,,,
1522139791.904685,-0.049729,-0.004433,-0.546928,0.014198,-0.028352,-0.010787,-0.049708,0.004433,-0.998754,0.097056,-0.040597,0.127843,72.788727,-0.854904,-13.061523,,,,,,,
1522139791.934653,-0.048871,-0.004320,-0.547097,-0.004709,0.049231,-0.004493,-0.048852,0.004320,-0.998797,0.120461,-0.000856,0.033846,72.705795,-1.379990,-13.509460,,,,,,,
1522139791.964622,-0.048027,-0.004310,-0.547308,-0.000519,0.029046,-0.006600,-0.048008,0.004310,-0.998838,0.028583,-0.061790,-0.114917,72.028717,-1.452164,-13.734497,,,,,,,
1522139791.994590,-0.047502,-0.004709,-0.547451,-0.032556,0.037586,0.000818,-0.047484,0.004709,-0.998861,0.015288,-0.007944,-0.139460,71.347610,-1.749619,-14.258667,,,,,,,
1522139792.024558,-0.047289,-0.005232,-0.547704,-0.006034,-0.013402,-0.010832,-0.047270,0.005232,-0.998868,0.092757,-0.056319,0.050733,69.995880,-2.193085,-13.807556,,,,,,,
1522139792.054526,-0.047048,-0.005636,-0.547943,-0.029372,0.026971,-0.003423,-0.047030,0.005636,-0.998878,0.105441,-0.068243,0.103995,67.747208,-2.781769,-12.606323,,,,,,,
1522139792.084495,-0.046483,-0.006392,-0.548064,-0.010100,0.038626,-0.004491,-0.046465,0.006392,-0.998899,0.046801,0.016328,0.006987,67.599014,-2.556183,-12.682312,,,,,,,
,,,,,,,,,,,,,,,,25.311505,51.444477,12.164662,0.692541,-1.000000,1522139792.075736,
1522139792.114463,-0.046612,-0.006338,-0.548324,-0.007256,-0.048488,-0.009722,-0.046594,0.006338,-0.998894,0.070748,-0.084661,0.039070,67.297668,-3.004303,-12.155640,,,,,,,
1522139792.144431,-0.046640,-0.006689,-0.548560,-0.005938,0.005708,-0.010840,-0.046622,0.006689,-0.998890,0.057837,0.001886,-0.085064,66.771179,-2.702682,-12.907104,,,,,,,
1522139792.174399,-0.046426,-0.006312,-0.548786,0.008108,0.047082,-0.006607,-0.046408,0.006312,-0.998903,-0.000344,-0.015925,-0.161254,67.067413,-2.629761,-13.657288,,,,,,,
1522139792.204368,-0.046550,-0.006444,-0.549002,-0.009202,0.002490,-0.003390,-0.046532,0.006444,-0.998896,0.010415,0.035350,-0.055242,64.076675,-2.015778,-13.136230,,,,,,,
1522139792.234336,-0.046490,-0.006482,-0.549230,-0.000742,-0.017738,-0.003352,-0.046472,0.006482,-0.998899,0.067483,-0.020261,0.051084,63.104553,-1.636566,-13.288208,,,,,,,
1522139792.264304,-0.046651,-0.006858,-0.549501,-0.012597,-0.045309,-0.006532,-0.046633,0.006858,-0.998889,0.068666,-0.003639,0.097003,61.765869,-1.404037,-11.789795,,,,,,,
1522139792.294273,-0.046341,-0.007046,-0.549780,-0.001615,0.016334,-0.011915,-0.046323,0.007046,-0.998902,0.076963,-0.023709,-0.090851,60.197678,-1.171234,-11.041504,,,,,,,
1522139792.324241,-0.046031,-0.007037,-0.550046,-0.008040,0.018439,-0.006595,-0.046014,0.007037,-0.998916,0.039773,-0.007357,-0.113816,58.707794,-0.788483,-9.993835,,,,,,,
1522139792.354209,-0.046226,-0.006991,-0.550314,0.008837,-0.031512,-0.010797,-0.046208,0.006991,-0.998907,0.051488,0.013761,0.089773,59.316788,-0.565094,-8.869385,,,,,,,
1522139792.384177,-0.045731,-0.006524,-0.550536,0.004815,0.027970,-0.006595,-0.045714,0.006524,-0.998933,0.030578,-0.007561,0.025133,58.812225,-0.185043,-6.096191,,,,,,,
1522139792.414115,-0.045354,-0.006420,-0.550706,0.002619,0.014142,-0.005509,-0.045338,0.006419,-0.998951,0.111988,-0.017268,0.026432,59.194550,0.188828,-5.497498,,,,,,,
1522139792.444083,-0.045057,-0.006247,-0.550866,0.002485,-0.014542,-0.005485,-0.045041,0.006247,-0.998966,0.055616,-0.030325,0.032947,60.932373,0.931900,-4.599609,,,,,,,
1522139792.474052,-0.044404,-0.006200,-0.551084,0.000447,0.005677,-0.007643,-0.044388,0.006200,-0.998995,0.068283,0.000758,-0.018964,62.753128,2.424683,-3.629639,,,,,,,
1522139792.504020,-0.043820,-0.005963,-0.551239,0.000557,0.030083,-0.005524,-0.043805,0.005963,-0.999022,0.067945,0.009601,-0.088945,64.703934,2.640686,-3.854553,,,,,,,
1522139792.533988,-0.043399,-0.005711,-0.551390,0.014246,-0.010316,-0.005483,-0.043385,0.005711,-0.999042,0.067387,-0.001561,0.054599,66.874893,3.453888,-5.881714,,,,,,,
1522139792.563956,-0.042880,-0.005243,-0.551579,0.014366,0.010963,-0.009765,-0.042867,0.005243,-0.999067,0.063130,-0.032480,-0.029284,66.419342,3.529877,-6.932190,,,,,,,
1522139792.593925,-0.042340,-0.004757,-0.551680,0.021763,0.001336,-0.003356,-0.042327,0.004757,-0.999092,0.078689,-0.011837,-0.012474,66.017838,1.954895,-8.726135,,,,,,,
1522139792.623893,-0.041926,-0.004171,-0.551806,0.007986,0.025825,-0.003401,-0.041914,0.004171,-0.999113,0.085828,-0.016012,-0.053698,64.058060,0.838943,-8.497620,,,,,,,
1522139792.653861,-0.041727,-0.003789,-0.551845,0.010997,-0.019901,-0.003335,-0.041715,0.003789,-0.999122,0.086896,-0.018163,0.041755,60.972763,-1.544922,-6.239624,,,,,,,
1522139792.683829,-0.041592,-0.003446,-0.551921,0.007942,0.014120,-0.003378,-0.041579,0.003446,-0.999129,0.059829,-0.061796,0.019271,60.000687,-2.288818,-4.512207,,,,,,,
1522139792.713798,-0.041410,-0.003331,-0.551991,-0.003969,-0.020935,-0.001218,-0.041398,0.003331,-0.999137,0.084657,-0.014760,0.050010,60.085800,-3.485519,-0.832336,,,,,,,
1522139792.743766,-0.041168,-0.003052,-0.552045,0.012122,0.000260,0.001965,-0.041157,0.003052,-0.999148,0.109119,-0.036164,-0.044004,61.066483,-3.863358,0.744629,,,,,,,
1522139792.773707,-0.041257,-0.002516,-0.552162,0.004549,-0.029432,-0.004402,-0.041246,0.002516,-0.999146,0.048051,0.031420,-0.018417,63.096497,-3.721878,1.345154,,,,,,,
1522139792.803675,-0.041122,-0.001901,-0.552235,0.021819,0.010929,-0.006567,-0.041111,0.001901,-0.999153,0.048786,0.001578,-0.025948,67.002197,-3.513870,1.946228,,,,,,,
1522139792.833644,-0.040998,-0.001100,-0.552310,0.022701,-0.025248,-0.001197,-0.040986,0.001100,-0.999159,0.073503,-0.014192,0.012099,69.406113,-3.074768,1.870667,,,,,,,
1522139792.863612,-0.040734,-0.000303,-0.552414,0.026932,-0.034812,-0.002251,-0.040722,0.000303,-0.999170,0.083264,-0.017546,0.069712,74.129990,-1.973038,-0.156311,,,,,,,
1522139792.893580,-0.040664,0.000138,-0.552542,0.008812,-0.028392,-0.002270,-0.040653,-0.000138,-0.999173,0.045368,-0.015136,0.019574,75.477814,-1.605087,-1.132202,,,,,,,
1522139792.923518,-0.040010,0.000544,-0.552675,0.015354,-0.002892,-0.005482,-0.039999,-0.000544,-0.999200,0.129934,-0.043416,0.061623,77.333466,-1.242264,-4.957703,,,,,,,
1522139792.953486,-0.039681,0.000970,-0.552771,0.000362,-0.008165,-0.003368,-0.039671,-0.000970,-0.999212,0.096022,0.015878,0.056036,77.551239,-0.795181,-6.909363,,,,,,,
1522139792.983455,-0.039259,0.001350,-0.552900,0.020819,0.023699,-0.008713,-0.039249,-0.001350,-0.999229,0.103855,-0.038323,-0.034692,77.095810,0.329086,-9.689087,,,,,,,
1522139793.013423,-0.038509,0.001927,-0.553002,0.004755,0.020510,-0.002330,-0.038499,-0.001927,-0.999257,0.127626,-0.029430,-0.044460,76.577530,1.231033,-10.067993,,,,,,,
1522139793.043391,-0.037906,0.002077,-0.552987,0.015245,-0.017799,0.000916,-0.037897,-0.002077,-0.999279,0.080683,0.020112,0.017987,76.439651,3.030670,-11.050232,,,,,,,
1522139793.073359,-0.037296,0.002768,-0.553028,0.015370,0.007704,-0.000170,-0.037288,-0.002768,-0.999301,0.076045,-0.007273,-0.040723,75.469498,3.335342,-10.751953,,,,,,,
1522139793.103328,-0.036714,0.003298,-0.553061,0.026180,0.030038,-0.006578,-0.036706,-0.003298,-0.999321,0.107552,-0.033262,-0.110527,76.220795,3.781433,-11.278381,,,,,,,
,,,,,,,,,,,,,,,,25.311567,51.444417,12.209808,1.288519,-1.000000,1522139793.091071,
1522139793.133296,-0.036819,0.004040,-0.553124,0.018432,-0.024186,-0.000133,-0.036811,-0.004040,-0.999314,0.056723,-0.045109,-0.011611,77.568787,4.074539,-12.103882,,,,,,,
1522139793.163264,-0.036805,0.004520,-0.553098,0.017469,0.001320,0.000901,-0.036797,-0.004520,-0.999313,0.057854,-0.009396,-0.052537,76.812363,3.702499,-12.552734,,,,,,,
1522139793.193232,-0.036997,0.005200,-0.553099,0.023824,-0.016729,-0.004400,-0.036988,-0.005200,-0.999302,0.090440,-0.007984,0.044300,77.094055,2.949432,-14.349609,,,,,,,
1522139793.223201,-0.037441,0.006031,-0.553182,0.021679,-0.017795,-0.003334,-0.037432,-0.006031,-0.999281,0.079042,-0.006420,0.029890,77.226074,1.822708,-15.470032,,,,,,,
1522139793.253169,-0.037930,0.006623,-0.553295,0.020419,-0.065581,-0.007548,-0.037920,-0.006623,-0.999259,0.042315,-0.043930,0.016974,75.485687,1.004349,-16.667603,,,,,,,
1522139793.283137,-0.038402,0.006999,-0.553323,0.007743,-0.026298,0.000931,-0.038391,-0.006998,-0.999238,0.067917,-0.007452,-0.041045,74.501144,0.408188,-17.265747,,,,,,,
1522139793.313105,-0.038926,0.007235,-0.553380,0.012021,-0.025216,-0.001209,-0.038916,-0.007235,-0.999216,0.055853,-0.017637,-0.074148,73.521667,0.411835,-18.016235,,,,,,,
1522139793.343074,-0.039241,0.007894,-0.553442,0.011964,-0.040093,-0.002253,-0.039230,-0.007894,-0.999199,0.065704,-0.040614,0.021706,71.421890,0.795685,-18.618774,,,,,,,
1522139793.373042,-0.039552,0.008183,-0.553401,0.014156,-0.025238,-0.000135,-0.039540,-0.008183,-0.999184,0.106832,-0.028042,0.027596,68.039978,0.959473,-20.046143,,,,,,,
1522139793.403010,-0.039385,0.008655,-0.553312,0.012102,-0.000794,0.003021,-0.039373,-0.008655,-0.999187,0.093969,-0.048245,-0.029194,67.067535,1.263763,-20.122864,,,,,,,
1522139793.432978,-0.039230,0.008990,-0.553326,0.014278,-0.000784,-0.002290,-0.039218,-0.008989,-0.999190,0.052097,-0.008543,-0.016999,63.997314,1.652740,-19.975952,,,,,,,
1522139793.462916,-0.038669,0.009455,-0.553272,0.003765,0.040656,0.001921,-0.038658,-0.009455,-0.999208,0.091545,-0.043264,-0.030333,58.612427,1.904068,-17.879639,,,,,,,
1522139793.492884,-0.038130,0.009434,-0.553230,-0.002907,-0.019874,-0.000159,-0.038119,-0.009434,-0.999229,0.061175,-0.030758,0.023185,57.124054,2.212189,-16.456604,,,,,,,
1522139793.522853,-0.037531,0.009288,-0.553152,-0.015552,0.018421,-0.000213,-0.037520,-0.009288,-0.999253,0.053389,-0.062001,0.095047,52.867874,1.261063,-11.729980,,,,,,,
1522139793.552821,-0.036475,0.008644,-0.553104,-0.020706,0.059863,0.000810,-0.036466,-0.008644,-0.999297,0.116498,-0.042381,0.055740,51.601364,0.893799,-9.704102,,,,,,,
1522139793.582789,-0.035608,0.008127,-0.553105,-0.030555,0.007795,0.002993,-0.035599,-0.008126,-0.999333,0.082047,-0.058997,-0.066173,51.837372,-0.303436,-5.874207,,,,,,,
1522139793.612757,-0.034964,0.007471,-0.553091,-0.018838,-0.000703,-0.000193,-0.034956,-0.007471,-0.999361,0.081235,-0.018835,0.041521,52.510880,-1.130356,-4.745544,,,,,,,
1522139793.642726,-0.033876,0.007310,-0.553160,-0.020802,0.033307,-0.002351,-0.033869,-0.007310,-0.999400,0.057810,-0.020675,-0.009237,55.208862,-2.415665,-2.939087,,,,,,,
1522139793.672694,-0.033417,0.006947,-0.553316,-0.013446,-0.000690,-0.007630,-0.033410,-0.006947,-0.999418,0.064888,-0.017925,-0.016513,56.708359,-2.647125,-2.637390,,,,,,,
1522139793.702662,-0.032642,0.006646,-0.553494,-0.016600,0.014208,-0.006596,-0.032636,-0.006646,-0.999445,0.070249,-0.051139,-0.006841,58.205154,-3.328262,-2.033875,,,,,,,
1522139793.732631,-0.032124,0.006116,-0.553695,-0.023078,-0.001732,-0.005513,-0.032118,-0.006116,-0.999465,0.039762,-0.042544,-0.012147,58.727295,-3.480835,-2.258057,,,,,,,
1522139793.762599,-0.031672,0.005434,-0.553906,-0.028490,-0.020815,-0.008700,-0.031667,-0.005434,-0.999484,0.042516,-0.023390,0.056613,60.226639,-3.862045,-1.730774,,,,,,,
1522139793.792567,-0.031207,0.004659,-0.554118,-0.024105,0.001500,-0.010847,-0.031202,-0.004659,-0.999502,0.100049,-0.039210,0.032156,61.580353,-3.942398,-0.979736,,,,,,,
1522139793.822535,-0.030411,0.004020,-0.554354,-0.027125,0.047170,-0.006633,-0.030406,-0.004020,-0.999530,0.042140,-0.061502,-0.113080,63.304672,-3.875366,-1.204224,,,,,,,
1522139793.852504,-0.030034,0.003405,-0.554491,-0.025290,-0.014479,-0.003380,-0.030030,-0.003405,-0.999543,0.048432,0.003573,0.022126,65.558151,-3.211044,-1.730713,,,,,,,
1522139793.882472,-0.029284,0.002998,-0.554640,-0.011270,0.016299,-0.003399,-0.029280,-0.002998,-0.999567,0.067625,-0.001534,0.022943,67.058990,-2.993027,-1.955872,,,,,,,
1522139793.912440,-0.028481,0.002895,-0.554702,-0.013318,0.033289,-0.003406,-0.028477,-0.002895,-0.999590,0.058476,0.001842,-0.018980,70.512543,-1.735062,-3.459167,,,,,,,
1522139793.942408,-0.027919,0.002903,-0.554757,0.008937,-0.001820,-0.003363,-0.027916,-0.002903,-0.999606,0.104820,-0.001919,0.047824,71.340942,-1.438721,-3.384888,,,,,,,
1522139793.972346,-0.027309,0.003171,-0.554853,0.013313,0.017297,-0.005500,-0.027306,-0.003171,-0.999622,0.050453,0.023358,-0.008282,73.444717,-0.024918,-5.114502,,,,,,,
1522139794.002314,-0.026761,0.003414,-0.554962,0.008966,0.003502,-0.004434,-0.026758,-0.003414,-0.999636,0.043573,-0.034458,-0.010526,75.169006,0.715973,-6.466614,,,,,,,
1522139794.032283,-0.026244,0.003592,-0.555044,0.008918,-0.009249,-0.005482,-0.026241,-0.003592,-0.999649,-0.013371,0.004828,-0.074020,75.251022,1.914780,-7.296326,,,,,,,
1522139794.062251,-0.025726,0.003827,-0.555112,0.008050,0.035386,-0.005530,-0.025723,-0.003827,-0.999662,0.053265,-0.026614,-0.037112,76.457397,2.734039,-7.599060,,,,,,,
1522139794.092219,-0.025735,0.003907,-0.555224,-0.007153,-0.016659,-0.002297,-0.025732,-0.003907,-0.999661,0.055792,-0.037398,-0.007205,79.908859,3.692154,-8.951172,,,,,,,
,,,,,,,,,,,,,,,,25.311638,51.444349,12.239026,1.859120,-1.000000,1522139794.082007,
1522139794.122187,-0.025977,0.003883,-0.555236,0.001381,-0.017774,-0.000148,-0.025974,-0.003883,-0.999655,0.027851,0.017052,-0.025781,81.411331,4.434570,-9.778381,,,,,,,
1522139794.152156,-0.026139,0.003991,-0.555274,0.007861,-0.000784,-0.000163,-0.026136,-0.003991,-0.999650,0.020612,-0.009147,0.014482,83.505081,4.798508,-11.428772,,,,,,,
1522139794.182124,-0.026368,0.004242,-0.555301,0.007835,-0.008218,-0.001219,-0.026365,-0.004242,-0.999643,0.065000,-0.020798,-0.004156,86.937317,5.454010,-15.479736,,,,,,,
1522139794.212092,-0.026368,0.004686,-0.555271,0.019600,0.001304,0.001970,-0.026365,-0.004686,-0.999641,0.031248,-0.024748,-0.024055,86.775757,5.602554,-17.655396,,,,,,,
1522139794.242060,-0.026352,0.005330,-0.555160,0.010034,0.011928,0.004091,-0.026349,-0.005330,-0.999639,0.015744,-0.028285,-0.079783,87.350754,6.119949,-22.682190,,,,,,,
1522139794.272029,-0.026326,0.006010,-0.555022,0.026094,0.017234,-0.000167,-0.026323,-0.006010,-0.999635,0.052385,-0.035616,0.034624,87.036636,6.418503,-25.533508,,,,,,,
1522139794.301997,-0.026014,0.006596,-0.554882,0.010051,0.020432,0.006201,-0.026010,-0.006596,-0.999640,0.020090,-0.067638,-0.045007,81.762207,6.363266,-29.510925,,,,,,,
1522139794.331965,-0.025895,0.006899,-0.554738,0.014233,-0.002968,0.005175,-0.025892,-0.006899,-0.999641,0.040418,-0.031248,0.044548,78.831482,6.375473,-30.487488,,,,,,,
1522139794.361934,-0.025319,0.007341,-0.554658,0.005818,0.024713,0.002999,-0.025316,-0.007341,-0.999653,0.041887,-0.044646,-0.004025,72.743713,5.277573,-30.786072,,,,,,,
1522139794.391902,-0.024912,0.007542,-0.554607,-0.009226,0.001375,0.001949,-0.024908,-0.007542,-0.999661,0.026159,-0.048610,-0.091067,68.541809,4.547379,-29.885254,,,,,,,
1522139794.421870,-0.024447,0.007108,-0.554568,-0.020941,0.008816,0.004072,-0.024444,-0.007108,-0.999676,0.003906,-0.028278,-0.041904,62.241714,2.554031,-26.580444,,,,,,,
1522139794.451838,-0.024082,0.006898,-0.554511,-0.016649,0.014140,0.002994,-0.024079,-0.006898,-0.999686,0.033921,-0.041229,-0.053979,59.842743,1.441849,-24.552246,,,,,,,
1522139794.481807,-0.023739,0.006386,-0.554544,-0.015621,-0.002809,-0.004448,-0.023736,-0.006386,-0.999698,0.035409,-0.031807,-0.015866,57.149673,0.781219,-22.300842,,,,,,,
1522139794.511744,-0.023502,0.006142,-0.554565,-0.006092,-0.019863,-0.002284,-0.023500,-0.006141,-0.999705,0.055192,-0.031899,0.028910,53.396469,-1.748199,-18.617615,,,,,,,
1522139794.541713,-0.023073,0.006154,-0.554617,-0.001662,0.012028,-0.005511,-0.023071,-0.006154,-0.999715,0.035842,-0.026225,-0.068019,51.973373,-2.639999,-16.814819,,,,,,,
1522139794.571681,-0.022915,0.005882,-0.554632,-0.017770,0.002438,0.004077,-0.022912,-0.005882,-0.999720,0.014230,-0.064659,-0.008474,48.528076,-4.196106,-13.435303,,,,,,,
1522139794.601649,-0.022744,0.005266,-0.554554,-0.018792,0.014141,0.004056,-0.022741,-0.005266,-0.999727,0.018560,0.028337,-0.034742,47.553894,-4.790604,-12.308411,,,,,,,
1522139794.631617,-0.022715,0.005315,-0.554568,-0.004952,-0.000749,-0.000175,-0.022713,-0.005315,-0.999728,0.008339,-0.058909,-0.015134,42.764801,-5.815521,-8.781677,,,,,,,
1522139794.661586,-0.022541,0.004927,-0.554524,-0.020829,0.031144,0.001919,-0.022539,-0.004927,-0.999734,0.010027,-0.020617,-0.058433,40.596817,-6.328751,-6.755737,,,,,,,
1522139794.691554,-0.022478,0.004771,-0.554528,-0.001823,-0.014584,0.001972,-0.022476,-0.004771,-0.999736,0.036422,-0.037678,-0.003255,38.225357,-6.762589,-1.280151,,,,,,,
1522139794.721522,-0.022324,0.004580,-0.554500,-0.012339,0.022627,0.002991,-0.022322,-0.004580,-0.999740,0.015792,0.000674,0.007385,36.817383,-7.127808,2.170593,,,,,,,
1522139794.751490,-0.022150,0.004461,-0.554456,-0.002856,-0.007163,0.003037,-0.022148,-0.004461,-0.999745,0.032723,-0.054133,-0.049938,37.976608,-7.576569,8.622986,,,,,,,
1522139794.781472,-0.021835,0.004317,-0.554375,-0.016698,0.004552,0.005142,-0.021833,-0.004317,-0.999752,0.064649,0.032577,-0.028125,39.941406,-7.582932,11.098938,,,,,,,
1522139794.811440,-0.021709,0.004282,-0.554296,-0.000582,0.026826,0.005131,-0.021707,-0.004282,-0.999755,0.039209,-0.058905,-0.046799,43.479477,-7.222275,12.674255,,,,,,,
1522139794.841408,-0.021566,0.004287,-0.554279,-0.020071,-0.032627,0.005174,-0.021564,-0.004287,-0.999758,0.064685,-0.011659,0.053637,50.103806,-6.499237,15.524719,,,,,,,
1522139794.871376,-0.021177,0.003901,-0.554272,-0.009052,0.036464,-0.001283,-0.021176,-0.003901,-0.999768,0.028286,-0.006200,-0.081775,53.864731,-5.540939,15.747742,,,,,,,
1522139794.901345,-0.021028,0.003921,-0.554317,-0.009183,0.011974,0.004077,-0.021026,-0.003921,-0.999771,0.056472,-0.027176,-0.014130,61.372925,-4.225555,14.921204,,,,,,,
1522139794.931313,-0.020790,0.003521,-0.554307,-0.012494,-0.015622,0.000905,-0.020789,-0.003521,-0.999778,0.052603,-0.005604,0.034812,64.829788,-3.041946,14.093262,,,,,,,
1522139794.961281,-0.020565,0.003038,-0.554281,-0.019868,0.009874,0.004072,-0.020564,-0.003038,-0.999784,0.059687,-0.016738,-0.033953,71.870438,-1.727371,10.341492,,,,,,,
1522139794.991249,-0.020463,0.002654,-0.554266,-0.006003,0.003508,-0.000183,-0.020462,-0.002654,-0.999787,0.052643,-0.008928,0.001008,74.034668,-1.589142,8.317078,,,,,,,
1522139795.021218,-0.020312,0.002481,-0.554256,-0.015609,0.005651,0.000873,-0.020310,-0.002481,-0.999791,0.014420,-0.019827,-0.021846,77.536194,-0.785141,3.065613,,,,,,,
