timestamp(unix),attitude_roll(radians),attitude_pitch(radians),attitude_yaw(radians),rotation_rate_x(radians/s),rotation_rate_y(radians/s),rotation_rate_z(radians/s),gravity_x(G),gravity_y(G),gravity_z(G),user_acc_x(G),user_acc_y(G),user_acc_z(G),magnetic_field_x(microteslas),magnetic_field_y(microteslas),magnetic_field_z(microteslas),latitude(degree),longitude(degree),altitude(meter),speed(m/s),course(degree),timestamp(unix),User Mark
,,,,,,,,,,,,,,,,25.301222,51.439134,14.525155,3.500000,111.796875,1522315122.998659,1
1522315123.477230,-0.416729,0.030479,-1.011954,0.355582,0.164527,0.012051,-0.404584,-0.030474,-0.913993,0.042478,-0.016523,0.124473,6.906418,28.167480,1.382263,,,,,,,1
1522315123.507198,-0.408486,0.037008,-1.009452,0.029441,0.259035,-0.014924,-0.396948,-0.037000,-0.917095,0.006201,-0.047320,-0.049565,6.982315,28.167297,1.532349,,,,,,,1
1522315123.537167,-0.399551,0.029467,-1.011819,-0.344187,0.355122,0.055016,-0.388836,-0.029463,-0.920836,-0.053501,-0.058779,-0.024584,7.280945,28.390350,0.931580,,,,,,,1
1522315123.567135,-0.389047,0.020405,-1.012129,-0.240018,0.310916,0.107359,-0.379228,-0.020403,-0.925078,-0.040358,-0.018644,0.056777,6.828873,28.092529,1.082520,,,,,,,1
1522315123.597103,-0.385480,0.016423,-1.010319,-0.060105,-0.022250,0.124877,-0.375953,-0.016422,-0.926493,-0.058312,-0.041988,0.016963,6.676788,28.017990,0.857727,,,,,,,1
1522315123.627072,-0.389505,0.014280,-1.008043,-0.087296,-0.153820,0.106875,-0.379692,-0.014279,-0.925003,-0.085182,-0.054523,-0.044541,7.584991,28.389648,1.606689,,,,,,,1
1522315123.657040,-0.393000,0.008768,-1.006929,-0.183134,-0.055006,0.142928,-0.382947,-0.008768,-0.923729,-0.035632,-0.054983,0.071388,7.808624,28.613052,1.005920,,,,,,,1
1522315123.687008,-0.394216,0.001270,-1.001647,-0.192173,0.049953,0.330355,-0.384085,-0.001270,-0.923297,0.055242,-0.026562,0.228290,7.284546,28.615555,1.155701,,,,,,,1
1522315123.716976,-0.390435,-0.004357,-0.992146,0.080258,0.170988,0.400757,-0.380587,0.004357,-0.924735,0.086199,0.023261,0.223822,7.361633,28.690430,1.380432,,,,,,,1
1522315123.746945,-0.384558,-0.000386,-0.980219,0.387459,0.159643,0.242235,-0.375150,0.000386,-0.926964,0.070401,-0.004354,0.018029,7.888992,28.838211,1.530090,,,,,,,1
1522315123.776913,-0.385529,0.007273,-0.974022,0.174772,-0.163300,0.003715,-0.376039,-0.007273,-0.926575,-0.029448,-0.002004,-0.132599,7.361649,28.465805,1.756287,,,,,,,1
1522315123.806881,-0.392349,0.004774,-0.975530,-0.219340,-0.231193,-0.026335,-0.382356,-0.004774,-0.924003,-0.101195,0.015943,-0.071298,7.964615,28.763092,1.755432,,,,,,,1
1522315123.836849,-0.400319,-0.000107,-0.977816,-0.118250,-0.275228,0.002565,-0.389713,0.000107,-0.920937,-0.075116,0.084671,0.028130,6.991760,28.842697,1.979614,,,,,,,1
1522315123.866818,-0.405776,-0.000389,-0.979460,0.004582,-0.129317,-0.087003,-0.394732,0.000389,-0.918796,-0.028410,0.119041,0.000782,7.889465,28.613663,1.980957,,,,,,,1
1522315123.896786,-0.411162,0.000424,-0.982391,-0.025390,-0.184248,-0.121075,-0.399674,-0.000424,-0.916657,-0.017150,0.179028,-0.008132,8.270737,29.062241,2.279419,,,,,,,1
1522315123.926754,-0.414196,0.000941,-0.986159,-0.006490,-0.003744,-0.108454,-0.402454,-0.000941,-0.915440,-0.042935,0.185985,0.061192,7.889923,28.389114,2.431885,,,,,,,1
1522315123.956722,-0.415068,0.002020,-0.984011,0.187072,-0.083763,0.172005,-0.403252,-0.002020,-0.915087,-0.061424,0.237479,0.069842,7.662704,28.165131,2.432678,,,,,,,1
1522315123.986691,-0.418688,0.004141,-0.975265,0.308529,-0.136166,0.176411,-0.406559,-0.004141,-0.913615,-0.030316,0.253760,-0.025823,7.887070,28.238892,2.207520,,,,,,,1
1522315124.016659,-0.422433,0.011289,-0.969739,0.406643,0.007856,-0.088988,-0.409955,-0.011289,-0.912036,0.006131,0.271757,-0.046475,6.986984,28.093170,2.432617,,,,,,,1
1522315124.046627,-0.421094,0.022938,-0.971723,0.434636,-0.020467,-0.154983,-0.408651,-0.022936,-0.912402,-0.072946,0.193651,-0.101239,7.279312,27.641327,1.909607,,,,,,,1
,,,,,,,,,,,,,,,,25.301214,51.439169,14.499349,3.590000,109.687500,1522315123.998650,1
1522315124.076595,-0.424136,0.039107,-0.974005,0.661464,-0.117905,-0.128086,-0.411219,-0.039097,-0.910698,-0.046179,0.155262,-0.018868,7.582764,27.940048,1.983521,,,,,,,1
1522315124.106564,-0.429281,0.059214,-0.966352,0.750019,-0.210450,0.007388,-0.415487,-0.059180,-0.907672,-0.051142,0.133521,-0.008588,6.904312,27.867645,1.533508,,,,,,,1
1522315124.136532,-0.438970,0.075824,-0.957940,0.485916,-0.345522,-0.034223,-0.423786,-0.075751,-0.902589,-0.116024,0.083732,-0.060179,6.522446,27.269211,1.385681,,,,,,,1
1522315124.166500,-0.445762,0.084786,-0.956302,0.190840,-0.038284,-0.101879,-0.429597,-0.084685,-0.899041,-0.160629,-0.004381,0.090448,6.897125,27.417236,1.085266,,,,,,,1
1522315124.196469,-0.440802,0.087903,-0.956190,0.035402,0.209842,0.027750,-0.425018,-0.087790,-0.900918,-0.148697,-0.048776,0.119118,6.745789,27.193069,1.236084,,,,,,,1
1522315124.226437,-0.436531,0.087621,-0.953296,0.060342,0.150777,0.107742,-0.421176,-0.087509,-0.902747,-0.031812,-0.027497,0.056770,6.971832,27.341965,1.160645,,,,,,,1
1522315124.256405,-0.433264,0.088040,-0.951932,-0.008063,0.208236,-0.031944,-0.418209,-0.087926,-0.904085,-0.027286,-0.076396,0.057009,6.223495,27.645111,0.934021,,,,,,,1
1522315124.286373,-0.428575,0.088092,-0.953586,-0.087005,0.212757,-0.041602,-0.413963,-0.087978,-0.906032,-0.088081,-0.124608,0.054576,7.199814,27.640945,1.159546,,,,,,,1
1522315124.316342,-0.424770,0.082843,-0.956835,-0.297274,0.134825,0.084055,-0.410698,-0.082748,-0.908009,-0.119698,-0.163422,-0.036617,7.275558,27.715607,1.159302,,,,,,,1
1522315124.346295,-0.421982,0.070610,-0.965807,-0.529234,0.094897,0.102036,-0.408549,-0.070551,-0.910006,-0.151525,-0.190786,-0.013227,7.504883,28.239410,1.007263,,,,,,,1
1522315124.376263,-0.417765,0.053393,-0.974559,-0.690561,0.211726,0.017613,-0.405141,-0.053368,-0.912695,-0.156672,-0.182976,0.044119,7.580490,28.164307,1.232605,,,,,,,1
1522315124.406231,-0.409970,0.037149,-0.983061,-0.546303,0.290734,0.063464,-0.398307,-0.037140,-0.916500,-0.121133,-0.143402,0.058330,7.359253,28.315674,1.606873,,,,,,,1
1522315124.436200,-0.405689,0.025243,-0.985097,-0.365196,0.059108,0.145887,-0.394526,-0.025240,-0.918538,-0.002431,0.023653,0.035710,7.964325,28.688171,1.830750,,,,,,,1
1522315124.466168,-0.411135,0.017520,-0.983543,-0.126654,-0.310203,0.147488,-0.399588,-0.017519,-0.916527,0.013968,0.079912,-0.024437,7.888260,28.538589,1.906311,,,,,,,1
1522315124.496136,-0.417460,0.014422,-0.980631,-0.013324,-0.053287,0.137740,-0.405398,-0.014421,-0.914027,-0.063795,0.089357,-0.015218,8.337814,28.536499,1.831543,,,,,,,1
1522315124.526104,-0.414611,0.015329,-0.977176,0.149145,0.125441,0.051367,-0.402787,-0.015328,-0.915165,-0.128845,0.069756,0.030644,8.035873,28.387772,1.756958,,,,,,,1
1522315124.556073,-0.410465,0.017632,-0.975396,0.092723,0.168047,0.056610,-0.398974,-0.017631,-0.916793,-0.078901,0.080070,0.142974,7.737381,28.539124,1.756226,,,,,,,1
1522315124.586041,-0.405637,0.016851,-0.977859,0.020840,0.158251,0.115172,-0.394548,-0.016850,-0.918721,-0.048277,0.114842,0.171803,8.338715,28.536636,1.981506,,,,,,,1
1522315124.616009,-0.405161,0.016405,-0.978140,0.105758,-0.031683,0.046167,-0.394114,-0.016404,-0.918915,-0.060843,0.095094,0.025681,8.260849,28.386765,1.757080,,,,,,,1
1522315124.645977,-0.408615,0.021461,-0.976991,0.245590,-0.083817,0.006894,-0.397247,-0.021460,-0.917461,-0.071991,0.118109,-0.156667,7.810150,28.089172,2.133057,,,,,,,1
1522315124.675946,-0.404531,0.028352,-0.976671,0.238388,0.332375,-0.093682,-0.393429,-0.028348,-0.918918,-0.038166,0.187589,-0.044904,8.031982,27.863022,1.984009,,,,,,,1
1522315124.705914,-0.391390,0.037164,-0.980497,0.187532,0.446407,-0.274973,-0.381210,-0.037155,-0.923742,-0.044770,0.153046,0.086003,8.857986,28.233856,1.533020,,,,,,,1
1522315124.735883,-0.383549,0.042217,-0.985319,0.090257,0.067626,-0.170242,-0.373881,-0.042204,-0.926516,-0.050695,0.193923,-0.002485,8.173874,27.411789,1.385925,,,,,,,1
1522315124.765851,-0.386601,0.043613,-0.985048,0.097721,-0.128518,0.069695,-0.376684,-0.043600,-0.925315,-0.026087,0.212850,-0.004128,8.397659,27.560333,0.935425,,,,,,,1
1522315124.795820,-0.387208,0.043126,-0.979213,0.113012,0.096861,0.199480,-0.377253,-0.043113,-0.925106,0.006709,0.174720,0.061138,8.772797,27.483795,1.085938,,,,,,,1
1522315124.825788,-0.385881,0.041441,-0.973028,0.105358,0.019563,0.165444,-0.376052,-0.041429,-0.925672,-0.014496,0.084169,-0.070681,8.471161,27.410004,0.936096,,,,,,,1
1522315124.855755,-0.384533,0.040611,-0.971188,0.101648,0.152703,-0.030744,-0.374817,-0.040600,-0.926209,-0.026031,0.021130,-0.051894,9.527267,27.930389,1.084534,,,,,,,1
1522315124.885725,-0.374712,0.042901,-0.977101,0.068280,0.344323,-0.221685,-0.365668,-0.042888,-0.929757,-0.069497,-0.037495,-0.003334,8.776093,27.858704,1.009460,,,,,,,1
1522315124.915692,-0.369277,0.043259,-0.988654,-0.157295,0.052613,-0.213039,-0.360604,-0.043245,-0.931716,-0.121589,-0.073378,-0.011811,9.075180,27.857208,0.859558,,,,,,,1
1522315124.945660,-0.371381,0.038858,-0.995947,-0.216224,-0.124264,-0.122340,-0.362628,-0.038849,-0.931124,-0.135815,-0.136856,0.017778,9.223969,28.006088,0.409119,,,,,,,1
1522315124.975659,-0.373129,0.037004,-0.996776,0.056526,-0.026427,0.072758,-0.364281,-0.036996,-0.930554,-0.151817,-0.146079,0.009350,8.548553,27.784424,0.709656,,,,,,,1
1522315125.005627,-0.372928,0.039006,-0.993027,0.070708,0.091166,0.117408,-0.364067,-0.038996,-0.930556,-0.105416,-0.122335,-0.019349,9.003769,28.082748,1.083679,,,,,,,1
1522315125.035595,-0.367282,0.034919,-0.990088,-0.290681,0.249131,0.146810,-0.358861,-0.034912,-0.932738,-0.130045,-0.098710,-0.008974,8.777145,28.008621,0.933838,,,,,,,1
1522315125.065564,-0.365594,0.020755,-0.989965,-0.494246,-0.070689,0.213056,-0.357427,-0.020754,-0.933710,-0.159724,-0.107374,-0.069601,8.855743,28.233490,1.158020,,,,,,,1
,,,,,,,,,,,,,,,,25.301214,51.439215,14.499349,3.760000,102.656250,1522315124.998641,1
1522315125.095532,-0.367005,0.007075,-0.988394,-0.298448,0.020233,0.210972,-0.358812,-0.007075,-0.933383,-0.141737,-0.101324,-0.123273,8.859787,28.458771,1.457092,,,,,,,1
1522315125.125500,-0.361960,-0.004126,-0.990949,-0.427144,0.267696,0.124311,-0.354105,0.004126,-0.935196,-0.084875,-0.024069,0.049408,10.063324,28.678574,1.681824,,,,,,,1
1522315125.155468,-0.352410,-0.020336,-0.998548,-0.638535,0.349915,-0.010180,-0.345089,0.020334,-0.938349,-0.057758,-0.037760,0.211161,9.157822,28.307358,1.382812,,,,,,,1
1522315125.185437,-0.341728,-0.037537,-1.007029,-0.497479,0.303953,0.130617,-0.334880,0.037528,-0.941513,-0.034352,-0.019187,0.304001,9.236115,28.681931,1.306396,,,,,,,1
1522315125.215405,-0.344765,-0.045055,-1.004579,0.077094,-0.464484,0.254355,-0.337632,0.045040,-0.940200,-0.015960,0.097019,0.039489,9.237900,28.906845,1.230469,,,,,,,1
1522315125.245373,-0.363351,-0.038089,-1.000177,0.389140,-0.538806,0.135321,-0.355150,0.038080,-0.934033,-0.047285,0.134039,-0.069354,9.159027,28.382416,1.457581,,,,,,,1
1522315125.275342,-0.370649,-0.029244,-0.995120,0.278151,-0.182855,0.025137,-0.362066,0.029240,-0.931694,-0.083170,0.145626,-0.121590,8.782089,28.234039,1.382935,,,,,,,1
1522315125.305310,-0.378536,-0.024919,-0.994260,0.017701,-0.238106,-0.034670,-0.369446,0.024916,-0.928918,-0.095794,0.142930,0.022683,10.281738,28.152374,1.459045,,,,,,,1
1522315125.335264,-0.383020,-0.027996,-0.995533,-0.175445,-0.138212,0.032215,-0.373577,0.027993,-0.927177,-0.075032,0.151283,0.116370,9.007812,28.308029,1.382751,,,,,,,1
1522315125.365232,-0.388756,-0.033486,-0.995785,-0.095794,-0.189666,0.068551,-0.378825,0.033480,-0.924862,-0.063603,0.160749,0.123761,9.154831,28.231995,1.008118,,,,,,,1
1522315125.395200,-0.389771,-0.036688,-0.993591,-0.039245,0.093556,0.117331,-0.379721,0.036680,-0.924374,-0.037012,0.144854,0.122875,9.535355,28.605576,1.306824,,,,,,,1
1522315125.425169,-0.390176,-0.034538,-0.988591,0.342785,-0.181595,0.123225,-0.380124,0.034531,-0.924291,-0.040210,0.087112,-0.214168,9.385498,28.531403,1.457092,,,,,,,1
1522315125.455137,-0.395362,-0.021060,-0.980525,0.568435,0.012018,0.013441,-0.385056,0.021058,-0.922653,-0.083785,0.038161,-0.276322,9.382492,28.456039,1.082397,,,,,,,1
1522315125.485105,-0.379902,-0.007846,-0.978638,0.232172,0.770676,-0.162329,-0.370818,0.007846,-0.928672,-0.060030,-0.050662,0.065895,10.286072,28.677200,1.306946,,,,,,,1
1522315125.515074,-0.364853,-0.010796,-0.984922,-0.361082,0.153643,-0.152558,-0.356791,0.010796,-0.934122,-0.134130,-0.091423,0.026727,9.306625,28.231613,1.308228,,,,,,,1
1522315125.545042,-0.368135,-0.019123,-0.990221,-0.263718,-0.103718,-0.005186,-0.359810,0.019122,-0.932829,-0.138908,-0.072375,0.171904,9.606750,28.380035,1.082764,,,,,,,1
1522315125.575010,-0.366391,-0.023541,-0.989617,-0.021056,0.119991,0.131161,-0.358149,0.023538,-0.933367,-0.063451,-0.089456,0.205630,10.362564,28.826859,1.306335,,,,,,,1
1522315125.604978,-0.368666,-0.019366,-0.982580,0.399441,-0.325647,0.189471,-0.360303,0.019365,-0.932634,-0.111498,-0.107927,-0.152342,9.385193,28.681107,1.156494,,,,,,,1
1522315125.634947,-0.378860,-0.008002,-0.973899,0.423097,-0.131824,0.120033,-0.369850,0.008002,-0.929057,-0.051964,-0.103003,-0.210424,10.355225,28.226669,1.083801,,,,,,,1
1522315125.664915,-0.379458,-0.002375,-0.972279,0.022989,-0.020240,-0.041278,-0.370416,0.002375,-0.928863,-0.050574,-0.103495,-0.149888,10.809677,28.674622,1.082214,,,,,,,1
1522315125.694883,-0.374719,-0.012266,-0.978166,-0.648424,0.234449,-0.056958,-0.365983,0.012266,-0.930541,-0.129653,-0.081113,0.007765,10.273544,28.087215,1.689758,,,,,,,1
1522315125.724851,-0.370739,-0.035768,-0.986786,-0.863604,0.041587,0.093324,-0.362072,0.035760,-0.931464,-0.134128,-0.096719,0.168311,9.978348,28.613461,1.612488,,,,,,,1
1522315125.754820,-0.375449,-0.055364,-0.987725,-0.359928,-0.299785,0.258128,-0.366129,0.055336,-0.928917,-0.101126,0.008950,0.020180,10.508713,28.836605,2.136841,,,,,,,1
1522315125.784788,-0.380450,-0.060360,-0.981257,0.055956,0.024565,0.226143,-0.370662,0.060323,-0.926807,-0.030247,0.062693,0.115298,9.678223,28.465038,1.837952,,,,,,,1
1522315125.814756,-0.373938,-0.060525,-0.976598,0.022542,0.273167,0.092680,-0.364615,0.060488,-0.929191,0.052131,0.029584,0.234184,10.051102,28.388134,1.613403,,,,,,,1
1522315125.844724,-0.372216,-0.055891,-0.972595,0.400623,-0.227930,0.045517,-0.363113,0.055862,-0.930069,0.064666,0.060333,0.031509,10.351685,28.312008,1.838928,,,,,,,1
1522315125.874693,-0.386862,-0.040272,-0.965807,0.558614,-0.482213,0.035235,-0.376978,0.040261,-0.925347,-0.041860,0.117042,-0.091240,10.125488,28.237957,1.764099,,,,,,,1
1522315125.904661,-0.390782,-0.031152,-0.962155,0.189604,-0.026926,-0.057125,-0.380727,0.031147,-0.924163,-0.099940,0.150860,-0.006562,11.174103,28.233013,1.539551,,,,,,,1
1522315125.934629,-0.397294,-0.028090,-0.961991,0.051220,-0.353109,-0.011094,-0.386772,0.028087,-0.921747,-0.159966,0.152196,-0.094183,10.497330,28.011120,1.615112,,,,,,,1
1522315125.964597,-0.407412,-0.026086,-0.959587,0.131232,-0.244626,0.096484,-0.396099,0.026083,-0.917837,-0.142688,0.136316,-0.122568,9.970123,27.788494,1.615784,,,,,,,1
1522315125.994566,-0.406684,-0.024339,-0.955840,0.040460,0.213641,0.087435,-0.395449,0.024336,-0.918165,-0.100385,0.031557,0.024366,10.273254,28.012280,1.765076,,,,,,,1
1522315126.024534,-0.399346,-0.025487,-0.954013,-0.034389,0.188337,0.086336,-0.388690,0.025484,-0.921016,-0.029859,-0.020800,0.148189,10.649277,28.160519,1.689636,,,,,,,1
1522315126.054502,-0.392776,-0.030725,-0.951197,-0.165781,0.277285,0.176721,-0.382574,0.030720,-0.923414,-0.000468,-0.022221,0.255613,10.117401,27.787395,1.165833,,,,,,,1
,,,,,,,,,,,,,,,,25.301211,51.439274,14.360462,4.890000,96.679688,1522315125.998631,1
1522315126.084471,-0.386192,-0.033630,-0.946535,0.145084,0.113739,0.205879,-0.376451,0.033624,-0.925826,0.063234,-0.046212,0.169555,10.268158,27.861706,1.165588,,,,,,,1
1522315126.114439,-0.387987,-0.023737,-0.938213,0.598134,-0.223159,0.052056,-0.378219,0.023735,-0.925412,-0.016709,-0.053840,-0.306232,10.347794,28.236492,1.314148,,,,,,,1
1522315126.144407,-0.396466,-0.004498,-0.930563,0.602063,-0.200033,-0.066232,-0.386157,0.004497,-0.922422,-0.101804,-0.035885,-0.320315,10.495529,28.010830,1.315125,,,,,,,1
1522315126.174375,-0.391616,0.003710,-0.931660,-0.106405,0.299511,-0.134393,-0.381680,-0.003710,-0.924287,-0.137928,-0.102842,-0.076644,10.946854,28.233654,1.164490,,,,,,,1
1522315126.204344,-0.385285,-0.012992,-0.941685,-0.877447,0.121241,-0.048476,-0.375791,0.012992,-0.926613,-0.217745,-0.125617,0.148400,10.348694,28.236645,1.464172,,,,,,,1
1522315126.234312,-0.381728,-0.039385,-0.948262,-0.856359,0.142662,0.224286,-0.372235,0.039375,-0.927303,-0.106463,-0.086769,0.387172,10.796875,28.234325,1.164368,,,,,,,1
1522315126.264280,-0.379495,-0.059326,-0.947078,-0.289748,-0.081341,0.297387,-0.369800,0.059291,-0.927218,-0.038358,-0.009532,0.158342,11.175293,28.532696,1.238403,,,,,,,1
1522315126.294248,-0.384890,-0.054201,-0.940313,0.545192,-0.127406,0.051931,-0.374906,0.054174,-0.925479,-0.006472,-0.016531,-0.016370,10.424133,28.461010,1.163269,,,,,,,1
1522315126.324208,-0.385837,-0.033188,-0.932445,0.808788,-0.049682,-0.063030,-0.376127,0.033181,-0.925974,0.004804,-0.037423,-0.224386,11.174698,28.382854,1.389038,,,,,,,1
1522315126.354176,-0.387750,-0.018551,-0.927863,0.155221,-0.042990,-0.028359,-0.378041,0.018550,-0.925603,-0.087413,0.017231,-0.149684,10.946854,28.009029,1.540344,,,,,,,1
1522315126.384144,-0.387714,-0.028555,-0.932983,-0.678582,-0.003876,-0.005584,-0.377919,0.028551,-0.925398,-0.078166,0.023390,0.051543,11.173676,28.008312,1.840515,,,,,,,1
1522315126.414112,-0.389967,-0.053714,-0.939999,-0.909589,-0.109812,0.181882,-0.379609,0.053689,-0.923588,-0.091262,0.113365,0.151203,10.579514,28.461208,2.063416,,,,,,,1
1522315126.444081,-0.395502,-0.074920,-0.940984,-0.411844,-0.215725,0.256956,-0.384191,0.074850,-0.920215,-0.103282,0.112971,0.167971,11.481735,28.682140,2.062988,,,,,,,1
1522315126.474049,-0.396591,-0.076697,-0.935454,0.309882,0.122256,0.143137,-0.385140,0.076622,-0.919672,-0.017905,0.098366,0.216089,10.949844,28.309017,1.539185,,,,,,,1
1522315126.504017,-0.389578,-0.062152,-0.926993,0.693032,0.160531,0.001682,-0.379065,0.062112,-0.923283,0.008612,0.035681,0.092549,10.273544,28.311840,1.313843,,,,,,,1
1522315126.533985,-0.392393,-0.037364,-0.919117,0.910725,-0.231291,-0.112853,-0.382134,0.037356,-0.923352,0.018578,0.033750,-0.121677,11.549088,28.231319,1.539795,,,,,,,1
1522315126.563954,-0.395549,-0.014357,-0.913587,0.635198,-0.010634,-0.114347,-0.385275,0.014356,-0.922690,0.017386,0.073107,-0.076929,10.493881,27.935696,1.165405,,,,,,,1
1522315126.593922,-0.398278,-0.004319,-0.912193,0.131005,-0.259363,-0.076110,-0.387828,0.004319,-0.921721,-0.119755,0.091751,-0.294908,10.864960,27.633877,1.016846,,,,,,,1
1522315126.623890,-0.407806,-0.005475,-0.912915,-0.142328,-0.131938,0.034368,-0.396590,0.005474,-0.917979,-0.135301,0.101307,-0.198094,11.089371,27.707638,0.791626,,,,,,,1
1522315126.653858,-0.400085,-0.015003,-0.915965,-0.493331,0.362197,0.002715,-0.389453,0.015002,-0.920924,-0.113935,0.091474,0.087718,10.943863,27.933666,1.165649,,,,,,,1
1522315126.683827,-0.392295,-0.029948,-0.921622,-0.499684,0.200316,0.057214,-0.382139,0.029944,-0.923620,-0.035952,0.018732,0.293340,10.869751,28.158779,0.939758,,,,,,,1
1522315126.713795,-0.388941,-0.039890,-0.923982,-0.091319,0.007033,0.200489,-0.378907,0.039879,-0.924575,0.020020,0.004325,0.151778,11.773026,28.305004,1.239624,,,,,,,1
1522315126.743763,-0.394294,-0.033139,-0.917378,0.534683,-0.227845,0.136193,-0.383945,0.033133,-0.922761,0.023411,-0.009009,-0.082274,11.169144,28.232204,0.714600,,,,,,,1
1522315126.773732,-0.396285,-0.015169,-0.911007,0.680090,0.013611,-0.102616,-0.385949,0.015168,-0.922395,-0.004966,-0.059602,-0.238814,11.542358,27.780972,1.166565,,,,,,,1
1522315126.803700,-0.397335,0.004066,-0.909693,0.481024,-0.018914,-0.243378,-0.386959,-0.004066,-0.922088,-0.081592,-0.113396,-0.162171,11.391891,28.006207,0.715637,,,,,,,1
1522315126.833668,-0.392913,0.007516,-0.916131,-0.326545,0.164570,-0.211130,-0.382870,-0.007516,-0.923772,-0.181064,-0.180106,-0.107875,10.417542,27.935818,0.940430,,,,,,,1
1522315126.863636,-0.390938,-0.011005,-0.925561,-0.886365,0.126050,0.027162,-0.381033,0.011005,-0.924496,-0.266565,-0.152988,0.094509,10.791489,27.784206,1.016235,,,,,,,1
1522315126.893605,-0.384744,-0.037561,-0.931459,-0.884939,0.218018,0.244448,-0.375057,0.037552,-0.926241,-0.159840,-0.140610,0.270205,11.921814,28.453899,0.789062,,,,,,,1
1522315126.923573,-0.376373,-0.062519,-0.933001,-0.675328,0.316225,0.260475,-0.366832,0.062478,-0.928187,0.001170,-0.093240,0.373957,10.795227,28.159191,1.014709,,,,,,,1
1522315126.953541,-0.371420,-0.076339,-0.929401,-0.156894,-0.014511,0.266519,-0.361882,0.076265,-0.929099,0.141942,-0.033739,0.250251,11.550430,28.680782,1.013000,,,,,,,1
1522315126.983509,-0.382086,-0.069467,-0.922996,0.579695,-0.609425,-0.018944,-0.371958,0.069411,-0.925651,0.075190,0.063768,-0.192513,11.774979,28.455074,1.314026,,,,,,,1
1522315127.013478,-0.397618,-0.050886,-0.917882,0.598205,-0.364621,-0.082048,-0.386722,0.050864,-0.920793,0.002810,0.118890,-0.289229,11.101364,28.233715,1.914551,,,,,,,1
1522315127.043446,-0.405693,-0.037329,-0.916288,0.318049,-0.291247,-0.142001,-0.394381,0.037320,-0.918189,-0.162916,0.134326,-0.329675,10.644943,27.860317,1.465881,,,,,,,1
,,,,,,,,,,,,,,,,25.301204,51.439344,14.374245,6.130000,94.921875,1522315126.998620,1
1522315127.073414,-0.411318,-0.034264,-0.918557,-0.109275,-0.036662,-0.078646,-0.399583,0.034258,-0.916057,-0.166167,0.146437,0.032451,11.622421,28.155834,1.390137,,,,,,,1
1522315127.103382,-0.406763,-0.040501,-0.922456,-0.248254,0.221528,-0.025734,-0.395314,0.040490,-0.917653,-0.117381,0.143455,0.232930,11.018875,27.933331,1.165710,,,,,,,1
1522315127.133351,-0.403310,-0.043190,-0.922648,0.001117,0.009729,0.085482,-0.392099,0.043176,-0.918909,-0.035269,0.161704,0.263895,10.190140,27.562069,1.166748,,,,,,,1
1522315127.163319,-0.403208,-0.040669,-0.916399,0.324105,0.038878,0.209291,-0.392047,0.040658,-0.919046,0.030642,0.105536,0.035486,10.719788,27.934826,1.315552,,,,,,,1
1522315127.193287,-0.398442,-0.026090,-0.904175,0.781031,0.194367,0.147681,-0.387851,0.026087,-0.921353,0.082446,0.047536,-0.174533,11.014221,27.558208,1.017212,,,,,,,1
1522315127.223255,-0.396737,-0.003620,-0.893846,0.794191,0.013121,-0.074819,-0.386408,0.003620,-0.922321,0.069803,0.030315,-0.082852,11.538895,27.930172,0.341003,,,,,,,1
1522315127.253224,-0.388162,0.014977,-0.894935,0.355943,0.410738,-0.250297,-0.378446,-0.014976,-0.925502,0.060178,-0.046837,0.040905,11.386047,27.556011,0.492432,,,,,,,1
1522315127.283192,-0.383921,0.015682,-0.904433,-0.321499,-0.120316,-0.196990,-0.374513,-0.015681,-0.927089,-0.064284,-0.038732,0.008800,11.163300,27.557384,0.867310,,,,,,,1
1522315127.313160,-0.390731,0.005416,-0.913728,-0.457910,-0.223520,-0.129860,-0.380858,-0.005416,-0.924617,-0.215959,-0.047669,0.035259,10.783524,27.483410,0.192383,,,,,,,1
1522315127.343127,-0.392573,-0.001071,-0.918680,-0.065778,-0.019198,-0.009367,-0.382567,0.001071,-0.923927,-0.205095,-0.113300,0.083092,10.638626,27.634670,0.791687,,,,,,,1
1522315127.373095,-0.397623,0.001963,-0.912630,0.220257,-0.207726,0.256351,-0.387228,-0.001963,-0.921982,-0.056147,-0.088659,0.045655,10.787735,27.409222,1.017700,,,,,,,1
1522315127.403063,-0.400332,0.001812,-0.905281,0.004947,0.037648,0.194141,-0.389723,-0.001812,-0.920930,-0.034761,-0.071491,-0.054381,10.790878,27.858974,0.790894,,,,,,,1
1522315127.433030,-0.398577,-0.001148,-0.902303,-0.142427,0.172502,0.110773,-0.388107,0.001148,-0.921614,0.073104,-0.044911,0.006620,11.314346,27.706631,0.791748,,,,,,,1
1522315127.463000,-0.398247,-0.009177,-0.903673,-0.283349,-0.173958,0.015126,-0.387787,0.009177,-0.921703,0.003464,0.037499,-0.089512,11.316589,27.931622,0.790833,,,,,,,1
1522315127.492967,-0.400794,-0.014687,-0.909216,-0.174329,0.070252,0.001122,-0.390108,0.014686,-0.920652,-0.076735,0.012535,-0.015002,11.989166,27.553814,1.017761,,,,,,,1
1522315127.522935,-0.398060,-0.013136,-0.911281,0.189347,0.004397,0.020635,-0.387597,0.013136,-0.921735,-0.040229,0.011721,0.080152,11.391754,27.856426,0.941223,,,,,,,1
1522315127.552903,-0.394876,-0.009574,-0.911353,0.179780,0.114332,0.106821,-0.384676,0.009573,-0.923002,-0.084379,-0.000342,0.002744,11.537842,27.555630,0.792480,,,,,,,1
1522315127.582872,-0.394251,-0.005890,-0.907425,0.149546,0.069589,0.133483,-0.384110,0.005890,-0.923269,0.023087,0.005615,0.071904,11.536346,27.405621,0.793091,,,,,,,1
1522315127.612840,-0.394118,-0.006741,-0.907316,-0.043068,-0.042472,0.119602,-0.383985,0.006741,-0.923315,0.034864,0.056369,-0.132655,11.536942,27.555477,0.642517,,,,,,,1
1522315127.642808,-0.399694,-0.007755,-0.908175,0.005229,-0.088726,0.031244,-0.389125,0.007755,-0.921152,0.036266,0.071667,-0.055960,11.535309,27.255703,0.868652,,,,,,,1
1522315127.672776,-0.394212,-0.010270,-0.913727,-0.174214,0.275711,-0.050242,-0.384060,0.010270,-0.923251,0.025402,0.060378,0.091021,12.291550,27.927227,0.791382,,,,,,,1
1522315127.702745,-0.391726,-0.014352,-0.918514,-0.093914,-0.142153,-0.043360,-0.381744,0.014351,-0.924156,-0.039795,0.029411,-0.017952,11.612366,27.555218,0.717529,,,,,,,1
1522315127.732713,-0.395879,-0.011579,-0.918695,0.197563,-0.038294,0.045186,-0.385594,0.011579,-0.922596,0.007221,-0.002683,-0.094708,11.615692,27.705502,1.016968,,,,,,,1
1522315127.762681,-0.392643,-0.007055,-0.919677,0.144170,0.148102,0.002333,-0.382622,0.007055,-0.923878,0.017556,-0.022771,-0.056225,12.588104,27.850445,0.341858,,,,,,,1
1522315127.792650,-0.389619,-0.007231,-0.922088,-0.059019,0.026685,-0.038181,-0.379826,0.007231,-0.925030,-0.004146,-0.048033,-0.090489,12.062057,27.478268,0.793030,,,,,,,1
1522315127.822618,-0.390612,-0.008384,-0.926547,-0.084601,0.065904,-0.013740,-0.380741,0.008384,-0.924644,-0.017300,-0.008338,0.022895,11.464355,27.705959,0.791809,,,,,,,1
1522315127.852587,-0.384124,-0.010745,-0.929969,-0.139494,0.224234,0.004181,-0.374726,0.010745,-0.927073,0.050858,0.008024,0.235331,12.067169,27.853466,1.016602,,,,,,,1
1522315127.882555,-0.380054,-0.014442,-0.934579,-0.012451,0.036581,0.049218,-0.370932,0.014442,-0.928547,0.061347,-0.001502,0.117390,11.988556,27.853222,0.416504,,,,,,,1
1522315127.912523,-0.383344,-0.011905,-0.931059,0.163781,-0.081354,0.137898,-0.373997,0.011905,-0.927353,-0.042187,-0.022326,-0.124832,11.458344,27.330608,0.418335,,,,,,,1
1522315127.942492,-0.376995,-0.009857,-0.928992,0.096486,0.444792,-0.013976,-0.368110,0.009856,-0.929730,-0.040170,-0.046310,-0.014225,11.609528,27.404995,0.493103,,,,,,,1
1522315127.972460,-0.357162,-0.006219,-0.929027,0.117695,0.657219,-0.007783,-0.349610,0.006219,-0.936874,-0.000274,-0.063104,-0.121796,11.383347,27.330944,0.418274,,,,,,,1
1522315128.002428,-0.342709,-0.006133,-0.925958,-0.089085,0.437771,0.144652,-0.336033,0.006133,-0.941830,-0.040050,0.068254,-0.066852,11.911026,27.553646,0.492676,,,,,,,1
1522315128.032397,-0.322693,-0.019148,-0.925565,-0.675742,0.859648,0.197072,-0.317064,0.019146,-0.948211,-0.043318,0.041935,0.033339,12.734177,27.774258,-0.182800,,,,,,,1
1522315128.062365,-0.300275,-0.048999,-0.927503,-1.071333,0.540568,0.230121,-0.295428,0.048980,-0.954108,0.040209,0.039613,-0.097710,12.814117,27.999355,0.266357,,,,,,,1
,,,,,,,,,,,,,,,,25.301190,51.439382,14.391775,5.940000,94.921875,1522315127.998611,1
1522315128.092332,-0.289816,-0.075024,-0.929578,-0.651844,0.399936,0.131493,-0.284972,0.074954,-0.955601,-0.017640,0.011533,-0.106060,12.440781,28.076183,0.415833,,,,,,,1
1522315128.122300,-0.266676,-0.087222,-0.931646,-0.248244,0.933477,-0.026449,-0.262525,0.087111,-0.960985,-0.032290,-0.031829,-0.069304,12.818161,28.224636,0.565430,,,,,,,1
1522315128.152269,-0.247184,-0.081592,-0.933617,0.464436,0.443744,-0.144771,-0.243861,0.081502,-0.966379,0.003901,0.006069,0.057368,12.891083,28.149075,0.340820,,,,,,,1
1522315128.182237,-0.228426,-0.061646,-0.933033,0.717909,0.805277,-0.119368,-0.226015,0.061606,-0.972174,0.038851,0.010919,0.145926,13.261108,27.921963,-0.108093,,,,,,,1
1522315128.212205,-0.207592,-0.042715,-0.929668,0.529711,0.472956,0.058774,-0.205916,0.042702,-0.977637,-0.027604,0.137428,-0.095361,13.107651,27.847210,-0.557861,,,,,,,1
1522315128.242173,-0.215096,-0.028711,-0.923137,0.570861,-0.729511,0.137801,-0.213353,0.028707,-0.976553,-0.103083,0.084604,-0.130503,13.179642,27.546886,-0.556641,,,,,,,1
1522315128.272142,-0.247954,-0.009635,-0.917018,0.739726,-1.155721,-0.058767,-0.245410,0.009635,-0.969371,-0.090558,-0.047492,-0.021519,13.099991,27.396725,-1.081116,,,,,,,1
1522315128.302110,-0.269039,0.017512,-0.912536,0.936652,-0.388697,-0.102020,-0.265764,-0.017511,-0.963879,0.078737,-0.041220,0.287441,13.979141,27.124607,-1.325378,,,,,,,1
1522315128.332083,-0.269513,0.034957,-0.907335,0.309987,0.097040,0.101610,-0.266099,-0.034950,-0.963312,0.105745,0.028617,0.256250,13.380234,27.052601,-1.025391,,,,,,,1
1522315128.362051,-0.268469,0.038978,-0.901596,0.156983,0.061066,0.133499,-0.265054,-0.038968,-0.963446,0.072763,-0.001742,0.009283,13.304764,27.052860,-1.100342,,,,,,,1
1522315128.392020,-0.264485,0.043368,-0.901053,0.111516,0.107558,-0.115915,-0.261167,-0.043354,-0.964319,-0.015292,-0.058346,-0.295538,13.527512,26.826862,-1.099365,,,,,,,1
1522315128.421988,-0.265361,0.041661,-0.906398,-0.204670,-0.185866,-0.135033,-0.262030,-0.041649,-0.964160,-0.055444,-0.070442,-0.288251,13.226929,26.678364,-0.948914,,,,,,,1
1522315128.451956,-0.268921,0.031417,-0.908358,-0.373710,0.049619,0.135250,-0.265561,-0.031412,-0.963582,-0.033100,-0.061422,-0.069011,13.081436,27.129017,-0.950806,,,,,,,1
1522315128.481924,-0.253473,0.018024,-0.899054,-0.490681,0.894834,0.569043,-0.250727,-0.018023,-0.967890,0.037562,-0.000242,0.125178,13.004791,27.054218,-1.100525,,,,,,,1
1522315128.511893,-0.224635,-0.000483,-0.887774,-0.394581,0.767867,0.457361,-0.222751,0.000483,-0.974875,-0.084729,-0.004695,-0.136972,13.154022,27.203159,-1.476013,,,,,,,1
1522315128.541861,-0.215201,-0.013442,-0.883922,-0.356827,0.047587,-0.034162,-0.213524,0.013442,-0.976845,-0.166878,-0.004210,-0.077598,14.200531,27.123005,-1.925232,,,,,,,1
1522315128.571829,-0.216432,-0.013993,-0.888969,0.105975,-0.081765,-0.240393,-0.214725,0.013993,-0.976574,-0.075558,0.030746,0.065106,13.977921,27.274158,-1.775940,,,,,,,1
1522315128.601797,-0.220564,-0.000469,-0.894443,0.526666,-0.005686,-0.178348,-0.218780,0.000469,-0.975774,0.026702,0.026737,0.142965,13.829590,27.349979,-1.626343,,,,,,,1
1522315128.631766,-0.216304,0.014390,-0.894652,0.475942,0.282468,-0.032714,-0.214599,-0.014390,-0.976596,0.094909,0.110307,0.202365,14.348862,27.271824,-2.450745,,,,,,,1
1522315128.661734,-0.209052,0.021523,-0.891484,0.168014,0.082649,0.083401,-0.207485,-0.021522,-0.978001,-0.035664,0.038841,0.087926,14.723694,27.120350,-2.224915,,,,,,,1
1522315128.691702,-0.214173,0.027945,-0.883707,0.243566,-0.189005,0.306426,-0.212456,-0.027942,-0.976771,0.007546,0.060382,0.183894,14.950485,27.119633,-1.924805,,,,,,,1
1522315128.721671,-0.210218,0.025322,-0.874289,-0.165004,0.313846,0.265129,-0.208606,-0.025320,-0.977672,0.000812,0.055669,0.165401,15.775894,27.340626,-2.225281,,,,,,,1
1522315128.751639,-0.198251,0.020031,-0.868910,-0.193072,0.343454,0.144672,-0.196916,-0.020030,-0.980216,0.035081,0.063105,0.083594,14.800339,27.195164,-2.075195,,,,,,,1
1522315128.781607,-0.197566,0.016203,-0.874122,-0.055517,-0.078564,-0.185108,-0.196257,-0.016202,-0.980418,-0.051545,-0.021639,-0.114079,14.346619,26.822208,-2.073975,,,,,,,1
1522315128.811575,-0.200778,0.010607,-0.882539,-0.331200,-0.091904,-0.154402,-0.199421,-0.010606,-0.979856,-0.029110,-0.036558,-0.089968,14.651840,27.345829,-2.075928,,,,,,,1
1522315128.841544,-0.199070,0.001415,-0.886581,-0.433021,0.073647,0.063789,-0.197758,-0.001415,-0.980250,-0.010754,-0.045582,-0.145513,13.977036,27.049397,-1.550049,,,,,,,1
1522315128.871512,-0.198240,-0.010066,-0.887709,-0.286595,0.007631,0.182241,-0.196934,0.010066,-0.980365,-0.015911,-0.067942,-0.130734,13.678085,27.200657,-1.625793,,,,,,,1
1522315128.901480,-0.193435,-0.017294,-0.884380,-0.156207,0.295152,0.200159,-0.192202,0.017294,-0.981203,-0.017804,-0.082647,-0.093580,14.202179,27.198154,-1.775574,,,,,,,1
1522315128.931448,-0.183710,-0.023463,-0.883654,-0.148354,0.236509,0.075550,-0.182628,0.023461,-0.982902,-0.077962,-0.093209,-0.138909,13.606094,27.500980,-1.627014,,,,,,,1
1522315128.961417,-0.178293,-0.023919,-0.886214,0.029706,0.225529,-0.090519,-0.177299,0.023916,-0.983866,0.004951,-0.109335,-0.050344,13.982742,27.574436,-1.477112,,,,,,,1
1522315128.991385,-0.167877,-0.025342,-0.890935,-0.145982,0.382934,-0.047126,-0.167036,0.025339,-0.985625,0.019300,-0.030985,0.114730,14.658737,27.945942,-1.928284,,,,,,,1
1522315129.021353,-0.161628,-0.030381,-0.892043,-0.196325,0.024032,0.084263,-0.160851,0.030377,-0.986511,0.050301,0.048832,0.175125,14.283173,27.573154,-1.401978,,,,,,,1
1522315129.051321,-0.164137,-0.034129,-0.893304,0.012545,-0.124866,0.030221,-0.163306,0.034123,-0.985985,-0.027643,0.030483,0.091774,14.212387,27.948551,-1.328552,,,,,,,1
1522315129.081290,-0.168228,-0.028563,-0.893953,0.340297,-0.208082,-0.037650,-0.167368,0.028559,-0.985481,0.048044,0.034566,-0.018639,14.960083,27.944813,-1.703125,,,,,,,1
,,,,,,,,,,,,,,,,25.301188,51.439434,14.234659,5.910000,94.218750,1522315128.998602,1
1522315129.111258,-0.176857,-0.016403,-0.893234,0.335670,-0.283556,-0.033308,-0.175913,0.016402,-0.984269,0.088770,0.092485,-0.084411,13.982285,27.349735,-1.176208,,,,,,,1
1522315129.141226,-0.184061,-0.009815,-0.896504,0.071418,-0.206124,-0.069819,-0.183014,0.009815,-0.983061,0.017121,0.104733,-0.059206,14.056229,27.199482,-1.100586,,,,,,,1
1522315129.171194,-0.185683,-0.009102,-0.900125,0.040526,0.040489,-0.073277,-0.184610,0.009102,-0.982770,-0.022391,0.125969,-0.011874,14.502319,27.121952,-1.625061,,,,,,,1
1522315129.201163,-0.180246,-0.009271,-0.904097,0.082696,0.206928,-0.031861,-0.179264,0.009271,-0.983757,0.017322,0.100318,0.022591,13.750854,26.975330,-1.624878,,,,,,,1
1522315129.231131,-0.172261,-0.010282,-0.903903,-0.012422,0.252438,0.026632,-0.171401,0.010282,-0.985148,0.014983,0.054247,0.014170,13.599197,26.900867,-1.774658,,,,,,,1
1522315129.261099,-0.171402,-0.012044,-0.902921,0.027131,-0.009914,-0.003971,-0.170551,0.012044,-0.985275,0.030857,0.009257,0.028168,15.101685,27.194035,-1.850037,,,,,,,1
1522315129.291068,-0.168618,-0.011576,-0.901552,0.012374,0.098133,0.051308,-0.167809,0.011576,-0.985752,0.086281,-0.009425,0.011295,14.726990,27.270634,-1.925537,,,,,,,1
1522315129.321036,-0.169991,-0.013744,-0.902247,-0.044177,-0.229494,-0.032574,-0.169158,0.013743,-0.985493,-0.022493,-0.076838,-0.189754,13.974930,26.974171,-1.774780,,,,,,,1
1522315129.351009,-0.177658,-0.017601,-0.904773,-0.157944,-0.157798,-0.062571,-0.176698,0.017600,-0.984108,-0.044433,-0.135383,-0.090828,14.729553,27.570545,-2.001770,,,,,,,1
1522315129.380977,-0.174137,-0.031025,-0.906042,-0.648786,0.316328,0.084683,-0.173175,0.031020,-0.984402,-0.081174,-0.082655,0.081540,13.983780,27.724354,-1.552734,,,,,,,1
1522315129.410946,-0.162344,-0.051399,-0.905185,-0.605521,0.275380,0.148697,-0.161418,0.051377,-0.985548,-0.084721,-0.080490,0.066587,14.135574,27.948597,-1.628540,,,,,,,1
1522315129.440914,-0.160632,-0.063137,-0.903770,-0.235191,-0.053527,0.098155,-0.159624,0.063095,-0.985160,0.007066,-0.057464,-0.005670,14.289017,28.023350,-1.178772,,,,,,,1
1522315129.470882,-0.164614,-0.060233,-0.906101,0.262959,-0.095138,-0.054866,-0.163574,0.060196,-0.984693,0.082886,-0.037491,0.017652,14.365967,27.948460,-0.728394,,,,,,,1
1522315129.500850,-0.165042,-0.054718,-0.907675,0.062803,0.076150,-0.014691,-0.164048,0.054691,-0.984935,0.086091,0.049725,0.055080,14.208801,27.498722,-1.176697,,,,,,,1
1522315129.530819,-0.165861,-0.051957,-0.911091,0.137065,-0.092597,-0.069878,-0.164879,0.051934,-0.984945,-0.045555,0.002891,0.053854,14.280624,27.273243,-1.325806,,,,,,,1
1522315129.560787,-0.168085,-0.046740,-0.911147,0.163433,-0.065633,0.015357,-0.167112,0.046723,-0.984830,0.024412,0.072799,0.044797,14.356812,27.347980,-1.251038,,,,,,,1
1522315129.590755,-0.172659,-0.039415,-0.912858,0.254524,-0.284402,-0.034439,-0.171669,0.039405,-0.984366,0.035332,0.051141,-0.084054,13.605194,27.276218,-1.401184,,,,,,,1
1522315129.620723,-0.182191,-0.037454,-0.914350,-0.002366,-0.209277,-0.049620,-0.181058,0.037445,-0.982759,0.041699,0.098556,-0.081953,14.580460,27.346745,-1.475891,,,,,,,1
1522315129.650692,-0.184144,-0.035708,-0.917997,0.101232,0.020095,-0.063632,-0.182989,0.035700,-0.982467,0.000005,0.037557,0.037810,13.604446,27.201221,-1.400879,,,,,,,1
1522315129.680660,-0.175450,-0.032591,-0.920287,0.181733,0.348206,-0.062816,-0.174459,0.032586,-0.984125,0.026708,0.047310,0.073664,13.531097,27.276691,-1.251160,,,,,,,1
1522315129.710628,-0.172646,-0.026710,-0.921569,0.222756,-0.149849,0.032537,-0.171728,0.026707,-0.984782,0.074072,-0.002690,0.046962,13.979141,27.124607,-1.325378,,,,,,,1
1522315129.740596,-0.181363,-0.025958,-0.920107,-0.026745,-0.304426,0.039969,-0.180309,0.025955,-0.983267,-0.025425,-0.017379,-0.021066,13.532745,27.351841,-1.101440,,,,,,,1
1522315129.770565,-0.187621,-0.025199,-0.918440,0.082711,-0.152913,0.064402,-0.186463,0.025196,-0.982139,-0.065322,-0.113209,-0.139306,14.505478,27.347095,-1.475952,,,,,,,1
1522315129.800533,-0.186498,-0.023349,-0.917246,-0.014990,0.127222,0.002254,-0.185368,0.023346,-0.982392,-0.000866,-0.082001,0.013276,13.828552,27.200062,-1.550720,,,,,,,1
1522315129.830501,-0.179760,-0.032382,-0.919357,-0.518416,0.246396,0.006021,-0.178700,0.032377,-0.983371,-0.023266,-0.033765,0.084903,13.833649,27.350636,-0.951355,,,,,,,1
1522315129.860469,-0.179462,-0.046247,-0.920824,-0.448878,-0.100745,0.087394,-0.178309,0.046231,-0.982888,-0.014424,-0.032742,0.015831,14.506378,27.571857,-1.701904,,,,,,,1
1522315129.890438,-0.181209,-0.056998,-0.920354,-0.297619,0.054039,0.084156,-0.179926,0.056967,-0.982029,0.003794,-0.019889,0.019367,14.284378,27.198978,-0.575500,,,,,,,1
1522315129.920406,-0.181357,-0.059300,-0.919205,0.163288,-0.086969,0.026041,-0.180047,0.059265,-0.981871,0.036737,-0.024078,-0.098085,13.460480,27.577244,-1.027405,,,,,,,1
1522315129.950374,-0.183817,-0.051910,-0.917654,0.114636,-0.034468,-0.017739,-0.182538,0.051886,-0.981829,0.055523,0.030191,-0.041243,13.981079,27.274677,-1.250916,,,,,,,1
1522315129.980343,-0.183028,-0.052103,-0.920561,-0.142700,0.110183,-0.094807,-0.181761,0.052079,-0.981963,0.007307,0.075912,0.104033,14.359970,27.573109,-1.101929,,,,,,,1
1522315130.010311,-0.175928,-0.056185,-0.923996,0.010297,0.245382,-0.036208,-0.174745,0.056155,-0.983011,-0.045439,0.047239,0.102609,13.612396,27.726627,-0.952942,,,,,,,1
1522315130.040279,-0.174104,-0.051020,-0.922709,0.380168,-0.088385,-0.001495,-0.173001,0.050998,-0.983600,-0.116047,-0.009051,0.018085,14.283630,27.573231,-1.326965,,,,,,,1
,,,,,,,,,,,,,,,,25.301199,51.439529,14.289621,6.790000,90.703125,1522315129.998592,1
1522315130.070247,-0.178379,-0.037305,-0.917021,0.385339,-0.167131,0.165868,-0.177311,0.037296,-0.983448,0.087650,0.055996,0.071384,13.756256,27.200825,-1.100708,,,,,,,1
1522315130.100216,-0.186093,-0.032011,-0.914008,0.084792,-0.318150,0.138099,-0.184925,0.032005,-0.982231,-0.045253,-0.026314,-0.119301,13.980637,27.274601,-1.325928,,,,,,,1
1522315130.130184,-0.192675,-0.032448,-0.912474,-0.049007,-0.021769,0.048187,-0.191384,0.032442,-0.980979,0.032067,-0.037019,-0.072091,14.282715,27.348469,-1.101074,,,,,,,1
1522315130.160152,-0.186512,-0.041608,-0.916349,-0.391158,0.306948,-0.186813,-0.185272,0.041596,-0.981807,-0.034211,-0.062898,-0.018850,13.682297,27.126469,-0.800476,,,,,,,1
1522315130.190120,-0.176082,-0.056172,-0.923753,-0.607637,0.440900,-0.119976,-0.174897,0.056143,-0.982985,0.025819,-0.056646,0.262892,14.211197,27.648853,-1.027344,,,,,,,1
1522315130.220089,-0.167027,-0.071565,-0.924977,-0.381471,0.027064,0.171499,-0.165826,0.071504,-0.983559,0.019753,0.009231,0.137154,14.587799,27.946934,-1.253296,,,,,,,1
1522315130.250057,-0.181898,-0.069906,-0.919388,0.483934,-0.780594,0.179345,-0.180454,0.069849,-0.981100,0.059086,-0.040049,-0.339594,13.161514,27.728504,-1.103149,,,,,,,1
1522315130.280025,-0.197471,-0.058726,-0.914624,0.185033,-0.090748,-0.050649,-0.195852,0.058692,-0.978875,-0.014566,-0.019355,-0.317847,13.609253,27.276875,-0.726135,,,,,,,1
1522315130.309993,-0.188508,-0.063344,-0.919309,-0.493308,0.396389,-0.176325,-0.187017,0.063301,-0.980315,0.003027,0.072227,0.051055,14.734802,27.646275,-1.252075,,,,,,,1
1522315130.339938,-0.179962,-0.077089,-0.927483,-0.463648,0.172770,-0.119605,-0.178461,0.077013,-0.980928,-0.030249,0.052168,0.234148,13.688751,27.726505,-0.727844,,,,,,,1
1522315130.369906,-0.177160,-0.083999,-0.930308,-0.047274,0.119560,0.044862,-0.175613,0.083900,-0.980877,-0.026688,0.037788,0.259640,13.836807,27.800388,-1.178101,,,,,,,1
1522315130.399874,-0.178128,-0.082112,-0.925489,0.321099,-0.198905,0.173314,-0.176590,0.082020,-0.980861,-0.022308,-0.004917,0.066539,14.361313,27.797962,-1.252869,,,,,,,1
1522315130.429842,-0.186312,-0.061676,-0.914795,0.804304,-0.240856,0.224867,-0.184883,0.061637,-0.980826,0.070748,-0.001166,-0.043787,13.681396,27.126316,-0.950500,,,,,,,1
1522315130.459811,-0.186659,-0.043321,-0.907539,0.427201,0.008758,0.070892,-0.185402,0.043307,-0.981708,0.016716,-0.023669,-0.136670,13.233368,27.278416,-0.876343,,,,,,,1
1522315130.489779,-0.188364,-0.039179,-0.908351,-0.047347,-0.046355,-0.084968,-0.187109,0.039169,-0.981558,-0.032160,-0.076767,-0.056955,13.829910,27.200275,-1.325745,,,,,,,1
1522315130.519747,-0.184611,-0.050557,-0.913165,-0.572210,0.241047,-0.122933,-0.183330,0.050535,-0.981752,-0.072697,-0.098310,0.105531,13.529160,27.126637,-1.325562,,,,,,,1
1522315130.549716,-0.179561,-0.064531,-0.916255,-0.365735,0.073492,0.060650,-0.178226,0.064487,-0.981874,-0.020932,-0.080859,0.156801,13.311066,27.727757,-1.178101,,,,,,,1
1522315130.579684,-0.180614,-0.064238,-0.911497,0.294453,-0.145955,0.209464,-0.179263,0.064194,-0.981705,0.055300,-0.033722,-0.081467,14.210739,27.648792,-1.102295,,,,,,,1
1522315130.609653,-0.185755,-0.050096,-0.904981,0.556309,-0.226525,0.088277,-0.184457,0.050075,-0.981564,0.029703,-0.049663,-0.328022,13.763626,27.576405,-0.502258,,,,,,,1
1522315130.639621,-0.187138,-0.045496,-0.904937,-0.183166,0.174814,-0.056529,-0.185855,0.045480,-0.981524,-0.042752,-0.005533,-0.188154,14.207733,27.348804,-1.101074,,,,,,,1
1522315130.669590,-0.179642,-0.059188,-0.911367,-0.696469,0.189092,-0.092088,-0.178365,0.059153,-0.982185,-0.056209,0.069371,-0.022073,14.434509,27.797337,-1.552795,,,,,,,1
1522315130.699558,-0.175572,-0.080833,-0.919943,-0.783121,0.233418,-0.019733,-0.174101,0.080745,-0.981412,-0.039751,-0.005031,0.117184,13.768555,28.026447,-0.429016,,,,,,,1
1522315130.729525,-0.166451,-0.105790,-0.923413,-0.743872,0.317479,0.101681,-0.164757,0.105593,-0.980666,0.023003,-0.002688,0.237410,13.691879,28.176273,-0.954712,,,,,,,1
1522315130.759493,-0.163525,-0.116873,-0.921746,0.016022,-0.097448,0.208150,-0.161687,0.116607,-0.979929,0.000203,-0.042999,0.137201,13.541306,27.802479,-0.428284,,,,,,,1
1522315130.789462,-0.160620,-0.105837,-0.916722,0.510222,0.220867,0.099514,-0.159036,0.105639,-0.981605,0.003381,-0.090014,0.085609,13.843246,28.175816,-0.729614,,,,,,,1
1522315130.819430,-0.154042,-0.085881,-0.912780,0.785797,0.099947,-0.028029,-0.152868,0.085776,-0.984517,0.091253,-0.042044,-0.042430,15.109039,27.569599,-1.251526,,,,,,,1
1522315130.849398,-0.154899,-0.066869,-0.911414,0.360173,-0.059426,-0.032440,-0.153936,0.066819,-0.985819,0.065923,-0.023423,-0.067511,14.736160,27.646503,-1.027100,,,,,,,1
1522315130.879366,-0.158076,-0.073384,-0.914662,-0.376430,-0.140927,-0.120278,-0.156995,0.073318,-0.984874,-0.114993,-0.089339,-0.091893,13.987534,27.650089,-0.802429,,,,,,,1
1522315130.909335,-0.161879,-0.076171,-0.915948,0.061103,-0.046178,0.002488,-0.160706,0.076098,-0.984064,-0.083587,-0.066546,-0.076193,13.610001,27.576496,-1.102295,,,,,,,1
1522315130.939303,-0.157523,-0.068237,-0.912063,0.267007,0.090409,0.150612,-0.156508,0.068184,-0.985320,-0.001406,-0.010003,-0.016679,14.887360,27.945515,-1.328186,,,,,,,1
1522315130.969271,-0.157095,-0.060698,-0.907434,0.203663,-0.012358,0.129359,-0.156162,0.060661,-0.985867,0.024387,0.008263,-0.040760,14.588257,27.722385,-0.802429,,,,,,,1
1522315130.999239,-0.156610,-0.061757,-0.905305,-0.067470,0.129232,0.036314,-0.155673,0.061718,-0.985879,-0.015500,-0.037579,0.022423,14.737808,27.721638,-0.877319,,,,,,,1
1522315131.029208,-0.149409,-0.066706,-0.903993,-0.228245,0.258020,0.062705,-0.148523,0.066657,-0.986660,0.011667,-0.027747,0.116634,14.892761,27.946384,-0.428162,,,,,,,1
1522315131.059176,-0.147011,-0.069060,-0.901641,-0.082740,-0.136635,0.072796,-0.146133,0.069005,-0.986855,0.057068,0.008998,-0.002479,14.137695,27.799183,-1.027954,,,,,,,1
,,,,,,,,,,,,,,,,25.301227,51.439594,14.527585,6.790000,83.671875,1522315130.998582,1
1522315131.089144,-0.148588,-0.072719,-0.903019,-0.212641,0.100085,0.003195,-0.147651,0.072655,-0.986367,0.103720,-0.087715,0.044778,15.561874,27.717777,-1.026917,,,,,,,1
1522315131.119112,-0.147493,-0.082086,-0.905778,-0.162802,-0.100135,-0.103113,-0.146464,0.081993,-0.985812,-0.081045,-0.067421,-0.035321,14.292908,28.098866,-0.654114,,,,,,,1
1522315131.149081,-0.151634,-0.079374,-0.905867,0.080579,-0.050101,-0.050772,-0.150578,0.079291,-0.985413,-0.012401,0.030939,0.054017,14.511627,27.647587,-0.952148,,,,,,,1
1522315131.179049,-0.146810,-0.070789,-0.907029,0.313407,0.034984,0.007916,-0.145917,0.070730,-0.986765,0.060743,0.007624,0.082895,15.186890,27.719471,-1.027161,,,,,,,1
1522315131.209018,-0.156646,-0.060110,-0.905132,0.431421,-0.317038,0.006240,-0.155725,0.060074,-0.985972,-0.056723,0.081055,0.010020,15.114578,28.169498,-1.328979,,,,,,,1
1522315131.238986,-0.164486,-0.051791,-0.901331,0.245679,-0.224627,0.078458,-0.163526,0.051768,-0.985180,-0.046985,0.045294,-0.078510,14.059982,27.574467,-1.102051,,,,,,,1
1522315131.268955,-0.166672,-0.045520,-0.897401,0.216126,-0.100533,0.120937,-0.165730,0.045504,-0.985121,-0.041286,-0.012927,-0.142565,13.982727,27.349812,-1.101196,,,,,,,1
1522315131.298923,-0.167907,-0.044832,-0.896286,-0.100157,0.029150,0.075816,-0.166951,0.044816,-0.984946,-0.029536,-0.044984,-0.052392,14.209381,27.423939,-0.951416,,,,,,,1
1522315131.328906,-0.163698,-0.052026,-0.897575,-0.315031,0.139543,0.018003,-0.162747,0.052003,-0.985296,-0.018909,-0.039674,0.066977,14.361465,27.723103,-1.102539,,,,,,,1
1522315131.358875,-0.165417,-0.055234,-0.900833,0.102318,-0.121855,0.019650,-0.164413,0.055206,-0.984845,0.083724,-0.073944,0.033506,14.961899,27.720478,-1.027283,,,,,,,1
1522315131.388843,-0.164577,-0.049887,-0.900343,0.261812,0.154326,-0.024191,-0.163631,0.049866,-0.985260,-0.018101,-0.101944,-0.015930,14.206833,27.348652,-1.251099,,,,,,,1
1522315131.418811,-0.166293,-0.041577,-0.897872,0.220577,-0.284447,0.131778,-0.165385,0.041565,-0.985353,0.046489,-0.008347,-0.084029,14.584061,27.347340,-0.875916,,,,,,,1
1522315131.448779,-0.170424,-0.036807,-0.895970,0.037139,-0.064734,0.079216,-0.169485,0.036798,-0.984845,-0.050150,-0.090952,-0.104037,14.429123,27.122578,-1.325134,,,,,,,1
1522315131.478748,-0.167239,-0.039158,-0.898049,-0.091304,0.218991,-0.025599,-0.166332,0.039148,-0.985292,-0.062717,-0.006967,-0.027998,13.832596,27.425343,-1.251587,,,,,,,1
1522315131.508716,-0.163081,-0.042076,-0.899208,-0.103784,0.073308,-0.008402,-0.162215,0.042063,-0.985858,-0.000138,0.015417,0.009967,13.983475,27.424809,-1.101501,,,,,,,1
1522315131.538684,-0.161557,-0.047688,-0.898947,-0.306964,0.063881,0.044730,-0.160672,0.047670,-0.985856,0.000653,0.101790,0.080232,13.985428,27.799503,-1.403076,,,,,,,1
1522315131.568652,-0.166498,-0.052357,-0.897972,-0.006865,-0.300809,0.122031,-0.165502,0.052333,-0.984820,0.054510,0.000401,-0.040968,14.511185,27.647511,-1.027161,,,,,,,1
1522315131.598621,-0.170355,-0.053583,-0.894013,-0.119547,0.043737,0.122677,-0.169289,0.053557,-0.984110,0.026986,-0.009230,-0.071386,14.434219,27.497776,-1.101562,,,,,,,1
1522315131.628589,-0.168927,-0.066476,-0.894279,-0.570426,0.043766,-0.022581,-0.167754,0.066427,-0.983588,0.012724,-0.059744,-0.033074,14.820587,28.321568,-0.579712,,,,,,,1
1522315131.658557,-0.162544,-0.090960,-0.901719,-1.023687,0.230729,-0.159481,-0.161160,0.090834,-0.982739,-0.051914,-0.114226,0.057690,14.214630,27.948917,-0.953552,,,,,,,1
1522315131.688525,-0.159203,-0.117163,-0.910280,-0.821722,0.017448,0.030538,-0.157445,0.116895,-0.980585,-0.029567,-0.108335,0.086740,14.598587,28.622562,-0.581055,,,,,,,1
1522315131.718494,-0.160868,-0.132778,-0.911857,-0.370820,-0.088153,0.078933,-0.158765,0.132388,-0.978400,-0.129611,-0.124621,-0.044030,14.897232,28.845615,-1.181763,,,,,,,1
1522315131.748462,-0.162654,-0.135510,-0.911228,-0.050510,-0.024504,0.132383,-0.160453,0.135096,-0.977754,-0.011086,-0.101160,-0.006819,14.975525,28.770939,-0.506409,,,,,,,1
1522315131.778430,-0.160753,-0.135159,-0.908668,0.028611,0.123672,0.035337,-0.158601,0.134748,-0.978104,-0.096236,-0.055601,-0.027740,14.821625,28.696110,-1.031250,,,,,,,1
1522315131.808399,-0.159417,-0.134616,-0.908250,-0.092334,0.065519,0.039553,-0.157307,0.134210,-0.978388,0.004795,0.020087,0.058878,15.201553,28.919849,-0.581909,,,,,,,1
1522315131.838367,-0.158185,-0.137432,-0.908101,-0.118382,-0.044849,0.026866,-0.156041,0.136999,-0.978204,0.015752,0.023371,-0.077369,14.601288,28.847630,-0.506897,,,,,,,1
1522315131.868335,-0.161742,-0.140749,-0.908782,-0.204485,0.019225,0.010762,-0.159445,0.140285,-0.977188,0.026632,0.054783,0.024628,14.449203,28.548466,-0.355774,,,,,,,1
1522315131.898303,-0.156713,-0.147841,-0.909433,-0.207239,0.143441,0.029801,-0.154370,0.147303,-0.976971,0.008053,0.032369,0.060711,15.873978,28.841526,-0.881287,,,,,,,1
1522315131.928272,-0.156352,-0.147996,-0.907369,0.174662,-0.057946,0.124059,-0.154013,0.147457,-0.977004,0.057852,0.030095,0.025496,15.203949,29.069981,-0.432495,,,,,,,1
1522315131.958240,-0.159682,-0.136692,-0.903698,0.633985,-0.145398,0.006217,-0.157521,0.136266,-0.978069,0.011433,-0.020376,-0.171742,15.348267,28.544270,-0.505310,,,,,,,1
1522315131.988208,-0.159613,-0.122521,-0.901682,0.307928,0.131285,-0.085948,-0.157745,0.122215,-0.979888,-0.031190,-0.015602,-0.113069,15.573990,28.842869,-0.881409,,,,,,,1
1522315132.018176,-0.158196,-0.114390,-0.902098,0.247953,-0.031872,0.015410,-0.156508,0.114140,-0.981059,0.067732,-0.005284,0.053218,14.821625,28.471485,-0.655334,,,,,,,1
1522315132.048145,-0.156114,-0.108139,-0.898775,0.255190,0.007913,0.096361,-0.154572,0.107928,-0.982069,-0.012374,0.018979,-0.054476,14.744385,28.246830,-0.654480,,,,,,,1
,,,,,,,,,,,,,,,,25.301233,51.439685,14.185343,7.500000,82.968750,1522315131.998572,1
1522315132.078113,-0.159761,-0.100150,-0.895286,0.310281,-0.145912,0.043268,-0.158285,0.099983,-0.982318,0.014364,0.005928,-0.096158,14.974777,28.695942,-0.506104,,,,,,,1
1522315132.108081,-0.162891,-0.091863,-0.894750,0.290760,-0.082528,-0.048445,-0.161488,0.091734,-0.982602,-0.020061,-0.054228,-0.086047,14.743637,28.396458,-1.030090,,,,,,,1
1522315132.138049,-0.162269,-0.086470,-0.895922,0.096089,0.112206,-0.017891,-0.160954,0.086362,-0.983176,-0.020336,0.002200,0.090217,15.566498,28.317539,-1.254333,,,,,,,1
1522315132.168018,-0.161471,-0.082972,-0.895699,0.154440,-0.132806,0.047403,-0.160217,0.082876,-0.983596,0.001587,0.011881,0.089202,15.572189,28.617954,-0.805481,,,,,,,1
1522315132.197986,-0.166583,-0.077400,-0.894470,0.242952,-0.121547,0.077293,-0.165317,0.077323,-0.983205,0.032093,0.014489,0.016148,14.891556,28.095951,-0.878784,,,,,,,1
1522315132.227954,-0.169214,-0.073786,-0.893869,0.088054,-0.033258,-0.033721,-0.167949,0.073719,-0.983035,-0.028645,-0.043705,0.021716,15.039429,28.020054,-1.103394,,,,,,,1
1522315132.257922,-0.167704,-0.073438,-0.893815,-0.154586,0.020837,0.066205,-0.166469,0.073372,-0.983313,0.069530,0.001716,0.083166,15.566650,28.242680,-1.104004,,,,,,,1
1522315132.287891,-0.169823,-0.082926,-0.895293,-0.379846,-0.146846,0.119466,-0.168427,0.082831,-0.982228,-0.068298,-0.051565,-0.029735,14.744537,28.396610,-0.880066,,,,,,,1
1522315132.317859,-0.174935,-0.092839,-0.894875,-0.229942,-0.100193,0.079050,-0.173295,0.092705,-0.980497,-0.145309,-0.119576,-0.112963,14.443054,28.247959,-0.879578,,,,,,,1
1522315132.347831,-0.172009,-0.100499,-0.893618,-0.268497,0.168381,0.129900,-0.170299,0.100330,-0.980271,-0.093404,-0.148548,-0.026336,14.671936,28.547077,-0.730652,,,,,,,1
1522315132.377800,-0.167187,-0.106847,-0.892134,-0.100509,0.135725,0.030957,-0.165461,0.106644,-0.980433,-0.033041,-0.151185,0.028056,14.445450,28.398106,-0.730164,,,,,,,1
1522315132.407768,-0.163221,-0.104606,-0.889596,-0.022926,0.176233,0.135402,-0.161609,0.104415,-0.981315,0.117038,-0.016158,0.108635,16.095230,28.465534,-0.879639,,,,,,,1
1522315132.437737,-0.164685,-0.104891,-0.886744,0.057799,-0.233654,0.066617,-0.163041,0.104698,-0.981048,0.019791,-0.006996,-0.129761,15.343018,28.243916,-0.879150,,,,,,,1
1522315132.467705,-0.171791,-0.097718,-0.885003,0.320426,-0.087142,-0.007924,-0.170132,0.097562,-0.980580,0.058819,0.017764,-0.169323,14.967300,27.945988,-0.503113,,,,,,,1
1522315132.497674,-0.171306,-0.086907,-0.885446,0.377044,0.007146,-0.137977,-0.169826,0.086797,-0.981644,0.011577,0.048136,-0.136810,15.571152,28.468037,-0.729919,,,,,,,1
1522315132.527642,-0.168393,-0.080256,-0.890517,0.044803,0.187611,-0.147986,-0.167059,0.080170,-0.982682,-0.014231,0.106155,-0.034454,14.966537,28.095615,-0.878723,,,,,,,1
1522315132.557610,-0.169425,-0.077202,-0.893888,0.141178,-0.319257,-0.028075,-0.168113,0.077125,-0.982746,-0.019814,0.079934,-0.142437,14.815048,27.946293,-0.878235,,,,,,,1
1522315132.587578,-0.174882,-0.077125,-0.893074,-0.214573,0.051373,0.128988,-0.173475,0.077048,-0.981820,0.087949,0.036248,0.017571,14.741104,27.871922,-0.577942,,,,,,,1
1522315132.617547,-0.170106,-0.098059,-0.893641,-0.935149,0.134610,0.181649,-0.168474,0.097902,-0.980832,0.087114,0.015837,0.186093,14.896805,28.396305,-0.504944,,,,,,,1
1522315132.647515,-0.171752,-0.130613,-0.893146,-1.095455,-0.157065,0.162636,-0.169453,0.130242,-0.976894,0.069615,-0.008737,0.161327,15.348419,28.469410,-0.354980,,,,,,,1
1522315132.677483,-0.177511,-0.154655,-0.895582,-0.503126,-0.212347,-0.044640,-0.174473,0.154039,-0.972539,-0.020016,-0.129060,-0.039150,14.830322,29.071888,-0.207703,,,,,,,1
1522315132.707451,-0.181043,-0.150286,-0.899743,0.453419,0.042560,-0.215733,-0.178026,0.149721,-0.972569,0.044604,-0.180482,-0.012691,14.985397,29.446415,0.015930,,,,,,,1
1522315132.737420,-0.183138,-0.123967,-0.904878,1.035439,-0.085471,-0.350483,-0.180718,0.123650,-0.975731,0.029458,-0.138177,-0.162788,14.456238,29.073719,-0.057861,,,,,,,1
1522315132.767388,-0.185091,-0.099772,-0.909129,0.506430,-0.013024,-0.190054,-0.183121,0.099607,-0.978031,-0.158249,-0.074888,-0.227383,14.902786,28.996265,-0.507385,,,,,,,1
1522315132.797356,-0.189590,-0.094183,-0.907745,0.082484,-0.173327,0.093208,-0.187621,0.094044,-0.977729,-0.262925,0.015956,-0.050805,14.455780,29.073658,-0.132874,,,,,,,1
1522315132.827324,-0.183382,-0.094542,-0.901949,0.028393,0.373704,0.292943,-0.181541,0.094402,-0.978842,-0.069588,0.052159,0.053015,14.604431,28.848133,0.018127,,,,,,,1
1522315132.857293,-0.169510,-0.089704,-0.891743,0.339902,0.572599,0.307888,-0.168021,0.089584,-0.981704,0.064017,0.095963,0.185577,15.797043,28.467167,-0.579834,,,,,,,1
1522315132.887290,-0.142723,-0.078069,-0.881131,0.485442,0.884634,0.308750,-0.141806,0.077990,-0.986817,0.105765,0.180754,0.211213,15.346924,28.319416,-0.354431,,,,,,,1
1522315132.917259,-0.139606,-0.055970,-0.871159,1.060227,-0.617241,0.165767,-0.138936,0.055940,-0.988720,0.102772,0.096495,-0.025120,15.340927,27.944080,-0.727905,,,,,,,1
1522315132.947227,-0.164820,-0.026061,-0.862349,0.843757,-0.650191,0.088939,-0.164019,0.026058,-0.986113,0.229205,0.055958,0.048125,16.237732,27.939518,-1.252441,,,,,,,1
1522315132.977196,-0.171569,-0.014773,-0.862321,0.092758,-0.306598,-0.149592,-0.170709,0.014772,-0.985211,0.046488,0.034972,-0.198932,15.185837,27.569553,-0.951538,,,,,,,1
1522315133.007164,-0.187387,-0.022151,-0.869055,-0.644879,-0.375374,-0.233183,-0.186247,0.022149,-0.982253,-0.042909,0.052146,-0.154832,15.039581,27.945210,-0.953125,,,,,,,1
1522315133.037133,-0.192723,-0.040893,-0.883712,-0.658890,-0.069535,-0.352838,-0.191372,0.040882,-0.980666,-0.061939,-0.006931,-0.098466,15.040787,28.020267,-0.878418,,,,,,,1
1522315133.067101,-0.186241,-0.061362,-0.895355,-0.798090,0.364756,-0.106180,-0.184818,0.061323,-0.980858,0.018070,-0.032591,0.092674,14.892151,28.021168,-0.653503,,,,,,,1
,,,,,,,,,,,,,,,,25.301205,51.439770,13.750049,7.560000,91.406250,1522315132.998562,1
1522315133.097069,-0.190067,-0.085641,-0.897983,-0.685538,-0.422610,0.152559,-0.188232,0.085536,-0.978393,-0.063187,-0.007335,0.009902,14.526917,28.548557,0.094238,,,,,,,1
1522315133.127038,-0.198909,-0.104025,-0.893338,-0.568309,-0.180920,0.196080,-0.196532,0.103837,-0.974984,-0.090517,-0.009507,-0.128639,14.378540,28.849003,-0.132019,,,,,,,1
1522315133.157006,-0.199568,-0.104590,-0.893900,0.365243,0.157063,0.003586,-0.197162,0.104399,-0.974796,0.139591,-0.095870,0.107838,14.229919,28.849903,0.092834,,,,,,,1
1522315133.186974,-0.184869,-0.095149,-0.895947,0.235749,0.615421,-0.155734,-0.182987,0.095005,-0.978514,0.096103,-0.044331,0.033583,14.673889,28.472523,-0.280396,,,,,,,1
1522315133.216942,-0.190282,-0.084244,-0.898642,0.483273,-0.601949,-0.147920,-0.188465,0.084145,-0.978468,0.000874,-0.051766,-0.100175,15.350952,28.769321,-0.431213,,,,,,,1
1522315133.246911,-0.195993,-0.073936,-0.899491,0.144402,0.080746,-0.095602,-0.194209,0.073869,-0.978175,-0.065328,-0.021272,-0.145330,14.447998,28.473392,-0.430481,,,,,,,1
1522315133.276879,-0.191124,-0.072012,-0.902186,-0.027073,0.227466,-0.047920,-0.189470,0.071949,-0.979247,0.017092,0.049037,0.031066,14.748444,28.472111,-0.355347,,,,,,,1
1522315133.306847,-0.182323,-0.074508,-0.903689,-0.130576,0.292241,-0.004378,-0.180811,0.074439,-0.980697,0.022288,0.073022,0.037673,14.972534,28.470951,-0.505249,,,,,,,1
1522315133.336806,-0.181233,-0.078092,-0.903331,-0.098839,-0.146256,0.083466,-0.179693,0.078013,-0.980624,0.071722,0.099676,-0.013837,14.676437,28.772434,-0.356567,,,,,,,1
1522315133.366775,-0.190540,-0.084297,-0.901798,-0.238108,-0.285952,0.052599,-0.188717,0.084198,-0.978415,0.016735,0.063904,-0.066781,14.451141,28.698521,-0.281433,,,,,,,1
1522315133.396743,-0.191321,-0.091981,-0.903745,-0.222944,0.099495,-0.064983,-0.189352,0.091852,-0.977604,-0.029947,0.040412,0.024448,14.151627,28.699955,-0.206543,,,,,,,1
1522315133.426711,-0.184290,-0.092875,-0.909111,0.019260,0.189883,-0.160789,-0.182459,0.092742,-0.978830,0.046046,-0.032164,0.091394,14.677338,28.772587,-0.206604,,,,,,,1
1522315133.456679,-0.187744,-0.091522,-0.914168,0.030234,-0.333653,-0.057974,-0.185862,0.091394,-0.978316,0.066614,-0.033121,-0.103837,14.974625,28.546177,-0.280579,,,,,,,1
1522315133.486648,-0.198037,-0.094402,-0.916908,-0.195502,-0.191829,-0.050816,-0.195869,0.094262,-0.976089,-0.056237,-0.013620,-0.156968,14.150131,28.549961,-0.205994,,,,,,,1
1522315133.516616,-0.195653,-0.105243,-0.923203,-0.485277,0.186129,-0.051418,-0.193332,0.105049,-0.975493,0.057803,-0.032249,0.023055,14.377045,28.699009,-0.131409,,,,,,,1
1522315133.546584,-0.195182,-0.119710,-0.925619,-0.474476,-0.110190,0.076743,-0.192557,0.119425,-0.973992,-0.008233,0.029150,0.025841,14.005508,29.000751,-0.057800,,,,,,,1
1522315133.576552,-0.197823,-0.131228,-0.925827,-0.305816,-0.093765,0.098168,-0.194845,0.130852,-0.972066,0.036444,0.022560,-0.085413,14.461182,29.299152,0.391235,,,,,,,1
1522315133.606521,-0.198768,-0.133722,-0.926222,0.152548,0.035831,-0.058255,-0.195699,0.133323,-0.971559,-0.009074,-0.063255,-0.163985,14.459396,29.074238,0.467102,,,,,,,1
1522315133.636489,-0.192696,-0.124922,-0.925185,0.188951,0.351003,-0.010598,-0.190013,0.124598,-0.973843,0.022975,-0.023920,0.077023,14.310745,29.299747,0.316162,,,,,,,1
