timestamp(unix),attitude_roll(radians),attitude_pitch(radians),attitude_yaw(radians),rotation_rate_x(radians/s),rotation_rate_y(radians/s),rotation_rate_z(radians/s),gravity_x(G),gravity_y(G),gravity_z(G),user_acc_x(G),user_acc_y(G),user_acc_z(G),magnetic_field_x(microteslas),magnetic_field_y(microteslas),magnetic_field_z(microteslas),latitude(degree),longitude(degree),altitude(meter),speed(m/s),course(degree),timestamp(unix),User Mark
,,,,,,,,,,,,,,,,25.315296,51.435403,12.115932,-1.000000,-1.000000,1522136593.111284,
1522136704.744145,-0.187843,0.010988,-0.684235,-0.110134,-0.038287,-0.289383,-0.186729,-0.010988,-0.982350,0.033760,-0.036940,0.001133,26.025482,-4.591829,-2.029297,,,,,,,
1522136704.774114,-0.189550,0.010029,-0.693185,-0.064407,-0.077709,-0.289315,-0.188408,-0.010029,-0.982039,0.033287,-0.025829,-0.011201,25.132553,-3.837893,-2.107727,,,,,,,
1522136704.804082,-0.192793,0.010995,-0.701544,-0.005001,-0.150204,-0.277473,-0.191589,-0.010995,-0.981413,0.025573,0.012277,-0.004427,25.432388,-3.764391,-2.257935,,,,,,,
1522136704.834050,-0.196776,0.012590,-0.709761,-0.013360,-0.111913,-0.279649,-0.195493,-0.012590,-0.980624,0.027753,0.025041,0.015124,25.134186,-3.538118,-2.333984,,,,,,,
1522136704.864018,-0.198167,0.013187,-0.718536,-0.055645,-0.036244,-0.295744,-0.196856,-0.013187,-0.980343,0.029436,0.042880,-0.006809,24.687805,-3.310884,-2.110107,,,,,,,
1522136704.893987,-0.197950,0.012581,-0.727845,-0.094842,0.028666,-0.296894,-0.196644,-0.012580,-0.980394,0.028142,0.047340,-0.009764,24.842896,-2.936357,-1.886536,,,,,,,
1522136704.923955,-0.197033,0.011811,-0.736369,-0.052523,-0.007832,-0.256349,-0.195747,-0.011811,-0.980583,0.046272,0.056214,-0.036232,25.070877,-2.637392,-1.887634,,,,,,,
1522136704.953923,-0.197256,0.012604,-0.743237,0.016627,-0.011526,-0.210468,-0.195963,-0.012604,-0.980530,0.055460,0.066116,-0.016266,24.618805,-2.710573,-2.112488,,,,,,,
1522136704.983891,-0.198376,0.014882,-0.748471,0.061108,-0.062793,-0.186951,-0.197056,-0.014882,-0.980279,0.047855,0.052602,-0.010062,23.948776,-2.482119,-1.663757,,,,,,,
1522136705.013860,-0.199429,0.018101,-0.754225,0.078526,-0.040225,-0.230641,-0.198077,-0.018100,-0.980019,0.053988,0.030491,-0.011421,24.474030,-2.184923,-2.114685,,,,,,,
1522136705.043828,-0.200356,0.020176,-0.762044,-0.028974,-0.045862,-0.298904,-0.198978,-0.020174,-0.979796,0.041461,0.033770,-0.019655,23.427078,-2.104845,-1.740540,,,,,,,
1522136705.073796,-0.200996,0.018677,-0.772273,-0.162224,-0.034682,-0.329918,-0.199610,-0.018676,-0.979697,0.033839,0.050140,-0.041513,23.200897,-2.178911,-1.815369,,,,,,,
1522136705.103765,-0.200261,0.015415,-0.782370,-0.155703,0.038344,-0.289500,-0.198901,-0.015414,-0.979898,0.026385,0.043063,-0.021414,23.280823,-1.504564,-2.117981,,,,,,,
,,,,,,,,,,,,,,,,25.314958,51.435196,11.159534,0.000000,-1.000000,1522136705.110357,
1522136705.133734,-0.198941,0.014052,-0.790359,-0.039691,0.021709,-0.232917,-0.197612,-0.014051,-0.980179,0.004374,0.024199,-0.004562,22.685791,-1.276445,-1.669189,,,,,,,
1522136705.163702,-0.197870,0.015729,-0.796327,0.041309,0.039290,-0.191326,-0.196557,-0.015728,-0.980366,0.026803,-0.025653,0.000813,22.534897,-1.275911,-1.819336,,,,,,,
1522136705.193671,-0.196962,0.016899,-0.801736,-0.037816,0.021367,-0.183905,-0.195663,-0.016898,-0.980525,0.020614,-0.027719,-0.010106,22.836700,-1.052340,-1.895081,,,,,,,
1522136705.223639,-0.196376,0.016036,-0.807945,-0.059096,0.002496,-0.213733,-0.195091,-0.016035,-0.980654,0.038322,-0.011965,-0.015974,22.014877,-1.048113,-1.370483,,,,,,,
1522136705.253608,-0.195894,0.016482,-0.814572,-0.003607,-0.000838,-0.211562,-0.194617,-0.016482,-0.980740,0.039786,-0.014524,-0.033832,21.415939,-0.670870,-1.822266,,,,,,,
1522136705.283576,-0.196884,0.018550,-0.820097,0.043003,-0.050043,-0.182704,-0.195581,-0.018549,-0.980512,0.019113,-0.006353,-0.019549,21.865601,-0.523195,-2.122620,,,,,,,
1522136705.313514,-0.198295,0.020085,-0.825430,-0.017778,-0.039228,-0.188087,-0.196958,-0.020084,-0.980206,-0.000155,-0.017209,-0.021046,21.417892,-0.520815,-1.747864,,,,,,,
1522136705.343482,-0.198177,0.019015,-0.831805,-0.111382,0.006895,-0.215909,-0.196847,-0.019013,-0.980249,-0.007743,-0.021331,0.000849,21.044098,-0.444048,-1.673340,,,,,,,
1522136705.373449,-0.197672,0.016957,-0.839091,-0.101726,0.009050,-0.223364,-0.196359,-0.016956,-0.980385,-0.000937,-0.022641,-0.009895,20.221085,-0.290270,-1.599426,,,,,,,
1522136705.403419,-0.197200,0.016536,-0.845670,-0.031329,0.017234,-0.203076,-0.195898,-0.016535,-0.980484,0.008535,-0.034460,-0.029800,20.224365,0.084639,-1.675903,,,,,,,
1522136705.433386,-0.197913,0.017297,-0.851336,-0.011465,-0.059413,-0.189137,-0.196594,-0.017296,-0.980332,-0.016510,-0.019035,0.001221,20.529449,0.458479,-1.452271,,,,,,,
1522136705.463354,-0.199692,0.018177,-0.857147,-0.020932,-0.047599,-0.205132,-0.198334,-0.018176,-0.979965,-0.006759,-0.021787,-0.000854,20.454147,0.608519,-1.752869,,,,,,,
1522136705.493322,-0.200515,0.018665,-0.863587,-0.036807,-0.032568,-0.220083,-0.199139,-0.018664,-0.979793,-0.027179,-0.005918,-0.016957,19.406754,0.688536,-1.453735,,,,,,,
1522136705.523291,-0.201507,0.019008,-0.870272,-0.030434,-0.037916,-0.217939,-0.200110,-0.019006,-0.979589,-0.028878,-0.015829,-0.020839,19.109161,0.840025,-1.304443,,,,,,,
1522136705.553259,-0.202225,0.019334,-0.876645,-0.034733,-0.017886,-0.194517,-0.200812,-0.019333,-0.979439,-0.024637,-0.020386,-0.013863,19.936218,1.136152,-1.455261,,,,,,,
1522136705.583227,-0.202747,0.019506,-0.882171,-0.030606,-0.027577,-0.176397,-0.201323,-0.019505,-0.979330,-0.041719,0.004536,0.009527,18.285980,1.068647,-1.380798,,,,,,,
1522136705.613195,-0.203318,0.019882,-0.887367,-0.020932,-0.003237,-0.166818,-0.201880,-0.019881,-0.979208,-0.037515,-0.004335,-0.009943,18.136292,1.144255,-1.456177,,,,,,,
1522136705.643164,-0.203161,0.020162,-0.892576,-0.026237,-0.004216,-0.175352,-0.201725,-0.020160,-0.979234,-0.031841,0.003589,-0.015380,17.990494,1.295362,-1.006836,,,,,,,
1522136705.673132,-0.203902,0.020851,-0.897418,-0.006124,-0.019286,-0.155076,-0.202448,-0.020850,-0.979071,-0.030569,0.016684,-0.009333,17.840790,1.370955,-1.082214,,,,,,,
1522136705.703100,-0.204099,0.021367,-0.901859,-0.023163,0.001911,-0.143379,-0.202639,-0.021365,-0.979020,-0.037565,0.018939,-0.005798,18.071472,1.894987,-1.009216,,,,,,,
1522136705.733068,-0.203708,0.021540,-0.906127,-0.008157,0.019927,-0.140197,-0.202255,-0.021538,-0.979096,-0.034638,0.016534,0.004639,17.320312,1.598677,-0.708435,,,,,,,
1522136705.763037,-0.203183,0.022443,-0.909970,0.012091,0.018783,-0.134858,-0.201737,-0.022441,-0.979182,-0.028488,0.024028,-0.006505,16.796524,1.900724,-1.009888,,,,,,,
1522136705.793005,-0.202560,0.023154,-0.913857,-0.013565,0.015638,-0.131678,-0.201124,-0.023152,-0.979292,-0.032747,0.021687,-0.010439,17.400101,2.123228,-0.785461,,,,,,,
1522136705.822973,-0.201691,0.023383,-0.917864,-0.016620,0.042233,-0.135964,-0.200272,-0.023381,-0.979461,-0.037933,0.025776,0.001220,16.201950,2.128920,-0.486145,,,,,,,
1522136705.852942,-0.200162,0.023914,-0.921862,0.004733,0.046394,-0.131686,-0.198771,-0.023911,-0.979754,-0.036459,0.015717,0.009997,15.976654,2.055021,-0.410950,,,,,,,
1522136705.882910,-0.199267,0.025073,-0.925579,0.014222,0.027216,-0.126339,-0.197888,-0.025070,-0.979903,-0.038836,-0.003036,0.005294,15.901077,1.905500,-0.260315,,,,,,,
1522136705.912879,-0.198459,0.025903,-0.929049,-0.002895,0.031430,-0.115697,-0.197092,-0.025900,-0.980042,-0.042532,0.009527,0.005891,15.526245,1.832350,-0.110291,,,,,,,
1522136705.942847,-0.197337,0.026260,-0.932617,-0.003881,0.037871,-0.125291,-0.195991,-0.026257,-0.980254,-0.058587,0.014615,0.016875,14.852463,1.910444,-0.035889,,,,,,,
1522136705.972814,-0.196156,0.027164,-0.935787,0.019446,0.039720,-0.093314,-0.194828,-0.027161,-0.980461,-0.050029,0.005203,0.020378,15.456635,2.282804,0.037903,,,,,,,
1522136706.002784,-0.195796,0.028471,-0.938093,0.028842,0.004553,-0.082614,-0.194469,-0.028467,-0.980495,-0.049107,0.003595,0.005550,14.783005,2.286055,0.262573,,,,,,,
1522136706.032751,-0.195983,0.029548,-0.940316,0.014907,-0.004988,-0.080486,-0.194645,-0.029543,-0.980428,-0.045116,-0.000623,-0.000529,14.106232,2.288801,-0.037781,,,,,,,
1522136706.062719,-0.195754,0.030001,-0.942940,-0.007331,0.021730,-0.093321,-0.194418,-0.029997,-0.980460,-0.042871,0.008039,0.008200,14.708160,2.436171,0.036926,,,,,,,
1522136706.092699,-0.195237,0.030272,-0.945558,-0.008418,0.025896,-0.083722,-0.193910,-0.030267,-0.980552,-0.044417,-0.003943,0.007102,13.954147,2.214262,-0.262573,,,,,,,
,,,,,,,,,,,,,,,,25.314958,51.435196,11.156157,0.000000,-1.000000,1522136706.093945,
1522136706.122667,-0.194581,0.030446,-0.948059,-0.011597,0.024893,-0.090122,-0.193266,-0.030441,-0.980674,-0.050737,-0.007858,0.012915,13.506271,2.066877,0.337769,,,,,,,
1522136706.152635,-0.193453,0.030299,-0.951152,-0.038097,0.052678,-0.102957,-0.192160,-0.030294,-0.980895,-0.046899,-0.024348,-0.005494,13.808640,2.440290,0.111450,,,,,,,
1522136706.182603,-0.191338,0.029128,-0.954353,-0.064704,0.084552,-0.092356,-0.190091,-0.029124,-0.981334,-0.055987,-0.024190,-0.015904,13.211670,2.518354,0.485840,,,,,,,
1522136706.212572,-0.189543,0.027793,-0.957089,-0.055344,0.046151,-0.076320,-0.188338,-0.027789,-0.981711,-0.066469,-0.030774,-0.009302,13.060638,2.369108,0.561401,,,,,,,
1522136706.242540,-0.188166,0.026966,-0.959658,-0.045662,0.054688,-0.083785,-0.186989,-0.026963,-0.981991,-0.066520,-0.036468,0.003018,13.139206,2.818602,0.409607,,,,,,,
1522136706.272508,-0.186750,0.026267,-0.962742,-0.045561,0.054820,-0.102964,-0.185602,-0.026264,-0.982273,-0.070059,-0.035748,0.009068,12.615433,2.896040,0.484070,,,,,,,
1522136706.302476,-0.184386,0.025387,-0.965914,-0.072209,0.088756,-0.082777,-0.183283,-0.025385,-0.982732,-0.080419,-0.035147,-0.003993,12.093018,2.973692,0.783447,,,,,,,
1522136706.332445,-0.182217,0.023364,-0.968535,-0.074535,0.058935,-0.072095,-0.181161,-0.023362,-0.983176,-0.088309,-0.032409,-0.009668,12.694351,3.195829,0.632874,,,,,,,
1522136706.362413,-0.180705,0.021555,-0.970851,-0.074673,0.041867,-0.061428,-0.179682,-0.021553,-0.983488,-0.096899,-0.048073,0.001524,12.251099,3.648191,1.005859,,,,,,,
1522136706.392381,-0.179779,0.020349,-0.972728,-0.040628,0.031042,-0.046468,-0.178775,-0.020347,-0.983679,-0.098737,-0.052956,-0.007944,12.252289,3.723265,1.080566,,,,,,,
1522136706.422349,-0.179537,0.019878,-0.974212,-0.027878,0.010839,-0.050692,-0.178539,-0.019877,-0.983732,-0.104664,-0.040304,-0.008273,13.380829,4.168028,0.929382,,,,,,,
1522136706.452318,-0.179651,0.019453,-0.976045,-0.020428,0.001291,-0.054942,-0.178652,-0.019451,-0.983720,-0.088468,-0.044651,-0.013992,12.627731,3.721647,1.155762,,,,,,,
1522136706.482286,-0.180019,0.019832,-0.977360,0.012538,-0.010583,-0.039989,-0.179013,-0.019831,-0.983647,-0.084369,-0.041708,-0.011486,12.630859,4.171415,0.928955,,,,,,,
1522136706.512254,-0.180823,0.020246,-0.978577,-0.014172,-0.016877,-0.042134,-0.179803,-0.020245,-0.983494,-0.091255,-0.031772,-0.011272,13.238312,4.918669,0.926270,,,,,,,
1522136706.542222,-0.181774,0.019712,-0.979970,-0.033487,-0.031756,-0.035736,-0.180740,-0.019711,-0.983333,-0.099625,-0.027546,-0.017003,12.710968,4.546263,1.152466,,,,,,,
1522136706.572191,-0.182694,0.019124,-0.980745,-0.015355,-0.015980,-0.018691,-0.181646,-0.019123,-0.983178,-0.105036,-0.006375,-0.006340,13.165573,4.919371,1.301270,,,,,,,
1522136706.602128,-0.183177,0.019493,-0.981221,0.023082,-0.006559,-0.011217,-0.182120,-0.019492,-0.983083,-0.097452,-0.011788,0.010793,14.144577,5.140272,1.600830,,,,,,,
1522136706.632097,-0.183735,0.020699,-0.981089,0.037975,-0.007729,-0.001613,-0.182664,-0.020697,-0.982957,-0.099334,-0.020684,0.021516,13.469009,5.218077,1.375183,,,,,,,
1522136706.662065,-0.183914,0.021287,-0.981199,0.006037,0.000930,-0.012304,-0.182837,-0.021286,-0.982912,-0.097040,-0.021820,0.009325,14.146088,5.290266,1.600220,,,,,,,
1522136706.692033,-0.184511,0.021788,-0.981912,0.021038,-0.012795,-0.032513,-0.183422,-0.021786,-0.982792,-0.099934,-0.002872,0.019780,14.296219,5.439360,1.374695,,,,,,,
1522136706.722002,-0.184802,0.023092,-0.982587,0.046679,0.006199,-0.020801,-0.183703,-0.023090,-0.982710,-0.092420,-0.004803,0.027937,15.045441,5.136366,1.751282,,,,,,,
1522136706.751970,-0.184936,0.024687,-0.982471,0.053005,0.009225,-0.001612,-0.183827,-0.024684,-0.982648,-0.094005,-0.003026,0.035550,16.092850,5.056349,1.452148,,,,,,,
1522136706.781938,-0.185438,0.026865,-0.982273,0.086069,-0.016244,-0.017548,-0.184311,-0.026862,-0.982500,-0.091797,0.000250,0.018542,16.389526,4.680098,1.528809,,,,,,,
1522136706.811906,-0.186412,0.029315,-0.982596,0.063691,-0.017179,-0.027156,-0.185255,-0.029311,-0.982253,-0.077913,-0.002168,0.009337,16.233124,4.080732,1.456116,,,,,,,
1522136706.841875,-0.187293,0.031271,-0.982836,0.076470,-0.008809,-0.013302,-0.186109,-0.031266,-0.982031,-0.086230,0.027481,-0.003397,16.608093,4.303663,1.080383,,,,,,,
1522136706.871843,-0.187907,0.033703,-0.982638,0.065787,-0.006665,-0.011186,-0.186697,-0.033697,-0.981839,-0.084742,0.019110,0.008267,17.279175,4.000502,0.932007,,,,,,,
1522136706.901811,-0.188175,0.034761,-0.982906,0.025298,0.000911,-0.018672,-0.186954,-0.034754,-0.981753,-0.084851,0.018351,0.005084,16.900009,3.402510,1.234192,,,,,,,
1522136706.931779,-0.188565,0.035962,-0.983443,0.046703,-0.001185,-0.030375,-0.187329,-0.035954,-0.981639,-0.081165,0.004567,0.003566,16.824570,3.402769,1.159119,,,,,,,
1522136706.961748,-0.188793,0.037292,-0.984091,0.039221,-0.005384,-0.033579,-0.187543,-0.037283,-0.981548,-0.078006,0.009146,0.012279,17.119888,2.801664,1.386658,,,,,,,
1522136706.991716,-0.189328,0.038669,-0.984718,0.044492,-0.006541,-0.021855,-0.188059,-0.038660,-0.981396,-0.072943,-0.005392,-0.002704,17.115097,2.726011,0.711975,,,,,,,
1522136707.021684,-0.189600,0.039764,-0.984979,0.019947,0.001982,-0.016553,-0.188317,-0.039754,-0.981303,-0.081565,-0.011882,-0.016195,18.088730,2.496778,0.863403,,,,,,,
1522136707.051652,-0.189899,0.039503,-0.985803,-0.035482,-0.007294,-0.040016,-0.188613,-0.039493,-0.981257,-0.086595,-0.020047,-0.004125,17.561508,2.274153,0.864014,,,,,,,
1522136707.081621,-0.189975,0.038537,-0.987905,-0.044913,0.005649,-0.063480,-0.188694,-0.038528,-0.981279,-0.103740,-0.036485,-0.009397,17.716446,2.498915,1.313232,,,,,,,
,,,,,,,,,,,,,,,,25.314958,51.435196,11.151186,0.000000,-1.000000,1522136707.092486,
1522136707.111588,-0.190011,0.037849,-0.989664,-0.023716,-0.001990,-0.041087,-0.188735,-0.037840,-0.981298,-0.089525,-0.048616,-0.011133,18.162384,2.271605,1.014282,,,,,,,
1522136707.141556,-0.190373,0.037623,-0.990172,-0.005805,-0.015037,-0.005895,-0.189091,-0.037614,-0.981238,-0.086727,-0.040740,-0.009316,17.859680,2.047895,0.940063,,,,,,,
1522136707.171524,-0.190880,0.037393,-0.990414,-0.024937,-0.002201,-0.011250,-0.189590,-0.037384,-0.981151,-0.088196,-0.040817,0.012401,17.564209,2.274595,1.314026,,,,,,,
1522136707.201493,-0.190703,0.036211,-0.991320,-0.053630,0.008605,-0.027262,-0.189425,-0.036203,-0.981227,-0.083906,-0.031805,0.014339,17.337723,2.125608,1.314514,,,,,,,
1522136707.231461,-0.191013,0.035404,-0.992207,-0.021736,-0.011724,-0.018693,-0.189735,-0.035397,-0.981197,-0.068810,-0.015720,-0.009694,17.713150,2.348631,1.013733,,,,,,,
1522136707.261429,-0.191822,0.035244,-0.992431,-0.010141,-0.020405,0.002635,-0.190529,-0.035237,-0.981049,-0.066703,-0.010677,-0.003571,17.862671,2.347883,0.938904,,,,,,,
1522136707.291397,-0.192529,0.034743,-0.992347,-0.020791,-0.008712,0.006873,-0.191227,-0.034736,-0.980931,-0.049176,-0.012109,0.014653,18.014618,2.721891,0.637390,,,,,,,
1522136707.321366,-0.192497,0.033942,-0.992563,-0.036565,0.023311,-0.010210,-0.191200,-0.033936,-0.980964,-0.045388,-0.001602,0.023048,17.412247,2.574446,0.487732,,,,,,,
1522136707.351334,-0.191807,0.032860,-0.993401,-0.029017,0.028707,-0.021944,-0.190530,-0.032854,-0.981131,-0.029975,-0.000624,0.029272,17.632446,2.048536,0.564941,,,,,,,
1522136707.381302,-0.191655,0.033753,-0.993730,0.062599,-0.006647,-0.013316,-0.190376,-0.033746,-0.981131,-0.021004,-0.005347,0.006140,18.606949,2.044081,0.490479,,,,,,,
1522136707.411271,-0.192626,0.036142,-0.993659,0.066751,-0.034296,-0.013278,-0.191312,-0.036134,-0.980864,-0.028323,-0.002730,-0.013338,17.405060,1.899412,0.415405,,,,,,,
1522136707.441239,-0.193724,0.037174,-0.994030,0.017733,-0.027723,-0.025037,-0.192382,-0.037165,-0.980616,-0.046372,0.029704,-0.003881,17.177078,1.825071,0.040588,,,,,,,
1522136707.471207,-0.194518,0.037794,-0.994557,0.024086,-0.024624,-0.013321,-0.193155,-0.037785,-0.980440,-0.029638,0.028217,0.003557,18.074188,1.670805,-0.183289,,,,,,,
1522136707.501175,-0.195520,0.039040,-0.994075,0.050539,-0.026068,0.031454,-0.194128,-0.039030,-0.980199,-0.023935,0.025343,0.002004,17.702057,1.822706,0.040894,,,,,,,
1522136707.531144,-0.196805,0.040834,-0.992156,0.086651,-0.035898,0.058122,-0.195373,-0.040823,-0.979878,0.011337,0.017355,0.006322,17.546967,1.448179,-0.182678,,,,,,,
1522136707.561112,-0.197998,0.042786,-0.990062,0.078138,-0.040072,0.049598,-0.196527,-0.042772,-0.979565,0.022913,0.032976,-0.017780,18.291534,1.219297,-0.706421,,,,,,,
1522136707.591080,-0.200077,0.044668,-0.988704,0.071827,-0.065288,0.010198,-0.198546,-0.044653,-0.979073,0.006972,0.027197,-0.065986,17.168686,1.299574,-0.482300,,,,,,,
1522136707.621048,-0.201023,0.045749,-0.988808,0.005995,-0.027654,-0.028254,-0.199463,-0.045733,-0.978837,-0.018677,0.031192,-0.044097,17.091125,1.224623,-0.782043,,,,,,,
1522136707.651017,-0.201392,0.045547,-0.990796,-0.018124,0.003582,-0.082631,-0.199826,-0.045531,-0.978773,-0.032642,0.014937,-0.031588,17.611771,0.922056,-1.005554,,,,,,,
1522136707.680985,-0.200942,0.045710,-0.993095,-0.008556,0.007723,-0.070905,-0.199384,-0.045694,-0.978855,-0.037112,-0.004050,-0.025204,16.939651,1.075315,-0.781494,,,,,,,
1522136707.710953,-0.199890,0.045176,-0.995030,-0.042673,0.041685,-0.051790,-0.198359,-0.045161,-0.979088,-0.032644,-0.021292,-0.018501,16.789047,1.150755,-1.006897,,,,,,,
1522136707.740921,-0.198964,0.043930,-0.996728,-0.048150,0.021455,-0.043254,-0.197463,-0.043916,-0.979326,-0.016908,-0.045852,-0.056563,17.466858,1.297941,-0.782166,,,,,,,
1522136707.770890,-0.198161,0.042417,-0.998366,-0.074818,0.024676,-0.042194,-0.196689,-0.042404,-0.979548,-0.023587,-0.057694,-0.033819,16.936508,0.850172,-0.930603,,,,,,,
1522136707.800858,-0.198097,0.040021,-1.000151,-0.091995,-0.009165,-0.056040,-0.196646,-0.040011,-0.979657,-0.024057,-0.033811,-0.001879,16.338898,1.227629,-1.157410,,,,,,,
1522136707.830826,-0.197717,0.037362,-1.002532,-0.120666,0.030193,-0.051839,-0.196294,-0.037353,-0.979833,-0.036830,-0.023422,-0.000834,16.491150,1.451948,-1.158264,,,,,,,
1522136707.860794,-0.196250,0.034029,-1.004060,-0.100514,0.052159,-0.008164,-0.194880,-0.034022,-0.980236,-0.041616,-0.010060,0.041912,15.737747,1.155272,-1.232483,,,,,,,
1522136707.890732,-0.195314,0.033531,-1.003953,0.039150,0.031467,0.013274,-0.193966,-0.033525,-0.980435,-0.036305,-0.004104,0.062710,15.661850,0.930830,-1.006531,,,,,,,
1522136707.920700,-0.194483,0.035859,-1.003122,0.080780,0.030289,0.014375,-0.193135,-0.035851,-0.980517,-0.014857,-0.019767,0.040392,16.485916,0.926985,-1.156128,,,,,,,
1522136707.950669,-0.194593,0.037923,-1.002193,0.078441,-0.016454,0.013356,-0.193228,-0.037914,-0.980421,0.000815,0.003384,0.032316,15.513504,1.231276,-1.232849,,,,,,,
1522136707.980637,-0.195600,0.039960,-1.001586,0.053886,-0.025879,0.003750,-0.194200,-0.039949,-0.980148,0.022279,0.003694,-0.019730,15.886246,1.004606,-1.231750,,,,,,,
1522136708.010605,-0.196140,0.040549,-1.001392,-0.004691,-0.006552,-0.005894,-0.194725,-0.040538,-0.980020,0.013283,0.023280,-0.000480,15.283554,1.006865,-1.682068,,,,,,,
1522136708.040574,-0.196939,0.040208,-1.002262,-0.023890,-0.034988,-0.034652,-0.195510,-0.040197,-0.979877,-0.016831,0.042547,0.022907,15.506897,0.930708,-1.831665,,,,,,,
1522136708.070542,-0.197628,0.039796,-1.004270,-0.021374,-0.018647,-0.093268,-0.196188,-0.039786,-0.979758,-0.033335,0.032736,-0.060708,15.812576,1.454405,-1.758606,,,,,,,
1522136708.100482,-0.197662,0.040802,-1.007162,0.036251,-0.016702,-0.086840,-0.196214,-0.040791,-0.979712,-0.039961,-0.000255,-0.030206,15.960770,1.228819,-1.682617,,,,,,,
,,,,,,,,,,,,,,,,25.314958,51.435196,11.142044,0.000000,-1.000000,1522136708.092882,
1522136708.130449,-0.197567,0.041612,-1.008490,0.006176,0.019066,-0.022975,-0.196114,-0.041600,-0.979698,-0.038108,-0.012264,-0.000283,15.512146,1.231062,-1.457825,,,,,,,
1522136708.160419,-0.196725,0.041227,-1.008737,-0.018437,0.029575,-0.000614,-0.195292,-0.041216,-0.979878,-0.031728,-0.047224,-0.046611,15.060059,1.382490,-2.058655,,,,,,,
1522136708.190386,-0.196293,0.040415,-1.008435,-0.027200,0.000791,0.016454,-0.194875,-0.040404,-0.979995,-0.026804,-0.049302,-0.030244,15.212296,1.382185,-1.683594,,,,,,,
1522136708.220354,-0.196679,0.039527,-1.008845,-0.035575,-0.009531,-0.024031,-0.195261,-0.039517,-0.979955,-0.036902,-0.023899,-0.017375,15.287292,1.381849,-1.683533,,,,,,,
1522136708.250322,-0.196552,0.038245,-1.009871,-0.062119,0.026655,-0.021960,-0.195146,-0.038236,-0.980028,-0.032576,-0.024218,0.001680,14.912308,1.383528,-1.683716,,,,,,,
1522136708.280291,-0.195770,0.037128,-1.010362,-0.025960,0.022150,0.001513,-0.194387,-0.037120,-0.980222,-0.031626,-0.003072,0.003675,14.614563,1.609877,-1.684814,,,,,,,
1522136708.310259,-0.195211,0.036847,-1.009821,0.010136,0.015455,0.034576,-0.193841,-0.036839,-0.980341,-0.010184,-0.005626,-0.038016,14.685074,1.159559,-1.682922,,,,,,,
1522136708.340227,-0.195094,0.037069,-1.008962,0.009191,0.013482,0.011146,-0.193725,-0.037061,-0.980355,-0.033905,0.005689,-0.039863,15.738159,1.829222,-2.285156,,,,,,,
1522136708.370195,-0.195060,0.036383,-1.009322,-0.071922,-0.005267,-0.012345,-0.193697,-0.036375,-0.980386,-0.024137,0.018797,0.010706,14.688812,1.534529,-1.684448,,,,,,,
1522136708.400164,-0.194143,0.033270,-1.010305,-0.114402,0.051103,-0.006034,-0.192818,-0.033264,-0.980670,-0.009132,-0.017365,-0.008603,14.536880,1.385145,-1.758911,,,,,,,
1522136708.430132,-0.192980,0.030300,-1.009996,-0.084853,0.040010,0.050471,-0.191696,-0.030295,-0.980986,0.005753,-0.021448,0.010176,15.514832,1.680738,-1.759644,,,,,,,
1522136708.460100,-0.191987,0.027822,-1.008513,-0.057179,0.045116,0.070728,-0.190736,-0.027818,-0.981247,0.021836,-0.011213,0.038940,14.616211,1.909636,-1.911011,,,,,,,
1522136708.490068,-0.191454,0.026695,-1.007040,-0.012349,0.000613,0.035650,-0.190219,-0.026692,-0.981378,0.038592,-0.028561,-0.002783,14.464722,1.760313,-1.910522,,,,,,,
1522136708.520037,-0.191540,0.026151,-1.006620,-0.028252,-0.012914,0.001549,-0.190306,-0.026148,-0.981376,0.034956,-0.018209,-0.038277,15.513168,1.830229,-2.285278,,,,,,,
1522136708.550005,-0.192326,0.025438,-1.007426,-0.024971,-0.029728,-0.027197,-0.191081,-0.025435,-0.981244,0.020930,0.006576,-0.028231,14.536865,1.609770,-2.134827,,,,,,,
1522136708.579973,-0.193077,0.025379,-1.008050,0.007030,-0.028807,-0.019709,-0.191818,-0.025377,-0.981102,0.018981,0.010713,-0.005867,14.839844,1.908400,-2.135864,,,,,,,
1522136708.609941,-0.193370,0.026603,-1.008274,0.047598,-0.014116,-0.006911,-0.192099,-0.026600,-0.981015,0.030447,0.001102,0.000439,15.441315,2.055693,-2.136169,,,,,,,
1522136708.639910,-0.192953,0.027477,-1.007732,0.012468,0.031550,0.011122,-0.191686,-0.027474,-0.981071,0.051503,0.002327,-0.025368,14.691055,1.984144,-2.061218,,,,,,,
1522136708.669878,-0.192129,0.026730,-1.008054,-0.043012,0.010615,-0.014471,-0.190881,-0.026727,-0.981249,0.048486,0.000741,-0.021681,14.467102,2.135084,-2.136963,,,,,,,
1522136708.699847,-0.191797,0.025924,-1.008810,-0.014145,0.004238,-0.026156,-0.190559,-0.025921,-0.981333,0.049156,-0.004078,-0.022512,14.845078,2.433378,-2.138000,,,,,,,
1522136708.729815,-0.191528,0.025720,-1.009724,-0.023741,0.007452,-0.026167,-0.190296,-0.025718,-0.981389,0.033466,-0.004449,-0.035777,14.469955,2.285292,-1.912598,,,,,,,
1522136708.759784,-0.191128,0.024547,-1.011263,-0.063100,-0.005986,-0.065608,-0.189909,-0.024544,-0.981495,0.026823,-0.010093,-0.028057,14.317719,2.060972,-1.911804,,,,,,,
1522136708.789751,-0.190649,0.022927,-1.013901,-0.076836,0.024873,-0.066716,-0.189446,-0.022925,-0.981623,0.017678,-0.007134,-0.008215,14.847931,2.583586,-1.913574,,,,,,,
1522136708.819719,-0.189908,0.021337,-1.015844,-0.048194,0.015036,-0.038976,-0.188725,-0.021335,-0.981798,0.024800,0.005039,0.029268,14.545395,2.285032,-1.837524,,,,,,,
1522136708.849688,-0.188799,0.021148,-1.016262,0.016793,0.033708,0.003670,-0.187638,-0.021146,-0.982010,0.034210,-0.010485,0.023987,13.947220,2.512648,-1.913757,,,,,,,
1522136708.879656,-0.188294,0.022774,-1.015395,0.083855,0.013197,0.025055,-0.187135,-0.022772,-0.982070,0.031739,-0.007028,0.011733,14.472046,2.585127,-2.063782,,,,,,,
1522136708.909624,-0.188186,0.025102,-1.014614,0.067853,-0.006806,0.004815,-0.187019,-0.025099,-0.982035,0.030372,-0.012407,0.009227,14.322662,2.286406,-1.462646,,,,,,,
1522136708.939592,-0.188227,0.026466,-1.014398,0.036946,-0.007708,-0.006929,-0.187052,-0.026463,-0.981993,0.031321,0.013921,-0.020158,13.797974,2.588316,-1.914124,,,,,,,
1522136708.969561,-0.188494,0.027970,-1.014716,0.050919,-0.010790,-0.027160,-0.187306,-0.027967,-0.981903,0.040639,0.014875,-0.044144,14.323837,2.810728,-2.139771,,,,,,,
1522136708.999529,-0.188049,0.028980,-1.015623,0.005233,0.020217,-0.041063,-0.186864,-0.028976,-0.981958,0.039433,0.009079,-0.064154,13.120453,2.291441,-1.838257,,,,,,,
1522136709.029497,-0.186924,0.027982,-1.017361,-0.068202,0.052431,-0.060342,-0.185765,-0.027978,-0.982195,0.033909,-0.007056,-0.054059,13.497986,2.589659,-1.914307,,,,,,,
1522136709.059465,-0.185118,0.026226,-1.019198,-0.057641,0.048029,-0.042217,-0.183999,-0.026223,-0.982576,0.033273,-0.011299,-0.026747,13.580475,3.114668,-1.541382,,,,,,,
1522136709.089434,-0.183484,0.025345,-1.020433,-0.020317,0.046822,-0.034730,-0.182397,-0.025342,-0.982898,0.024911,-0.022753,-0.029553,13.127335,2.891554,-1.690674,,,,,,,
1522136709.119402,-0.181629,0.025106,-1.021381,-0.009629,0.062634,-0.021944,-0.180575,-0.025104,-0.983241,0.030489,-0.041486,-0.044775,12.156128,3.270918,-1.692688,,,,,,,
,,,,,,,,,,,,,,,,25.314958,51.435196,11.131215,0.000000,-1.000000,1522136709.106949,
1522136709.149370,-0.180360,0.024426,-1.021871,-0.038760,0.016875,-0.002738,-0.179331,-0.024424,-0.983485,0.023111,-0.038824,-0.040868,13.581665,3.414351,-1.842529,,,,,,,
1522136709.179338,-0.179871,0.023176,-1.022283,-0.046257,0.006311,-0.008064,-0.178855,-0.023173,-0.983602,0.009848,-0.031270,-0.013590,12.535324,3.419661,-1.243103,,,,,,,
1522136709.209276,-0.179989,0.022248,-1.022923,-0.041935,0.001096,-0.022976,-0.178974,-0.022247,-0.983602,0.010289,-0.032243,-0.030299,12.754913,2.968534,-1.391174,,,,,,,
1522136709.239244,-0.179066,0.020518,-1.024075,-0.075998,0.027743,-0.020905,-0.178073,-0.020516,-0.983803,0.007724,-0.030998,-0.025795,12.233994,3.196180,-1.092346,,,,,,,
1522136709.269213,-0.178897,0.018480,-1.024457,-0.073115,-0.002296,0.016433,-0.177914,-0.018479,-0.983872,0.020199,-0.015182,0.020524,12.085785,3.421766,-1.168335,,,,,,,
1522136709.299181,-0.178219,0.016375,-1.024209,-0.053763,0.028480,0.016410,-0.177254,-0.016374,-0.984029,0.029060,-0.031615,0.011342,11.784454,3.198271,-1.017578,,,,,,,
1522136709.329149,-0.177450,0.015527,-1.023799,-0.017539,0.020889,0.024971,-0.176499,-0.015526,-0.984178,0.031007,-0.035042,0.021684,11.785355,3.198423,-0.867615,,,,,,,
1522136709.359118,-0.177136,0.014879,-1.023214,-0.022898,0.011368,0.020715,-0.176191,-0.014879,-0.984243,0.039167,-0.027846,0.017538,11.783859,3.048429,-0.867004,,,,,,,
1522136709.389086,-0.176835,0.014073,-1.022961,-0.037837,-0.000201,0.008994,-0.175897,-0.014072,-0.984308,0.036966,-0.017895,0.006280,12.078003,2.596876,-1.090027,,,,,,,
1522136709.419054,-0.177096,0.012345,-1.022900,-0.074202,-0.004419,0.017495,-0.176158,-0.012344,-0.984284,0.011256,0.014664,0.033143,12.006302,2.747496,-0.790649,,,,,,,
1522136709.449022,-0.176483,0.010137,-1.023049,-0.070810,0.021154,0.004693,-0.175559,-0.010137,-0.984416,0.000404,0.011281,0.012538,11.028641,2.751448,-1.241211,,,,,,,
1522136709.478991,-0.175885,0.008389,-1.022992,-0.042065,0.013607,0.012170,-0.174974,-0.008389,-0.984537,0.015748,0.013455,0.009714,11.255585,2.675871,-0.790771,,,,,,,
1522136709.508959,-0.175426,0.008106,-1.023360,-0.010913,0.013766,-0.022963,-0.174522,-0.008106,-0.984620,0.025703,0.000156,-0.023849,11.033432,2.827101,-0.566467,,,,,,,
1522136709.538927,-0.175124,0.007243,-1.024300,-0.034431,0.002182,-0.028302,-0.174226,-0.007243,-0.984679,0.013856,-0.012334,-0.018602,10.433334,2.680021,-0.341187,,,,,,,
1522136709.568895,-0.175385,0.006516,-1.025041,-0.023926,-0.017081,-0.012294,-0.174484,-0.006516,-0.984638,0.010192,-0.007720,0.004368,11.706604,2.823774,-0.866150,,,,,,,
1522136709.598864,-0.175699,0.006808,-1.025181,0.041195,-0.007748,-0.002664,-0.174793,-0.006808,-0.984582,0.009219,-0.008100,-0.018745,10.658447,2.828794,-0.566650,,,,,,,
1522136709.628832,-0.175679,0.008633,-1.024734,0.064636,-0.006842,0.009084,-0.174770,-0.008633,-0.984571,0.014797,-0.015384,-0.067355,10.881058,2.677641,-0.715942,,,,,,,
1522136709.658800,-0.175502,0.009744,-1.024448,0.000791,0.020027,-0.010177,-0.174594,-0.009744,-0.984592,0.017474,-0.017996,-0.070950,11.325790,2.150633,-0.713623,,,,,,,
1522136709.688768,-0.174891,0.008108,-1.025570,-0.093053,0.017235,-0.033683,-0.173995,-0.008108,-0.984713,0.017348,-0.008570,-0.057249,10.876724,2.152815,-0.563843,,,,,,,
1522136709.718737,-0.174514,0.005092,-1.026721,-0.101853,-0.001050,0.000427,-0.173627,-0.005092,-0.984798,0.019254,-0.017079,-0.034443,10.951111,2.227247,-0.789124,,,,,,,
1522136709.748705,-0.174256,0.002893,-1.026669,-0.047502,0.002911,0.022838,-0.173374,-0.002893,-0.984852,0.023350,-0.034018,-0.025891,11.329086,2.525541,-0.790100,,,,,,,
1522136709.778673,-0.174016,0.001559,-1.026122,-0.048580,0.009237,0.030289,-0.173138,-0.001559,-0.984896,0.022626,-0.043394,0.015856,10.429276,2.679365,-1.016174,,,,,,,
1522136709.808641,-0.173359,-0.000403,-1.025452,-0.060280,0.020934,0.032404,-0.172492,0.000403,-0.985011,0.025367,-0.031958,0.028025,11.182846,2.901213,-0.791687,,,,,,,
1522136709.838610,-0.173037,-0.000849,-1.024863,0.020837,0.001689,0.020762,-0.172175,0.000849,-0.985066,0.027659,-0.018732,0.000645,11.479675,2.674711,-0.940613,,,,,,,
1522136709.868578,-0.172856,0.000156,-1.024534,0.015754,0.022121,-0.011232,-0.171997,-0.000156,-0.985097,0.022506,-0.000652,-0.023890,11.251541,2.225981,-0.713928,,,,,,,
1522136709.898546,-0.171907,0.000169,-1.025051,-0.021534,0.029725,-0.020861,-0.171062,-0.000169,-0.985260,0.039516,-0.016020,-0.025223,10.655762,2.603727,-0.640747,,,,,,,
1522136709.928514,-0.170830,-0.000682,-1.025333,-0.034464,0.035908,0.008968,-0.170001,0.000682,-0.985444,0.044558,-0.018611,-0.005813,11.779953,2.748289,-1.015747,,,,,,,
1522136709.958483,-0.170117,-0.001887,-1.024928,-0.037846,0.018799,0.027089,-0.169297,0.001887,-0.985563,0.046082,-0.012614,0.018751,10.804871,2.602903,-0.790710,,,,,,,
1522136709.988451,-0.169163,-0.002888,-1.023948,-0.018641,0.033493,0.044148,-0.168357,0.002888,-0.985722,0.058295,-0.021854,0.025379,11.030594,2.676893,-0.790894,,,,,,,
1522136710.018419,-0.168345,-0.003043,-1.022894,0.013316,-0.002580,0.026088,-0.167550,0.003043,-0.985859,0.059472,-0.017509,-0.016506,11.407684,2.975050,-0.941833,,,,,,,
1522136710.048388,-0.168624,-0.002266,-1.022384,0.024011,-0.015232,0.010116,-0.167825,0.002266,-0.985814,0.061426,-0.019615,-0.028407,11.255737,2.601027,-0.640442,,,,,,,
1522136710.078356,-0.169284,-0.002058,-1.022260,-0.005873,-0.026767,-0.001613,-0.168476,0.002058,-0.985703,0.047963,-0.002439,-0.018996,11.480423,2.525084,-0.565002,,,,,,,
1522136710.108322,-0.169320,-0.002030,-1.022249,0.001651,-0.004556,0.009032,-0.168512,0.002030,-0.985697,0.058389,-0.009126,-0.022405,11.630569,2.674192,-0.790588,,,,,,,
,,,,,,,,,,,,,,,,25.314958,51.435196,11.121071,0.000000,-1.000000,1522136710.101067,
1522136710.138290,-0.169079,-0.001817,-1.021699,0.012251,-0.007851,0.020763,-0.168274,0.001817,-0.985738,0.060837,-0.002397,-0.026438,10.727768,2.303404,-0.639526,,,,,,,
1522136710.168259,-0.169300,-0.001738,-1.021203,-0.004798,-0.009888,0.013299,-0.168492,0.001738,-0.985701,0.066502,0.009233,-0.020723,10.879410,2.602491,-0.865662,,,,,,,
1522136710.198227,-0.168594,-0.002275,-1.021086,-0.019463,0.039109,0.001519,-0.167796,0.002275,-0.985819,0.061305,0.005080,-0.022177,11.628922,2.599043,-0.940247,,,,,,,
1522136710.228195,-0.167610,-0.002096,-1.020826,0.032575,-0.004686,0.016515,-0.166826,0.002096,-0.985984,0.066286,0.006037,-0.023339,10.875229,2.227446,-0.939148,,,,,,,
1522136710.258163,-0.167225,-0.001406,-1.020240,0.007078,0.019840,0.013275,-0.166446,0.001406,-0.986049,0.054050,-0.017855,-0.037312,10.874634,2.077604,-0.788574,,,,,,,
1522136710.288132,-0.166470,-0.002102,-1.020169,-0.036608,0.024302,-0.000618,-0.165702,0.002102,-0.986173,0.039649,-0.004604,-0.027361,10.427933,2.454527,-0.865295,,,,,,,
1522136710.318100,-0.165198,-0.002888,-1.020670,-0.022591,0.039229,-0.013406,-0.164447,0.002888,-0.986381,0.050937,-0.023548,0.005531,10.505478,2.529478,-0.565491,,,,,,,
1522136710.348068,-0.164009,-0.003214,-1.020718,-0.006799,0.015654,0.009006,-0.163274,0.003214,-0.986575,0.049962,-0.031718,0.000613,10.876877,2.077955,-0.413574,,,,,,,
1522136710.378036,-0.163385,-0.003516,-1.020575,-0.019564,0.026332,0.007912,-0.162658,0.003516,-0.986676,0.052764,-0.045370,0.012723,10.876724,2.152815,-0.563843,,,,,,,
1522136710.408005,-0.162477,-0.003873,-1.020186,0.002792,0.021968,0.016456,-0.161762,0.003873,-0.986822,0.053135,-0.043546,0.005758,10.575531,2.079084,-0.638672,,,,,,,
1522136710.437973,-0.161723,-0.003358,-1.019660,0.004921,0.013474,0.012216,-0.161018,0.003358,-0.986946,0.056267,-0.040711,-0.012108,11.850327,2.148207,-0.788330,,,,,,,
1522136710.467941,-0.161101,-0.004239,-1.019542,-0.052698,0.016840,0.007905,-0.160404,0.004239,-0.987042,0.041767,-0.021619,-0.013049,10.874786,2.002745,-0.638245,,,,,,,
1522136710.497909,-0.160676,-0.005509,-1.019556,-0.027117,-0.007558,-0.005910,-0.159984,0.005509,-0.987104,0.043467,-0.005982,-0.022738,10.797256,1.478544,-0.186157,,,,,,,
1522136710.527847,-0.160488,-0.005452,-1.019803,-0.000410,0.002955,0.000494,-0.159798,0.005452,-0.987135,0.045128,-0.015538,-0.029589,11.170593,1.401716,-0.335693,,,,,,,
1522136710.557815,-0.159949,-0.005582,-1.019877,-0.008793,0.030648,-0.005933,-0.159265,0.005582,-0.987220,0.054346,-0.014340,-0.043237,10.869568,1.253141,-0.260254,,,,,,,
1522136710.587784,-0.159451,-0.006264,-1.019809,-0.038950,-0.003453,0.016465,-0.158774,0.006264,-0.987295,0.056265,-0.026848,-0.032389,10.793503,1.328184,-0.560547,,,,,,,
1522136710.617752,-0.159860,-0.007369,-1.019235,-0.011370,-0.030156,0.027164,-0.159175,0.007369,-0.987223,0.053600,-0.018173,0.000299,11.765457,1.248442,-0.934753,,,,,,,
1522136710.647720,-0.159575,-0.006940,-1.018381,0.029365,-0.001522,0.020772,-0.158895,0.006940,-0.987271,0.045461,-0.000806,-0.028568,10.718063,1.103834,-0.259705,,,,,,,
1522136710.677689,-0.159627,-0.005892,-1.018039,0.027356,0.007140,0.001568,-0.158947,0.005892,-0.987269,0.050412,-0.006503,-0.013967,10.867310,1.252775,-0.635254,,,,,,,
1522136710.707657,-0.159186,-0.006036,-1.017972,-0.018576,0.001905,0.003685,-0.158512,0.006036,-0.987338,0.043781,0.001517,-0.003461,11.911880,0.797941,-0.782898,,,,,,,
1522136710.737625,-0.158819,-0.005840,-1.017704,0.034772,0.005945,0.014378,-0.158150,0.005840,-0.987398,0.051186,-0.010295,-0.005629,11.314728,0.950850,-0.558777,,,,,,,
1522136710.767593,-0.159050,-0.003789,-1.016735,0.092205,-0.029329,0.025105,-0.158379,0.003789,-0.987371,0.060280,-0.001408,-0.023325,11.166840,1.251356,-0.710083,,,,,,,
1522136710.797562,-0.159533,-0.001934,-1.015917,0.029385,-0.012044,0.006926,-0.158857,0.001934,-0.987300,0.063535,0.002781,-0.018773,11.989258,0.947737,-0.633484,,,,,,,
1522136710.827530,-0.158816,-0.002641,-1.016310,-0.049302,0.032938,-0.015553,-0.158148,0.002641,-0.987412,0.050589,-0.008683,0.014252,11.166855,1.026731,-0.334229,,,,,,,
1522136710.857498,-0.157702,-0.003155,-1.016663,0.011359,0.014577,0.005819,-0.157048,0.003155,-0.987586,0.045644,-0.010891,0.016440,11.468781,1.175444,-0.259644,,,,,,,
1522136710.887466,-0.157185,-0.002194,-1.016052,0.039038,0.005941,0.014376,-0.156538,0.002194,-0.987669,0.052000,-0.026105,-0.013750,12.588181,1.019743,-0.933411,,,,,,,
1522136710.917435,-0.157025,-0.001674,-1.015596,0.001671,0.000763,0.009023,-0.156380,0.001674,-0.987695,0.047722,-0.030300,-0.045126,11.910980,0.573164,-0.557007,,,,,,,
1522136710.947403,-0.157021,-0.002234,-1.015919,-0.028174,-0.017058,-0.015487,-0.156376,0.002234,-0.987695,0.046680,-0.025870,-0.001227,11.236298,0.651121,-0.632629,,,,,,,
1522136710.977371,-0.157470,-0.002599,-1.016126,-0.002638,-0.015119,0.002642,-0.156819,0.002599,-0.987624,0.042180,-0.001088,0.026747,12.813766,0.943953,-0.708069,,,,,,,
1522136711.007339,-0.157354,-0.002163,-1.015731,0.016548,-0.004660,0.018633,-0.156705,0.002163,-0.987643,0.047697,-0.011013,0.002459,12.135513,0.572081,-0.631897,,,,,,,
1522136711.037308,-0.157527,-0.001527,-1.015064,0.026172,-0.004659,0.015442,-0.156876,0.001527,-0.987617,0.054475,-0.016007,-0.029015,11.984756,0.722380,-1.007568,,,,,,,
1522136711.067276,-0.157587,-0.000781,-1.014732,0.021920,-0.017308,0.001603,-0.156935,0.000781,-0.987608,0.061690,-0.009631,-0.065401,12.512589,0.870237,-0.782898,,,,,,,
1522136711.097241,-0.158107,-0.000523,-1.014842,-0.005786,-0.019267,-0.011207,-0.157449,0.000523,-0.987527,0.051461,-0.002721,-0.058234,11.984756,0.722380,-1.007568,,,,,,,
1522136711.127209,-0.158237,-0.001321,-1.015452,-0.040895,-0.001069,-0.018706,-0.157578,0.001321,-0.987506,0.036438,-0.004281,-0.043699,11.759766,0.723387,-1.007690,,,,,,,
,,,,,,,,,,,,,,,,25.314958,51.435196,11.109510,0.000000,-1.000000,1522136711.106815,
1522136711.157178,-0.157501,-0.002423,-1.016052,-0.023753,0.027478,-0.004867,-0.156850,0.002423,-0.987619,0.047093,-0.016125,-0.036886,12.436981,0.945341,-1.008240,,,,,,,
1522136711.187146,-0.156617,-0.002288,-1.016115,0.009355,0.032680,-0.001647,-0.155977,0.002288,-0.987758,0.053453,-0.035201,-0.029835,12.062607,0.872252,-0.783142,,,,,,,
1522136711.217114,-0.155935,-0.002497,-1.015751,-0.018650,0.016614,0.029235,-0.155303,0.002497,-0.987864,0.057876,-0.033167,-0.004599,12.141953,0.947493,-0.183350,,,,,,,
1522136711.247082,-0.155585,-0.003270,-1.015359,-0.019681,-0.001292,0.006877,-0.154957,0.003270,-0.987916,0.043522,-0.033787,0.018265,12.588333,0.944883,-0.783203,,,,,,,
1522136711.277051,-0.155712,-0.002923,-1.015075,0.024023,-0.012075,0.012255,-0.155083,0.002923,-0.987897,0.059624,-0.013757,-0.008609,12.282364,0.346266,-0.780945,,,,,,,
1522136711.307019,-0.155898,-0.002321,-1.014482,0.010147,-0.010975,0.012241,-0.155267,0.002321,-0.987870,0.060326,-0.002580,-0.025451,11.759171,0.348921,-0.481201,,,,,,,
1522136711.336987,-0.156013,-0.002258,-1.014184,-0.006865,-0.000278,0.007957,-0.155380,0.002258,-0.987852,0.047928,0.000442,0.005735,12.435043,0.570662,-0.706726,,,,,,,
1522136711.366956,-0.155401,-0.002423,-1.013911,0.001745,0.020932,0.012198,-0.154776,0.002423,-0.987947,0.059866,-0.010053,0.014649,11.759933,0.199293,-0.105591,,,,,,,
1522136711.396924,-0.155126,-0.002092,-1.013245,0.028258,-0.010003,0.019708,-0.154504,0.002092,-0.987990,0.066491,-0.007051,-0.041139,11.534500,0.200239,-0.180664,,,,,,,
1522136711.426892,-0.155219,-0.001043,-1.012868,0.039055,-0.009894,-0.001585,-0.154597,0.001043,-0.987977,0.068171,-0.014257,-0.037765,12.202713,-0.253145,-0.553528,,,,,,,
1522136711.456860,-0.155692,-0.000221,-1.012660,0.016583,-0.016244,0.002667,-0.155063,0.000221,-0.987904,0.060825,0.001381,-0.022639,11.751556,-0.550814,-0.252563,,,,,,,
1522136711.486829,-0.155362,0.000039,-1.012581,-0.004682,0.006128,0.003686,-0.154738,-0.000039,-0.987956,0.064665,-0.026114,-0.026083,11.446762,-0.849749,-0.551514,,,,,,,
1522136711.516797,-0.155291,-0.000483,-1.012281,-0.016552,-0.009877,0.015423,-0.154668,0.000483,-0.987966,0.062474,-0.012385,-0.010767,12.346573,-0.554323,-1.077271,,,,,,,
1522136711.546765,-0.155430,-0.001055,-1.011894,-0.022964,-0.005618,0.018601,-0.154804,0.001055,-0.987944,0.062931,-0.009264,-0.002687,11.822495,-0.776430,-0.551636,,,,,,,
1522136711.576733,-0.155061,-0.001626,-1.011671,-0.013214,0.004044,0.000487,-0.154440,0.001626,-0.988001,0.061819,-0.019937,0.002054,12.268005,-1.228441,-0.549622,,,,,,,
1522136711.606702,-0.154721,-0.001281,-1.011837,0.013523,0.005089,-0.006951,-0.154104,0.001281,-0.988054,0.057760,-0.020263,0.004335,12.196747,-1.077745,-0.175232,,,,,,,
1522136711.636670,-0.154447,-0.000915,-1.012116,0.008192,-0.002304,-0.013332,-0.153834,0.000915,-0.988096,0.063746,-0.025421,-0.047182,12.269501,-1.078447,-0.550232,,,,,,,
1522136711.666638,-0.154331,-0.000926,-1.012534,-0.016395,-0.010723,-0.015477,-0.153719,0.000926,-0.988114,0.058596,-0.020137,-0.040496,12.269806,-1.003527,-0.625488,,,,,,,
1522136711.696606,-0.153761,-0.001486,-1.013097,-0.030120,0.032832,-0.008076,-0.153156,0.001486,-0.988201,0.057346,-0.006735,-0.015446,12.571869,-0.929659,-0.400696,,,,,,,
1522136711.726575,-0.152618,-0.002256,-1.013133,-0.018516,0.027332,0.014316,-0.152025,0.002256,-0.988374,0.068194,-0.015211,-0.020919,12.346878,-0.928637,-0.400818,,,,,,,
1522136711.756543,-0.151608,-0.002550,-1.012323,-0.001570,0.019703,0.034585,-0.151027,0.002550,-0.988526,0.066539,-0.022097,-0.021331,13.692627,-1.085146,-0.849487,,,,,,,
1522136711.786511,-0.151100,-0.002484,-1.011280,0.009088,0.012246,0.032474,-0.150525,0.002484,-0.988603,0.067425,-0.015454,-0.004347,13.696823,-0.934710,-0.400085,,,,,,,
1522136711.816479,-0.150562,-0.002449,-1.010370,0.002680,0.009105,0.029270,-0.149994,0.002449,-0.988684,0.078628,-0.007851,-0.036585,13.019485,-1.306444,-0.173889,,,,,,,
1522136711.846448,-0.150458,-0.002119,-1.009447,0.019646,-0.014313,0.030366,-0.149891,0.002119,-0.988700,0.083774,-0.016890,-0.036446,13.096863,-1.156633,-0.024536,,,,,,,
1522136711.876385,-0.150671,-0.002074,-1.008582,-0.009138,-0.016286,0.019687,-0.150101,0.002074,-0.988668,0.081070,-0.002380,-0.017481,12.719040,-1.305162,-0.249084,,,,,,,
1522136711.906354,-0.150984,-0.002415,-1.008747,-0.006820,-0.018166,-0.016535,-0.150411,0.002415,-0.988621,0.088200,-0.009296,-0.014630,12.796570,-1.005587,-0.325256,,,,,,,
1522136711.936322,-0.151665,-0.001533,-1.008754,0.048488,-0.043951,0.002718,-0.151084,0.001533,-0.988520,0.102302,-0.005287,-0.038717,13.922409,-0.785875,-0.550537,,,,,,,
1522136711.966290,-0.152346,-0.000191,-1.008748,0.027266,-0.028926,-0.010103,-0.151758,0.000191,-0.988418,0.099603,0.000008,-0.053391,12.794769,-1.005877,-0.625244,,,,,,,
1522136711.996259,-0.152586,-0.000540,-1.009211,-0.046273,-0.003231,-0.012311,-0.151994,0.000540,-0.988381,0.087526,0.012018,-0.015220,12.496429,-0.929384,-0.475708,,,,,,,
1522136712.026227,-0.151782,-0.001418,-1.009275,0.008180,0.026220,0.012204,-0.151200,0.001418,-0.988502,0.089753,0.006074,-0.017632,13.690842,-1.310061,-0.773621,,,,,,,
1522136712.056195,-0.150933,-0.000152,-1.008253,0.051860,0.020714,0.025024,-0.150361,0.000152,-0.988631,0.090989,-0.012557,-0.033921,13.468689,-1.158846,-0.549255,,,,,,,
1522136712.086163,-0.149806,0.000275,-1.007825,-0.019461,0.043339,0.004710,-0.149246,-0.000275,-0.988800,0.090561,-0.033188,-0.003891,13.097748,-0.707247,-0.626282,,,,,,,
1522136712.116120,-0.148352,-0.001392,-1.008284,-0.064302,0.028646,-0.007023,-0.147808,0.001392,-0.989015,0.077206,-0.035007,0.012040,13.619736,-1.009600,-0.624817,,,,,,,
,,,,,,,,,,,,,,,,25.314958,51.435196,11.096429,0.000000,-1.000000,1522136712.098110,
1522136712.146088,-0.147484,-0.002252,-1.008260,-0.000471,0.002854,0.013288,-0.146949,0.002252,-0.989141,0.105812,-0.038705,0.005346,13.018127,-1.306658,-0.398926,,,,,,,
1522136712.176056,-0.147497,-0.001394,-1.007553,0.038895,-0.025954,0.015480,-0.146962,0.001394,-0.989141,0.110295,-0.029119,-0.010813,12.867966,-1.231142,-0.549316,,,,,,,
1522136712.206024,-0.148155,-0.000866,-1.007342,-0.014398,-0.022526,0.000518,-0.147613,0.000866,-0.989045,0.098755,-0.010631,-0.037277,13.316299,-1.308306,-0.698792,,,,,,,
1522136712.235993,-0.148591,-0.001354,-1.007721,-0.014348,-0.039369,-0.022903,-0.148045,0.001354,-0.988980,0.085347,0.010426,-0.038334,12.417389,-1.378954,-0.398987,,,,,,,
1522136712.265961,-0.148609,-0.001579,-1.008181,-0.011031,-0.000139,-0.011222,-0.148063,0.001579,-0.988977,0.081702,0.003472,-0.018775,12.492386,-1.154665,-0.774841,,,,,,,
1522136712.295929,-0.147963,-0.001977,-1.008129,-0.011123,0.010334,0.013262,-0.147423,0.001977,-0.989071,0.079903,-0.017098,0.011227,13.014526,-1.307253,-0.998901,,,,,,,
1522136712.325897,-0.147475,-0.001951,-1.007450,0.016566,0.003807,0.022890,-0.146941,0.001951,-0.989143,0.083297,-0.032819,-0.009331,12.565735,-1.454775,-0.548523,,,,,,,
1522136712.355866,-0.146878,-0.001544,-1.006949,0.009188,0.003952,0.004770,-0.146350,0.001544,-0.989232,0.087772,-0.043125,-0.053539,11.964569,-1.527147,-0.623596,,,,,,,
1522136712.385834,-0.147150,-0.001533,-1.007027,-0.012260,-0.027804,-0.004805,-0.146619,0.001533,-0.989192,0.094846,-0.041328,-0.056997,13.166153,-1.232775,-0.849182,,,,,,,
1522136712.415802,-0.147820,-0.001922,-1.007388,-0.027156,-0.023469,-0.011215,-0.147282,0.001922,-0.989093,0.095814,-0.026947,-0.056882,12.712433,-1.605730,-0.847900,,,,,,,
1522136712.445770,-0.148100,-0.003010,-1.008030,-0.044207,-0.024450,-0.017616,-0.147559,0.003010,-0.989049,0.096045,-0.015781,-0.033092,12.111420,-1.752962,-0.772644,,,,,,,
1522136712.475739,-0.148667,-0.003496,-1.008599,-0.018611,-0.015033,-0.004825,-0.148119,0.003496,-0.988963,0.081163,-0.008608,-0.039952,13.459564,-1.759325,-1.071899,,,,,,,
1522136712.505707,-0.148173,-0.004030,-1.008348,-0.018649,0.010255,0.024988,-0.147630,0.004030,-0.989034,0.083696,-0.005785,-0.031290,12.567093,-1.454561,-0.323547,,,,,,,
1522136712.535675,-0.147872,-0.004711,-1.007396,-0.025240,-0.012154,0.040987,-0.147332,0.004711,-0.989076,0.086557,-0.010098,-0.019210,12.860779,-1.681551,-0.997498,,,,,,,
1522136712.565643,-0.148010,-0.004871,-1.006131,0.022785,-0.020756,0.037838,-0.147469,0.004871,-0.989055,0.097084,-0.025455,0.007609,13.692032,-1.235003,-0.698914,,,,,,,
1522136712.595612,-0.149056,-0.004070,-1.005126,0.028126,-0.044024,0.018694,-0.148503,0.004070,-0.988903,0.084066,0.014653,-0.008869,12.791168,-1.231096,-0.849365,,,,,,,
1522136712.625580,-0.148846,-0.003515,-1.005050,0.007132,0.006166,-0.008016,-0.148296,0.003515,-0.988937,0.097042,-0.000768,-0.033890,13.168564,-1.307268,-0.323853,,,,,,,
1522136712.655548,-0.148785,-0.003175,-1.004869,0.015457,-0.018452,0.013331,-0.148236,0.003175,-0.988947,0.089856,-0.001619,-0.031561,13.096100,-1.007021,-0.400085,,,,,,,
1522136712.685517,-0.148280,-0.003837,-1.004904,-0.074980,0.024493,-0.013437,-0.147737,0.003837,-0.989019,0.096147,0.000481,-0.039911,12.489243,-1.604433,-0.547974,,,,,,,
1522136712.715485,-0.147463,-0.005513,-1.005639,0.035675,-0.041809,0.004838,-0.146927,0.005513,-0.989132,0.083938,-0.020588,0.011822,12.718582,-1.305239,-0.324097,,,,,,,
1522136712.745453,-0.147345,-0.003900,-1.005227,0.032907,0.044325,-0.003772,-0.146811,0.003900,-0.989157,0.086447,-0.009363,-0.040415,13.699539,-0.934282,0.049927,,,,,,,
1522136712.775421,-0.146518,-0.004458,-1.005014,-0.031474,-0.003458,0.015401,-0.145992,0.004458,-0.989276,0.095699,-0.014803,-0.036680,12.943726,-1.381105,-0.173645,,,,,,,
1522136712.807676,-0.147369,-0.004711,-1.004081,0.014113,-0.050510,0.038937,-0.146834,0.004711,-0.989150,0.083678,-0.024334,0.031035,12.646591,-1.004915,-0.325317,,,,,,,
