timestamp(unix),attitude_roll(radians),attitude_pitch(radians),attitude_yaw(radians),rotation_rate_x(radians/s),rotation_rate_y(radians/s),rotation_rate_z(radians/s),gravity_x(G),gravity_y(G),gravity_z(G),user_acc_x(G),user_acc_y(G),user_acc_z(G),magnetic_field_x(microteslas),magnetic_field_y(microteslas),magnetic_field_z(microteslas),latitude(degree),longitude(degree),altitude(meter),speed(m/s),course(degree),timestamp(unix),User Mark
1523696244.358250,-0.652252,-0.026789,-1.474111,0.240792,-0.049095,-0.089403,-0.606760,0.026786,-0.794433,0.306849,-0.040275,0.160232,1.091248,30.237843,-1.483215,,,,,,,
1523696244.388219,-0.649097,-0.019263,-1.471748,0.210734,0.164494,-0.078988,-0.604355,0.019262,-0.796482,0.238541,-0.084234,0.050495,4.099396,29.926182,0.394531,,,,,,,
,,,,,,,,,,,,,,,,25.318852,51.456105,13.733358,8.010000,89.296875,1523696243.997366,
1523696244.418217,-0.642042,-0.016370,-1.471152,0.002819,0.300578,-0.015347,-0.598752,0.016369,-0.800767,0.157513,-0.120815,-0.083480,6.497208,29.615543,0.546997,,,,,,,
1523696244.448186,-0.629612,-0.018433,-1.473058,-0.160900,0.458223,-0.012425,-0.588731,0.018432,-0.808119,0.114107,-0.099059,-0.280276,8.441299,28.707310,1.076660,,,,,,,
1523696244.478154,-0.618260,-0.024075,-1.477669,-0.278977,0.306630,-0.021950,-0.579450,0.024073,-0.814652,0.119230,0.005636,-0.339981,9.563995,28.477268,1.078125,,,,,,,
1523696244.508122,-0.614520,-0.028872,-1.483295,-0.180777,-0.017219,-0.091876,-0.576326,0.028868,-0.816709,0.186144,0.128663,-0.204348,11.132202,28.244465,0.329834,,,,,,,
1523696244.538090,-0.617415,-0.028593,-1.487040,0.036762,-0.123716,-0.134233,-0.578692,0.028590,-0.815044,0.239840,0.152868,-0.088566,11.123795,27.718983,-0.193115,,,,,,,
1523696244.568059,-0.623238,-0.022229,-1.487263,0.233890,-0.185989,-0.112713,-0.583523,0.022228,-0.811792,0.228955,0.079808,0.011041,11.182312,26.967213,-1.690063,,,,,,,
1523696244.598027,-0.624854,-0.014796,-1.485646,0.212324,0.032807,-0.089515,-0.584915,0.014796,-0.810959,0.181900,-0.016688,-0.015182,11.854874,27.038670,-2.215027,,,,,,,
1523696244.627995,-0.618699,-0.010009,-1.484578,0.091829,0.348400,-0.048356,-0.579946,0.010009,-0.814593,0.105352,-0.099700,-0.120450,10.576309,27.043812,-2.815674,,,,,,,
1523696244.657963,-0.603533,-0.009875,-1.485531,-0.073011,0.515512,-0.029472,-0.567527,0.009875,-0.823295,0.085120,-0.101413,-0.240715,10.723022,26.668232,-2.739075,,,,,,,
1523696244.687932,-0.593304,-0.013626,-1.488919,-0.229250,0.200310,-0.029275,-0.559051,0.013626,-0.829021,0.079681,-0.029144,-0.218129,9.521561,26.523640,-2.739136,,,,,,,
1523696244.717900,-0.591968,-0.019886,-1.496001,-0.331434,-0.062428,-0.107921,-0.557885,0.019885,-0.829680,0.115822,0.034864,-0.181108,9.817963,26.297092,-2.963074,,,,,,,
1523696244.747868,-0.598342,-0.023699,-1.503949,-0.169795,-0.256922,-0.156639,-0.563115,0.023697,-0.826039,0.110157,0.093750,-0.087002,9.287613,25.624699,-2.735657,,,,,,,
1523696244.777836,-0.604874,-0.022945,-1.506914,0.046839,-0.157315,-0.045743,-0.568508,0.022943,-0.822357,0.078457,0.049948,-0.047440,9.657333,25.547291,-3.485107,,,,,,,
1523696244.807805,-0.606233,-0.019669,-1.504198,0.210513,0.032860,0.054335,-0.569666,0.019668,-0.821641,0.058038,-0.063765,-0.128768,8.376999,25.102894,-3.634033,,,,,,,
1523696244.837773,-0.599137,-0.016457,-1.498412,0.138083,0.357892,0.097642,-0.563854,0.016457,-0.825710,0.021007,-0.170509,-0.303791,8.072357,24.953739,-4.158569,,,,,,,
1523696244.867741,-0.588582,-0.017892,-1.494131,-0.004491,0.325782,0.180683,-0.555094,0.017891,-0.831595,0.078195,-0.231407,-0.450937,8.524429,25.026936,-3.933655,,,,,,,
1523696244.897710,-0.584185,-0.021892,-1.489865,-0.042331,-0.021561,0.175676,-0.551387,0.021891,-0.833962,0.094417,-0.196604,-0.407921,7.773422,24.880390,-3.858398,,,,,,,
1523696244.927678,-0.587848,-0.024510,-1.488279,-0.042171,-0.154437,0.030900,-0.554405,0.024508,-0.831886,0.076988,-0.079638,-0.384209,7.774460,25.030308,-3.934021,,,,,,,
1523696244.957646,-0.591596,-0.025677,-1.490251,-0.093769,-0.113210,-0.071471,-0.557502,0.025674,-0.829778,0.076500,0.017493,-0.438106,7.624191,24.731434,-3.482910,,,,,,,
1523696244.987614,-0.597010,-0.027135,-1.495918,-0.182550,-0.254733,-0.163033,-0.561965,0.027132,-0.826715,0.134566,0.079863,-0.309164,6.881409,25.185230,-3.035034,,,,,,,
1523696245.017583,-0.610672,-0.028719,-1.502974,-0.145586,-0.557813,-0.142455,-0.573181,0.028715,-0.818925,0.128815,0.138231,-0.081023,7.484375,25.482517,-3.035950,,,,,,,
1523696245.047535,-0.627052,-0.028737,-1.506462,-0.028247,-0.498047,-0.069970,-0.586518,0.028733,-0.809426,0.107208,0.149093,0.003365,7.262085,25.483967,-2.586121,,,,,,,
,,,,,,,,,,,,,,,,25.318853,51.456131,13.464305,5.490000,90.000000,1523696244.997356,
1523696245.077503,-0.642685,-0.028002,-1.508525,-0.020091,-0.581995,-0.070954,-0.599112,0.027999,-0.800175,0.143957,0.081575,0.091725,6.136230,25.488880,-2.736633,,,,,,,
1523696245.107471,-0.662027,-0.027274,-1.510912,-0.033146,-0.655162,-0.087939,-0.614488,0.027271,-0.788454,0.212022,0.036129,0.216051,5.463501,25.941532,-3.113831,,,,,,,
1523696245.137440,-0.681402,-0.025578,-1.513629,0.013144,-0.610409,-0.122047,-0.629676,0.025575,-0.776436,0.241279,0.029372,0.357140,6.067078,26.164036,-2.889404,,,,,,,
1523696245.167408,-0.696302,-0.020642,-1.515573,0.142523,-0.393588,-0.175443,-0.641248,0.020640,-0.767056,0.262357,0.015050,0.466595,5.313812,26.017124,-3.189209,,,,,,,
1523696245.197376,-0.701525,-0.012112,-1.516712,0.215085,-0.017050,-0.253558,-0.645335,0.012112,-0.763803,0.230617,-0.000332,0.473565,5.535507,25.865833,-3.488464,,,,,,,
1523696245.227344,-0.700173,-0.001545,-1.520529,0.142171,0.008406,-0.374033,-0.644349,0.001545,-0.764730,0.167710,-0.002552,0.418370,4.554535,25.944126,-4.614258,,,,,,,
1523696245.257313,-0.701642,0.007521,-1.529219,-0.011476,-0.035446,-0.430576,-0.645454,-0.007520,-0.763762,0.115516,-0.008959,0.407850,4.248230,25.495197,-4.912598,,,,,,,
1523696245.287281,-0.701112,0.015873,-1.538192,0.092223,0.038433,-0.394352,-0.644986,-0.015872,-0.764029,0.078672,-0.026899,0.393652,4.771866,25.492619,-5.137390,,,,,,,
1523696245.317249,-0.696697,0.027939,-1.541531,0.333895,0.242166,-0.288882,-0.641437,-0.027935,-0.766666,0.052341,-0.033481,0.281070,3.793304,25.271793,-5.361938,,,,,,,
1523696245.347217,-0.689477,0.039648,-1.537724,0.374915,0.154272,-0.042631,-0.635634,-0.039638,-0.770972,0.026579,-0.018132,0.143165,4.911514,24.816395,-5.734558,,,,,,,
1523696245.377216,-0.690615,0.043539,-1.530327,0.122728,-0.077441,0.207812,-0.636407,-0.043525,-0.770124,-0.010153,0.002739,0.089444,5.514938,25.113758,-5.660461,,,,,,,
1523696245.407185,-0.691027,0.033379,-1.526903,-0.409195,0.039789,0.349005,-0.636974,-0.033373,-0.770162,-0.035969,-0.033888,-0.045389,5.665695,24.963444,-5.284790,,,,,,,
1523696245.437153,-0.682404,0.014092,-1.530579,-0.608254,0.520239,0.243966,-0.630598,-0.014092,-0.775982,-0.077197,-0.024895,-0.195774,6.263428,24.735752,-5.283569,,,,,,,
1523696245.467121,-0.660110,0.003291,-1.537798,-0.239017,0.746240,-0.141712,-0.613200,-0.003291,-0.789920,-0.151372,0.016414,-0.381497,6.266571,24.736271,-4.758606,,,,,,,
1523696245.497089,-0.644427,0.011827,-1.544224,0.286324,0.404896,-0.444651,-0.600698,-0.011827,-0.799388,-0.254893,0.065401,-0.507497,6.117645,24.662235,-4.458374,,,,,,,
1523696245.527058,-0.628361,0.026027,-1.550588,0.125014,0.668507,-0.401339,-0.587620,-0.026024,-0.808718,-0.354259,0.009865,-0.699293,6.189636,24.586536,-4.833069,,,,,,,
1523696245.557026,-0.605293,0.027642,-1.555846,-0.218840,0.742874,-0.123579,-0.568785,-0.027639,-0.822021,-0.467073,-0.164103,-0.806275,6.190536,24.586689,-4.683044,,,,,,,
1523696245.586994,-0.586203,0.020600,-1.559535,-0.268920,0.572376,0.116288,-0.553084,-0.020599,-0.832870,-0.445619,-0.298509,-0.818283,5.740402,24.663563,-4.833618,,,,,,,
1523696245.616962,-0.572960,0.011753,-1.557186,-0.135390,0.296757,0.276503,-0.542084,-0.011753,-0.840241,-0.425476,-0.316555,-0.712066,5.066177,24.741596,-4.834229,,,,,,,
1523696245.646931,-0.575685,0.005730,-1.552592,-0.094151,-0.338349,0.214307,-0.544400,-0.005730,-0.838806,-0.106540,-0.167396,-0.341935,5.741898,24.813557,-4.834167,,,,,,,
1523696245.676899,-0.592254,-0.001519,-1.549518,-0.178038,-0.689997,0.232716,-0.558232,0.001519,-0.829683,0.037755,-0.010171,-0.041884,5.822723,25.488041,-4.986816,,,,,,,
1523696245.706867,-0.616654,-0.008112,-1.547825,-0.116248,-0.846622,0.121031,-0.578289,0.008112,-0.815791,0.161206,0.107138,0.260142,5.824066,25.488255,-4.761841,,,,,,,
1523696245.736835,-0.636902,-0.010363,-1.546883,0.013873,-0.509482,0.031293,-0.594675,0.010362,-0.803899,0.240519,0.146345,0.430379,6.868622,25.482655,-5.661255,,,,,,,
1523696245.766804,-0.643945,-0.007645,-1.544537,0.204108,-0.030465,-0.003155,-0.600337,0.007645,-0.799710,0.318995,0.094864,0.457105,6.193802,25.410847,-5.511353,,,,,,,
1523696245.796772,-0.639437,0.001122,-1.538991,0.445500,0.177486,-0.044731,-0.596743,-0.001122,-0.802431,0.349932,0.101341,0.432146,6.413849,25.184406,-5.960327,,,,,,,
1523696245.826740,-0.636685,0.015442,-1.529671,0.625141,0.036580,-0.015693,-0.594462,-0.015441,-0.803975,0.413905,0.105194,0.456013,6.268646,25.934605,-6.413391,,,,,,,
1523696245.856708,-0.638166,0.028627,-1.517283,0.549143,-0.072647,0.131402,-0.595479,-0.028624,-0.802860,0.392735,0.084700,0.460255,5.667450,26.086857,-6.864319,,,,,,,
1523696245.886677,-0.640074,0.036086,-1.505209,0.355851,-0.026847,0.182370,-0.596865,-0.036078,-0.801529,0.326174,0.081992,0.386048,5.666855,26.161640,-7.089600,,,,,,,
1523696245.916645,-0.642502,0.038313,-1.496920,0.115288,-0.108019,0.175876,-0.598760,-0.038304,-0.800011,0.226461,0.013264,0.351296,6.121017,26.759296,-7.391785,,,,,,,
1523696245.946613,-0.646340,0.033011,-1.493603,-0.189301,-0.127706,0.214017,-0.601940,-0.033005,-0.797858,0.129421,-0.021546,0.284278,5.289169,25.938267,-7.163879,,,,,,,
1523696245.976581,-0.650344,0.024075,-1.491742,-0.155435,-0.172557,0.233269,-0.605284,-0.024073,-0.795644,0.047545,-0.005224,0.110387,5.520309,26.237751,-6.640015,,,,,,,
1523696246.006550,-0.659820,0.020009,-1.486496,0.098716,-0.428061,0.210280,-0.612851,-0.020007,-0.789944,-0.033160,-0.005628,-0.014499,6.047394,26.310596,-6.414978,,,,,,,
1523696246.036518,-0.677092,0.019005,-1.479504,0.102145,-0.626702,0.199826,-0.626415,-0.019004,-0.779257,-0.053150,-0.013146,0.071646,5.377060,26.688770,-6.266846,,,,,,,
,,,,,,,,,,,,,,,,25.318853,51.456208,13.703986,5.120000,92.460938,1523696245.997345,
1523696246.066500,-0.694430,0.016593,-1.475507,-0.032128,-0.449270,0.099387,-0.639859,-0.016593,-0.768312,-0.048923,0.009024,0.153810,5.607285,26.988102,-5.892944,,,,,,,
1523696246.096469,-0.700880,0.016575,-1.476418,0.021018,-0.036695,-0.111961,-0.644801,-0.016574,-0.764169,-0.082158,0.003009,0.108316,6.203674,26.535572,-5.740845,,,,,,,
1523696246.126437,-0.693548,0.022666,-1.480133,0.074378,0.461745,-0.292502,-0.639105,-0.022664,-0.768784,-0.179254,-0.020076,-0.083816,5.377960,26.464283,-5.740967,,,,,,,
1523696246.156405,-0.676647,0.030580,-1.486269,0.087952,0.574657,-0.338413,-0.625889,-0.030575,-0.779312,-0.255459,0.029186,-0.218201,4.399109,26.393162,-6.266174,,,,,,,
1523696246.186373,-0.660018,0.036329,-1.493279,-0.125768,0.633052,-0.254462,-0.612726,-0.036321,-0.789459,-0.343557,0.067083,-0.283981,4.696091,26.316456,-6.640747,,,,,,,
1523696246.216342,-0.630355,0.033324,-1.502573,-0.274487,1.160810,-0.149622,-0.589104,-0.033318,-0.807369,-0.370735,-0.042763,-0.501346,4.090744,25.644413,-6.413269,,,,,,,
1523696246.246310,-0.598698,0.031626,-1.506278,-0.002309,0.866715,0.021363,-0.563285,-0.031620,-0.825657,-0.321389,-0.230312,-0.584255,4.307480,25.043064,-6.785767,,,,,,,
1523696246.276278,-0.582351,0.029611,-1.500067,0.034444,0.311240,0.273412,-0.549747,-0.029607,-0.834805,-0.217052,-0.269435,-0.361804,4.238480,25.643375,-6.788208,,,,,,,
1523696246.306246,-0.580577,0.024372,-1.490646,-0.029357,-0.052352,0.320621,-0.548343,-0.024370,-0.835898,-0.077603,-0.226073,-0.092615,5.514313,25.862400,-7.013489,,,,,,,
1523696246.336245,-0.582631,0.018527,-1.482402,-0.076759,0.003581,0.242735,-0.550128,-0.018526,-0.834874,0.018191,-0.112105,0.048924,6.486282,25.782658,-7.387695,,,,,,,
1523696246.366213,-0.579082,0.012781,-1.479723,-0.108671,0.142532,0.137090,-0.547211,-0.012781,-0.836897,0.064972,-0.019812,0.029966,6.262939,25.858814,-7.238098,,,,,,,
1523696246.396182,-0.575781,0.009467,-1.478700,-0.063592,0.113157,0.066830,-0.544465,-0.009467,-0.838730,0.038499,0.007224,-0.029480,5.892899,26.085926,-6.789185,,,,,,,
1523696246.426150,-0.572759,0.004970,-1.478894,-0.185507,0.080443,0.077429,-0.541946,-0.004970,-0.840398,0.021819,-0.005070,-0.098948,5.969696,26.085880,-6.489136,,,,,,,
