timestamp(unix),attitude_roll(radians),attitude_pitch(radians),attitude_yaw(radians),rotation_rate_x(radians/s),rotation_rate_y(radians/s),rotation_rate_z(radians/s),gravity_x(G),gravity_y(G),gravity_z(G),user_acc_x(G),user_acc_y(G),user_acc_z(G),magnetic_field_x(microteslas),magnetic_field_y(microteslas),magnetic_field_z(microteslas),latitude(degree),longitude(degree),altitude(meter),speed(m/s),course(degree),timestamp(unix),User Mark
,,,,,,,,,,,,,,,,25.309753,51.444748,-6.922428,-1.000000,-1.000000,1522138388.086969,
1522138388.161149,-0.268525,-0.069985,-2.838408,0.363059,-0.072645,0.297300,-0.264660,0.069928,-0.961803,0.033200,-0.110211,0.016521,-18.327332,-2.962084,3.117004,,,,,,,
1522138388.191117,-0.267829,-0.065633,-2.828731,0.073321,0.050422,0.275654,-0.264068,0.065586,-0.962271,0.056824,-0.091373,-0.010660,-18.478546,-3.036486,3.042236,,,,,,,
1522138388.221085,-0.265614,-0.069762,-2.820423,-0.165264,0.021848,0.344759,-0.261863,0.069706,-0.962584,0.013969,-0.096378,-0.039872,-18.030045,-3.188509,3.043091,,,,,,,
1522138388.251054,-0.266553,-0.079596,-2.810559,-0.314833,-0.103950,0.457714,-0.262574,0.079512,-0.961630,0.021912,-0.140150,-0.032846,-17.197159,-2.442171,3.115479,,,,,,,
1522138388.281022,-0.268906,-0.091281,-2.798264,-0.248222,-0.164143,0.531349,-0.264570,0.091154,-0.960049,0.010206,-0.164656,-0.025990,-17.347610,-2.441576,3.040405,,,,,,,
1522138388.310990,-0.273928,-0.098751,-2.784071,-0.078593,-0.220723,0.508092,-0.269197,0.098591,-0.958025,0.055925,-0.212101,-0.014646,-16.215317,-1.621828,2.887695,,,,,,,
1522138388.340958,-0.276926,-0.099875,-2.768850,0.177998,-0.103650,0.542262,-0.272037,0.099709,-0.957107,0.047840,-0.255928,-0.035889,-16.667709,-1.769930,2.738098,,,,,,,
1522138388.370927,-0.275893,-0.090192,-2.747790,0.701330,0.006187,0.604341,-0.271299,0.090069,-0.958271,-0.008791,-0.258069,-0.072429,-15.914749,-1.248705,2.361389,,,,,,,
1522138388.400895,-0.274820,-0.067410,-2.723999,0.975716,-0.088517,0.524732,-0.270758,0.067359,-0.960288,0.008215,-0.296088,-0.077584,-14.860443,-0.953218,2.585693,,,,,,,
1522138388.430863,-0.275678,-0.048397,-2.703928,0.519355,-0.031645,0.457201,-0.271881,0.048378,-0.961114,-0.000107,-0.219566,-0.069922,-14.638748,-1.104525,2.286438,,,,,,,
1522138388.460831,-0.274376,-0.049963,-2.691214,-0.211427,0.029024,0.399057,-0.270608,0.049942,-0.961393,-0.009422,-0.115173,-0.063631,-13.963333,-0.882860,1.985901,,,,,,,
1522138388.490800,-0.275423,-0.062574,-2.683649,-0.353656,-0.107188,0.325570,-0.271422,0.062533,-0.960427,0.036726,-0.072940,-0.013999,-13.281921,-0.510485,2.434753,,,,,,,
1522138388.520768,-0.279332,-0.071736,-2.676444,-0.159561,-0.170269,0.312987,-0.275005,0.071675,-0.958767,0.043910,-0.086262,0.036679,-13.730713,-0.433382,2.509155,,,,,,,
1522138388.550736,-0.283863,-0.077318,-2.668995,-0.151959,-0.182796,0.277845,-0.279229,0.077241,-0.957113,0.095773,-0.091249,0.056753,-12.975800,0.013288,2.582764,,,,,,,
1522138388.580704,-0.287860,-0.085918,-2.663602,-0.311500,-0.082288,0.246719,-0.282854,0.085812,-0.955316,0.115297,-0.062207,0.091242,-12.300385,0.234953,2.282227,,,,,,,
1522138388.610673,-0.286291,-0.094768,-2.658420,-0.111445,0.059264,0.293616,-0.281129,0.094626,-0.954993,0.051591,-0.020911,0.062034,-12.300385,0.234953,2.282227,,,,,,,
1522138388.640641,-0.284582,-0.091853,-2.644349,0.465725,-0.038178,0.498723,-0.279572,0.091724,-0.955733,0.052949,-0.021381,0.011809,-12.228241,0.084410,2.057922,,,,,,,
1522138388.670583,-0.280966,-0.073501,-2.623681,0.964456,0.157578,0.439230,-0.276535,0.073435,-0.958194,0.062531,-0.029932,-0.091886,-10.351959,0.076185,2.283813,,,,,,,
1522138388.700552,-0.278108,-0.047264,-2.605651,0.916189,-0.076017,0.279598,-0.274230,0.047247,-0.960503,-0.020737,-0.116400,-0.070198,-11.258224,-0.145403,1.609314,,,,,,,
1522138388.730520,-0.278070,-0.036985,-2.593070,0.092469,0.093598,0.325700,-0.274313,0.036977,-0.960929,0.064260,-0.028310,-0.021020,-10.957962,-0.071840,1.534119,,,,,,,
1522138388.760488,-0.268786,-0.043556,-2.584868,-0.175875,0.301185,0.367907,-0.265309,0.043542,-0.963180,0.013570,-0.020257,-0.097795,-10.126694,0.599348,1.456848,,,,,,,
1522138388.790456,-0.269154,-0.047599,-2.569669,0.118426,-0.199697,0.622229,-0.265615,0.047581,-0.962904,0.030828,-0.097935,-0.120424,-9.833618,0.222502,0.933533,,,,,,,
1522138388.820425,-0.271810,-0.044117,-2.548674,0.451211,-0.065395,0.596768,-0.268214,0.044102,-0.962349,0.028605,-0.182027,-0.130851,-9.684952,0.221617,0.708557,,,,,,,
1522138388.850393,-0.275083,-0.030645,-2.529839,0.605058,-0.237807,0.428705,-0.271499,0.030640,-0.961951,-0.083527,-0.257798,-0.018106,-9.384827,0.370039,0.483154,,,,,,,
1522138388.880361,-0.279497,-0.026423,-2.518472,-0.104899,0.046773,0.255270,-0.275776,0.026420,-0.960859,0.092594,-0.112770,0.042356,-9.233643,0.444426,0.557922,,,,,,,
1522138388.910329,-0.271084,-0.041609,-2.516659,-0.640429,0.263476,0.152360,-0.267544,0.041597,-0.962647,0.109280,0.036497,-0.012893,-8.260483,0.439756,0.258423,,,,,,,
1522138388.940298,-0.266797,-0.055048,-2.515524,-0.190239,0.073476,0.264774,-0.263244,0.055020,-0.963159,0.157088,-0.066174,-0.065955,-7.204666,0.660597,0.858093,,,,,,,
1522138388.970266,-0.274992,-0.054015,-2.499258,0.380479,-0.540547,0.646206,-0.271143,0.053989,-0.961024,0.059153,-0.205981,0.015665,-7.355133,0.885832,0.407104,,,,,,,
1522138389.000234,-0.288271,-0.045944,-2.475331,0.529288,-0.406231,0.684538,-0.283995,0.045928,-0.957725,0.087950,-0.285125,-0.019539,-7.427872,1.111158,0.406189,,,,,,,
1522138389.030202,-0.298520,-0.032771,-2.451002,0.752257,-0.290475,0.614267,-0.293948,0.032765,-0.955260,0.020327,-0.290699,-0.057405,-6.230927,1.030394,0.032104,,,,,,,
1522138389.060171,-0.300665,-0.014229,-2.427528,0.827681,-0.027437,0.505375,-0.296126,0.014229,-0.955043,-0.037813,-0.231072,-0.202046,-6.384796,0.730940,-0.116821,,,,,,,
1522138389.090139,-0.302117,0.001866,-2.409707,0.528489,-0.036146,0.338935,-0.297542,-0.001866,-0.954707,-0.004582,-0.139949,-0.199590,-6.157150,1.179609,-0.418518,,,,,,,
,,,,,,,,,,,,,,,,25.309797,51.444860,-6.857304,-1.000000,-1.000000,1522138389.095965,
1522138389.120107,-0.301256,0.005615,-2.401400,-0.018930,0.049434,0.149836,-0.296715,-0.005615,-0.954949,0.064034,-0.069687,-0.065497,-5.633331,0.877546,-0.117004,,,,,,,
1522138389.150075,-0.301706,-0.002147,-2.400534,-0.366217,-0.070530,0.103890,-0.297149,0.002147,-0.954829,0.093551,-0.088298,0.075236,-6.083801,1.104124,-0.568115,,,,,,,
1522138389.180044,-0.301840,-0.017214,-2.401015,-0.529141,0.088880,0.159016,-0.297233,0.017213,-0.954650,0.098060,-0.042939,0.104552,-6.006683,1.178999,-0.343384,,,,,,,
1522138389.210012,-0.298084,-0.032085,-2.397126,-0.339406,0.041137,0.382972,-0.293538,0.032079,-0.955409,-0.014735,-0.036215,0.037364,-4.877975,1.324308,0.031555,,,,,,,
1522138389.239980,-0.302182,-0.043539,-2.383626,-0.178736,-0.268077,0.629534,-0.297322,0.043526,-0.953785,0.044850,-0.038414,0.007312,-4.803894,1.323820,-0.118408,,,,,,,
1522138389.269949,-0.310572,-0.050121,-2.367639,0.044971,-0.295348,0.498671,-0.305219,0.050100,-0.950963,0.022215,-0.038763,-0.032450,-4.279373,1.321379,-0.193054,,,,,,,
1522138389.299917,-0.318027,-0.048180,-2.351427,0.305206,-0.332259,0.519141,-0.312330,0.048161,-0.948752,-0.064943,-0.135685,-0.040124,-4.051544,1.695204,-0.344482,,,,,,,
1522138389.329885,-0.321934,-0.043886,-2.334448,0.281513,0.024208,0.456964,-0.316097,0.043872,-0.947712,0.040508,-0.166491,0.026829,-3.977600,1.769575,-0.644714,,,,,,,
1522138389.359853,-0.317679,-0.039439,-2.323684,0.239837,0.162318,0.173361,-0.312120,0.039428,-0.949224,0.113023,-0.113617,0.024984,-2.629883,1.538511,-0.643127,,,,,,,
1522138389.389822,-0.310998,-0.030956,-2.318745,0.318643,0.232984,0.068929,-0.305863,0.030951,-0.951572,0.093628,-0.085410,-0.021923,-2.858185,1.389235,-0.942627,,,,,,,
1522138389.419790,-0.304548,-0.021629,-2.310899,0.350484,0.174196,0.258674,-0.299792,0.021627,-0.953759,0.072146,-0.059835,-0.059012,-2.633026,1.313383,-0.792236,,,,,,,
1522138389.449758,-0.301374,-0.010674,-2.297343,0.569296,0.046447,0.365522,-0.296816,0.010673,-0.954875,0.096834,-0.041420,-0.088902,-2.260910,1.161482,-1.016418,,,,,,,
1522138389.479726,-0.299940,0.006204,-2.279749,0.716839,-0.086028,0.415840,-0.295458,-0.006204,-0.955336,-0.025175,-0.045966,-0.165621,-2.038010,1.085249,-1.241089,,,,,,,
1522138389.509695,-0.305743,0.018442,-2.264196,0.404374,-0.110132,0.326132,-0.300950,-0.018441,-0.953462,0.077241,-0.122977,-0.198012,-2.188461,1.085859,-1.316101,,,,,,,
1522138389.539663,-0.306060,0.022175,-2.252045,0.143319,-0.128183,0.415467,-0.301230,-0.022173,-0.953294,-0.081094,-0.067915,-0.157592,-0.917557,0.854841,-1.614563,,,,,,,
1522138389.569631,-0.315140,0.019774,-2.236224,0.055949,-0.352368,0.595695,-0.309889,-0.019772,-0.950567,0.056899,-0.151614,-0.082606,-1.366653,1.081633,-1.840698,,,,,,,
1522138389.599599,-0.330806,0.013087,-2.219270,-0.119901,-0.519812,0.594665,-0.324777,-0.013087,-0.945700,0.057810,-0.144796,-0.021021,-0.617874,0.778563,-1.539124,,,,,,,
1522138389.629568,-0.339039,0.003210,-2.204827,-0.126472,-0.145388,0.541011,-0.332580,-0.003210,-0.943070,0.046859,-0.184397,-0.048752,0.057083,1.224775,-2.290588,,,,,,,
1522138389.659551,-0.343933,-0.005394,-2.191669,-0.158157,-0.119482,0.496203,-0.337187,0.005394,-0.941422,0.001128,-0.256813,0.041962,-0.239151,1.376478,-1.916321,,,,,,,
1522138389.689519,-0.344849,-0.016849,-2.181710,-0.313220,-0.056732,0.392663,-0.338007,0.016848,-0.940993,0.050333,-0.222567,-0.011476,0.281326,1.148771,-2.290161,,,,,,,
1522138389.719487,-0.344776,-0.025652,-2.175222,-0.145267,0.098894,0.261582,-0.337875,0.025649,-0.940841,0.090591,-0.141677,-0.046219,1.260925,1.519499,-2.141113,,,,,,,
1522138389.749456,-0.332860,-0.017105,-2.169296,0.663242,0.596895,0.025141,-0.326700,0.017104,-0.944973,0.148096,-0.110228,-0.135654,1.031891,1.295240,-2.440308,,,,,,,
1522138389.779424,-0.316741,0.015345,-2.158488,1.284731,0.356443,0.001330,-0.311435,-0.015344,-0.950144,0.088550,-0.137167,-0.127081,1.779617,1.066877,-2.439026,,,,,,,
1522138389.809392,-0.314075,0.045912,-2.148406,0.797032,-0.051554,0.015235,-0.308611,-0.045896,-0.950080,0.104372,-0.062518,-0.059563,1.927063,0.990904,-2.738708,,,,,,,
1522138389.839360,-0.313346,0.054800,-2.145656,-0.015451,0.166334,-0.005841,-0.307780,-0.054772,-0.949880,0.165599,0.013604,-0.071513,2.001617,0.765867,-2.437744,,,,,,,
1522138389.869329,-0.302066,0.048475,-2.146947,-0.248343,0.434289,0.049134,-0.297144,-0.048456,-0.953602,0.132639,0.051980,-0.141201,2.079147,1.065443,-2.513916,,,,,,,
1522138389.899297,-0.298275,0.040567,-2.143565,-0.268790,-0.248593,0.307657,-0.293630,-0.040556,-0.955058,-0.041117,0.001967,0.011714,2.983002,1.361525,-2.364685,,,,,,,
1522138389.929265,-0.318501,0.019104,-2.139089,-0.978478,-0.844295,0.347156,-0.313087,-0.019103,-0.949532,0.170554,0.022994,0.114083,2.609512,1.513212,-2.365479,,,,,,,
1522138389.959234,-0.337073,-0.020436,-2.143471,-1.422212,-0.375027,0.261102,-0.330657,0.020435,-0.943530,0.012511,0.042981,0.097018,2.315079,1.889830,-2.067078,,,,,,,
1522138389.989202,-0.344223,-0.063391,-2.148256,-1.315519,-0.274006,0.363374,-0.336787,0.063349,-0.939447,-0.006764,-0.067697,-0.058203,1.792938,2.042402,-1.842957,,,,,,,
1522138390.019170,-0.353824,-0.092497,-2.143138,-0.417154,-0.362967,0.609200,-0.345006,0.092365,-0.934045,0.020085,-0.085773,-0.070548,2.919846,2.187407,-1.767944,,,,,,,
1522138390.049138,-0.362202,-0.092777,-2.121795,0.603109,-0.399909,0.663288,-0.352811,0.092644,-0.931097,-0.022510,-0.161568,0.024054,3.443466,2.184828,-1.992737,,,,,,,
1522138390.079107,-0.373367,-0.082278,-2.102315,0.328781,-0.314924,0.312425,-0.363519,0.082186,-0.927954,0.117257,-0.139910,0.155860,4.116486,2.256346,-2.442627,,,,,,,
,,,,,,,,,,,,,,,,25.309751,51.444919,-7.092808,-1.000000,-1.000000,1522138390.089464,
1522138390.109075,-0.370550,-0.090623,-2.100318,-0.643791,0.413614,0.108524,-0.360642,0.090499,-0.928304,0.042328,-0.087203,0.114415,3.288223,1.885160,-2.366577,,,,,,,
1522138390.139043,-0.354032,-0.119370,-2.107108,-1.177504,0.494321,0.153861,-0.344215,0.119087,-0.931308,0.016044,-0.041664,-0.023557,4.124283,2.631987,-1.769104,,,,,,,
1522138390.169011,-0.349736,-0.153148,-2.113652,-0.986524,0.012338,0.173674,-0.338639,0.152550,-0.928468,0.210328,-0.038139,-0.000518,5.397430,2.625959,-2.068481,,,,,,,
1522138390.198980,-0.351671,-0.162304,-2.113676,0.336095,-0.138061,0.088505,-0.339940,0.161592,-0.926460,0.136113,-0.017961,-0.117729,4.723785,2.629225,-1.843811,,,,,,,
1522138390.228948,-0.359347,-0.133934,-2.097719,1.409273,-0.417947,0.223835,-0.348513,0.133534,-0.927743,-0.002439,-0.101017,-0.080481,4.492218,2.329664,-2.442749,,,,,,,
1522138390.258916,-0.358313,-0.092395,-2.073163,1.690650,0.254610,0.285172,-0.349199,0.092263,-0.932495,0.032824,-0.091333,-0.087341,5.384995,1.875196,-2.890503,,,,,,,
1522138390.288884,-0.332963,-0.037590,-2.044807,2.287943,1.040684,0.261383,-0.326614,0.037582,-0.944410,0.014236,-0.062102,-0.269365,5.522415,0.749357,-3.110962,,,,,,,
1522138390.318853,-0.311570,0.020890,-2.018661,1.811577,0.427227,0.175335,-0.306487,-0.020889,-0.951646,0.077895,-0.081208,-0.247924,5.817871,0.522657,-3.484863,,,,,,,
1522138390.348821,-0.302317,0.048777,-2.004894,0.439826,0.218237,0.158541,-0.297379,-0.048758,-0.953514,0.117935,-0.070002,-0.228859,7.241623,0.441175,-3.558777,,,,,,,
1522138390.378789,-0.301850,0.041002,-1.999829,-0.548736,-0.065098,0.303003,-0.297037,-0.040991,-0.953986,0.068109,-0.093470,-0.065576,6.563202,0.144148,-3.632935,,,,,,,
1522138390.408757,-0.304929,0.015175,-1.995231,-0.854593,-0.200567,0.486179,-0.300191,-0.015175,-0.953758,0.043767,-0.072288,-0.033440,6.872345,0.743284,-3.110229,,,,,,,
1522138390.438726,-0.315743,-0.010988,-1.988714,-0.669138,-0.364130,0.407640,-0.310504,0.010988,-0.950509,0.093600,-0.008745,0.024422,7.693558,0.589216,-3.484192,,,,,,,
1522138390.468694,-0.321089,-0.025261,-1.986335,-0.193860,0.018399,0.091136,-0.315500,0.025258,-0.948589,0.165658,-0.019475,0.022274,7.473389,0.890501,-3.185486,,,,,,,
1522138390.498662,-0.314847,-0.018994,-1.984072,0.444597,0.159738,0.012629,-0.309615,0.018993,-0.950672,0.006743,-0.062664,0.018940,7.318420,0.441130,-3.258789,,,,,,,
1522138390.528630,-0.315475,-0.005888,-1.978482,0.397316,-0.092280,0.056527,-0.310263,0.005888,-0.950632,0.110434,-0.062376,0.082163,7.689362,0.214155,-3.557678,,,,,,,
1522138390.558599,-0.313573,0.000621,-1.975647,0.137183,0.153226,-0.008911,-0.308459,-0.000621,-0.951237,0.133868,-0.003239,0.072316,7.920059,0.513563,-3.108826,,,,,,,
1522138390.588567,-0.307873,-0.000839,-1.975434,-0.209104,0.139872,0.048382,-0.303032,0.000839,-0.952980,0.094475,0.039871,-0.046822,8.818207,0.509230,-3.408325,,,,,,,
1522138390.618535,-0.305301,-0.010403,-1.975439,-0.285611,0.070437,0.125126,-0.300564,0.010402,-0.953705,0.109524,0.045887,-0.034881,8.295029,0.511885,-3.108582,,,,,,,
1522138390.648486,-0.303735,-0.012417,-1.970058,0.207433,-0.055010,0.263066,-0.299063,0.012417,-0.954153,0.056875,0.016697,-0.059657,7.994598,0.513166,-3.183716,,,,,,,
1522138390.678454,-0.309067,-0.004916,-1.958328,0.413669,-0.235208,0.278316,-0.304166,0.004916,-0.952606,0.158521,-0.000628,0.074432,9.341400,0.506575,-3.708008,,,,,,,
1522138390.708421,-0.307383,0.006506,-1.947514,0.576404,0.234660,0.190601,-0.302559,-0.006506,-0.953108,0.159599,0.042334,0.024825,9.189590,0.282331,-3.632202,,,,,,,
1522138390.738389,-0.298426,0.025953,-1.934440,0.868378,0.198350,0.266498,-0.293917,-0.025950,-0.955479,0.022875,-0.001455,-0.124462,9.031967,-0.392107,-3.779602,,,,,,,
1522138390.768358,-0.299042,0.044926,-1.916674,0.655841,-0.081845,0.446692,-0.294307,-0.044911,-0.954655,0.079723,-0.061260,-0.296306,8.651001,-0.990389,-3.777405,,,,,,,
1522138390.798326,-0.305275,0.052505,-1.900600,0.215028,-0.354528,0.391242,-0.300141,-0.052481,-0.952450,-0.053466,-0.143717,-0.333591,8.951004,-0.991732,-3.777222,,,,,,,
1522138390.828295,-0.318717,0.048963,-1.893842,-0.219357,-0.328567,0.177782,-0.312973,-0.048943,-0.948500,0.063248,-0.139121,-0.079897,8.801300,-0.916140,-3.852661,,,,,,,
1522138390.858263,-0.321966,0.037168,-1.894150,-0.403260,-0.022467,0.082501,-0.316213,-0.037160,-0.947960,0.049398,0.000630,0.014122,10.001251,-0.696917,-4.227905,,,,,,,
1522138390.888232,-0.321245,0.030101,-1.894382,-0.052427,0.081013,0.050696,-0.315605,-0.030096,-0.948413,0.120781,0.074255,0.015201,9.328979,-0.693438,-3.778259,,,,,,,
1522138390.918200,-0.319866,0.034268,-1.889834,0.277624,-0.007672,0.153329,-0.314255,-0.034262,-0.948720,-0.032776,0.002462,0.070257,9.627472,-0.844790,-3.777527,,,,,,,
1522138390.948168,-0.320486,0.036714,-1.883362,0.009727,0.033251,0.171200,-0.314816,-0.036706,-0.948443,0.148174,-0.017814,0.154574,10.603302,-0.399782,-4.378784,,,,,,,
1522138390.978136,-0.315247,0.031790,-1.883206,-0.259295,0.260776,-0.050877,-0.309895,-0.031784,-0.950239,0.095326,-0.006256,0.112410,10.227875,-0.622789,-4.078064,,,,,,,
1522138391.008105,-0.302088,0.022959,-1.888122,-0.304050,0.531748,-0.037325,-0.297436,-0.022957,-0.954466,0.140637,-0.021766,0.019651,10.531158,-0.473848,-3.778503,,,,,,,
1522138391.038073,-0.293268,0.018774,-1.887991,-0.026388,0.032549,0.133875,-0.289031,-0.018773,-0.957136,0.107604,0.035115,-0.011172,10.759766,-0.249651,-3.554260,,,,,,,
1522138391.068041,-0.297246,0.019549,-1.882310,0.137035,-0.195206,0.127827,-0.292833,-0.019547,-0.955964,0.147508,0.116212,0.047105,10.304672,-0.622835,-3.778076,,,,,,,
1522138391.098009,-0.305149,0.023279,-1.879000,0.133067,-0.222259,0.046874,-0.300354,-0.023277,-0.953544,0.125427,0.023277,0.066840,10.528763,-0.623995,-3.927917,,,,,,,
,,,,,,,,,,,,,,,,25.309770,51.444927,-7.155979,-1.000000,-1.000000,1522138391.109556,
1522138391.127978,-0.307463,0.025373,-1.875225,0.107757,-0.047497,0.137247,-0.302544,-0.025370,-0.952798,-0.014686,-0.025549,0.060525,11.280533,-0.402452,-4.003418,,,,,,,
1522138391.157946,-0.308822,0.027723,-1.868844,0.209213,0.020919,0.192670,-0.303820,-0.027720,-0.952326,0.144747,-0.032064,0.001429,10.676971,-0.849581,-3.851990,,,,,,,
1522138391.187914,-0.304476,0.035795,-1.859963,0.422795,0.045779,0.206665,-0.299601,-0.035788,-0.953393,-0.032003,-0.038279,-0.142219,10.972748,-1.001360,-4.301147,,,,,,,
1522138391.217883,-0.306573,0.043626,-1.853499,0.182014,-0.005717,0.061613,-0.301506,-0.043612,-0.952466,0.092567,0.011431,-0.146945,11.419144,-1.228594,-4.525085,,,,,,,
1522138391.247851,-0.305051,0.044764,-1.852118,-0.008517,0.109600,0.049636,-0.300041,-0.044749,-0.952876,-0.008721,0.051112,-0.157155,11.793976,-1.380053,-4.299255,,,,,,,
1522138391.277819,-0.298013,0.046481,-1.849035,0.201757,0.208294,0.145587,-0.293305,-0.046464,-0.954889,0.075409,0.015977,-0.212225,11.422729,-1.003389,-4.300903,,,,,,,
1522138391.307786,-0.294787,0.052768,-1.840903,0.289761,0.126989,0.192616,-0.290132,-0.052744,-0.955532,0.081056,0.013880,-0.186634,12.315506,-1.457857,-4.748657,,,,,,,
1522138391.337756,-0.289399,0.059322,-1.833823,0.271125,0.201747,0.145644,-0.284875,-0.059287,-0.956730,0.126107,-0.034493,-0.136471,12.089325,-1.756533,-4.447632,,,,,,,
1522138391.367723,-0.290566,0.062824,-1.825614,0.084555,-0.231608,0.334549,-0.285930,-0.062782,-0.956192,-0.036031,-0.039406,-0.039978,11.860748,-1.980730,-4.671814,,,,,,,
1522138391.397691,-0.297014,0.054417,-1.815220,-0.298074,-0.010062,0.396901,-0.292233,-0.054390,-0.954799,0.167371,-0.046272,-0.188756,13.288834,-1.762011,-4.521973,,,,,,,
1522138391.427660,-0.297149,0.046223,-1.803624,0.028485,-0.167761,0.494266,-0.292482,-0.046206,-0.955154,-0.039244,-0.142850,-0.097855,12.537354,-1.908617,-4.521790,,,,,,,
1522138391.457628,-0.307832,0.045054,-1.789992,0.032800,-0.310312,0.363358,-0.302686,-0.045039,-0.952025,0.155241,-0.152654,0.051055,13.053345,-2.586321,-4.893799,,,,,,,
1522138391.487597,-0.312195,0.040484,-1.785661,-0.178131,-0.025360,0.110384,-0.306897,-0.040472,-0.950882,0.088467,-0.145395,0.086334,13.731598,-1.989824,-5.345886,,,,,,,
1522138391.517565,-0.309763,0.029795,-1.783903,-0.392592,0.143305,0.228325,-0.304698,-0.029791,-0.951983,0.050380,-0.123392,0.008593,13.205139,-2.362078,-4.969666,,,,,,,
1522138391.547533,-0.309880,0.019216,-1.779284,-0.222208,-0.151699,0.262843,-0.304888,-0.019215,-0.952194,0.154513,-0.121288,-0.021118,13.357697,-2.287462,-4.669800,,,,,,,
1522138391.577502,-0.314441,0.015094,-1.773181,0.025903,-0.131709,0.202277,-0.309250,-0.015093,-0.950861,0.152298,-0.051756,0.016092,13.431473,-2.138247,-5.120422,,,,,,,
1522138391.607470,-0.316279,0.023348,-1.764291,0.513019,-0.034332,0.236634,-0.310947,-0.023346,-0.950140,0.068897,-0.025101,0.119437,13.508408,-1.988512,-5.045959,,,,,,,
1522138391.637438,-0.317012,0.035650,-1.754284,0.371654,-0.025746,0.122511,-0.311530,-0.035643,-0.949567,0.029716,0.033277,0.076185,14.323639,-2.517931,-5.793396,,,,,,,
1522138391.667410,-0.319953,0.037336,-1.752437,-0.103490,-0.191475,-0.016200,-0.314303,-0.037327,-0.948589,-0.026533,0.060765,0.010265,14.473648,-2.967852,-5.041565,,,,,,,
1522138391.697379,-0.323696,0.033781,-1.755677,-0.153904,-0.030741,-0.037713,-0.317891,-0.033775,-0.947525,0.026509,0.132651,-0.024063,13.951508,-2.590654,-5.193359,,,,,,,
1522138391.727347,-0.322117,0.028819,-1.756271,-0.168953,0.038850,0.043194,-0.316444,-0.028815,-0.948173,0.085197,0.160041,-0.069603,13.949707,-2.590944,-5.493347,,,,,,,
1522138391.757315,-0.326432,0.023734,-1.757129,-0.165103,-0.307461,0.028624,-0.320575,-0.023731,-0.946926,0.055515,0.056477,-0.011402,14.998901,-2.446047,-5.868408,,,,,,,
1522138391.787282,-0.341565,0.013268,-1.758405,-0.429374,-0.612127,0.077755,-0.334933,-0.013268,-0.942149,0.025271,-0.030983,0.034296,14.170029,-2.517839,-6.393555,,,,,,,
1522138391.817252,-0.355827,-0.004941,-1.763572,-0.687303,-0.404561,-0.033460,-0.348362,0.004941,-0.937347,0.010990,0.037509,0.059860,14.398911,-1.994097,-6.620483,,,,,,,
1522138391.847219,-0.357482,-0.026484,-1.775016,-0.885892,0.181130,-0.141818,-0.349794,0.026481,-0.936452,0.007463,0.198266,-0.015025,14.180511,-1.467897,-6.397705,,,,,,,
1522138391.877187,-0.344865,-0.051218,-1.791373,-1.018799,0.590648,-0.304294,-0.337627,0.051195,-0.939887,-0.030110,0.271604,-0.041238,14.634979,-1.019930,-6.399292,,,,,,,
1522138391.907156,-0.326692,-0.080833,-1.811495,-1.240539,0.733166,-0.244929,-0.319864,0.080745,-0.944016,-0.139410,0.127797,0.002305,16.151093,0.323683,-5.953918,,,,,,,
1522138391.937124,-0.296033,-0.116227,-1.822486,-1.162670,1.273682,0.234063,-0.289760,0.115965,-0.950048,-0.143010,-0.052061,-0.044978,16.081192,0.474592,-5.354553,,,,,,,
1522138391.967093,-0.259291,-0.145377,-1.815950,-0.625209,1.049995,0.574594,-0.253691,0.144865,-0.956376,-0.047685,-0.110442,-0.046569,17.436691,0.619169,-4.679443,,,,,,,
1522138391.997061,-0.234722,-0.157981,-1.800101,-0.030616,0.594510,0.611732,-0.229676,0.157325,-0.960467,0.012315,-0.195304,0.022723,18.260162,0.690092,-5.054260,,,,,,,
1522138392.027030,-0.213328,-0.153951,-1.782040,0.433877,0.694157,0.481978,-0.209210,0.153344,-0.965773,0.002331,-0.368935,-0.035143,19.160126,0.686049,-5.053833,,,,,,,
1522138392.056998,-0.192249,-0.139673,-1.770084,0.650279,0.231608,0.146963,-0.189206,0.139219,-0.972018,0.047712,-0.435926,-0.030973,19.081375,0.311399,-5.052368,,,,,,,
1522138392.086966,-0.184170,-0.120648,-1.769906,0.584078,0.489552,-0.244401,-0.181799,0.120355,-0.975942,0.072806,-0.431390,-0.126169,19.604980,0.308821,-5.277100,,,,,,,
,,,,,,,,,,,,,,,,25.309764,51.444956,-7.162632,-1.000000,-1.000000,1522138392.080977,
1522138392.116934,-0.171702,-0.100450,-1.774956,0.715900,0.313105,-0.285670,-0.169999,0.100282,-0.980329,0.087540,-0.424851,-0.139545,20.282227,0.306150,-4.901794,,,,,,,
1522138392.146903,-0.169166,-0.076252,-1.776159,0.770954,-0.027463,-0.079629,-0.167871,0.076178,-0.982861,0.052270,-0.325919,-0.053501,20.279099,-0.143618,-4.674927,,,,,,,
1522138392.176871,-0.170904,-0.057109,-1.773813,0.530457,-0.014518,-0.019100,-0.169796,0.057077,-0.983825,0.151211,-0.032694,0.102554,21.400146,-0.224184,-5.199097,,,,,,,
1522138392.206839,-0.165300,-0.047007,-1.774573,0.189759,0.295335,-0.140071,-0.164367,0.046990,-0.985279,0.164214,0.095893,0.073857,20.350037,-0.593859,-4.598145,,,,,,,
1522138392.236807,-0.155456,-0.047338,-1.779495,-0.192233,0.333543,-0.151042,-0.154658,0.047320,-0.986834,0.120875,0.050244,-0.008802,20.804962,-0.145830,-4.524719,,,,,,,
1522138392.266776,-0.144112,-0.055900,-1.781818,-0.293244,0.438549,0.064013,-0.143390,0.055871,-0.988088,0.160876,0.016211,-0.045939,22.002228,-0.376284,-4.598206,,,,,,,
1522138392.296744,-0.132920,-0.059863,-1.777433,-0.000293,0.236964,0.219995,-0.132292,0.059827,-0.989404,0.120527,0.079882,-0.170890,21.701218,-0.974108,-3.770935,,,,,,,
1522138392.326712,-0.125819,-0.063264,-1.768224,-0.091768,0.216144,0.341423,-0.125237,0.063222,-0.990111,0.180565,0.141246,-0.301302,21.549423,-1.198351,-3.695129,,,,,,,
1522138392.356680,-0.124377,-0.063072,-1.758710,0.185548,-0.123260,0.305738,-0.123810,0.063030,-0.990302,0.144623,0.144429,-0.285378,21.772919,-1.349352,-3.694397,,,,,,,
1522138392.386649,-0.134359,-0.051605,-1.748672,0.560956,-0.495842,0.268034,-0.133777,0.051582,-0.989668,0.116138,0.107307,-0.156801,21.845200,-1.350130,-4.144348,,,,,,,
1522138392.416617,-0.151724,-0.033590,-1.738919,0.677241,-0.598705,0.196834,-0.151057,0.033583,-0.987954,0.119837,0.029924,-0.032248,21.766769,-1.649843,-4.218201,,,,,,,
1522138392.446584,-0.168212,-0.014255,-1.730096,0.666750,-0.558305,0.196789,-0.167403,0.014255,-0.985785,0.100768,-0.036288,0.054053,22.058212,-1.652590,-5.643066,,,,,,,
1522138392.476554,-0.182155,-0.001528,-1.720620,0.279935,-0.304940,0.269758,-0.181149,0.001528,-0.983454,0.096890,-0.120120,0.117808,21.307648,-1.799059,-5.492798,,,,,,,
1522138392.506521,-0.181392,-0.003114,-1.711030,-0.128591,0.151128,0.384075,-0.180398,0.003114,-0.983589,0.093972,-0.165925,0.002922,21.525696,-1.950945,-6.392151,,,,,,,
1522138392.536489,-0.184878,-0.007083,-1.695289,0.079042,-0.381478,0.646889,-0.183822,0.007083,-0.982934,0.068695,-0.222247,-0.027213,22.045898,-2.253572,-6.690674,,,,,,,
1522138392.566458,-0.200094,-0.005550,-1.673389,0.194635,-0.486339,0.707824,-0.198758,0.005550,-0.980033,0.115873,-0.209590,0.045508,21.586349,-3.076738,-6.912537,,,,,,,
1522138392.596426,-0.215681,-0.003343,-1.656088,0.109734,-0.675541,0.444758,-0.214012,0.003343,-0.976825,0.043617,-0.179063,0.079822,20.908813,-3.148989,-7.212646,,,,,,,
1522138392.626395,-0.236086,-0.007455,-1.645398,-0.269487,-0.573106,0.366591,-0.233892,0.007455,-0.972234,-0.024073,-0.176355,0.155477,21.130188,-3.150576,-7.812500,,,,,,,
1522138392.656368,-0.242024,-0.023260,-1.640104,-0.656789,0.034533,0.226104,-0.239604,0.023258,-0.970592,0.091990,-0.040699,0.023815,20.833237,-3.298494,-7.062073,,,,,,,
1522138392.686337,-0.232123,-0.043312,-1.640150,-0.606541,0.423903,0.141581,-0.229828,0.043298,-0.972268,0.096649,0.089484,-0.098533,20.840424,-2.848070,-6.613831,,,,,,,
1522138392.716305,-0.225318,-0.057577,-1.638659,-0.337355,0.031895,0.185855,-0.223046,0.057545,-0.973108,0.135705,0.104823,-0.080222,21.741867,-2.702135,-6.614014,,,,,,,
1522138392.746274,-0.230221,-0.063804,-1.634112,-0.046332,-0.290900,0.199188,-0.227728,0.063761,-0.971635,0.147528,0.076803,0.066300,20.988022,-3.223513,-6.387329,,,,,,,
1522138392.776242,-0.234320,-0.062888,-1.626488,0.156445,0.005658,0.266167,-0.231722,0.062846,-0.970750,0.081026,0.022069,0.062379,20.913330,-3.372881,-6.086731,,,,,,,
1522138392.806210,-0.229964,-0.061825,-1.617659,0.100577,0.155706,0.256376,-0.227507,0.061785,-0.971814,0.032317,0.062818,0.005109,21.961044,-3.377962,-6.461243,,,,,,,
1522138392.836179,-0.212202,-0.062660,-1.609798,0.041107,0.680877,0.240895,-0.210200,0.062619,-0.975651,0.034571,0.083285,-0.134090,22.033524,-4.127474,-5.633179,,,,,,,
1522138392.866147,-0.198404,-0.061819,-1.601766,0.160423,0.187295,0.274512,-0.196729,0.061779,-0.978510,0.063748,0.020756,-0.184241,22.189041,-3.752871,-5.334595,,,,,,,
1522138392.896114,-0.202257,-0.055417,-1.591899,0.340685,-0.334841,0.266649,-0.200572,0.055389,-0.978112,0.110820,-0.025497,-0.113685,21.131439,-4.423250,-5.482422,,,,,,,
1522138392.926082,-0.207855,-0.045524,-1.585290,0.392656,-0.151977,0.082171,-0.206148,0.045508,-0.977462,0.096132,-0.089285,-0.174821,21.801315,-4.801500,-5.705627,,,,,,,
1522138392.956051,-0.225707,-0.035540,-1.579160,0.298036,-0.905743,0.171291,-0.223654,0.035532,-0.974021,0.055930,-0.079783,0.000983,21.576324,-4.126604,-6.833435,,,,,,,
1522138392.986019,-0.251521,-0.033939,-1.573930,-0.037333,-0.751575,0.124011,-0.248734,0.033932,-0.967977,0.116150,-0.064465,0.169424,22.770706,-4.282656,-7.507202,,,,,,,
1522138393.015987,-0.261767,-0.035311,-1.572116,0.005492,0.079109,-0.001470,-0.258626,0.035304,-0.965332,0.115804,-0.072825,0.136093,21.717148,-4.727770,-7.355896,,,,,,,
1522138393.045955,-0.247217,-0.035517,-1.575142,-0.114383,0.601892,-0.107573,-0.244552,0.035510,-0.968986,-0.012177,-0.113253,-0.094949,22.243484,-4.729906,-7.130676,,,,,,,
1522138393.075924,-0.234443,-0.041654,-1.575248,-0.190909,0.235984,0.123958,-0.232100,0.041642,-0.971800,0.079573,0.007949,-0.033220,22.995407,-4.583223,-7.055847,,,,,,,
,,,,,,,,,,,,,,,,25.309787,51.444990,-7.294865,-1.000000,-1.000000,1522138393.082814,
1522138393.105892,-0.233708,-0.041763,-1.572576,0.141371,-0.091275,0.002003,-0.231384,0.041751,-0.971966,0.147064,0.115476,-0.021030,22.026596,-4.278337,-6.532532,,,,,,,
1522138393.135860,-0.235940,-0.032551,-1.575563,0.405415,-0.089013,-0.263117,-0.233633,0.032545,-0.971780,0.111913,0.060519,0.051721,22.923553,-4.357744,-6.906738,,,,,,,
1522138393.165829,-0.240094,-0.017894,-1.582107,0.351931,-0.207292,-0.347221,-0.237756,0.017893,-0.971160,0.091973,-0.085962,0.042235,22.697372,-4.207186,-7.357483,,,,,,,
1522138393.195797,-0.254488,-0.011892,-1.588097,0.048638,-0.709450,-0.153016,-0.251732,0.011891,-0.967724,0.074608,-0.138219,0.074886,22.546768,-4.131731,-7.582886,,,,,,,
1522138393.225765,-0.266713,-0.015416,-1.590057,-0.239114,-0.068674,0.096527,-0.263531,0.015416,-0.964528,-0.030826,-0.111180,0.001500,23.440735,-4.061876,-8.707764,,,,,,,
1522138393.255733,-0.260153,-0.022285,-1.582951,-0.017820,0.280767,0.343542,-0.257165,0.022283,-0.966111,0.050225,0.015070,-0.174026,23.446884,-3.985994,-7.808044,,,,,,,
1522138393.285702,-0.250397,-0.016240,-1.573449,0.429304,0.302947,0.203207,-0.247756,0.016240,-0.968686,0.063811,-0.084919,-0.280627,23.144943,-4.359346,-7.506714,,,,,,,
1522138393.315670,-0.250442,-0.004681,-1.563294,0.473665,-0.432988,0.274308,-0.247830,0.004681,-0.968792,0.063351,-0.152340,-0.164356,23.063812,-4.884127,-7.654602,,,,,,,
1522138393.345639,-0.273968,0.005284,-1.550643,0.341147,-0.851794,0.343877,-0.270550,-0.005284,-0.962691,0.068768,-0.142772,0.052962,22.532059,-4.882860,-8.779846,,,,,,,
1522138393.375607,-0.298110,0.005042,-1.540035,-0.123505,-0.642497,0.361438,-0.293710,-0.005042,-0.955881,-0.028433,-0.141656,0.217493,22.831284,-4.734575,-9.155334,,,,,,,
1522138393.405576,-0.297660,-0.014619,-1.528191,-0.820806,0.586436,0.830652,-0.293252,0.014618,-0.955923,-0.145163,-0.258194,0.163183,23.125748,-5.111208,-9.453674,,,,,,,
1522138393.435544,-0.267918,-0.052345,-1.502901,-0.885328,0.948237,1.233018,-0.264361,0.052321,-0.963003,0.102725,-0.183333,0.136130,23.948486,-5.789156,-8.700562,,,,,,,
1522138393.465512,-0.246685,-0.073444,-1.482200,-0.158811,0.739802,0.546492,-0.243532,0.073378,-0.967113,0.163927,-0.232451,-0.005253,24.326935,-5.940035,-7.874756,,,,,,,
1522138393.495479,-0.232235,-0.073630,-1.473342,0.015786,-0.203121,0.237501,-0.229530,0.073563,-0.970518,-0.059228,-0.207337,-0.324175,25.376602,-6.244295,-7.423035,,,,,,,
1522138393.525449,-0.253632,-0.076939,-1.463826,-0.051588,-0.714374,0.431896,-0.250179,0.076863,-0.965144,0.000698,-0.060750,-0.068700,24.100601,-6.388491,-7.348083,,,,,,,
1522138393.555416,-0.264274,-0.081285,-1.454304,-0.129634,-0.287539,0.205509,-0.260346,0.081195,-0.962095,0.130677,0.062283,-0.091921,24.093552,-6.689135,-8.021851,,,,,,,
1522138393.585384,-0.275018,-0.087660,-1.452815,-0.208567,-0.420330,0.076657,-0.270521,0.087548,-0.958725,0.043242,0.049690,-0.040009,24.245789,-6.689440,-7.646790,,,,,,,
1522138393.615352,-0.291237,-0.093631,-1.453779,-0.184157,-0.572719,-0.024382,-0.285880,0.093494,-0.953694,0.090110,0.083844,0.096043,24.467468,-6.616106,-8.322021,,,,,,,
1522138393.645321,-0.308144,-0.096267,-1.458107,-0.060444,-0.518919,-0.159687,-0.301886,0.096118,-0.948486,0.098334,0.087567,0.131241,23.864212,-6.763689,-8.621704,,,,,,,
1522138393.675261,-0.318776,-0.092409,-1.460032,0.214556,-0.198783,0.002166,-0.312067,0.092278,-0.945568,0.041361,0.065238,0.189464,24.464325,-6.392000,-9.222900,,,,,,,
1522138393.705229,-0.311983,-0.087943,-1.455011,0.152304,0.576257,0.119610,-0.305760,0.087830,-0.948049,0.095326,0.034729,0.030721,24.390991,-6.541140,-8.697327,,,,,,,
1522138393.735197,-0.286811,-0.082192,-1.449764,0.331997,0.895604,0.127941,-0.281940,0.082099,-0.955913,0.039722,-0.014594,-0.318165,25.068359,-6.843279,-7.795776,,,,,,,
1522138393.765166,-0.264521,-0.070779,-1.439614,0.519293,0.464723,0.285160,-0.260793,0.070720,-0.962801,0.046178,-0.037761,-0.437925,26.112183,-7.373125,-7.943176,,,,,,,
1522138393.795134,-0.262916,-0.057741,-1.424992,0.559193,-0.272493,0.390349,-0.259465,0.057709,-0.964027,0.079548,-0.088760,-0.269356,25.439163,-7.444658,-7.493225,,,,,,,
1522138393.825102,-0.279674,-0.043021,-1.409779,0.647043,-0.748328,0.330152,-0.275787,0.043007,-0.960256,0.103210,-0.092873,0.040670,25.504715,-7.671144,-8.692261,,,,,,,
1522138393.855071,-0.294751,-0.028684,-1.397540,0.489817,-0.257146,0.195295,-0.290382,0.028680,-0.956481,0.094352,-0.126733,0.152724,26.398392,-7.900835,-9.365906,,,,,,,
1522138393.885039,-0.291505,-0.019150,-1.390395,0.275276,0.374097,0.113513,-0.287342,0.019148,-0.957637,0.043995,-0.223555,0.057093,25.490784,-8.796526,-9.137756,,,,,,,
1522138393.915007,-0.271054,-0.016327,-1.384706,0.068467,0.816882,0.231195,-0.267712,0.016326,-0.963361,0.001690,-0.290282,-0.165774,25.792587,-8.797579,-8.837585,,,,,,,
1522138393.944975,-0.251149,-0.016701,-1.374072,0.141767,0.470106,0.410599,-0.248482,0.016701,-0.968492,0.091225,-0.302147,-0.222670,27.145081,-8.728365,-8.537170,,,,,,,
1522138393.974944,-0.243402,-0.016488,-1.359727,0.081763,0.031943,0.483457,-0.240973,0.016487,-0.970392,0.085745,-0.278694,-0.115714,27.292984,-9.253511,-8.010010,,,,,,,
1522138394.004912,-0.252650,-0.018312,-1.346929,0.014089,-0.412428,0.383698,-0.249929,0.018310,-0.968091,0.088781,-0.280716,0.115216,26.911240,-9.477541,-8.759277,,,,,,,
1522138394.034880,-0.260709,-0.024206,-1.336280,-0.169606,-0.182453,0.386516,-0.257690,0.024204,-0.965924,0.033401,-0.292209,0.185849,27.358673,-9.554857,-9.058838,,,,,,,
1522138394.064848,-0.262665,-0.032937,-1.327395,-0.223573,0.111254,0.343565,-0.259515,0.032931,-0.965177,0.048241,-0.253482,0.228682,26.759613,-9.776628,-8.533203,,,,,,,
1522138394.094817,-0.250137,-0.043850,-1.319912,-0.340221,0.531228,0.349452,-0.247299,0.043836,-0.967947,0.001937,-0.185331,0.082022,27.432648,-10.154360,-8.231384,,,,,,,
,,,,,,,,,,,,,,,,25.309821,51.445073,-7.449039,-1.000000,-1.000000,1522138394.085559,
1522138394.124785,-0.228878,-0.058882,-1.312066,-0.453149,0.848027,0.370353,-0.226491,0.058848,-0.972234,0.050466,-0.080699,-0.047267,28.564789,-9.709002,-7.782593,,,,,,,
1522138394.154753,-0.204616,-0.072691,-1.305043,-0.353401,0.630417,0.301395,-0.202655,0.072627,-0.976553,0.041659,0.010991,-0.165704,28.492523,-10.157473,-6.580811,,,,,,,
1522138394.184721,-0.193223,-0.081499,-1.296670,-0.125135,0.163062,0.346777,-0.191386,0.081409,-0.978133,0.097972,0.009289,-0.169145,28.644470,-10.232714,-6.130432,,,,,,,
1522138394.214690,-0.190676,-0.082868,-1.287056,0.091759,0.131045,0.289433,-0.188873,0.082773,-0.978507,0.108505,0.029272,-0.193963,29.090576,-10.759493,-5.903076,,,,,,,
1522138394.244658,-0.187947,-0.079636,-1.279536,0.192406,-0.145938,0.201355,-0.186250,0.079551,-0.979276,0.095674,0.036171,-0.136324,29.090424,-10.909258,-5.677551,,,,,,,
1522138394.274626,-0.196644,-0.076490,-1.273045,0.074139,-0.342130,0.188673,-0.194808,0.076416,-0.977860,0.090636,-0.014007,-0.029083,28.937424,-10.759325,-6.428223,,,,,,,
1522138394.304594,-0.206639,-0.078022,-1.268237,-0.055577,-0.275587,0.141620,-0.204547,0.077943,-0.975748,0.090030,-0.016679,0.069926,29.535294,-10.837236,-6.652588,,,,,,,
1522138394.334563,-0.204193,-0.078557,-1.264096,0.081012,0.197869,0.157241,-0.202152,0.078476,-0.976205,0.032001,-0.050995,-0.085578,29.312088,-10.835939,-6.352722,,,,,,,
1522138394.364531,-0.198828,-0.077767,-1.258117,0.025256,0.168108,0.177477,-0.196924,0.077688,-0.977336,0.053110,-0.053518,-0.171193,29.758957,-11.287722,-6.125610,,,,,,,
1522138394.394499,-0.200910,-0.076598,-1.252714,0.151144,-0.309406,0.191896,-0.198976,0.076523,-0.977012,0.042253,-0.077682,-0.082970,29.604294,-11.437548,-6.650146,,,,,,,
1522138394.424468,-0.209894,-0.070437,-1.243704,0.286712,-0.207314,0.284591,-0.207840,0.070379,-0.975628,0.049804,-0.149663,0.092815,30.279877,-11.290743,-6.800415,,,,,,,
1522138394.454436,-0.213283,-0.063389,-1.234587,0.263879,-0.140915,0.217386,-0.211245,0.063346,-0.975378,0.066363,-0.193900,0.122702,30.724442,-11.518267,-7.324219,,,,,,,
1522138394.484404,-0.212163,-0.059974,-1.226856,0.098750,0.193054,0.231844,-0.210196,0.059938,-0.975820,0.038794,-0.207979,0.066839,30.122528,-11.665636,-7.398987,,,,,,,
1522138394.514372,-0.201382,-0.059079,-1.220375,0.093213,0.323090,0.177365,-0.199674,0.059045,-0.978082,0.118040,-0.185601,-0.085059,30.651108,-11.667406,-6.798706,,,,,,,
1522138394.544341,-0.202456,-0.053782,-1.215455,0.191031,-0.285752,0.138624,-0.200785,0.053756,-0.978159,0.093744,-0.152617,0.064433,31.167526,-12.120409,-7.471619,,,,,,,
1522138394.574309,-0.210874,-0.050020,-1.207553,0.159675,-0.189057,0.299408,-0.209052,0.049999,-0.976625,0.102073,-0.284389,0.177294,31.614090,-12.422487,-7.545227,,,,,,,
1522138394.604277,-0.212154,-0.048036,-1.197755,0.085235,0.059078,0.250077,-0.210323,0.048018,-0.976452,0.100307,-0.252715,0.155483,30.864273,-12.493959,-7.395264,,,,,,,
1522138394.634245,-0.200458,-0.048979,-1.191832,-0.035974,0.575181,0.188728,-0.198879,0.048960,-0.978800,0.007366,-0.230982,-0.056249,31.764404,-12.797487,-6.868591,,,,,,,
1522138394.664233,-0.183708,-0.051793,-1.185992,-0.066100,0.342186,0.237964,-0.182431,0.051770,-0.981855,0.037793,-0.166546,-0.205386,31.691666,-13.021410,-6.117737,,,,,,,
1522138394.694201,-0.181538,-0.057818,-1.177541,-0.229738,-0.064104,0.350128,-0.180241,0.057785,-0.981924,0.081944,-0.151795,-0.132838,31.536270,-13.470873,-6.266052,,,,,,,
1522138394.724169,-0.182324,-0.069131,-1.166161,-0.317154,-0.014091,0.369201,-0.180883,0.069076,-0.981076,0.069356,-0.121887,-0.121127,32.738022,-13.026720,-6.717224,,,,,,,
1522138394.754138,-0.185173,-0.077483,-1.156566,-0.149085,-0.179048,0.346048,-0.183564,0.077405,-0.979955,0.049790,-0.100782,-0.040491,31.910049,-13.547625,-6.340576,,,,,,,
1522138394.784106,-0.187011,-0.082619,-1.148572,-0.115300,0.110524,0.258400,-0.185288,0.082525,-0.979213,-0.018081,-0.075872,-0.010930,31.604980,-13.921465,-6.564209,,,,,,,
1522138394.814075,-0.170463,-0.084728,-1.136908,0.080422,0.643520,0.247370,-0.169030,0.084626,-0.981971,-0.034202,-0.120103,-0.308968,32.586823,-13.774996,-5.664307,,,,,,,
1522138394.844043,-0.166484,-0.080821,-1.122848,0.158727,-0.239926,0.434767,-0.165175,0.080733,-0.982954,-0.015810,-0.113097,-0.211946,31.758881,-14.071260,-5.663574,,,,,,,
1522138394.874011,-0.174192,-0.083477,-1.098882,-0.080023,-0.317356,0.496482,-0.172709,0.083380,-0.981437,0.004053,-0.187689,0.019767,32.272171,-14.974016,-6.109619,,,,,,,
1522138394.903980,-0.180778,-0.087231,-1.080991,-0.022334,-0.170252,0.411128,-0.179111,0.087121,-0.979964,-0.060543,-0.195412,-0.016160,32.720810,-14.976259,-6.334412,,,,,,,
1522138394.933948,-0.183371,-0.092554,-1.060666,-0.198553,-0.000553,0.365020,-0.181565,0.092422,-0.979026,-0.070083,-0.176437,-0.037591,32.415894,-15.424959,-6.407776,,,,,,,
1522138394.963915,-0.182511,-0.100906,-1.050132,-0.263056,-0.128385,0.132804,-0.180576,0.100735,-0.978389,0.035923,-0.075115,0.007747,32.338501,-15.574770,-6.557190,,,,,,,
1522138394.993883,-0.185956,-0.107127,-1.039001,-0.203487,0.038424,0.114567,-0.183826,0.106923,-0.977126,0.033496,-0.089528,0.010543,33.241592,-15.129045,-6.783569,,,,,,,
1522138395.023852,-0.189183,-0.105053,-1.028648,0.180739,-0.291938,0.265427,-0.187020,0.104860,-0.976744,0.001885,-0.126405,0.011625,31.889252,-15.497744,-6.557739,,,,,,,
1522138395.053820,-0.196050,-0.098108,-1.006084,0.304406,-0.339340,0.464823,-0.193860,0.097951,-0.976127,0.018689,-0.166707,0.116416,32.333847,-15.725267,-7.081604,,,,,,,
1522138395.083788,-0.205711,-0.092613,-0.984013,0.232624,-0.297232,0.547834,-0.203388,0.092481,-0.974721,0.010990,-0.229810,0.208745,33.001907,-15.879168,-7.980652,,,,,,,
,,,,,,,,,,,,,,,,25.309839,51.445102,-7.356968,-1.000000,-1.000000,1522138395.091659,
1522138395.113757,-0.207629,-0.089610,-0.965666,0.179764,0.062419,0.347104,-0.205314,0.089490,-0.974596,-0.016778,-0.231046,0.186938,32.474533,-16.251574,-7.754456,,,,,,,
1522138395.143725,-0.195934,-0.086012,-0.947741,0.177850,0.427827,0.212488,-0.193963,0.085906,-0.977240,-0.030677,-0.251296,-0.007409,32.624084,-16.701571,-7.077576,,,,,,,
1522138395.173693,-0.196750,-0.085276,-0.936472,-0.064381,-0.234718,0.226813,-0.194773,0.085173,-0.977143,-0.028204,-0.161650,0.073182,32.096558,-16.549868,-7.753418,,,,,,,
1522138395.203661,-0.194971,-0.091238,-0.921785,-0.123331,0.150298,0.195491,-0.192933,0.091112,-0.976973,0.045365,-0.196153,-0.004488,33.443375,-17.005693,-7.525940,,,,,,,
1522138395.233630,-0.185915,-0.089087,-0.912162,0.256072,0.418499,0.150757,-0.184113,0.088969,-0.978870,0.019730,-0.159098,-0.229916,33.815369,-17.307375,-7.524597,,,,,,,
1522138395.263598,-0.174330,-0.081221,-0.895061,0.287728,0.241155,0.274563,-0.172877,0.081132,-0.981596,0.037272,-0.107438,-0.317400,34.494385,-17.309755,-6.849182,,,,,,,
1522138395.293566,-0.175435,-0.076550,-0.880100,0.179512,-0.247797,0.334645,-0.174025,0.076476,-0.981767,0.060835,-0.186751,-0.144774,33.818680,-17.606340,-6.473328,,,,,,,
1522138395.323534,-0.179403,-0.072716,-0.861664,0.207155,-0.135662,0.247168,-0.177971,0.072652,-0.981350,0.053840,-0.168919,-0.077839,34.262527,-17.908861,-6.996948,,,,,,,
1522138395.353503,-0.181051,-0.068376,-0.849336,0.135746,0.089986,0.216002,-0.179643,0.068323,-0.981356,0.057664,-0.211892,-0.105664,35.084778,-18.137636,-7.070618,,,,,,,
1522138395.383471,-0.181800,-0.070003,-0.834117,-0.136551,-0.086127,0.274571,-0.180358,0.069946,-0.981111,-0.008805,-0.277527,-0.017958,34.105179,-18.733004,-6.843689,,,,,,,
1522138395.413440,-0.175656,-0.078748,-0.821993,-0.231365,0.234767,0.308283,-0.174212,0.078667,-0.981561,0.091632,-0.213722,-0.121238,34.257584,-18.358919,-7.070129,,,,,,,
1522138395.443408,-0.173178,-0.083759,-0.805637,-0.041658,0.102907,0.257399,-0.171710,0.083661,-0.981589,0.087817,-0.158033,-0.109781,34.478210,-18.884752,-6.917908,,,,,,,
1522138395.473377,-0.170948,-0.081552,-0.793597,0.229903,-0.070871,0.241799,-0.169551,0.081462,-0.982149,0.055187,-0.219615,-0.110823,34.775955,-19.111101,-6.916870,,,,,,,
1522138395.503345,-0.172395,-0.075275,-0.778606,0.228318,-0.035637,0.370687,-0.171057,0.075204,-0.982387,0.032705,-0.295937,-0.062840,34.925522,-19.336458,-6.615906,,,,,,,
1522138395.533313,-0.174759,-0.074194,-0.757417,0.032073,-0.160948,0.428211,-0.173393,0.074125,-0.982059,0.082526,-0.269362,0.037311,35.592545,-19.864916,-7.063416,,,,,,,
1522138395.563280,-0.179218,-0.076272,-0.741332,-0.068063,-0.147720,0.396155,-0.177742,0.076198,-0.981123,0.065605,-0.249340,0.129209,34.692276,-19.711168,-7.364502,,,,,,,
1522138395.593250,-0.177077,-0.078793,-0.724401,-0.061813,0.085161,0.217983,-0.175606,0.078711,-0.981309,0.120873,-0.240439,0.113953,34.988525,-19.862871,-7.738770,,,,,,,
1522138395.623217,-0.172063,-0.080560,-0.717060,-0.163918,0.236291,0.068580,-0.170660,0.080473,-0.982038,0.141211,-0.165053,0.007322,36.040131,-19.792452,-7.588501,,,,,,,
1522138395.653178,-0.165268,-0.084878,-0.708917,-0.180512,0.091914,0.054861,-0.163924,0.084776,-0.982823,0.097823,-0.181684,-0.045939,35.967239,-19.941530,-6.987915,,,,,,,
1522138395.683147,-0.167524,-0.087654,-0.701640,-0.099011,-0.154636,0.181964,-0.166101,0.087542,-0.982215,0.102548,-0.191576,0.009437,35.817093,-20.090624,-6.762451,,,,,,,
1522138395.713115,-0.165652,-0.089620,-0.686179,-0.036434,0.165042,0.334065,-0.164234,0.089500,-0.982353,0.107273,-0.194008,-0.120980,36.187424,-20.242815,-7.286621,,,,,,,
1522138395.743083,-0.160754,-0.089670,-0.670925,-0.016081,0.007318,0.390718,-0.159420,0.089550,-0.983141,0.144008,-0.085323,-0.160444,36.039261,-20.241854,-6.986694,,,,,,,
1522138395.773051,-0.162310,-0.092664,-0.652621,-0.076759,-0.236632,0.349357,-0.160905,0.092531,-0.982623,0.121034,-0.115511,-0.101056,36.634277,-20.694597,-7.059631,,,,,,,
1522138395.803020,-0.173356,-0.093219,-0.638853,0.105978,-0.489651,0.302858,-0.171741,0.093084,-0.980735,0.108676,-0.127935,0.043464,36.025467,-21.442080,-7.281921,,,,,,,
1522138395.832988,-0.183089,-0.090511,-0.624003,0.124613,-0.260935,0.409205,-0.181323,0.090387,-0.979261,0.051882,-0.180445,0.071912,35.576965,-21.290071,-7.282715,,,,,,,
1522138395.862956,-0.183488,-0.091545,-0.603959,-0.104544,0.021487,0.372519,-0.181697,0.091417,-0.979096,0.127680,-0.095476,0.032548,35.795380,-21.816271,-7.505554,,,,,,,
1522138395.892924,-0.176819,-0.098044,-0.591227,-0.209069,0.221872,0.321098,-0.175054,0.097887,-0.979681,0.065511,-0.074969,-0.040568,36.091492,-22.342379,-7.278259,,,,,,,
1522138395.922893,-0.164178,-0.101402,-0.574892,0.011652,0.398774,0.323208,-0.162601,0.101229,-0.981485,0.073765,-0.152132,-0.243750,35.121033,-22.337252,-6.528748,,,,,,,
1522138395.952861,-0.157959,-0.097032,-0.561009,0.273405,-0.051293,0.312143,-0.156563,0.096880,-0.982905,0.091927,-0.074221,-0.262960,35.186890,-23.387316,-6.299561,,,,,,,
1522138395.982829,-0.167769,-0.093010,-0.541299,0.116254,-0.446929,0.417908,-0.166261,0.092876,-0.981698,0.053087,-0.160900,0.008615,35.332108,-23.463655,-6.974182,,,,,,,
1522138396.012797,-0.178514,-0.094897,-0.526754,-0.100472,-0.317146,0.322783,-0.176768,0.094754,-0.979681,0.096461,-0.158582,0.137564,35.180588,-23.612963,-6.973633,,,,,,,
1522138396.042766,-0.176451,-0.101136,-0.512733,-0.133142,0.317316,0.172935,-0.174640,0.100964,-0.979442,0.093692,-0.137920,-0.037556,36.080719,-23.467241,-7.198730,,,,,,,
1522138396.072734,-0.171044,-0.101501,-0.505001,0.082140,-0.023174,0.159596,-0.169335,0.101327,-0.980336,0.057915,-0.161981,-0.029888,35.479843,-23.689318,-6.973206,,,,,,,
1522138396.102702,-0.168084,-0.099746,-0.490861,0.076601,0.090634,0.296933,-0.166462,0.099580,-0.981007,0.082340,-0.247041,-0.065853,35.555588,-23.839281,-6.597534,,,,,,,
,,,,,,,,,,,,,,,,25.309904,51.445062,-6.525974,-1.000000,-1.000000,1522138396.094672,
1522138396.132670,-0.168027,-0.097767,-0.475917,0.078193,-0.128022,0.415419,-0.166439,0.097612,-0.981208,0.082470,-0.236924,-0.063225,36.301971,-24.067858,-6.821228,,,,,,,
1522138396.162639,-0.174714,-0.097706,-0.458573,-0.014943,-0.369328,0.460352,-0.172997,0.097551,-0.980079,0.072000,-0.177415,0.065376,35.855438,-23.990404,-6.371826,,,,,,,
1522138396.192607,-0.180374,-0.097685,-0.440725,-0.028271,-0.192858,0.302467,-0.178542,0.097530,-0.979087,0.045913,-0.154475,0.111823,35.467560,-24.739550,-7.268982,,,,,,,
1522138396.222575,-0.178933,-0.097048,-0.428569,-0.010604,0.183221,0.309554,-0.177142,0.096895,-0.979404,-0.023419,-0.199419,0.022006,35.688980,-24.965776,-7.492981,,,,,,,
1522138396.252543,-0.167390,-0.096986,-0.412047,-0.003853,0.288215,0.335031,-0.165827,0.096834,-0.981389,0.060892,-0.154665,-0.168864,35.011917,-25.487200,-6.966248,,,,,,,
1522138396.282512,-0.163400,-0.099886,-0.398091,-0.073933,-0.029762,0.396037,-0.161863,0.099720,-0.981762,0.054456,-0.147740,-0.154652,35.385849,-25.863436,-6.514526,,,,,,,
1522138396.312480,-0.169758,-0.102408,-0.379790,0.000187,-0.414531,0.385819,-0.168058,0.102229,-0.980462,0.055174,-0.114787,0.001351,36.200470,-26.318071,-7.487366,,,,,,,
1522138396.342448,-0.175242,-0.105464,-0.365861,-0.061957,-0.030509,0.349152,-0.173378,0.105269,-0.979213,-0.031914,-0.131560,0.038417,35.001419,-26.537157,-6.962036,,,,,,,
1522138396.372417,-0.169836,-0.108482,-0.350964,-0.089404,0.167851,0.256234,-0.168027,0.108270,-0.979819,-0.034319,-0.144814,-0.112818,34.768204,-27.361101,-6.958862,,,,,,,
1522138396.402385,-0.165933,-0.112514,-0.341708,-0.100571,0.002439,0.208449,-0.164128,0.112276,-0.980029,0.016591,-0.080035,-0.080396,35.897964,-27.065889,-6.659485,,,,,,,
1522138396.432353,-0.168761,-0.115717,-0.327899,-0.067581,-0.134402,0.315162,-0.166838,0.115459,-0.979201,0.012953,-0.136867,-0.026750,34.992447,-27.437105,-6.958435,,,,,,,
1522138396.462321,-0.171848,-0.117354,-0.314643,-0.030276,-0.125089,0.336497,-0.169828,0.117085,-0.978494,0.018415,-0.074910,-0.005881,35.064758,-27.662508,-7.032532,,,,,,,
1522138396.492290,-0.173267,-0.119173,-0.300910,-0.036800,-0.061458,0.207488,-0.171179,0.118891,-0.978040,-0.038034,-0.065287,0.001020,35.512482,-27.664904,-7.407288,,,,,,,
1522138396.522258,-0.172441,-0.118699,-0.290947,0.063641,0.011256,0.256512,-0.170380,0.118421,-0.978237,-0.038604,-0.129621,-0.025227,34.162109,-28.108141,-6.731201,,,,,,,
1522138396.552226,-0.172055,-0.116347,-0.278825,0.095059,-0.084694,0.290727,-0.170050,0.116084,-0.978574,0.003149,-0.108592,0.006894,34.765671,-27.661013,-6.882629,,,,,,,
1522138396.582194,-0.169400,-0.116584,-0.265353,-0.030105,0.255084,0.221028,-0.167447,0.116320,-0.978995,-0.007419,-0.138583,-0.128610,35.133606,-28.187960,-7.180359,,,,,,,
1522138396.612163,-0.159924,-0.117634,-0.255828,-0.016516,0.206053,0.236013,-0.158143,0.117363,-0.980417,-0.031310,-0.148781,-0.317481,34.166306,-27.957720,-6.281799,,,,,,,
1522138396.642131,-0.158358,-0.119686,-0.243538,-0.041240,-0.123996,0.186239,-0.156569,0.119400,-0.980423,0.067137,-0.066590,-0.253235,34.912842,-28.261141,-6.355225,,,,,,,
1522138396.672092,-0.171806,-0.118489,-0.234128,0.139470,-0.689198,0.259396,-0.169764,0.118212,-0.978369,-0.000585,-0.130754,0.054221,35.434357,-28.338945,-6.804565,,,,,,,
1522138396.702060,-0.194875,-0.116634,-0.218219,0.092323,-0.878761,0.334147,-0.192328,0.116370,-0.974406,-0.001215,-0.202811,0.310573,34.223755,-28.634768,-8.079041,,,,,,,
1522138396.732029,-0.217644,-0.119274,-0.205659,-0.119723,-0.588951,0.298532,-0.214396,0.118992,-0.969472,-0.032476,-0.217716,0.428883,33.771378,-28.782885,-8.228699,,,,,,,
1522138396.761997,-0.217713,-0.128810,-0.194244,-0.366219,0.329060,0.246278,-0.214207,0.128454,-0.968305,-0.068111,-0.207525,0.247541,33.617325,-29.007494,-8.527832,,,,,,,
1522138396.791965,-0.202124,-0.144067,-0.189637,-0.570760,0.505856,0.108501,-0.198671,0.143569,-0.969494,-0.009642,-0.067321,0.024639,33.921082,-29.083101,-7.777405,,,,,,,
1522138396.821934,-0.188337,-0.162490,-0.184953,-0.549513,0.459175,0.089389,-0.184759,0.161775,-0.969377,-0.009073,-0.005449,-0.145308,34.821198,-28.937380,-8.002502,,,,,,,
1522138396.851902,-0.180540,-0.171053,-0.177164,0.004562,-0.004933,0.311898,-0.176941,0.170220,-0.969390,-0.018708,-0.023842,-0.212907,34.824493,-28.787096,-7.703125,,,,,,,
1522138396.881871,-0.185393,-0.164799,-0.162291,0.418740,-0.217667,0.347579,-0.181835,0.164054,-0.969547,0.009762,0.056512,-0.081997,33.616150,-29.531801,-7.850769,,,,,,,
1522138396.911839,-0.187604,-0.150460,-0.145511,0.581202,-0.090715,0.218642,-0.184398,0.149893,-0.971354,-0.061573,0.057428,-0.075673,33.762131,-30.207003,-7.398010,,,,,,,
1522138396.941808,-0.184851,-0.136208,-0.133204,0.480526,0.067922,0.210946,-0.182098,0.135787,-0.973859,0.009048,0.047883,-0.032732,34.436951,-30.135195,-7.547913,,,,,,,
1522138396.971776,-0.184823,-0.124563,-0.122715,0.332915,0.028169,0.023339,-0.182349,0.124242,-0.975353,0.058448,0.050914,0.076549,34.142670,-30.058046,-6.723389,,,,,,,
1522138397.001744,-0.178679,-0.114925,-0.116476,0.418871,0.210354,0.076494,-0.176558,0.114672,-0.977588,0.094359,-0.049242,-0.006452,34.137421,-30.583025,-6.721313,,,,,,,
1522138397.031711,-0.175497,-0.100734,-0.104120,0.584924,-0.005520,0.191915,-0.173712,0.100563,-0.979648,0.071234,-0.126732,-0.088040,34.361053,-30.808886,-6.570251,,,,,,,
1522138397.061681,-0.172491,-0.086981,-0.092603,0.416938,0.176445,0.213986,-0.170988,0.086871,-0.981436,0.062849,-0.151752,-0.096537,34.285172,-31.257936,-5.968506,,,,,,,
1522138397.091648,-0.160000,-0.079778,-0.078580,0.261146,0.482572,0.256180,-0.158811,0.079694,-0.984087,0.065656,-0.235425,-0.295393,35.333511,-31.787050,-5.365845,,,,,,,
1522138397.121616,-0.151155,-0.070401,-0.066387,0.421335,0.042082,0.279126,-0.150207,0.070343,-0.986149,0.018783,-0.206040,-0.328976,34.807510,-32.159225,-4.914612,,,,,,,
,,,,,,,,,,,,,,,,25.309926,51.445068,-6.535810,0.212519,-1.000000,1522138397.106128,
1522138397.151584,-0.158333,-0.055849,-0.051966,0.594846,-0.436820,0.169988,-0.157426,0.055820,-0.985952,0.078111,-0.192691,0.096105,34.578903,-32.158798,-5.514771,,,,,,,
1522138397.181553,-0.170354,-0.040726,-0.045634,0.363269,-0.215689,-0.068012,-0.169391,0.040715,-0.984708,0.083057,-0.260899,0.300229,35.024536,-32.461029,-5.738342,,,,,,,
1522138397.211521,-0.162820,-0.043871,-0.052204,-0.579437,0.564900,-0.428592,-0.161945,0.043857,-0.985825,0.080601,-0.282992,0.116089,35.780640,-31.939287,-5.590088,,,,,,,
1522138397.241489,-0.141305,-0.074887,-0.070650,-1.510089,0.745873,-0.751258,-0.140440,0.074817,-0.987258,0.100615,-0.218966,-0.151841,36.771774,-30.593309,-5.144958,,,,,,,
1522138397.271457,-0.132776,-0.125281,-0.097443,-1.930748,0.181789,-0.625269,-0.131348,0.124953,-0.983430,0.103577,-0.180678,-0.148635,37.450943,-29.772036,-5.822876,,,,,,,
1522138397.301426,-0.140384,-0.178819,-0.110902,-1.701911,-0.374683,-0.149307,-0.137692,0.177868,-0.974374,0.127621,-0.163448,-0.059654,37.235153,-27.897646,-7.405518,,,,,,,
1522138397.331394,-0.158408,-0.220321,-0.112341,-1.195070,-0.764013,0.186032,-0.153934,0.218543,-0.963610,0.167773,-0.092902,-0.063887,37.456421,-27.824389,-8.155701,,,,,,,
1522138397.361362,-0.191355,-0.250631,-0.109192,-0.898379,-1.240553,0.001323,-0.184248,0.248015,-0.951074,0.142515,0.044892,0.092324,37.223557,-26.851274,-11.084656,,,,,,,
1522138397.391330,-0.218309,-0.273777,-0.117107,-0.774610,-0.324447,-0.214740,-0.208513,0.270369,-0.939906,0.054400,0.031877,0.231150,36.398590,-26.622942,-11.460999,,,,,,,
1522138397.421299,-0.217502,-0.289938,-0.121477,-0.349629,0.259357,-0.126561,-0.206785,0.285893,-0.935684,-0.001239,-0.101170,0.145432,36.479095,-25.798754,-11.914246,,,,,,,
1522138397.451267,-0.211501,-0.281723,-0.118465,0.746538,0.181925,0.073574,-0.201652,0.278012,-0.939173,-0.005166,-0.098171,0.102350,37.453323,-25.878145,-11.913452,,,,,,,
1522138397.481236,-0.185055,-0.248733,-0.096256,1.267251,1.154757,0.566333,-0.178338,0.246176,-0.952676,0.026544,-0.132392,-0.158072,37.301895,-27.599825,-9.281677,,,,,,,
1522138397.511204,-0.146147,-0.221547,-0.064661,1.001128,0.920896,0.825291,-0.142068,0.219739,-0.965159,0.098428,-0.049451,-0.196874,37.675110,-28.724916,-7.701965,,,,,,,
1522138397.541173,-0.121935,-0.196476,-0.037813,0.845498,0.441730,0.567798,-0.119293,0.195214,-0.973478,0.108383,-0.083337,-0.200380,37.896530,-29.400393,-7.174133,,,,,,,
1522138397.571141,-0.109638,-0.178271,-0.018334,0.529859,0.230743,0.309916,-0.107684,0.177328,-0.978243,0.086642,-0.182607,-0.114546,37.443130,-30.372301,-6.120483,,,,,,,
1522138397.601109,-0.107118,-0.167295,-0.006947,0.332588,-0.005402,0.263125,-0.105421,0.166516,-0.980387,0.067854,-0.277890,-0.050924,36.841797,-30.594439,-5.969910,,,,,,,
1522138397.631078,-0.102071,-0.157515,0.006893,0.348912,0.107991,0.301380,-0.100633,0.156864,-0.982480,0.091264,-0.254917,-0.086841,37.961838,-31.274172,-5.666565,,,,,,,
1522138397.661033,-0.092469,-0.150380,0.020015,0.220691,0.356751,0.330870,-0.091295,0.149814,-0.984490,0.140566,-0.137759,-0.173957,37.210678,-31.795122,-4.989868,,,,,,,
1522138397.691001,-0.089201,-0.144776,0.034506,0.198534,-0.065037,0.327026,-0.088151,0.144270,-0.985604,0.117905,-0.119383,-0.048225,37.284653,-32.169998,-4.538330,,,,,,,
1522138397.720969,-0.088968,-0.142214,0.045377,0.024744,-0.104390,0.244879,-0.087953,0.141735,-0.985989,0.116274,-0.176220,0.050412,37.736862,-31.722414,-4.914917,,,,,,,
1522138397.750938,-0.090999,-0.142785,0.054963,-0.052526,-0.105421,0.115895,-0.089949,0.142301,-0.985728,0.125685,-0.161725,0.069422,36.907410,-32.168686,-4.913513,,,,,,,
1522138397.780906,-0.097257,-0.143861,0.060272,-0.089748,-0.296669,0.126712,-0.096101,0.143366,-0.984993,0.054368,-0.104425,0.108436,36.832123,-32.243256,-4.838318,,,,,,,
1522138397.810874,-0.097414,-0.147544,0.068750,-0.149669,-0.028057,0.179677,-0.096203,0.147010,-0.984446,0.115689,-0.107749,0.010187,36.608917,-32.017334,-4.914307,,,,,,,
1522138397.840842,-0.099927,-0.149009,0.078345,0.002765,-0.151642,0.323758,-0.098655,0.148458,-0.983985,0.055793,-0.065252,0.004264,36.454437,-32.466644,-4.912537,,,,,,,
1522138397.870811,-0.100066,-0.146438,0.092877,0.177724,-0.058261,0.431414,-0.098830,0.145915,-0.984348,0.114256,-0.026866,-0.059353,36.595276,-33.067795,-5.435120,,,,,,,
1522138397.900779,-0.101239,-0.140067,0.109390,0.257856,-0.145004,0.346322,-0.100076,0.139609,-0.985137,0.104928,0.028085,-0.077409,36.968018,-33.294464,-5.434021,,,,,,,
1522138397.930747,-0.102858,-0.130291,0.121367,0.354531,-0.117007,0.258995,-0.101806,0.129922,-0.986284,0.074462,-0.080041,-0.047621,35.839935,-33.739182,-5.207825,,,,,,,
1522138397.960715,-0.103694,-0.118519,0.134991,0.481544,-0.079357,0.299544,-0.102782,0.118242,-0.987651,0.096236,-0.174272,-0.052983,35.834869,-34.563629,-4.679504,,,,,,,
1522138397.990684,-0.104129,-0.105574,0.146881,0.446066,-0.167266,0.270839,-0.103362,0.105378,-0.989046,0.089355,-0.148255,0.029787,36.582123,-34.567429,-5.129150,,,,,,,
1522138398.020652,-0.112400,-0.094459,0.161811,0.344785,-0.293921,0.336948,-0.111664,0.094319,-0.989260,0.075546,-0.200459,0.162432,35.451035,-35.312103,-4.901672,,,,,,,
1522138398.050620,-0.107756,-0.087721,0.172295,0.107480,0.433398,0.199648,-0.107134,0.087608,-0.990377,0.067812,-0.245949,0.033788,35.151810,-35.235764,-4.902161,,,,,,,
1522138398.080588,-0.089248,-0.088708,0.180630,-0.070195,0.514955,0.149351,-0.088779,0.088592,-0.992104,0.049137,-0.230285,-0.254082,35.678894,-35.612167,-3.925415,,,,,,,
,,,,,,,,,,,,,,,,25.309959,51.445077,-6.750133,0.473474,-1.000000,1522138398.084601,
1522138398.110557,-0.080496,-0.090672,0.188272,-0.086582,0.270132,0.214587,-0.080079,0.090548,-0.992667,0.128464,-0.176043,-0.288751,35.826355,-35.912750,-3.849121,,,,,,,
1522138398.140525,-0.078603,-0.092656,0.197236,0.078708,-0.285779,0.181167,-0.078185,0.092523,-0.992636,0.107849,-0.159570,-0.170801,36.805649,-35.392319,-4.000732,,,,,,,
1522138398.170493,-0.093126,-0.086015,0.207699,0.280446,-0.406091,0.293327,-0.092648,0.085909,-0.991986,0.086056,-0.220156,0.120602,35.451508,-35.761292,-4.074951,,,,,,,
1522138398.200461,-0.096695,-0.082157,0.218810,0.032721,-0.045678,0.201152,-0.096219,0.082065,-0.991971,0.080579,-0.260287,0.153745,35.374710,-35.985870,-3.999084,,,,,,,
1522138398.230430,-0.094988,-0.085878,0.225525,-0.205409,0.113666,0.141142,-0.094496,0.085772,-0.991823,0.050658,-0.261218,0.162874,35.445374,-36.286407,-4.222778,,,,,,,
1522138398.260398,-0.089186,-0.097952,0.230820,-0.521417,0.373651,0.154486,-0.088641,0.097796,-0.991251,0.077456,-0.226977,0.064707,36.047134,-36.064194,-4.298401,,,,,,,
1522138398.290366,-0.075232,-0.115273,0.235762,-0.502882,0.166731,0.106760,-0.074662,0.115018,-0.990554,0.076997,-0.072552,-0.170045,35.522171,-36.061829,-4.298645,,,,,,,
1522138398.320335,-0.079958,-0.125879,0.243436,-0.275993,-0.228181,0.275678,-0.079241,0.125547,-0.988918,0.132006,0.006747,-0.168995,35.671555,-35.987732,-4.523865,,,,,,,
1522138398.350303,-0.091381,-0.134261,0.254519,-0.230570,-0.599008,0.254782,-0.090432,0.133858,-0.986866,0.112985,0.025901,-0.081875,35.438461,-36.437271,-5.122253,,,,,,,
