timestamp(unix),attitude_roll(radians),attitude_pitch(radians),attitude_yaw(radians),rotation_rate_x(radians/s),rotation_rate_y(radians/s),rotation_rate_z(radians/s),gravity_x(G),gravity_y(G),gravity_z(G),user_acc_x(G),user_acc_y(G),user_acc_z(G),magnetic_field_x(microteslas),magnetic_field_y(microteslas),magnetic_field_z(microteslas),latitude(degree),longitude(degree),altitude(meter),speed(m/s),course(degree),timestamp(unix),User Mark
1523523416.787361,-0.628595,-0.033517,1.745615,-0.408505,0.883347,0.111190,-0.587679,0.033511,-0.808400,0.092516,0.033933,0.066167,-10.062119,-27.834892,-2.901917,,,,,,,
1523523416.817329,-0.605368,-0.047114,1.740978,-0.400280,0.615281,0.147705,-0.568434,0.047096,-0.821380,0.025648,-0.012276,-0.101624,-9.690430,-27.762245,-3.577026,,,,,,,
1523523416.847297,-0.595672,-0.055975,1.740011,-0.162195,0.115432,0.124937,-0.560186,0.055945,-0.826475,0.036337,-0.030845,-0.182100,-10.671844,-27.908638,-4.401917,,,,,,,
,,,,,,,,,,,,,,,,25.313519,51.454656,13.992496,8.860000,263.671875,1523523415.995711,
1523523416.877266,-0.598676,-0.056213,1.744447,0.235706,-0.193731,0.127673,-0.562659,0.056183,-0.824778,0.090369,0.015838,-0.128012,-10.147171,-27.985924,-4.326355,,,,,,,
1523523416.907234,-0.602580,-0.051283,1.751853,0.222434,-0.070369,0.117951,-0.566025,0.051261,-0.822793,0.077850,0.046273,-0.090476,-10.296249,-28.209740,-3.800476,,,,,,,
1523523416.937202,-0.597797,-0.051719,1.756201,-0.054749,0.250202,0.112098,-0.562071,0.051695,-0.825472,0.058683,-0.006545,-0.146772,-10.819427,-28.207085,-3.500793,,,,,,,
1523523416.967170,-0.591469,-0.057782,1.755821,-0.246087,0.168000,0.083266,-0.556650,0.057750,-0.828737,0.072214,-0.041698,-0.150740,-10.373962,-27.985207,-4.626465,,,,,,,
1523523416.997139,-0.589390,-0.064781,1.753288,-0.226340,-0.016534,0.025922,-0.554688,0.064735,-0.829536,-0.015533,-0.023079,-0.178170,-10.293274,-27.460503,-4.553528,,,,,,,
1523523417.027107,-0.593089,-0.068594,1.749875,-0.117588,-0.168054,-0.075065,-0.557611,0.068540,-0.827268,-0.044928,-0.015729,-0.103579,-10.591324,-27.309090,-4.479248,,,,,,,
,,,,,,,,,,,,,,,,25.313506,51.454550,13.660409,9.190000,264.023438,1523523416.995700,
1523523417.057075,-0.597503,-0.067746,1.745981,-0.021766,-0.075340,-0.147541,-0.561289,0.067694,-0.824847,-0.067708,-0.034796,-0.014692,-10.819000,-27.533134,-4.553467,,,,,,,
1523523417.087043,-0.598203,-0.066565,1.741791,-0.078196,-0.006340,-0.117816,-0.561911,0.066516,-0.824519,-0.086557,-0.028003,-0.015661,-9.917252,-27.312279,-4.628906,,,,,,,
1523523417.117012,-0.599836,-0.067948,1.737784,-0.125833,-0.081025,-0.057046,-0.563204,0.067895,-0.823523,-0.102384,-0.011117,0.004828,-10.220093,-27.461128,-4.853455,,,,,,,
1523523417.146980,-0.602426,-0.069717,1.735637,-0.044949,-0.082623,-0.009037,-0.565266,0.069660,-0.821962,-0.070109,-0.017491,0.029542,-10.371582,-27.610451,-4.852905,,,,,,,
1523523417.176948,-0.605451,-0.068782,1.736663,0.105314,-0.109785,0.022007,-0.567788,0.068728,-0.820301,-0.037284,-0.025637,0.065357,-10.294937,-27.311028,-5.079102,,,,,,,
1523523417.206916,-0.607947,-0.066131,1.739390,0.094000,-0.015162,0.019766,-0.569935,0.066083,-0.819028,-0.073360,-0.002804,0.081586,-10.445679,-27.609962,-4.703003,,,,,,,
1523523417.236897,-0.606401,-0.066978,1.740075,-0.099889,0.105227,0.042947,-0.568636,0.066928,-0.819862,-0.107634,0.008756,-0.019448,-9.769363,-27.388161,-4.853516,,,,,,,
1523523417.266865,-0.603030,-0.072634,1.737560,-0.272614,0.136586,0.025744,-0.565645,0.072570,-0.821449,-0.156324,0.009842,-0.078560,-9.917862,-27.237495,-4.854187,,,,,,,
1523523417.296833,-0.601766,-0.079464,1.733424,-0.211090,0.022919,0.001385,-0.564312,0.079381,-0.821736,-0.133594,0.023006,-0.067744,-10.076981,-27.837288,-5.376892,,,,,,,
1523523417.326801,-0.600168,-0.079576,1.732541,0.122594,0.092550,-0.046381,-0.562994,0.079492,-0.822629,-0.061792,0.063544,0.024900,-10.146744,-27.311989,-5.379028,,,,,,,
1523523417.356770,-0.597076,-0.071436,1.735861,0.383334,0.103841,-0.081365,-0.560793,0.071375,-0.824874,0.013231,0.075918,0.125884,-9.846008,-27.462975,-5.003296,,,,,,,
1523523417.386738,-0.593876,-0.058139,1.742891,0.575127,0.069043,-0.036433,-0.558632,0.058107,-0.827378,0.129326,0.013732,0.164017,-9.542252,-27.538582,-4.252808,,,,,,,
1523523417.416706,-0.592412,-0.043711,1.752934,0.548038,0.059053,0.032823,-0.557830,0.043697,-0.828804,0.152648,0.035007,0.249428,-9.463196,-27.762886,-3.201904,,,,,,,
1523523417.446675,-0.588856,-0.035371,1.761155,0.199793,0.082913,0.087945,-0.555063,0.035363,-0.831056,0.096338,0.039466,0.170824,-9.985016,-27.760017,-2.677124,,,,,,,
1523523417.476643,-0.588331,-0.041472,1.759723,-0.481500,0.006298,0.042758,-0.554496,0.041461,-0.831153,0.028434,0.035734,0.101660,-10.439041,-27.983269,-2.976440,,,,,,,
1523523417.506611,-0.588155,-0.057033,1.748028,-0.660910,0.050351,-0.115115,-0.553925,0.057002,-0.830613,-0.092529,0.045003,-0.011169,-9.621597,-27.838448,-4.476624,,,,,,,
1523523417.536579,-0.589791,-0.064528,1.735165,-0.272112,-0.099295,-0.277708,-0.555030,0.064484,-0.829327,-0.160577,0.045547,-0.085392,-9.397659,-27.764763,-4.776855,,,,,,,
1523523417.566578,-0.595207,-0.061024,1.728070,0.119728,-0.212584,-0.171816,-0.559637,0.060987,-0.826491,-0.059962,0.009112,-0.060609,-9.173279,-27.690987,-5.002014,,,,,,,
1523523417.596546,-0.596984,-0.060398,1.733495,0.003389,0.146467,0.338133,-0.561126,0.060361,-0.825527,-0.174668,-0.006620,-0.126866,-9.549454,-27.988991,-4.701050,,,,,,,
1523523417.626515,-0.584769,-0.076646,1.740444,-0.562064,0.464220,0.533452,-0.550386,0.076571,-0.831392,-0.336669,0.054151,-0.394591,-10.454376,-27.761131,-5.902405,,,,,,,
1523523417.656483,-0.578933,-0.100254,1.740138,-0.542086,-0.111169,0.298557,-0.544384,0.100086,-0.832844,-0.172657,-0.045810,-0.438122,-10.753479,-27.534996,-6.128418,,,,,,,
1523523417.686451,-0.592718,-0.103871,1.741243,0.182685,-0.547316,-0.042495,-0.555607,0.103684,-0.824955,-0.057644,-0.075578,-0.146786,-10.744492,-26.859673,-5.756165,,,,,,,
1523523417.716419,-0.604758,-0.095257,1.741705,0.249723,-0.317851,-0.209961,-0.565985,0.095113,-0.818910,-0.026361,0.018977,0.011095,-10.966171,-26.933006,-5.080994,,,,,,,
1523523417.746388,-0.614019,-0.084618,1.740114,0.244785,-0.272926,-0.249441,-0.574095,0.084517,-0.814415,-0.050844,-0.007826,0.109825,-11.044006,-27.307503,-4.929504,,,,,,,
1523523417.776356,-0.619125,-0.079916,1.736330,-0.109406,-0.092123,-0.146531,-0.578471,0.079830,-0.811788,-0.087270,-0.033444,0.165013,-10.219040,-27.311211,-4.929077,,,,,,,
1523523417.806324,-0.622163,-0.083667,1.730409,-0.221906,-0.063841,-0.047553,-0.580756,0.083569,-0.809777,-0.083108,-0.067486,0.168496,-10.370529,-27.460533,-4.928528,,,,,,,
1523523417.836292,-0.624702,-0.086910,1.728208,-0.069858,-0.114715,0.030400,-0.582648,0.086801,-0.808076,-0.057260,-0.075357,0.152147,-11.125595,-27.607735,-5.528381,,,,,,,
1523523417.866261,-0.627783,-0.088548,1.728684,-0.022615,-0.041591,0.042079,-0.585051,0.088432,-0.806161,-0.043992,-0.023720,0.151742,-10.592987,-26.934975,-5.380737,,,,,,,
1523523417.896229,-0.629571,-0.088104,1.729913,0.072441,-0.082981,0.000638,-0.586515,0.087990,-0.805145,0.002805,0.008781,0.158493,-10.892227,-27.083260,-5.005310,,,,,,,
1523523417.926197,-0.630993,-0.086113,1.730834,0.028100,-0.008274,-0.030367,-0.587761,0.086006,-0.804450,0.030342,0.013633,0.152763,-11.043411,-27.157646,-5.080139,,,,,,,
1523523417.956165,-0.630429,-0.086472,1.729543,-0.089064,0.043105,-0.041167,-0.587288,0.086364,-0.804757,0.045769,0.032944,0.131554,-10.142853,-27.236473,-4.854309,,,,,,,
1523523417.986134,-0.628698,-0.089118,1.725720,-0.184954,0.055226,-0.068954,-0.585758,0.089000,-0.805584,0.025944,0.057759,0.126675,-10.745071,-27.458763,-4.853699,,,,,,,
1523523418.016102,-0.629178,-0.092122,1.720330,-0.185970,0.020423,-0.107272,-0.585985,0.091992,-0.805083,-0.004820,0.052966,0.149886,-10.822464,-27.383949,-5.379089,,,,,,,
1523523418.046070,-0.627408,-0.092356,1.714621,-0.039055,0.082208,-0.179690,-0.584546,0.092225,-0.806102,-0.010623,0.059905,0.113612,-9.919357,-27.162865,-5.229492,,,,,,,
,,,,,,,,,,,,,,,,25.313510,51.454562,13.517336,3.770000,264.375000,1523523417.995690,
1523523418.076039,-0.625891,-0.086847,1.711677,0.143538,0.068050,-0.195522,-0.583612,0.086738,-0.807387,-0.010382,0.057854,0.118407,-9.998398,-27.387810,-5.528687,,,,,,,
1523523418.106007,-0.623143,-0.080919,1.709869,0.089911,0.078410,-0.139096,-0.581680,0.080831,-0.809391,-0.050461,0.055232,0.093327,-10.147034,-27.611534,-4.927795,,,,,,,
1523523418.135975,-0.622132,-0.077839,1.709190,0.051839,0.035311,-0.041051,-0.581005,0.077760,-0.810177,-0.080418,0.037215,0.128521,-9.246490,-27.241112,-5.453857,,,,,,,
1523523418.165943,-0.621183,-0.077434,1.710302,0.023588,0.033694,0.049491,-0.580254,0.077356,-0.810754,-0.079277,-0.002314,0.107247,-9.696915,-27.463783,-5.153198,,,,,,,
1523523418.195912,-0.620964,-0.077593,1.712729,0.077779,-0.009085,0.066640,-0.580069,0.077515,-0.810871,-0.069483,-0.003068,0.081455,-9.774460,-27.538734,-5.452942,,,,,,,
1523523418.225866,-0.622270,-0.076657,1.715390,0.062938,-0.014140,0.037848,-0.581170,0.076582,-0.810171,-0.071769,0.015779,0.076406,-9.467880,-27.239510,-4.853943,,,,,,,
1523523418.255834,-0.623414,-0.077901,1.716659,-0.058902,0.001819,0.077172,-0.582040,0.077823,-0.809428,-0.090278,0.024991,0.081156,-9.921295,-27.537544,-4.927979,,,,,,,
1523523418.285802,-0.621713,-0.081606,1.716742,-0.115833,0.146562,0.064201,-0.580490,0.081516,-0.810177,-0.147324,0.030881,0.049114,-10.370529,-27.460533,-4.928528,,,,,,,
1523523418.315771,-0.619801,-0.084895,1.715949,-0.046789,0.040291,0.040920,-0.578781,0.084793,-0.811062,-0.077484,0.005600,0.007977,-9.319687,-27.240486,-5.153931,,,,,,,
1523523418.345739,-0.621028,-0.084154,1.719594,0.177923,0.002008,0.116778,-0.579812,0.084055,-0.810403,-0.043891,0.009619,0.090752,-10.149429,-27.761681,-5.077271,,,,,,,
1523523418.375707,-0.617471,-0.084790,1.724891,-0.047245,0.310445,0.156789,-0.576895,0.084689,-0.812416,-0.227488,0.085432,0.021569,-10.450623,-27.835396,-5.152100,,,,,,,
1523523418.405675,-0.604274,-0.096183,1.722023,-0.556648,0.454514,0.098722,-0.565538,0.096035,-0.819111,-0.354353,-0.006588,-0.210063,-9.775528,-27.239403,-6.129150,,,,,,,
1523523418.435644,-0.598525,-0.109759,1.712763,-0.420776,0.064457,-0.088325,-0.560034,0.109538,-0.821196,-0.410578,-0.106929,-0.145326,-10.079575,-27.238716,-6.804260,,,,,,,
1523523418.465612,-0.599861,-0.107856,1.707053,0.215768,-0.055135,-0.231576,-0.561247,0.107647,-0.820618,-0.333375,-0.075954,0.101578,-9.476761,-26.866585,-6.955505,,,,,,,
1523523418.495580,-0.600381,-0.091780,1.711126,0.682231,0.020656,-0.143928,-0.562579,0.091652,-0.821648,-0.140805,-0.028221,0.261650,-8.726486,-27.019661,-6.654541,,,,,,,
1523523418.525548,-0.597324,-0.073196,1.721656,0.651955,0.100461,0.000892,-0.560926,0.073131,-0.824630,-0.112643,-0.025966,0.247191,-9.395142,-27.015602,-5.604797,,,,,,,
1523523418.555547,-0.591491,-0.063041,1.730162,0.287090,0.230626,0.056952,-0.556492,0.062999,-0.828461,-0.096157,0.002339,0.256333,-9.171921,-27.690773,-4.777039,,,,,,,
1523523418.585516,-0.583601,-0.059219,1.733185,0.099907,0.273225,-0.043380,-0.550066,0.059185,-0.833021,-0.125196,0.010746,0.287260,-8.115982,-27.095528,-4.778931,,,,,,,
1523523418.615484,-0.577033,-0.053848,1.730922,0.128144,0.166062,-0.227588,-0.544749,0.053822,-0.836870,-0.160101,-0.024342,0.304751,-8.645432,-27.767769,-4.401489,,,,,,,
1523523418.645452,-0.573824,-0.046411,1.726967,0.119275,0.097016,-0.226468,-0.542263,0.046394,-0.838927,-0.161763,-0.045158,0.314330,-8.269714,-27.469841,-4.777466,,,,,,,
1523523418.675420,-0.569034,-0.045569,1.723227,-0.235549,0.252676,-0.023372,-0.538259,0.045553,-0.841547,-0.209376,-0.005865,0.241297,-8.421051,-27.693993,-4.626648,,,,,,,
1523523418.705389,-0.558836,-0.064456,1.716546,-0.944328,0.386328,0.263648,-0.529098,0.064411,-0.846112,-0.236023,0.016583,0.074384,-7.972580,-27.396767,-5.377625,,,,,,,
1523523418.735357,-0.548912,-0.098009,1.707815,-1.053106,0.301874,0.373409,-0.519255,0.097852,-0.848999,-0.264421,0.073245,-0.029862,-7.910217,-27.174522,-7.853455,,,,,,,
1523523418.765325,-0.543244,-0.120372,1.704314,-0.404655,0.166615,0.186500,-0.513175,0.120082,-0.849842,-0.289346,0.066304,-0.113109,-8.063660,-27.249290,-8.303223,,,,,,,
1523523418.795293,-0.539227,-0.119092,1.705352,0.335487,0.110559,-0.113373,-0.509836,0.118810,-0.852028,-0.232016,0.083247,-0.084724,-8.811386,-27.245552,-7.928650,,,,,,,
1523523418.825262,-0.537492,-0.102917,1.706502,0.523755,-0.029871,-0.305963,-0.509274,0.102735,-0.854450,-0.169681,0.085833,0.011021,-8.137894,-27.623207,-7.551758,,,,,,,
1523523418.855230,-0.544203,-0.085778,1.705593,0.408352,-0.294165,-0.308969,-0.515833,0.085672,-0.852394,-0.168813,0.024710,0.219445,-7.909897,-27.773476,-6.801086,,,,,,,
1523523418.885198,-0.551872,-0.075247,1.703138,0.140270,-0.193287,-0.203784,-0.522799,0.075176,-0.849135,-0.227338,-0.001751,0.318739,-8.060013,-28.147209,-6.199646,,,,,,,
1523523418.915166,-0.554622,-0.073420,1.699531,-0.106247,-0.021406,-0.078412,-0.525204,0.073354,-0.847809,-0.267200,-0.053838,0.285233,-7.831284,-27.773232,-6.201050,,,,,,,
1523523418.945135,-0.555159,-0.077169,1.698055,-0.118807,-0.011923,0.087799,-0.525510,0.077093,-0.847287,-0.242740,-0.081579,0.218976,-7.605408,-27.549461,-6.426819,,,,,,,
1523523418.975103,-0.558581,-0.080884,1.700463,-0.023548,-0.104081,0.165738,-0.528250,0.080796,-0.845236,-0.195520,-0.028244,0.209784,-7.455566,-27.475288,-6.577026,,,,,,,
1523523419.005071,-0.564409,-0.083841,1.704916,-0.006726,-0.139335,0.186034,-0.533037,0.083743,-0.841937,-0.187986,-0.008380,0.246600,-7.683548,-27.774269,-6.575989,,,,,,,
1523523419.035039,-0.570096,-0.085165,1.708658,0.052468,-0.137803,0.097641,-0.537757,0.085062,-0.838798,-0.177865,-0.028986,0.254478,-9.028854,-27.393074,-6.428162,,,,,,,
,,,,,,,,,,,,,,,,25.313506,51.454522,13.721347,3.820000,266.484375,1523523418.995679,
1523523419.065008,-0.574754,-0.083984,1.710785,0.078680,-0.105377,0.011313,-0.541712,0.083885,-0.836368,-0.153783,-0.063896,0.232684,-8.576614,-27.394722,-6.052917,,,,,,,
1523523419.094976,-0.578606,-0.082201,1.711374,0.044827,-0.079555,-0.023891,-0.545011,0.082109,-0.834399,-0.157992,-0.047548,0.221804,-8.205231,-27.621620,-6.276855,,,,,,,
1523523419.124944,-0.582459,-0.081332,1.710476,-0.020308,-0.122704,-0.060125,-0.548261,0.081243,-0.832352,-0.166598,-0.029363,0.241043,-8.348328,-27.245461,-5.753418,,,,,,,
1523523419.154912,-0.585644,-0.081427,1.706839,-0.100923,-0.084823,-0.129485,-0.550905,0.081337,-0.830595,-0.198439,-0.012413,0.225111,-8.576172,-27.394661,-5.977905,,,,,,,
1523523419.184881,-0.588738,-0.081427,1.700441,-0.117562,-0.068351,-0.199837,-0.553472,0.081337,-0.828887,-0.204875,0.013893,0.190749,-7.752411,-27.248802,-6.428101,,,,,,,
1523523419.214849,-0.592530,-0.079999,1.694958,-0.009928,-0.044576,-0.142248,-0.556675,0.079914,-0.826877,-0.187526,0.021816,0.185932,-8.655197,-27.844215,-5.901184,,,,,,,
1523523419.244804,-0.596367,-0.076785,1.694144,0.134545,-0.069165,-0.021705,-0.559986,0.076710,-0.824943,-0.146969,0.044155,0.178428,-8.576309,-27.544426,-5.752319,,,,,,,
1523523419.274773,-0.602425,-0.075431,1.696597,-0.002764,-0.106632,0.067726,-0.565031,0.075360,-0.821621,-0.321199,0.063327,0.179119,-8.052689,-27.547005,-5.977051,,,,,,,
1523523419.304741,-0.605686,-0.083532,1.693447,-0.479419,0.030505,0.074704,-0.567341,0.083435,-0.819245,-0.438381,0.005570,-0.008834,-8.951904,-27.467964,-5.977783,,,,,,,
1523523419.334709,-0.605466,-0.099618,1.684045,-0.595600,0.006769,0.016034,-0.566324,0.099453,-0.818160,-0.433646,-0.048489,-0.085953,-9.030518,-27.018974,-7.329651,,,,,,,
1523523419.364677,-0.607389,-0.105523,1.679567,0.033185,-0.050836,-0.021809,-0.567551,0.105328,-0.816573,-0.422851,-0.026821,0.016463,-8.056458,-27.023506,-7.479126,,,,,,,
1523523419.394646,-0.606550,-0.098056,1.685859,0.477196,0.049254,0.093504,-0.567298,0.097899,-0.817673,-0.251473,0.021760,0.094238,-8.878403,-27.393669,-6.353027,,,,,,,
1523523419.424614,-0.602193,-0.089370,1.699013,0.412743,0.137628,0.243600,-0.564191,0.089251,-0.820806,-0.193118,0.048231,0.097631,-9.028992,-27.542839,-6.202576,,,,,,,
1523523419.454582,-0.597602,-0.088465,1.708797,0.032735,0.146060,0.235855,-0.560461,0.088350,-0.823454,-0.201303,-0.036607,0.028471,-8.723770,-27.019218,-6.204529,,,,,,,
1523523419.484550,-0.591928,-0.095394,1.709738,-0.251407,0.174399,0.083247,-0.555425,0.095249,-0.826093,-0.214045,-0.090382,-0.065707,-10.070129,-26.787926,-5.981079,,,,,,,
1523523419.514519,-0.592279,-0.098539,1.706120,-0.052120,-0.145556,-0.122997,-0.555545,0.098379,-0.825646,-0.215283,-0.039267,0.016533,-9.100998,-27.242516,-6.203796,,,,,,,
1523523419.544487,-0.597826,-0.093616,1.702289,0.141917,-0.112238,-0.245422,-0.560382,0.093479,-0.822942,-0.195142,0.047222,0.148458,-8.275146,-27.021461,-6.429260,,,,,,,
1523523419.574455,-0.600568,-0.082363,1.700013,0.340803,-0.061629,-0.259179,-0.563195,0.082270,-0.822218,-0.184623,0.073919,0.195540,-8.950562,-27.243126,-6.128723,,,,,,,
1523523419.604454,-0.600000,-0.069624,1.700321,0.354701,0.010157,-0.198496,-0.563275,0.069568,-0.823336,-0.124729,0.048474,0.174089,-8.492920,-27.019279,-5.229370,,,,,,,
1523523419.634422,-0.602335,-0.058565,1.704230,0.402747,-0.043121,-0.041782,-0.565596,0.058532,-0.822602,-0.116700,0.005967,0.265107,-7.820190,-27.247307,-5.228088,,,,,,,
1523523419.664390,-0.602364,-0.049709,1.710197,0.349651,0.054548,-0.011013,-0.565892,0.049689,-0.822981,-0.155254,0.009546,0.178526,-8.270294,-27.844307,-4.250977,,,,,,,
1523523419.694359,-0.605085,-0.043185,1.712989,0.162549,-0.093182,-0.090926,-0.568302,0.043172,-0.821687,-0.162243,0.006022,0.187272,-8.117462,-27.694756,-4.026489,,,,,,,
1523523419.724327,-0.611188,-0.038810,1.712539,0.118121,-0.238652,-0.090810,-0.573409,0.038800,-0.818350,-0.129564,-0.019589,0.229559,-7.664642,-27.321953,-4.177734,,,,,,,
1523523419.754295,-0.618300,-0.034143,1.713374,0.149966,-0.224177,-0.043923,-0.579313,0.034136,-0.814390,-0.160326,0.002561,0.247450,-8.416840,-27.768196,-3.801331,,,,,,,
1523523419.784263,-0.623991,-0.030005,1.715755,0.175602,-0.166185,0.008267,-0.584016,0.030000,-0.811188,-0.177642,-0.004167,0.243454,-8.039749,-27.694664,-3.576477,,,,,,,
1523523419.814232,-0.629561,-0.025621,1.720881,0.238479,-0.107316,0.078568,-0.588597,0.025618,-0.808021,-0.197185,-0.025480,0.239967,-7.813858,-27.695534,-3.426331,,,,,,,
1523523419.844200,-0.631203,-0.022000,1.727421,0.219561,0.019894,0.129565,-0.589973,0.021998,-0.807123,-0.180123,-0.025660,0.178491,-8.559784,-27.691505,-2.751709,,,,,,,
1523523419.874168,-0.631988,-0.018166,1.735862,0.363736,0.055472,0.155220,-0.590652,0.018165,-0.806722,-0.136368,-0.036644,0.215215,-9.010193,-27.914177,-2.451050,,,,,,,
1523523419.904137,-0.629969,-0.014296,1.743413,0.134915,0.149979,0.095278,-0.589059,0.014295,-0.807963,-0.280539,-0.004926,0.124339,-8.931000,-27.764091,-2.001587,,,,,,,
1523523419.934105,-0.632983,-0.016884,1.742498,-0.290619,-0.113821,-0.017720,-0.591468,0.016883,-0.806151,-0.369118,-0.028892,0.084945,-9.004959,-27.613838,-2.077271,,,,,,,
