timestamp(unix),attitude_roll(radians),attitude_pitch(radians),attitude_yaw(radians),rotation_rate_x(radians/s),rotation_rate_y(radians/s),rotation_rate_z(radians/s),gravity_x(G),gravity_y(G),gravity_z(G),user_acc_x(G),user_acc_y(G),user_acc_z(G),magnetic_field_x(microteslas),magnetic_field_y(microteslas),magnetic_field_z(microteslas),latitude(degree),longitude(degree),altitude(meter),speed(m/s),course(degree),timestamp(unix),User Mark
1523696817.721081,-0.635807,0.064939,-2.935469,0.186926,-0.152219,-0.072238,-0.592573,-0.064894,-0.802893,0.012510,0.013823,0.160116,-33.551712,16.062222,26.129333,,,,,,,
,,,,,,,,,,,,,,,,25.312439,51.460519,11.603277,19.660000,170.507812,1523696816.995798,
1523696817.751050,-0.636099,0.070439,-2.932810,0.176980,0.076954,-0.017079,-0.592586,-0.070381,-0.802421,0.006755,0.026253,0.129279,-32.647095,16.433300,26.278259,,,,,,,
1523696817.781018,-0.633274,0.073003,-2.930979,0.054137,0.090899,0.007326,-0.590208,-0.072938,-0.803943,0.022963,0.037492,0.095203,-33.318039,16.661617,26.577087,,,,,,,
1523696817.810986,-0.629766,0.073179,-2.930671,-0.001184,0.136700,0.010441,-0.587377,-0.073114,-0.805998,-0.002498,0.027399,0.030303,-33.850204,16.213558,26.128601,,,,,,,
1523696817.840955,-0.624097,0.071762,-2.930777,-0.082022,0.255648,0.050736,-0.582858,-0.071701,-0.809399,-0.044965,-0.020310,-0.140064,-33.930435,15.688914,26.130615,,,,,,,
1523696817.870923,-0.619468,0.068322,-2.931289,-0.065027,-0.010011,0.044630,-0.579245,-0.068269,-0.812284,-0.001214,0.000901,-0.100970,-33.545273,16.437634,26.577881,,,,,,,
1523696817.900891,-0.625378,0.069468,-2.930149,0.124167,-0.242925,0.006645,-0.583989,-0.069412,-0.808783,0.095250,0.032074,0.078528,-33.922211,16.513882,26.127319,,,,,,,
1523696817.930859,-0.629741,0.072404,-2.927601,0.089810,-0.031459,0.019185,-0.587390,-0.072340,-0.806059,-0.013440,0.038100,0.031126,-33.919220,16.813869,26.126160,,,,,,,
1523696817.960828,-0.626108,0.070314,-2.926975,-0.171146,0.172783,0.078465,-0.584545,-0.070256,-0.808308,-0.111409,0.005177,-0.237285,-33.683426,17.488476,26.798584,,,,,,,
1523696817.990796,-0.621495,0.063739,-2.930495,-0.238483,0.049300,-0.016301,-0.581066,-0.063696,-0.811354,-0.120655,-0.023233,-0.330278,-34.885468,17.418667,26.573242,,,,,,,
1523696818.020764,-0.625260,0.061188,-2.934320,-0.086827,-0.246079,-0.074491,-0.584210,-0.061150,-0.809290,-0.106464,-0.047172,-0.209830,-33.465027,17.186901,26.199890,,,,,,,
1523696818.050732,-0.632331,0.060999,-2.936912,-0.058979,-0.185838,-0.038299,-0.589925,-0.060961,-0.805148,-0.151256,-0.047895,-0.162061,-33.686417,17.188488,26.799744,,,,,,,
,,,,,,,,,,,,,,,,25.312276,51.460577,11.356012,19.639999,166.289062,1523696817.995787,
1523696818.080701,-0.634376,0.056428,-2.937507,-0.202135,0.036228,0.168075,-0.591729,-0.056398,-0.804156,-0.179863,-0.052946,-0.239850,-34.211411,17.415478,26.423584,,,,,,,
1523696818.110669,-0.631198,0.044105,-2.938319,-0.425303,0.101178,0.228579,-0.589535,-0.044090,-0.806532,-0.219638,-0.069954,-0.378221,-32.420181,16.806973,25.976929,,,,,,,
1523696818.140637,-0.633177,0.032859,-2.940655,-0.212534,-0.217218,0.099057,-0.591387,-0.032854,-0.805712,-0.094892,-0.021880,-0.371473,-32.868500,16.434887,26.878174,,,,,,,
1523696818.170605,-0.640791,0.030746,-2.941040,-0.013442,-0.209677,0.011836,-0.597544,-0.030741,-0.801240,-0.026510,0.024195,-0.212203,-33.613373,16.813457,27.101257,,,,,,,
1523696818.200604,-0.644032,0.029129,-2.941233,-0.091774,-0.023752,0.043559,-0.600167,-0.029125,-0.799338,-0.104713,0.002987,-0.212289,-33.396011,16.361965,26.578247,,,,,,,
1523696818.230572,-0.641777,0.022744,-2.944055,-0.340011,0.111717,0.058153,-0.598462,-0.022743,-0.800822,-0.190799,-0.039849,-0.330602,-33.023712,15.910594,26.880188,,,,,,,
1523696818.260541,-0.644246,0.012181,-2.950661,-0.414958,-0.224625,0.012619,-0.600548,-0.012180,-0.799490,-0.168983,-0.044094,-0.258051,-33.323700,15.687312,27.255981,,,,,,,
1523696818.290509,-0.651749,0.005308,-2.955547,-0.148038,-0.226311,0.008548,-0.606566,-0.005308,-0.795009,-0.074327,-0.033068,-0.124867,-32.877457,15.310313,27.257690,,,,,,,
1523696818.320477,-0.657844,0.006886,-2.954316,0.195103,-0.160092,-0.011498,-0.611395,-0.006886,-0.791289,0.017935,0.007008,0.029204,-33.406448,14.862758,27.334229,,,,,,,
1523696818.350445,-0.660040,0.013975,-2.948630,0.343892,-0.035299,0.021513,-0.613085,-0.013975,-0.789886,0.080721,0.034864,0.090561,-33.168747,15.687449,28.081055,,,,,,,
1523696818.380414,-0.661678,0.020433,-2.942131,0.258306,-0.045861,0.043830,-0.614310,-0.020432,-0.788794,0.103796,0.048172,0.144446,-33.391190,16.212994,27.628845,,,,,,,
1523696818.410382,-0.659104,0.023378,-2.937669,0.090683,0.209446,0.061571,-0.612238,-0.023375,-0.790321,0.067698,0.027907,0.083366,-33.389847,16.437832,27.477905,,,,,,,
1523696818.440350,-0.651543,0.023276,-2.936076,0.024654,0.197158,0.018913,-0.606247,-0.023273,-0.794930,0.082184,-0.026684,0.046425,-33.395554,16.137417,27.029053,,,,,,,
1523696818.470319,-0.650106,0.025370,-2.934037,0.153937,-0.027337,0.012847,-0.605073,-0.025367,-0.795760,0.119858,-0.051507,0.136321,-32.863708,17.184414,26.425171,,,,,,,
1523696818.500287,-0.651769,0.028892,-2.929546,0.175878,-0.045986,0.088533,-0.606338,-0.028888,-0.794676,0.116714,-0.063718,0.178297,-32.273010,16.431454,26.128479,,,,,,,
1523696818.530255,-0.650880,0.029141,-2.923916,0.074664,0.101365,0.174618,-0.605627,-0.029137,-0.795209,0.127233,-0.071297,0.137280,-32.123032,16.430782,26.128601,,,,,,,
1523696818.560208,-0.647991,0.026467,-2.919147,0.010375,0.050531,0.173552,-0.603371,-0.026464,-0.797015,0.154290,-0.098353,0.096179,-31.962097,17.480129,26.199463,,,,,,,
1523696818.590177,-0.649545,0.025554,-2.915407,0.110712,-0.088115,0.058689,-0.604623,-0.025552,-0.796095,0.207056,-0.132041,0.146223,-31.977539,16.429379,25.378662,,,,,,,
1523696818.620145,-0.650846,0.030668,-2.911384,0.266562,0.041764,-0.029771,-0.605572,-0.030663,-0.795193,0.226223,-0.188545,0.121045,-31.304520,16.276272,25.304565,,,,,,,
1523696818.650113,-0.646383,0.037267,-2.907405,0.225423,0.177708,-0.006490,-0.601882,-0.037258,-0.797709,0.163650,-0.205143,0.088587,-30.850937,16.499462,25.528931,,,,,,,
1523696818.680081,-0.644040,0.041144,-2.903574,0.179559,0.001132,0.036273,-0.599920,-0.041132,-0.798996,0.178365,-0.174505,0.157898,-32.204041,16.505032,25.003235,,,,,,,
1523696818.710050,-0.645806,0.046597,-2.897406,0.319103,-0.023942,0.076894,-0.601186,-0.046581,-0.797744,0.191289,-0.154988,0.214126,-31.531021,16.576550,24.553284,,,,,,,
1523696818.740018,-0.640969,0.051323,-2.889050,0.230609,0.334879,0.157443,-0.597182,-0.051300,-0.800457,0.163878,-0.198227,0.160595,-31.296448,17.400707,24.775085,,,,,,,
1523696818.769985,-0.623605,0.048092,-2.883001,-0.099681,0.857653,0.276025,-0.583287,-0.048073,-0.810836,0.062093,-0.260047,-0.082917,-32.646698,17.781109,24.097900,,,,,,,
1523696818.799953,-0.603398,0.039030,-2.882806,-0.216485,0.300439,0.076160,-0.567009,-0.039020,-0.822781,0.073296,-0.274136,-0.190448,-33.035919,17.031734,22.975708,,,,,,,
1523696818.829922,-0.609553,0.043777,-2.883963,0.352137,-0.388519,-0.224253,-0.571950,-0.043763,-0.819115,0.199788,-0.167434,0.112221,-32.128922,17.328335,23.649963,,,,,,,
1523696818.859890,-0.615035,0.059694,-2.881170,0.457595,0.074255,-0.187346,-0.575957,-0.059659,-0.815294,0.150908,-0.092289,0.166247,-33.243820,17.709393,24.697937,,,,,,,
1523696818.889858,-0.600865,0.061153,-2.880944,-0.349103,0.769055,0.119293,-0.564297,-0.061115,-0.823301,-0.046085,-0.019680,-0.124681,-33.476166,17.334850,24.099243,,,,,,,
1523696818.919827,-0.572608,0.036974,-2.887975,-0.991504,0.801390,0.283928,-0.541453,-0.036965,-0.839913,-0.197438,-0.007118,-0.582298,-33.778244,17.485607,23.498535,,,,,,,
1523696818.949795,-0.565246,0.011804,-2.897701,-0.671885,-0.081919,0.060224,-0.535584,-0.011804,-0.844395,-0.202575,0.020624,-0.523418,-34.826263,17.415768,23.948303,,,,,,,
1523696818.979764,-0.568213,0.005649,-2.901967,-0.008432,-0.097790,-0.034094,-0.538116,-0.005649,-0.842847,-0.184495,-0.008999,-0.157565,-34.460419,16.813595,23.425842,,,,,,,
1523696819.009732,-0.569173,0.009465,-2.901262,0.163111,0.054825,-0.038378,-0.538910,-0.009465,-0.842306,-0.073685,0.021916,-0.082285,-33.782883,17.110470,23.349976,,,,,,,
1523696819.039731,-0.562682,0.011726,-2.899706,0.000453,0.293814,0.033713,-0.533418,-0.011726,-0.845766,-0.009108,0.096946,-0.190809,-33.934235,16.886303,23.500854,,,,,,,
,,,,,,,,,,,,,,,,25.312086,51.460638,11.451050,20.350000,162.773438,1523696818.995776,
1523696819.069699,-0.551820,0.006964,-2.900844,-0.234121,0.376122,0.046249,-0.524223,-0.006964,-0.851548,0.015953,0.114295,-0.363509,-34.464783,16.738018,22.826172,,,,,,,
1523696819.099668,-0.547984,0.000569,-2.904796,-0.246572,-0.109940,-0.035324,-0.520965,-0.000569,-0.853573,-0.012467,0.125843,-0.365024,-34.393524,16.362698,22.827698,,,,,,,
1523696819.129636,-0.559095,-0.001997,-2.910166,-0.068350,-0.499528,-0.153078,-0.530416,0.001997,-0.847731,-0.034174,0.063647,-0.108110,-34.691376,15.765391,24.179932,,,,,,,
1523696819.159604,-0.574550,0.002286,-2.913160,0.139944,-0.471393,-0.147625,-0.543453,-0.002286,-0.839432,-0.014851,0.012525,0.092010,-34.990326,15.916667,24.104187,,,,,,,
1523696819.189572,-0.583771,0.008433,-2.912512,0.199421,-0.185389,-0.042370,-0.551153,-0.008433,-0.834357,-0.027842,-0.008352,0.135138,-35.064255,15.842296,24.404419,,,,,,,
1523696819.219541,-0.585629,0.011964,-2.908002,0.138722,0.050494,0.132099,-0.552682,-0.011964,-0.833301,0.021142,-0.018584,0.098652,-34.684036,16.140957,24.778442,,,,,,,
1523696819.249509,-0.582246,0.010122,-2.902274,0.021049,0.084286,0.204430,-0.549871,-0.010122,-0.835183,0.090063,-0.000956,0.068216,-34.303955,16.514477,25.002136,,,,,,,
1523696819.279477,-0.583421,0.008707,-2.897459,0.083578,-0.109725,0.121545,-0.550859,-0.008707,-0.834548,0.167009,0.018274,0.124343,-35.049133,17.267376,24.548767,,,,,,,
1523696819.309444,-0.587735,0.011299,-2.893597,0.177990,-0.122039,0.024670,-0.554440,-0.011299,-0.832142,0.208172,0.025200,0.177387,-35.266922,17.718807,24.996826,,,,,,,
1523696819.339414,-0.588676,0.016067,-2.890534,0.179908,0.016380,-0.017017,-0.555186,-0.016066,-0.831566,0.204920,0.039306,0.154762,-33.534668,18.311230,25.220337,,,,,,,
1523696819.369381,-0.588418,0.019632,-2.888467,0.082377,-0.026117,0.017047,-0.554936,-0.019630,-0.831656,0.156819,0.029106,0.122870,-33.909683,18.762157,24.468323,,,,,,,
1523696819.399349,-0.589368,0.017709,-2.887295,-0.118586,0.014195,0.097837,-0.555746,-0.017708,-0.831158,0.113577,-0.018150,0.099087,-33.316452,18.533749,23.719543,,,,,,,
1523696819.429317,-0.587649,0.011210,-2.887758,-0.203872,0.032519,0.090301,-0.554368,-0.011210,-0.832191,0.061372,-0.058584,0.033332,-33.922119,18.011395,23.646301,,,,,,,
1523696819.459286,-0.587269,0.006962,-2.888954,-0.075404,0.021061,0.012620,-0.554074,-0.006962,-0.832433,0.045545,-0.059124,-0.047831,-32.951782,17.407253,23.874268,,,,,,,
1523696819.489254,-0.588733,0.006752,-2.889165,0.013793,-0.095986,0.004277,-0.555293,-0.006752,-0.831622,0.075663,-0.050331,-0.050839,-32.513214,16.804394,22.976868,,,,,,,
1523696819.519222,-0.591273,0.005958,-2.888472,-0.028046,-0.093013,0.047941,-0.557406,-0.005958,-0.830214,0.073641,-0.016183,-0.035005,-31.464569,16.125576,23.880127,,,,,,,
1523696819.549191,-0.595595,0.007431,-2.887784,0.105480,-0.161882,-0.026486,-0.560984,-0.007431,-0.827788,0.137949,0.027771,0.064925,-32.064697,15.978496,24.105408,,,,,,,
1523696819.579176,-0.595752,0.010655,-2.886350,0.054138,0.086681,0.003066,-0.561097,-0.010655,-0.827676,0.031617,0.023930,0.035043,-32.677521,15.005733,23.583984,,,,,,,
1523696819.609144,-0.588712,0.007346,-2.887397,-0.240080,0.244347,0.050636,-0.555273,-0.007346,-0.831631,-0.065226,0.009360,-0.145649,-32.674957,14.856395,24.259583,,,,,,,
1523696819.639112,-0.583300,-0.001499,-2.891270,-0.325348,0.039472,0.050780,-0.550778,0.001499,-0.834645,-0.082767,-0.039142,-0.245631,-33.726120,14.561427,24.560242,,,,,,,
1523696819.669081,-0.587837,-0.008718,-2.894616,-0.176028,-0.274121,0.014982,-0.554539,0.008718,-0.832107,-0.077282,-0.071783,-0.135041,-34.399292,14.564754,24.859863,,,,,,,
1523696819.699049,-0.598017,-0.009682,-2.894877,0.052092,-0.337477,0.029065,-0.562976,0.009682,-0.826411,-0.001126,-0.052849,0.066463,-33.049179,14.483836,25.010925,,,,,,,
1523696819.729017,-0.602848,-0.009865,-2.891389,0.032714,-0.006652,0.138458,-0.566960,0.009865,-0.823681,0.028569,-0.014610,0.121029,-34.380859,15.466243,26.431274,,,,,,,
1523696819.758985,-0.598673,-0.012490,-2.887880,-0.015537,0.178363,0.136117,-0.563500,0.012490,-0.826016,0.047326,-0.030358,-0.045307,-34.672028,16.442410,26.277222,,,,,,,
1523696819.788954,-0.592753,-0.016313,-2.886437,-0.144479,0.184299,0.093392,-0.558569,0.016312,-0.829292,0.014289,-0.033829,-0.174981,-33.704422,16.287075,25.303345,,,,,,,
1523696819.818922,-0.595184,-0.018298,-2.887870,0.035982,-0.252700,-0.083977,-0.560565,0.018297,-0.827903,0.096179,-0.009050,-0.003930,-34.670990,16.816952,25.825745,,,,,,,
1523696819.848890,-0.602598,-0.011794,-2.888027,0.223201,-0.219895,-0.129696,-0.566743,0.011794,-0.823805,0.107560,0.012926,0.152937,-34.509430,17.566891,26.497864,,,,,,,
1523696819.878889,-0.606514,-0.006430,-2.888277,0.037123,-0.013520,-0.097007,-0.569992,0.006430,-0.821619,0.003266,0.062021,0.140543,-33.684647,17.862652,25.972046,,,,,,,
1523696819.908857,-0.600786,-0.008579,-2.892245,-0.225586,0.284221,-0.033573,-0.565267,0.008579,-0.824858,-0.032084,0.067547,-0.113436,-34.131302,17.790340,26.647095,,,,,,,
1523696819.938825,-0.595185,-0.013378,-2.895745,-0.146597,0.064976,-0.013043,-0.560609,0.013377,-0.827967,-0.059051,0.064931,-0.212225,-33.610077,17.412991,26.648865,,,,,,,
1523696819.968794,-0.600806,-0.013178,-2.897543,0.054791,-0.326121,-0.073251,-0.565256,0.013178,-0.824805,0.035425,0.046225,0.035971,-33.755737,18.163128,26.120850,,,,,,,
1523696819.998762,-0.612876,-0.007792,-2.896140,0.236939,-0.402148,-0.055984,-0.575202,0.007792,-0.817968,0.120078,0.040899,0.204672,-32.784073,17.559200,26.573730,,,,,,,
1523696820.028730,-0.620611,-0.000782,-2.892675,0.266032,-0.103664,-0.051994,-0.581529,0.000782,-0.813519,0.096346,0.077816,0.254971,-32.480637,17.633297,27.023560,,,,,,,
,,,,,,,,,,,,,,,,25.311916,51.460716,11.400133,20.230000,162.070312,1523696819.995765,
1523696820.058698,-0.615622,0.006771,-2.889036,0.252929,0.343510,-0.020493,-0.577451,-0.006771,-0.816392,0.089978,0.080730,0.125291,-32.179901,17.931561,26.647522,,,,,,,
1523696820.088667,-0.603646,0.007545,-2.887339,-0.110411,0.355579,0.053814,-0.567629,-0.007545,-0.823244,0.015597,0.047920,-0.086103,-32.490067,17.182507,26.200378,,,,,,,
1523696820.118635,-0.600724,0.002398,-2.889753,-0.147459,-0.108342,0.003116,-0.565235,-0.002398,-0.824920,0.054157,-0.009245,-0.032578,-32.491867,16.732967,26.652161,,,,,,,
1523696820.148603,-0.607266,0.003473,-2.890633,0.080925,-0.195614,-0.056307,-0.570618,-0.003473,-0.821202,0.042923,-0.046240,0.088750,-31.215408,16.652599,27.028137,,,,,,,
1523696820.178571,-0.608008,0.006498,-2.890283,0.082169,0.094372,-0.042739,-0.571219,-0.006498,-0.820766,-0.024148,-0.071765,-0.008061,-32.121674,16.431011,26.353577,,,,,,,
1523696820.208540,-0.603626,0.008073,-2.889894,0.024252,0.081501,-0.004415,-0.567610,-0.008073,-0.823252,-0.034563,-0.037719,-0.137090,-31.446854,16.278194,26.579529,,,,,,,
1523696820.238508,-0.604432,0.007923,-2.890104,-0.043872,-0.089568,0.015965,-0.568274,-0.007923,-0.822795,0.035422,-0.025356,-0.099430,-31.293716,16.502651,26.728699,,,,,,,
1523696820.268476,-0.608808,0.007707,-2.890572,-0.029078,-0.152115,-0.009538,-0.571870,-0.007707,-0.820302,0.055070,0.000642,-0.045756,-31.519455,16.653301,26.352966,,,,,,,
1523696820.298445,-0.611441,0.007386,-2.891646,-0.056326,-0.035183,-0.006478,-0.574030,-0.007386,-0.818795,-0.010580,0.038971,-0.059333,-31.447769,16.502666,26.053589,,,,,,,
1523696820.328413,-0.607595,0.004393,-2.892940,-0.138850,0.172033,0.024138,-0.570887,-0.004393,-0.821011,-0.110846,0.011626,-0.227115,-30.552872,15.898799,26.206482,,,,,,,
1523696820.358381,-0.608032,0.001645,-2.895140,-0.082535,-0.178476,-0.019144,-0.571250,-0.001645,-0.820769,-0.060967,-0.035785,-0.177995,-31.674408,16.428539,25.903748,,,,,,,
1523696820.388349,-0.614888,0.001250,-2.895820,0.009157,-0.202113,-0.014789,-0.576864,-0.001250,-0.816833,-0.050806,-0.072282,-0.002777,-31.537292,15.677028,25.006897,,,,,,,
1523696820.418318,-0.617689,0.003254,-2.894833,0.135933,-0.020760,-0.009549,-0.579147,-0.003254,-0.815211,-0.002137,-0.051617,0.016184,-30.488220,15.447536,25.233276,,,,,,,
1523696820.448286,-0.614908,0.006988,-2.891598,0.128939,0.144667,0.041425,-0.576867,-0.006988,-0.816802,-0.003898,0.015945,-0.016297,-31.831879,15.903880,25.530823,,,,,,,
1523696820.478254,-0.613063,0.005537,-2.890222,-0.104617,-0.002628,0.066967,-0.575364,-0.005537,-0.817873,-0.010207,0.062544,-0.054823,-31.538177,15.452250,25.232788,,,,,,,
1523696820.508222,-0.614563,0.002858,-2.890681,-0.038356,-0.051307,0.013794,-0.576596,-0.002858,-0.817018,0.013837,0.038639,0.041384,-31.915268,15.378734,25.007874,,,,,,,
1523696820.538191,-0.614273,0.002962,-2.890356,0.039112,0.069705,0.004140,-0.576359,-0.002962,-0.817185,-0.036663,0.017870,0.007157,-32.065094,15.079936,25.533997,,,,,,,
1523696820.568142,-0.607755,0.000951,-2.889279,-0.063025,0.247906,0.086988,-0.571023,-0.000951,-0.820928,-0.063590,-0.013346,-0.182505,-32.142365,15.304530,24.783020,,,,,,,
1523696820.598110,-0.605264,-0.003263,-2.887850,-0.074167,-0.057282,0.120330,-0.568973,0.003263,-0.822344,-0.005276,-0.002836,-0.196653,-32.445480,14.856120,25.009705,,,,,,,
1523696820.628078,-0.613278,-0.005193,-2.886091,0.062553,-0.363153,0.049347,-0.575540,0.005193,-0.817751,0.099832,0.006709,0.057558,-32.221832,14.630260,25.160706,,,,,,,
1523696820.658047,-0.622426,-0.000252,-2.882885,0.254847,-0.195172,-0.031658,-0.583005,0.000252,-0.812462,0.115460,-0.011071,0.142159,-31.915100,15.079249,25.534058,,,,,,,
1523696820.688015,-0.621175,0.004278,-2.880323,0.052481,0.207721,0.016799,-0.581983,-0.004278,-0.813184,-0.015643,0.000768,-0.035083,-32.216583,14.930614,25.534485,,,,,,,
1523696820.718014,-0.610920,-0.001474,-2.882239,-0.338921,0.358223,0.061099,-0.573618,0.001474,-0.819116,-0.130224,-0.021814,-0.344062,-33.192001,14.934932,25.459045,,,,,,,
1523696820.747982,-0.610695,-0.008322,-2.886506,-0.116047,-0.297265,-0.040352,-0.573414,0.008322,-0.819218,-0.058101,-0.063422,-0.254177,-33.038376,14.934840,26.059082,,,,,,,
1523696820.777950,-0.625896,-0.003960,-2.886512,0.237573,-0.535842,-0.085674,-0.585816,0.003960,-0.810428,0.048310,-0.077843,0.142398,-32.209244,15.306178,26.133057,,,,,,,
1523696820.807918,-0.638239,0.003635,-2.882129,0.313009,-0.269986,0.010012,-0.595775,-0.003635,-0.803136,0.078655,-0.037579,0.286794,-32.051773,16.055462,26.130127,,,,,,,
1523696820.837887,-0.637662,0.011718,-2.875194,0.377178,0.232427,0.014886,-0.595275,-0.011718,-0.803430,0.129225,0.028350,0.209055,-30.918884,16.800442,26.202698,,,,,,,
1523696820.867855,-0.628971,0.023448,-2.869456,0.482670,0.223812,-0.157643,-0.588149,-0.023446,-0.808407,0.140288,0.024026,0.150082,-32.492477,17.032375,26.050964,,,,,,,
1523696820.897823,-0.627064,0.038312,-2.865938,0.406832,-0.044677,-0.179810,-0.586336,-0.038303,-0.809156,0.139376,0.024600,0.203275,-31.756012,16.352932,24.929077,,,,,,,
1523696820.927792,-0.629946,0.044414,-2.865066,0.008644,-0.087295,-0.022366,-0.588518,-0.044399,-0.807258,0.109987,0.024486,0.200721,-31.072937,16.800457,25.527588,,,,,,,
1523696820.957760,-0.634800,0.037418,-2.867714,-0.372775,-0.230719,0.108557,-0.592598,-0.037409,-0.804623,0.131005,-0.022466,0.157330,-31.667648,16.878887,26.276978,,,,,,,
1523696820.987728,-0.646443,0.028806,-2.870692,-0.135725,-0.535833,0.045110,-0.602098,-0.028802,-0.797896,0.146562,-0.151893,0.276290,-30.852142,16.424389,25.454224,,,,,,,
1523696821.017696,-0.661266,0.032168,-2.869725,0.241749,-0.341281,-0.102910,-0.613795,-0.032162,-0.788803,0.186641,-0.146778,0.274460,-30.324463,16.422466,25.904480,,,,,,,
1523696821.047665,-0.664243,0.042905,-2.867473,0.347477,0.056388,-0.175693,-0.615892,-0.042892,-0.786655,0.205889,-0.092545,0.196079,-30.469498,16.648571,26.353516,,,,,,,
,,,,,,,,,,,,,,,,25.311766,51.460830,11.511831,19.180000,159.257812,1523696820.995754,
1523696821.077633,-0.655700,0.047258,-2.867726,-0.134535,0.376284,-0.011222,-0.609030,-0.047241,-0.791732,0.171530,-0.110718,-0.077286,-31.148834,16.576031,25.753479,,,,,,,
1523696821.107601,-0.649524,0.035470,-2.872633,-0.545052,-0.002291,0.174262,-0.604424,-0.035463,-0.795867,0.111504,-0.181884,-0.235628,-29.740051,15.219249,25.309631,,,,,,,
1523696821.137569,-0.651333,0.020641,-2.877502,-0.391220,-0.039521,0.125399,-0.606115,-0.020640,-0.795103,-0.053096,-0.175726,-0.408831,-30.861984,15.075038,26.059631,,,,,,,
1523696821.167538,-0.653757,0.016207,-2.880173,-0.043988,-0.169962,-0.034045,-0.608090,-0.016206,-0.793696,-0.188999,-0.105940,-0.411367,-31.163773,14.851481,26.135376,,,,,,,
1523696821.197506,-0.661618,0.017392,-2.881167,-0.014687,-0.292310,-0.024305,-0.614298,-0.017391,-0.788875,-0.163717,-0.129963,-0.183003,-30.127594,13.646510,25.840698,,,,,,,
1523696821.227474,-0.669213,0.013244,-2.882073,-0.194294,-0.168591,0.126737,-0.620311,-0.013244,-0.784237,-0.148229,-0.174988,-0.064716,-31.166748,13.877620,27.264282,,,,,,,
1523696821.257442,-0.667956,0.003486,-2.880584,-0.218335,0.163795,0.316052,-0.619375,-0.003486,-0.785080,-0.159159,-0.183663,-0.180893,-31.681686,14.705226,27.560669,,,,,,,
1523696821.287411,-0.662512,-0.006976,-2.876551,-0.180784,0.181862,0.300092,-0.615081,0.006976,-0.788426,-0.211258,-0.051226,-0.347637,-31.970596,15.681758,27.781616,,,,,,,
1523696821.317379,-0.660387,-0.014812,-2.872610,-0.071464,-0.031516,0.235371,-0.613352,0.014811,-0.789664,-0.173712,0.033330,-0.332529,-32.635071,16.510113,28.152954,,,,,,,
1523696821.347347,-0.663183,-0.019552,-2.868762,-0.051271,-0.127823,0.171558,-0.615507,0.019550,-0.787882,-0.176958,0.118893,-0.175878,-32.549149,17.335171,28.599731,,,,,,,
1523696821.377315,-0.666214,-0.023129,-2.869438,-0.185160,-0.024864,-0.067327,-0.617845,0.023126,-0.785952,-0.275633,0.136954,-0.038709,-31.943665,18.381618,27.770813,,,,,,,
1523696821.407284,-0.664416,-0.025772,-2.876012,-0.214416,0.060538,-0.114311,-0.616392,0.025770,-0.787011,-0.109759,0.176455,-0.158988,-32.095459,18.157375,27.846680,,,,,,,
1523696821.437252,-0.663492,-0.032165,-2.878681,-0.182107,-0.014891,0.175609,-0.615550,0.032159,-0.787434,-0.047460,0.226065,-0.159602,-31.051926,17.552608,27.774597,,,,,,,
1523696821.467220,-0.668216,-0.036197,-2.872834,0.148494,-0.232055,0.265580,-0.619177,0.036189,-0.784410,0.058859,0.077031,0.034883,-30.303482,17.848492,27.023804,,,,,,,
1523696821.497189,-0.675529,-0.034797,-2.862689,0.307837,-0.266983,0.187958,-0.624928,0.034790,-0.779899,0.124639,-0.025956,0.206855,-30.602264,17.924908,27.098328,,,,,,,
1523696821.527157,-0.681377,-0.027699,-2.853689,0.406568,-0.117225,0.013124,-0.629618,0.027695,-0.776404,0.154383,-0.045396,0.263632,-30.751953,17.775890,27.398865,,,,,,,
1523696821.557125,-0.678872,-0.018436,-2.848042,0.268480,0.183320,-0.066123,-0.627805,0.018435,-0.778145,0.103498,-0.029345,0.170509,-30.750900,17.925808,27.323303,,,,,,,
1523696821.587122,-0.672197,-0.018233,-2.848067,-0.204952,0.226152,0.056012,-0.622599,0.018232,-0.782321,0.058833,-0.054838,0.010043,-30.389404,17.023434,26.577087,,,,,,,
1523696821.617090,-0.668884,-0.030594,-2.852750,-0.498251,-0.052294,0.165826,-0.619817,0.030589,-0.784143,0.083761,-0.109095,-0.049750,-29.874298,15.896342,26.806824,,,,,,,
1523696821.647058,-0.679336,-0.041308,-2.856690,-0.207065,-0.461444,0.070549,-0.627737,0.041296,-0.777322,0.182729,-0.109289,0.174554,-29.197662,15.743831,27.332825,,,,,,,
1523696821.677027,-0.689108,-0.041244,-2.855633,0.159712,-0.162309,0.015110,-0.635304,0.041232,-0.771153,0.188496,-0.087191,0.208210,-30.679932,16.801693,28.527771,,,,,,,
1523696821.706995,-0.684512,-0.037441,-2.851056,0.158485,0.333559,0.066829,-0.631848,0.037432,-0.774180,0.070721,-0.020571,-0.019277,-31.511642,16.579678,27.778259,,,,,,,
1523696821.736964,-0.674057,-0.038544,-2.848904,-0.059668,0.255452,0.067819,-0.623693,0.038535,-0.780711,0.016256,0.023660,-0.214391,-30.082199,17.023251,27.777222,,,,,,,
1523696821.766932,-0.675499,-0.040043,-2.850424,-0.051498,-0.222832,-0.070216,-0.624782,0.040032,-0.779765,0.028209,0.012916,-0.087240,-31.046524,17.553493,28.674622,,,,,,,
1523696821.796901,-0.685509,-0.036224,-2.852558,0.112859,-0.336346,-0.155219,-0.632648,0.036216,-0.773584,0.028629,-0.007315,0.121439,-30.979309,17.177517,28.001160,,,,,,,
1523696821.826869,-0.689882,-0.033236,-2.852237,0.028203,0.044073,0.026534,-0.636091,0.033230,-0.770891,-0.045077,0.013813,0.129152,-30.147903,17.549221,28.450134,,,,,,,
1523696821.856837,-0.680888,-0.036114,-2.850448,-0.052020,0.377123,0.140160,-0.629069,0.036106,-0.776503,-0.090536,-0.015247,-0.061266,-29.326553,17.320293,28.226379,,,,,,,
1523696821.886805,-0.675340,-0.039484,-2.848492,-0.052361,0.018271,0.097890,-0.624672,0.039474,-0.779881,-0.083534,-0.054153,-0.129283,-30.019363,16.347073,26.879944,,,,,,,
1523696821.916774,-0.677632,-0.041388,-2.848612,-0.015984,-0.090520,-0.009587,-0.626409,0.041376,-0.778387,-0.018244,-0.019922,-0.056787,-27.766739,16.337383,27.331116,,,,,,,
1523696821.946742,-0.679054,-0.039712,-2.847532,0.104868,-0.036669,-0.003161,-0.627558,0.039701,-0.777549,0.042552,-0.003447,-0.050301,-28.447403,15.815379,27.257874,,,,,,,
1523696821.976710,-0.681435,-0.036990,-2.845747,0.077858,-0.097243,0.006473,-0.629473,0.036981,-0.776134,0.070117,0.015692,0.030345,-28.825546,15.816554,26.732666,,,,,,,
1523696822.006677,-0.681614,-0.035737,-2.844110,0.067813,0.050417,0.014849,-0.629641,0.035730,-0.776056,0.046191,-0.023889,-0.006170,-28.830322,15.291652,26.809753,,,,,,,
1523696822.036647,-0.676588,-0.032309,-2.842405,0.165032,0.209056,-0.064087,-0.625806,0.032304,-0.779302,-0.036746,-0.067323,-0.131983,-29.419968,16.194530,27.030823,,,,,,,
,,,,,,,,,,,,,,,,25.311607,51.460905,11.610708,19.049999,155.039062,1523696821.995744,
1523696822.066614,-0.671675,-0.026877,-2.841336,0.155895,0.027683,-0.107602,-0.622069,0.026874,-0.782493,-0.021058,-0.061252,-0.051506,-30.394333,16.124126,27.255676,,,,,,,
1523696822.096582,-0.673588,-0.021196,-2.841139,0.126522,-0.076461,-0.094739,-0.623650,0.021194,-0.781408,-0.009681,-0.044067,0.045843,-30.248093,15.973094,26.881348,,,,,,,
1523696822.126551,-0.671446,-0.017672,-2.840774,0.061024,0.151701,-0.030015,-0.622018,0.017671,-0.782796,-0.073920,-0.001084,-0.048533,-30.176529,15.672709,26.807556,,,,,,,
1523696822.156519,-0.665119,-0.014716,-2.840019,0.122227,0.198481,-0.055588,-0.617083,0.014716,-0.786753,-0.090376,0.044290,-0.145681,-29.504852,15.294765,26.884460,,,,,,,
1523696822.186487,-0.662154,-0.009997,-2.839071,0.142778,0.001971,-0.072427,-0.614783,0.009997,-0.788626,-0.019540,0.048291,-0.061396,-31.219894,16.202618,27.029907,,,,,,,
1523696822.216455,-0.666691,-0.005210,-2.837913,0.157733,-0.225523,-0.064724,-0.618377,0.005209,-0.785857,0.048247,0.051034,0.085204,-30.619019,16.200069,27.180237,,,,,,,
1523696822.246424,-0.672705,-0.001400,-2.836530,0.122740,-0.130065,-0.027550,-0.623100,0.001400,-0.782133,0.075568,0.044178,0.178908,-29.413681,16.644787,27.329102,,,,,,,
1523696822.276392,-0.671197,0.000834,-2.834301,0.081086,0.179846,0.039239,-0.621920,-0.000834,-0.783073,-0.002165,0.023279,0.094413,-31.120499,18.152996,27.847168,,,,,,,
1523696822.306360,-0.662235,-0.001259,-2.832841,-0.120281,0.345685,0.100721,-0.614877,0.001259,-0.788615,-0.035483,-0.060982,-0.134802,-30.831604,17.625713,26.874451,,,,,,,
1523696822.336329,-0.657013,-0.007219,-2.834850,-0.194354,-0.075400,0.017974,-0.610735,0.007219,-0.791795,-0.058775,-0.107973,-0.312453,-29.707855,17.770214,26.424438,,,,,,,
1523696822.366297,-0.671211,-0.004459,-2.836363,0.199143,-0.627712,-0.159104,-0.621925,0.004459,-0.783057,0.109000,-0.097050,-0.005487,-30.144791,18.448223,27.471497,,,,,,,
1523696822.396266,-0.687328,0.003910,-2.833966,0.269942,-0.430953,-0.055905,-0.634466,-0.003910,-0.772933,0.141591,-0.077968,0.202056,-29.467285,18.745098,27.395630,,,,,,,
1523696822.426265,-0.692386,0.007580,-2.829985,0.106049,0.077516,0.076650,-0.638353,-0.007580,-0.769698,0.076632,-0.034015,0.192244,-28.423019,18.439953,26.947388,,,,,,,
1523696822.456233,-0.681414,0.004837,-2.826954,-0.119895,0.505693,0.164490,-0.629880,-0.004837,-0.776669,-0.104403,-0.051651,-0.135517,-29.624329,18.445141,26.721741,,,,,,,
1523696822.486201,-0.670049,-0.002697,-2.828626,-0.208558,0.125240,0.049732,-0.621018,0.002697,-0.783783,-0.062209,-0.078274,-0.228439,-29.415665,17.393230,25.751099,,,,,,,
1523696822.516169,-0.674899,-0.002526,-2.829689,0.089227,-0.248829,-0.050898,-0.624812,0.002526,-0.780763,-0.030049,-0.079888,-0.002837,-28.302094,16.562695,25.229919,,,,,,,
1523696822.546138,-0.681353,0.000052,-2.828529,0.051993,-0.145073,0.015040,-0.629840,-0.000052,-0.776716,-0.030591,0.018606,0.041929,-29.192902,16.717968,26.503906,,,,,,,
1523696822.576104,-0.682837,0.000811,-2.826264,0.116678,0.009787,0.030923,-0.630992,-0.000811,-0.775781,0.015040,0.060885,0.008447,-28.971359,16.192287,26.806091,,,,,,,
1523696822.606072,-0.680977,0.003657,-2.823668,0.091543,0.076009,-0.007529,-0.629544,-0.003657,-0.776948,0.005506,0.070720,-0.016280,-28.678558,15.965144,25.982117,,,,,,,
1523696822.636040,-0.680954,0.003805,-2.824101,-0.048870,-0.059576,-0.019216,-0.629526,-0.003805,-0.776962,0.019647,0.058706,0.004349,-29.869370,16.571026,26.504150,,,,,,,
1523696822.666009,-0.681096,0.001019,-2.825103,-0.051759,0.060224,0.022210,-0.629640,-0.001019,-0.776878,-0.032728,-0.011417,0.024421,-29.941971,16.496868,27.029358,,,,,,,
1523696822.695977,-0.678370,-0.001196,-2.824440,0.012154,0.060901,0.053166,-0.627520,0.001196,-0.778591,-0.050077,-0.036276,-0.013264,-29.272842,16.268261,26.430664,,,,,,,
1523696822.725945,-0.678223,-0.001048,-2.822075,0.132649,-0.012469,0.018163,-0.627406,0.001048,-0.778683,0.021266,-0.036265,0.027600,-29.796768,16.195919,26.730652,,,,,,,
1523696822.755914,-0.678927,0.003158,-2.818563,0.185084,0.000196,0.009678,-0.627951,-0.003158,-0.778238,0.063803,-0.020188,0.064783,-29.945999,16.046963,27.106201,,,,,,,
1523696822.785882,-0.679192,0.006174,-2.815456,0.092126,0.014100,0.031959,-0.628149,-0.006174,-0.778061,0.079595,-0.001974,0.072937,-29.421478,16.269161,26.655518,,,,,,,
1523696822.815850,-0.676320,0.006609,-2.814355,-0.023522,0.170622,0.027453,-0.625910,-0.006609,-0.779860,0.009348,-0.003340,-0.032305,-30.842224,16.425991,27.104187,,,,,,,
1523696822.845818,-0.671302,0.004056,-2.815378,-0.127361,0.115599,0.031690,-0.621997,-0.004056,-0.783001,-0.042569,0.002270,-0.091144,-30.990112,16.501888,27.328857,,,,,,,
1523696822.875787,-0.670886,0.001619,-2.816712,-0.044711,-0.050208,0.008475,-0.621676,-0.001619,-0.783265,-0.031782,0.017443,-0.037383,-31.580780,17.030224,28.001465,,,,,,,
1523696822.905755,-0.673265,0.002489,-2.816124,0.069382,-0.092950,0.001148,-0.623536,-0.002489,-0.781783,-0.016295,0.031039,0.044371,-31.356262,17.253750,27.550659,,,,,,,
1523696822.935723,-0.673049,0.003419,-2.814366,0.032369,0.045978,0.053193,-0.623366,-0.003419,-0.781915,-0.024568,0.043107,-0.016303,-31.419891,18.304195,27.696472,,,,,,,
1523696822.965691,-0.671523,0.001178,-2.813018,-0.042687,0.011936,0.085138,-0.622175,-0.001178,-0.782870,-0.003802,0.025775,-0.064756,-30.439545,18.749920,27.845093,,,,,,,
1523696822.995660,-0.672695,-0.000499,-2.812047,0.010704,-0.047353,0.034098,-0.623092,0.000499,-0.782141,0.009017,-0.025554,-0.029978,-30.953293,19.877239,27.840332,,,,,,,
1523696823.025628,-0.674420,-0.000880,-2.811155,0.015151,-0.018616,0.025550,-0.624440,0.000880,-0.781064,-0.006678,-0.023646,-0.019183,-30.955978,19.652172,27.766235,,,,,,,
1523696823.055596,-0.674319,-0.001471,-2.810348,0.010920,-0.019594,0.015953,-0.624361,0.001471,-0.781127,-0.043822,-0.009406,-0.035630,-29.825653,20.321865,27.539124,,,,,,,
,,,,,,,,,,,,,,,,25.311460,51.460984,11.452011,19.270000,153.281250,1523696822.995733,
1523696823.085564,-0.675285,-0.001049,-2.809618,0.011783,-0.054709,0.023443,-0.625116,0.001049,-0.780524,0.000940,-0.004254,-0.004388,-30.721252,20.401485,28.138367,,,,,,,
1523696823.115533,-0.676751,-0.002118,-2.809671,-0.057593,-0.056652,0.020207,-0.626258,0.002118,-0.779605,-0.006142,0.003344,0.018649,-30.356018,19.874096,27.390625,,,,,,,
1523696823.145501,-0.677904,-0.002996,-2.810365,-0.018817,-0.006634,-0.003262,-0.627155,0.002996,-0.778881,-0.007885,0.026316,0.006969,-30.726639,19.951366,27.990173,,,,,,,
1523696823.175469,-0.676240,-0.002499,-2.810639,0.013743,0.088001,-0.023580,-0.625859,0.002499,-0.779924,-0.039760,0.034092,0.001864,-30.575592,19.875988,28.290588,,,,,,,
1523696823.205437,-0.674611,-0.002397,-2.811139,-0.026039,0.044420,-0.007581,-0.624588,0.002397,-0.780943,-0.011276,0.035765,0.010695,-29.384506,19.794277,26.941528,,,,,,,
1523696823.235436,-0.673366,-0.004482,-2.811821,-0.078484,0.065506,0.034978,-0.623611,0.004482,-0.781714,-0.051606,0.046589,-0.032739,-29.161148,19.493496,27.167786,,,,,,,
1523696823.265405,-0.672068,-0.008454,-2.812615,-0.120448,0.027143,0.064823,-0.622580,0.008454,-0.782503,-0.050196,0.062316,-0.079298,-29.750793,20.171749,27.764771,,,,,,,
1523696823.295373,-0.672463,-0.011055,-2.812984,-0.009377,-0.021680,0.017009,-0.622873,0.011055,-0.782238,-0.031806,0.042320,-0.054539,-29.607239,19.795650,27.316406,,,,,,,
1523696823.325341,-0.674340,-0.010298,-2.812409,0.041724,-0.081136,-0.007406,-0.624345,0.010298,-0.781073,0.013033,0.046907,0.004065,-29.462494,19.494625,26.942688,,,,,,,
1523696823.355309,-0.675136,-0.010444,-2.811910,0.006820,0.017630,0.013776,-0.624966,0.010443,-0.780575,0.013119,0.050760,0.010281,-29.463394,19.494488,26.792664,,,,,,,
1523696823.385278,-0.674025,-0.009889,-2.811275,0.054073,0.049546,-0.009656,-0.624102,0.009889,-0.781273,0.030352,0.018935,0.014137,-28.568848,19.040310,26.644897,,,,,,,
1523696823.415246,-0.673336,-0.009179,-2.810939,0.024039,0.002952,-0.022415,-0.623568,0.009178,-0.781708,0.024950,0.007713,0.047806,-28.272736,18.514202,26.872192,,,,,,,
1523696823.445214,-0.673539,-0.010190,-2.811454,-0.048746,-0.002373,0.006299,-0.623720,0.010190,-0.781574,0.009127,0.001193,0.054676,-28.797119,18.666409,26.721252,,,,,,,
1523696823.475182,-0.671619,-0.011588,-2.811880,-0.024855,0.100546,0.019003,-0.622209,0.011588,-0.782758,-0.017897,-0.013999,0.011335,-27.300171,18.359676,26.723267,,,,,,,
1523696823.505151,-0.669468,-0.011866,-2.811641,0.009100,0.035743,0.004179,-0.620522,0.011866,-0.784093,-0.027412,0.007238,-0.022624,-28.945328,18.667385,27.021179,,,,,,,
1523696823.535119,-0.669557,-0.012187,-2.811584,-0.027421,0.012336,0.023344,-0.620589,0.012187,-0.784034,-0.001497,0.027288,-0.039528,-28.878098,18.291409,26.347717,,,,,,,
1523696823.565076,-0.669929,-0.014254,-2.811578,-0.076884,-0.029223,0.056387,-0.620864,0.014253,-0.783782,-0.016526,0.063383,-0.074602,-28.351471,18.364178,26.497742,,,,,,,
1523696823.595044,-0.671587,-0.016497,-2.811711,-0.028817,-0.058887,0.026618,-0.622141,0.016496,-0.782724,0.006418,0.038420,-0.033010,-28.658936,17.615566,26.500549,,,,,,,
1523696823.625013,-0.672172,-0.016628,-2.811692,0.018619,-0.008735,-0.019219,-0.622597,0.016627,-0.782359,-0.008979,0.032369,-0.026708,-28.816711,17.015987,26.202881,,,,,,,
1523696823.654981,-0.672121,-0.015990,-2.811536,0.020708,-0.003539,-0.004300,-0.622564,0.015989,-0.782398,-0.006754,0.018770,-0.035396,-27.992050,16.937344,26.278564,,,,,,,
1523696823.684949,-0.672609,-0.016363,-2.811250,-0.002981,-0.031202,0.009560,-0.622942,0.016362,-0.782090,-0.007307,-0.014241,-0.009246,-28.734512,17.241436,27.026978,,,,,,,
1523696823.714917,-0.674497,-0.016577,-2.811165,0.010819,-0.071495,-0.008498,-0.624416,0.016576,-0.780909,0.029445,-0.004110,0.038279,-28.740509,16.866085,26.653503,,,,,,,
1523696823.744886,-0.675070,-0.016437,-2.811024,0.007976,0.017709,-0.000064,-0.624864,0.016436,-0.780553,0.005617,0.012006,0.050588,-28.145050,16.638042,26.279724,,,,,,,
1523696823.774854,-0.673305,-0.016430,-2.810837,-0.006817,0.071833,0.015849,-0.623486,0.016429,-0.781655,-0.003574,0.019139,-0.013084,-29.933121,17.247051,27.251404,,,,,,,
1523696823.804822,-0.671993,-0.017029,-2.810701,-0.017747,0.014512,0.012694,-0.622454,0.017028,-0.782465,-0.009764,0.025987,-0.023886,-30.155411,17.473125,27.325378,,,,,,,
1523696823.834790,-0.672821,-0.018079,-2.811416,-0.043433,-0.020363,-0.005404,-0.623089,0.018078,-0.781935,0.000806,0.030994,-0.005205,-29.103073,17.843166,27.099426,,,,,,,
1523696823.864759,-0.672524,-0.019001,-2.812012,-0.014410,0.027362,-0.002236,-0.622846,0.019000,-0.782107,-0.013323,0.048093,-0.013090,-29.549606,17.920620,27.548889,,,,,,,
1523696823.894727,-0.671234,-0.018738,-2.811837,0.036848,0.017709,-0.009636,-0.621841,0.018737,-0.782913,-0.000977,0.050218,-0.026352,-29.776840,17.696651,27.549683,,,,,,,
1523696823.924695,-0.671539,-0.018306,-2.811592,0.012056,-0.026865,-0.006426,-0.622084,0.018305,-0.782730,0.031340,0.052908,0.026031,-29.179138,18.142834,26.423218,,,,,,,
1523696823.954664,-0.671028,-0.019679,-2.811714,-0.041021,0.066607,0.016887,-0.621668,0.019677,-0.783027,0.014734,0.041861,0.020149,-29.776840,17.921276,27.173767,,,,,,,
1523696823.984632,-0.667472,-0.021812,-2.812046,-0.047217,0.112298,0.017909,-0.618852,0.021811,-0.785198,-0.025374,0.022211,-0.049824,-29.474609,18.144909,27.173035,,,,,,,
1523696824.014600,-0.666304,-0.023748,-2.812721,-0.045573,-0.010864,0.004176,-0.617907,0.023746,-0.785886,-0.016263,0.007580,-0.045642,-29.106522,17.767727,26.649719,,,,,,,
1523696824.044599,-0.667030,-0.025831,-2.813355,-0.056410,-0.031140,0.019113,-0.618446,0.025828,-0.785396,0.005546,0.005834,-0.034169,-29.702744,17.920788,27.023804,,,,,,,
1523696824.074567,-0.669109,-0.026701,-2.813501,0.012849,-0.086418,-0.002091,-0.620063,0.026698,-0.784091,0.030356,0.027181,0.027088,-29.850952,18.146374,26.947876,,,,,,,
,,,,,,,,,,,,,,,,25.311316,51.461066,11.317742,19.580000,153.281250,1523696823.995721,
1523696824.104535,-0.669946,-0.025170,-2.812876,0.074263,0.008172,-0.026647,-0.620744,0.025167,-0.783603,0.041429,0.032435,0.063571,-28.416870,18.740444,27.471191,,,,,,,
1523696824.134504,-0.668359,-0.024451,-2.812628,-0.028221,0.051761,0.007326,-0.619511,0.024448,-0.784601,0.012013,0.046276,0.011865,-29.255325,17.843472,26.724365,,,,,,,
1523696824.164472,-0.666075,-0.027323,-2.813531,-0.105077,0.086797,0.037078,-0.617671,0.027320,-0.785955,-0.011784,0.036034,-0.056650,-29.178680,17.918285,26.874084,,,,,,,
1523696824.194440,-0.665571,-0.030035,-2.814648,-0.054135,-0.025699,-0.001129,-0.617227,0.030030,-0.786205,-0.033347,0.014586,-0.060703,-27.378113,17.161526,28.228027,,,,,,,
1523696824.224408,-0.666722,-0.030225,-2.815178,0.023973,-0.004520,-0.017083,-0.618127,0.030220,-0.785490,-0.014975,0.031380,-0.030199,-29.328369,17.544628,27.550537,,,,,,,
1523696824.254377,-0.666793,-0.030262,-2.815048,-0.010500,-0.044988,0.007441,-0.618183,0.030257,-0.785445,-0.028805,0.053788,-0.044724,-28.883606,17.017635,27.552856,,,,,,,
1523696824.284345,-0.668194,-0.031208,-2.814977,-0.025493,-0.024937,0.032981,-0.619265,0.031203,-0.784556,0.000246,0.033998,-0.024999,-28.055191,17.313976,27.627075,,,,,,,
1523696824.314313,-0.668272,-0.032999,-2.814584,-0.028660,-0.023820,0.026582,-0.619290,0.032993,-0.784463,0.010449,0.037930,-0.038673,-29.325821,17.844540,27.474304,,,,,,,
1523696824.344281,-0.671456,-0.032384,-2.814533,0.063005,-0.145706,-0.049949,-0.621797,0.032379,-0.782502,0.058015,0.025620,0.087831,-29.034195,17.093090,27.327515,,,,,,,
1523696824.374250,-0.671397,-0.030837,-2.814174,0.024468,0.116551,-0.007615,-0.621782,0.030832,-0.782577,-0.005721,0.021520,0.052719,-29.396606,17.995312,27.923645,,,,,,,
1523696824.404218,-0.666793,-0.031498,-2.814367,-0.012913,0.127200,0.002997,-0.618159,0.031493,-0.785415,0.018840,0.007875,-0.026337,-29.546890,17.921062,27.998901,,,,,,,
1523696824.434186,-0.664469,-0.031996,-2.814478,-0.021756,0.057076,0.003072,-0.616323,0.031991,-0.786837,-0.016383,0.012488,-0.049344,-28.950851,18.067486,27.098572,,,,,,,
1523696824.464154,-0.664583,-0.033662,-2.815500,-0.057368,-0.021459,0.004176,-0.616378,0.033656,-0.786725,-0.003846,0.036596,-0.063556,-30.000626,17.772732,27.624268,,,,,,,
1523696824.494123,-0.665056,-0.034468,-2.815219,0.006570,-0.005943,0.041504,-0.616733,0.034461,-0.786411,0.007038,0.031335,-0.034512,-29.400055,17.695248,27.849854,,,,,,,
1523696824.524091,-0.663662,-0.037102,-2.814292,-0.086357,0.039666,0.087201,-0.615579,0.037094,-0.787196,-0.010749,0.034806,-0.063558,-28.801285,18.066738,27.023682,,,,,,,
1523696824.554059,-0.663355,-0.039713,-2.814364,-0.029718,-0.036479,0.013808,-0.615275,0.039703,-0.787306,0.032664,0.034028,-0.070848,-28.206116,17.539135,27.101074,,,,,,,
1523696824.584033,-0.665019,-0.039017,-2.814353,0.042956,-0.062961,-0.023407,-0.616602,0.039007,-0.786302,0.059747,0.041804,-0.007521,-28.950241,17.768078,27.699829,,,,,,,
1523696824.614001,-0.665442,-0.038293,-2.813958,0.024977,-0.001439,-0.002168,-0.616951,0.038283,-0.786064,0.068413,0.033113,0.011726,-28.803223,17.467419,27.701111,,,,,,,
1523696824.643969,-0.663785,-0.038897,-2.813769,-0.018700,0.042113,0.015867,-0.615634,0.038887,-0.787067,0.063067,0.015953,0.001758,-29.557999,17.395138,27.025940,,,,,,,
1523696824.673937,-0.661904,-0.040060,-2.814104,-0.026028,0.067695,0.008370,-0.614124,0.040050,-0.788187,0.011417,0.005284,-0.021048,-29.632828,17.096004,27.552124,,,,,,,
1523696824.703906,-0.659274,-0.040715,-2.814550,-0.009960,0.050837,-0.017177,-0.612033,0.040704,-0.789778,-0.038114,0.011344,-0.085115,-28.956223,17.168102,27.702209,,,,,,,
1523696824.733874,-0.659399,-0.040419,-2.815266,-0.000821,-0.068109,-0.029837,-0.612139,0.040408,-0.789711,-0.007658,0.035505,-0.056724,-30.226807,17.474056,27.925354,,,,,,,
1523696824.763842,-0.662127,-0.041146,-2.816226,-0.060959,-0.101195,0.010651,-0.614272,0.041134,-0.788015,0.017928,0.089054,-0.010187,-29.767838,17.922726,28.673767,,,,,,,
1523696824.793810,-0.662624,-0.043457,-2.815927,-0.032932,0.038528,0.078720,-0.614604,0.043443,-0.787633,0.029536,0.096144,-0.064998,-28.946472,17.693813,28.450134,,,,,,,
1523696824.823779,-0.660815,-0.044332,-2.813734,0.064303,0.029930,0.057494,-0.613154,0.044317,-0.788713,0.042720,0.065042,-0.078520,-29.684006,18.672573,28.895813,,,,,,,
1523696824.853777,-0.660787,-0.044625,-2.812009,0.002302,-0.018612,0.030861,-0.613125,0.044610,-0.788720,0.073177,0.032325,-0.029304,-29.162186,18.894329,27.995178,,,,,,,
1523696824.883746,-0.660366,-0.045196,-2.812070,0.025316,0.046567,-0.027796,-0.612777,0.045181,-0.788958,0.065780,-0.006988,-0.008268,-28.715515,18.742016,27.696045,,,,,,,
1523696824.913714,-0.657393,-0.045030,-2.812189,-0.007717,0.081575,-0.008672,-0.610434,0.045015,-0.790782,0.055014,-0.019060,-0.031255,-28.780167,19.642529,27.917419,,,,,,,
1523696824.943682,-0.655324,-0.046063,-2.812216,-0.003949,-0.012034,0.005271,-0.608767,0.046047,-0.792006,0.023318,-0.009593,-0.047929,-28.413879,19.265057,27.094055,,,,,,,
1523696824.973650,-0.656526,-0.045263,-2.812061,0.035456,-0.065090,-0.020214,-0.609741,0.045247,-0.791303,0.070694,0.005595,-0.004992,-27.147186,18.883617,26.346252,,,,,,,
1523696825.003619,-0.656160,-0.044099,-2.811453,0.031473,0.026154,0.002063,-0.609483,0.044085,-0.791567,0.042176,0.026945,-0.000410,-27.366028,19.185116,26.869934,,,,,,,
1523696825.033587,-0.654031,-0.043968,-2.811278,-0.015372,0.056039,0.000926,-0.607800,0.043954,-0.792868,0.019146,0.041221,-0.045114,-27.749710,18.586391,26.422119,,,,,,,
1523696825.063555,-0.652330,-0.046017,-2.812155,-0.104273,0.018873,0.026483,-0.606395,0.046001,-0.793827,-0.007512,0.088399,-0.092892,-26.638824,17.530804,25.826904,,,,,,,
1523696825.093524,-0.652406,-0.048872,-2.813152,-0.054310,-0.030097,0.023363,-0.606373,0.048852,-0.793673,-0.000927,0.071463,-0.095990,-28.053406,17.763515,27.175293,,,,,,,
,,,,,,,,,,,,,,,,25.311170,51.461160,11.171447,18.930000,152.226562,1523696824.995709,
1523696825.123492,-0.653843,-0.048825,-2.812474,0.061014,-0.050458,0.005364,-0.607514,0.048805,-0.792803,0.020768,0.020439,-0.023786,-28.126312,17.839077,27.399902,,,,,,,
1523696825.153460,-0.653839,-0.048082,-2.811000,0.052580,-0.011207,0.018103,-0.607533,0.048064,-0.792834,0.035313,0.005479,-0.013974,-27.827255,18.062206,26.874207,,,,,,,
1523696825.183428,-0.655102,-0.047569,-2.810135,0.028975,-0.070454,-0.010623,-0.608549,0.047551,-0.792086,0.063260,0.007945,0.018694,-27.759720,17.311901,26.877258,,,,,,,
1523696825.213397,-0.656421,-0.046394,-2.809576,0.065468,-0.042828,-0.023410,-0.609626,0.046378,-0.791326,0.051597,0.010538,0.039007,-27.910599,17.087811,27.103027,,,,,,,
1523696825.243365,-0.655974,-0.043849,-2.808706,0.089394,0.043265,-0.034139,-0.609343,0.043835,-0.791690,0.040739,0.007862,0.039798,-27.908798,17.312725,27.027100,,,,,,,
1523696825.273333,-0.653501,-0.043085,-2.808269,-0.030286,0.076155,0.014758,-0.607403,0.043072,-0.793221,0.000332,0.016239,-0.012001,-28.580643,17.540890,27.175903,,,,,,,
1523696825.303301,-0.652584,-0.045296,-2.809160,-0.073382,-0.012959,0.010546,-0.606616,0.045281,-0.793700,-0.012418,0.024284,-0.013322,-28.137527,16.938747,27.028503,,,,,,,
1523696825.333270,-0.653005,-0.045095,-2.809472,0.061403,0.010281,-0.018143,-0.606956,0.045080,-0.793451,0.053291,0.012003,0.029504,-27.013321,16.858700,27.029358,,,,,,,
1523696825.363238,-0.651762,-0.043204,-2.808184,0.053049,0.081330,0.006282,-0.606020,0.043190,-0.794272,0.037477,0.043174,0.042624,-28.061050,17.313030,26.652039,,,,,,,
1523696825.393206,-0.648358,-0.043531,-2.807403,-0.001244,0.134482,0.022172,-0.603304,0.043517,-0.796318,0.033190,0.055497,-0.018257,-27.841171,16.936810,26.428711,,,,,,,
1523696825.423174,-0.643319,-0.044351,-2.807061,-0.015047,0.136719,0.010443,-0.599263,0.044336,-0.799319,0.008625,0.041327,-0.097882,-28.733780,17.316433,27.026672,,,,,,,
1523696825.453143,-0.642685,-0.044581,-2.807437,0.013124,-0.053279,-0.028773,-0.598750,0.044567,-0.799691,0.006022,0.030873,-0.085777,-28.733185,17.466274,26.876160,,,,,,,
1523696825.483111,-0.644251,-0.044296,-2.807566,0.023708,-0.054488,-0.011714,-0.600008,0.044281,-0.798763,0.012026,0.022338,-0.008061,-27.317688,16.784466,26.429565,,,,,,,
1523696825.513079,-0.643896,-0.044479,-2.806997,0.007846,0.032389,0.031865,-0.599720,0.044465,-0.798969,0.004871,0.007934,-0.023663,-27.763306,17.086697,26.653076,,,,,,,
1523696825.543047,-0.643211,-0.044318,-2.805807,0.063253,-0.022842,0.007462,-0.599177,0.044304,-0.799386,0.043879,-0.012016,-0.000114,-28.576157,17.766247,27.549988,,,,,,,
1523696825.573027,-0.644827,-0.041501,-2.804274,0.127267,-0.079033,-0.032927,-0.600541,0.041489,-0.798513,0.073029,-0.005066,0.047170,-28.133499,17.388653,26.951782,,,,,,,
1523696825.602995,-0.644975,-0.039462,-2.803176,0.034800,0.049544,-0.001154,-0.600708,0.039451,-0.798490,0.038880,0.011635,0.016553,-27.385941,17.459774,26.426819,,,,,,,
1523696825.632963,-0.641680,-0.039829,-2.803090,-0.026885,0.114453,0.008322,-0.598066,0.039818,-0.800453,-0.010409,0.009849,-0.088844,-28.132889,17.313885,27.177002,,,,,,,
1523696825.662931,-0.639490,-0.040561,-2.803614,-0.021926,0.013611,-0.007561,-0.596294,0.040550,-0.801737,-0.025487,0.020042,-0.108938,-28.584549,17.240765,27.027100,,,,,,,
1523696825.692930,-0.641228,-0.040521,-2.803753,0.015899,-0.118295,-0.002064,-0.597687,0.040510,-0.800701,0.002854,0.041049,-0.038731,-28.885864,17.241894,26.801941,,,,,,,
1523696825.722899,-0.644483,-0.038736,-2.802454,0.129257,-0.075026,0.000108,-0.600332,0.038726,-0.798808,0.059058,0.028977,0.062251,-28.586044,17.090771,27.027649,,,,,,,
1523696825.752867,-0.643710,-0.034903,-2.799156,0.182087,0.050163,0.009611,-0.599800,0.034896,-0.799384,0.064155,0.013947,0.091697,-27.835327,17.387020,26.651855,,,,,,,
1523696825.782835,-0.640101,-0.032736,-2.796711,0.041563,0.153540,0.017917,-0.596955,0.032730,-0.801603,0.037689,0.009369,0.001112,-28.733017,17.391430,27.026367,,,,,,,
1523696825.812803,-0.635375,-0.035015,-2.797490,-0.128256,0.130633,0.010359,-0.593113,0.035008,-0.804353,-0.004604,-0.003483,-0.120482,-28.961777,17.242077,26.651855,,,,,,,
1523696825.842772,-0.634039,-0.039003,-2.799809,-0.136309,0.006307,0.013673,-0.591951,0.038993,-0.805026,-0.024138,0.019891,-0.159879,-28.585449,17.465237,26.501221,,,,,,,
1523696825.872740,-0.634511,-0.040118,-2.800543,0.030114,-0.053451,-0.010644,-0.592305,0.040107,-0.804711,0.002781,0.040123,-0.092490,-28.275558,18.139370,27.023621,,,,,,,
1523696825.902708,-0.636587,-0.038022,-2.799200,0.096029,-0.087792,0.013948,-0.594022,0.038013,-0.803546,0.041837,0.063214,-0.027951,-29.181976,17.768002,26.574707,,,,,,,
1523696825.932676,-0.638181,-0.036592,-2.796698,0.085486,-0.017843,0.045825,-0.595334,0.036584,-0.802640,0.055295,0.047538,0.007490,-28.584564,17.690014,26.275269,,,,,,,
1523696825.962645,-0.637171,-0.035060,-2.794323,0.093317,0.033303,0.022340,-0.594556,0.035053,-0.803285,0.073530,0.000699,0.001161,-28.718063,18.891354,27.020386,,,,,,,
1523696825.992613,-0.636183,-0.033882,-2.793034,0.048583,0.019822,-0.009643,-0.593787,0.033876,-0.803905,0.066825,-0.010026,-0.000432,-28.199844,18.438656,26.647461,,,,,,,
1523696826.022581,-0.634949,-0.033740,-2.793119,-0.010020,0.038088,-0.017166,-0.592797,0.033734,-0.804641,0.014000,-0.008526,-0.018876,-27.241501,17.308437,25.752502,,,,,,,
1523696826.052549,-0.632368,-0.034403,-2.794265,-0.051404,0.095563,-0.016188,-0.590705,0.034396,-0.806151,-0.020456,0.008405,-0.075167,-28.802200,18.291210,26.497803,,,,,,,
,,,,,,,,,,,,,,,,25.311039,51.461252,11.381708,18.379999,151.171875,1523696825.995699,
1523696826.082518,-0.628645,-0.034819,-2.794944,-0.014135,0.091117,-0.001239,-0.587691,0.034812,-0.808332,-0.017976,0.014795,-0.129366,-28.512405,17.539455,26.050964,,,,,,,
1523696826.112486,-0.629619,-0.035099,-2.794951,-0.000252,-0.122650,0.019235,-0.588472,0.035092,-0.807752,0.026506,0.059665,-0.080752,-27.843735,17.086147,25.753113,,,,,,,
1523696826.142454,-0.632696,-0.035285,-2.793638,0.035131,-0.051765,0.051154,-0.590951,0.035278,-0.805932,0.053903,0.067826,-0.024070,-27.996399,16.412518,26.430725,,,,,,,
1523696826.172422,-0.630674,-0.034700,-2.791624,0.065838,0.093972,0.019055,-0.589332,0.034693,-0.807142,0.024849,0.050069,-0.078707,-28.365524,16.864407,26.653687,,,,,,,
1523696826.202391,-0.628474,-0.032740,-2.790501,0.078577,0.017749,-0.028792,-0.587594,0.032734,-0.808489,0.052850,0.027980,-0.081083,-28.745468,16.416042,26.580322,,,,,,,
1523696826.232359,-0.629394,-0.032369,-2.790640,-0.033008,-0.068225,-0.001096,-0.588345,0.032363,-0.807958,0.045208,0.021912,-0.022562,-28.812668,17.016644,26.877869,,,,,,,
1523696826.262327,-0.630924,-0.033501,-2.790738,0.020286,-0.065302,0.018118,-0.589559,0.033495,-0.807027,0.055623,0.005888,0.016088,-29.716080,16.945248,26.427734,,,,,,,
1523696826.292295,-0.630153,-0.032226,-2.788683,0.105095,0.049147,0.030863,-0.588961,0.032220,-0.807515,0.044848,-0.015725,0.014150,-28.286194,17.164272,26.877563,,,,,,,
1523696826.322264,-0.627100,-0.031005,-2.786201,0.058314,0.111861,0.045676,-0.586515,0.031000,-0.809341,0.023313,-0.008051,-0.049546,-29.857086,17.621258,26.799927,,,,,,,
1523696826.352232,-0.624079,-0.031392,-2.785430,-0.021796,0.062359,0.010508,-0.584060,0.031387,-0.811100,0.042465,0.018524,-0.119702,-29.637634,17.020351,26.877441,,,,,,,
1523696826.382200,-0.624247,-0.031916,-2.785800,-0.020203,-0.074615,-0.004273,-0.584187,0.031911,-0.810988,0.066029,0.035945,-0.079759,-28.434097,17.464779,26.726257,,,,,,,
1523696826.412169,-0.625117,-0.031503,-2.785708,0.052546,-0.035491,-0.001070,-0.584900,0.031498,-0.810490,0.082642,0.064342,-0.040523,-29.697052,18.221218,27.472595,,,,,,,
1523696826.442137,-0.625003,-0.028686,-2.783608,0.161496,-0.024095,0.001136,-0.584857,0.028682,-0.810625,0.105899,0.068745,0.037966,-28.808182,17.466610,26.876099,,,,,,,
1523696826.472105,-0.622266,-0.025680,-2.780342,0.132058,0.127626,0.044648,-0.582684,0.025677,-0.812289,0.114102,0.031894,0.028064,-28.282761,17.913570,26.199585,,,,,,,
1523696826.502073,-0.616693,-0.024725,-2.777676,0.083092,0.140594,0.029689,-0.578162,0.024722,-0.815544,0.097205,-0.002582,-0.015007,-29.687927,19.270947,27.243408,,,,,,,
1523696826.532072,-0.613897,-0.023348,-2.776088,0.063671,0.065411,0.000971,-0.575899,0.023345,-0.817184,0.115602,-0.003616,-0.028565,-29.330490,18.143291,26.198120,,,,,,,
1523696826.562040,-0.612635,-0.023218,-2.775680,-0.003854,0.012382,0.008444,-0.574868,0.023216,-0.817913,0.113015,0.003762,0.003033,-27.910339,17.836605,25.900024,,,,,,,
1523696826.591985,-0.609386,-0.024068,-2.775344,-0.025853,0.148198,0.044518,-0.572197,0.024066,-0.819760,0.091942,0.012982,-0.070438,-28.952820,18.366665,26.272400,,,,,,,
1523696826.621953,-0.604511,-0.024253,-2.774437,0.063941,0.127012,0.004111,-0.568191,0.024250,-0.822536,0.073501,0.014644,-0.114994,-29.028717,18.591473,25.746460,,,,,,,
1523696826.651921,-0.602308,-0.021189,-2.773158,0.112522,-0.035434,-0.032977,-0.566417,0.021187,-0.823843,0.092571,0.019081,-0.110941,-29.484238,18.442852,25.071838,,,,,,,
1523696826.681889,-0.604373,-0.019409,-2.772402,0.045670,-0.141756,0.000108,-0.568137,0.019408,-0.822701,0.123756,0.063188,0.021005,-29.178101,18.517376,25.971680,,,,,,,
1523696826.711858,-0.605533,-0.018938,-2.771169,0.034312,-0.020808,0.030879,-0.569097,0.018937,-0.822049,0.126775,0.016387,0.047437,-29.096664,18.892452,26.420227,,,,,,,
1523696826.741826,-0.602688,-0.019229,-2.769715,0.029386,0.083280,0.040355,-0.566753,0.019227,-0.823660,0.067302,-0.003557,-0.023981,-28.344284,19.263851,26.194153,,,,,,,
1523696826.771794,-0.599231,-0.019206,-2.768780,0.027477,0.082527,-0.003331,-0.563902,0.019205,-0.825615,0.038664,-0.017343,-0.105705,-29.476456,18.818493,25.745361,,,,,,,
1523696826.801762,-0.598219,-0.017874,-2.769234,0.034787,-0.018065,-0.057561,-0.563080,0.017873,-0.826206,0.036332,-0.021337,-0.146130,-29.182755,18.366879,25.447327,,,,,,,
1523696826.831731,-0.598486,-0.018156,-2.770239,-0.077733,-0.031001,0.009492,-0.563298,0.018155,-0.826051,0.044011,0.010989,-0.149855,-27.985947,18.136333,25.298828,,,,,,,
1523696826.861699,-0.599667,-0.020343,-2.770726,-0.039593,-0.069502,0.031932,-0.564249,0.020341,-0.825351,0.029383,0.032530,-0.139066,-29.480789,18.293667,25.897400,,,,,,,
1523696826.891667,-0.602016,-0.019871,-2.769892,0.079063,-0.084403,-0.007386,-0.566192,0.019869,-0.824031,0.042083,0.066495,-0.102590,-28.739487,17.465252,25.826172,,,,,,,
1523696826.921636,-0.603127,-0.016553,-2.768045,0.127401,-0.013391,0.000046,-0.567141,0.016552,-0.823451,0.047381,0.042057,-0.083135,-27.988922,17.611736,25.675903,,,,,,,
1523696826.951604,-0.602993,-0.015681,-2.766481,0.005589,0.014267,0.040409,-0.567039,0.015680,-0.823538,0.042778,0.003637,-0.068963,-29.176285,18.293041,26.647583,,,,,,,
1523696826.981572,-0.600889,-0.017692,-2.766132,-0.085949,0.084572,0.047732,-0.565286,0.017692,-0.824702,0.023172,-0.033149,-0.155706,-29.333939,17.843227,26.124329,,,,,,,
1523696827.011540,-0.599504,-0.021297,-2.767679,-0.144713,0.026563,0.006193,-0.564104,0.021295,-0.825426,-0.025297,-0.005228,-0.225874,-29.562042,17.394482,26.350952,,,,,,,
1523696827.041509,-0.600483,-0.022818,-2.768993,0.014213,-0.028948,-0.012817,-0.564892,0.022816,-0.824846,0.000409,0.018841,-0.217528,-29.187363,17.317867,26.426514,,,,,,,
,,,,,,,,,,,,,,,,25.310888,51.461334,10.962508,18.190001,149.414062,1523696826.995688,
1523696827.071477,-0.599197,-0.021661,-2.767783,0.066619,0.050246,0.039357,-0.563846,0.021659,-0.825593,0.048175,0.007409,-0.143325,-29.546631,18.669857,26.795898,,,,,,,
1523696827.101445,-0.596894,-0.021023,-2.765078,0.097591,0.092424,0.074502,-0.561951,0.021022,-0.826900,0.087753,0.017293,-0.118305,-30.076111,18.446865,26.421509,,,,,,,
1523696827.131413,-0.594195,-0.021924,-2.762825,0.002232,0.035189,0.088336,-0.559706,0.021923,-0.828398,0.091749,0.073796,-0.170366,-29.634354,17.844509,26.049133,,,,,,,
1523696827.161382,-0.595343,-0.021920,-2.760785,0.079994,-0.071929,0.030967,-0.560656,0.021918,-0.827755,0.115298,0.084558,-0.168140,-29.849915,18.520931,26.496338,,,,,,,
1523696827.192781,-0.598716,-0.017792,-2.758385,0.207271,-0.109959,-0.045621,-0.563491,0.017791,-0.825927,0.145492,0.090226,-0.079529,-30.662750,19.649731,26.641418,,,,,,,
