timestamp(unix),attitude_roll(radians),attitude_pitch(radians),attitude_yaw(radians),rotation_rate_x(radians/s),rotation_rate_y(radians/s),rotation_rate_z(radians/s),gravity_x(G),gravity_y(G),gravity_z(G),user_acc_x(G),user_acc_y(G),user_acc_z(G),magnetic_field_x(microteslas),magnetic_field_y(microteslas),magnetic_field_z(microteslas),latitude(degree),longitude(degree),altitude(meter),speed(m/s),course(degree),timestamp(unix),User Mark
1523522214.988429,-0.706032,-0.002692,-1.828619,-0.072334,0.012442,0.132262,-0.648814,0.002692,-0.760936,0.036723,-0.092978,-0.126378,-0.020065,8.203857,-8.149780,,,,,,,
1523522215.018398,-0.713013,-0.008908,-1.826602,-0.138339,-0.323767,0.215666,-0.654086,0.008908,-0.756361,0.067905,-0.089093,-0.027391,-0.472748,7.980820,-8.224121,,,,,,,
1523522215.048366,-0.719279,-0.014614,-1.824135,-0.072301,-0.149450,0.187820,-0.658769,0.014614,-0.752197,0.078401,-0.112636,-0.030167,-0.846222,8.132492,-8.224915,,,,,,,
1523522215.078334,-0.719780,-0.017006,-1.820499,0.036573,0.018529,0.135529,-0.659121,0.017005,-0.751838,0.063967,-0.106834,-0.035851,0.123611,7.977539,-8.823792,,,,,,,
,,,,,,,,,,,,,,,,25.316862,51.456465,14.795040,5.350000,126.562500,1523522207.000049,
,,,,,,,,,,,,,,,,25.316862,51.456465,14.795040,5.350000,126.562500,1523522215.000049,
1523522215.108302,-0.718569,-0.017594,-1.817019,0.051596,0.003812,0.107849,-0.658203,0.017593,-0.752628,0.042114,-0.103592,-0.050015,-0.395645,8.280319,-8.375244,,,,,,,
1523522215.138271,-0.717423,-0.018680,-1.813666,0.003301,-0.004852,0.148312,-0.657327,0.018679,-0.753367,0.024911,-0.122423,-0.084996,-0.096710,8.129044,-8.299500,,,,,,,
1523522215.168239,-0.718007,-0.021619,-1.809461,0.004059,-0.009507,0.204795,-0.657728,0.021617,-0.752939,0.050733,-0.143001,-0.055686,0.581238,8.650620,-8.676208,,,,,,,
1523522215.183247,-0.717620,-0.023286,-1.806874,0.006126,0.007296,0.232483,-0.657412,0.023284,-0.753165,0.053133,-0.148909,-0.071206,0.353424,8.276794,-8.524902,,,,,,,
,,,,,,,,,,,,,,,,25.316641,51.456792,14.795040,-1.000000,-1.000000,1523522215.156136,
1523522215.213215,-0.716629,-0.027972,-1.801068,-0.021921,0.004890,0.283603,-0.656587,0.027968,-0.753725,0.051545,-0.146209,-0.075239,0.127060,8.277588,-8.750000,,,,,,,
,,,,,,,,,,,,,,,,25.316641,51.456792,14.795040,-1.000000,-1.000000,1523522215.167264,
1523522215.243184,-0.717123,-0.034387,-1.795081,-0.050054,-0.048362,0.310278,-0.656827,0.034380,-0.753250,0.048444,-0.136797,-0.045593,0.876266,8.423843,-9.125183,,,,,,,
1523522215.273152,-0.718154,-0.040684,-1.789240,-0.043518,-0.045019,0.286832,-0.657448,0.040673,-0.752395,0.044823,-0.164345,-0.042848,0.422867,8.125809,-9.199219,,,,,,,
1523522215.303120,-0.718458,-0.045171,-1.783432,0.025282,0.007192,0.242078,-0.657550,0.045156,-0.752050,0.058154,-0.188191,-0.045481,0.804108,8.799026,-9.276733,,,,,,,
1523522215.333088,-0.716426,-0.047448,-1.777516,0.072745,0.061586,0.196242,-0.655951,0.047430,-0.753305,0.055747,-0.190008,-0.066321,1.779984,8.794785,-9.126221,,,,,,,
1523522215.363057,-0.713556,-0.047360,-1.772143,0.110704,0.095010,0.113131,-0.653789,0.047342,-0.755188,0.042019,-0.155817,-0.079575,1.477753,8.571136,-9.125488,,,,,,,
1523522215.393025,-0.709941,-0.045033,-1.768394,0.119826,0.130623,0.032120,-0.651125,0.045018,-0.757628,0.035356,-0.166616,-0.096544,0.951111,8.498352,-9.275452,,,,,,,
1523522215.422993,-0.705672,-0.041470,-1.765026,0.164682,0.126293,0.026834,-0.647985,0.041458,-0.760518,0.029439,-0.147995,-0.124629,0.798569,8.423752,-9.575256,,,,,,,
1523522215.452961,-0.703516,-0.038901,-1.759941,0.149668,-0.001918,0.132435,-0.646411,0.038891,-0.761992,0.032382,-0.108303,-0.143404,1.474915,8.420929,-9.349915,,,,,,,
1523522215.482930,-0.705808,-0.040337,-1.753198,0.061752,-0.171536,0.259332,-0.648118,0.040326,-0.760466,0.059633,-0.120175,-0.151980,1.474762,8.495773,-9.500183,,,,,,,
1523522215.512898,-0.713152,-0.046413,-1.746582,-0.060848,-0.308678,0.311593,-0.653514,0.046397,-0.755486,0.068690,-0.121256,-0.099525,2.525604,8.715820,-9.725586,,,,,,,
1523522215.542866,-0.720733,-0.054446,-1.741321,-0.090224,-0.198060,0.307196,-0.658955,0.054420,-0.750206,0.088169,-0.144782,-0.039864,1.323395,8.496231,-9.725281,,,,,,,
1523522215.572834,-0.723869,-0.060934,-1.736335,-0.030685,-0.093611,0.241073,-0.661056,0.060896,-0.747855,0.080902,-0.140394,-0.029947,1.695374,8.419189,-10.099792,,,,,,,
1523522215.602803,-0.725067,-0.064155,-1.731397,0.035780,-0.086013,0.195295,-0.661819,0.064111,-0.746912,0.049850,-0.118478,-0.068655,2.525742,8.865601,-9.951111,,,,,,,
1523522215.632771,-0.727997,-0.065766,-1.725419,0.087680,-0.155369,0.216720,-0.663934,0.065719,-0.744892,0.052377,-0.130248,-0.070431,2.374100,8.566498,-9.725037,,,,,,,
1523522215.662739,-0.730108,-0.067367,-1.718130,0.104108,-0.041808,0.232589,-0.665434,0.067317,-0.743409,0.013853,-0.140193,-0.055053,2.371094,8.491150,-10.099731,,,,,,,
1523522215.692708,-0.728107,-0.068283,-1.710931,0.126997,0.028443,0.205906,-0.663904,0.068230,-0.744693,0.015512,-0.185204,-0.101636,3.047562,8.638092,-10.099976,,,,,,,
1523522215.722676,-0.728453,-0.068332,-1.704239,0.141737,-0.077488,0.153812,-0.664159,0.068279,-0.744461,0.050130,-0.191525,-0.072526,2.594009,8.414917,-10.324280,,,,,,,
1523522215.752644,-0.726680,-0.067201,-1.698129,0.141528,0.085242,0.131278,-0.662889,0.067150,-0.745694,0.027056,-0.175610,-0.095019,2.740692,8.263962,-10.623596,,,,,,,
1523522215.782612,-0.726202,-0.067155,-1.692686,0.078680,-0.072137,0.170808,-0.662535,0.067105,-0.746013,0.050612,-0.152294,-0.107121,3.867889,8.483887,-10.623901,,,,,,,
1523522215.812581,-0.730959,-0.069407,-1.687802,0.014957,-0.217652,0.184757,-0.665974,0.069351,-0.742738,0.050755,-0.108856,-0.050780,3.118057,8.637039,-10.849976,,,,,,,
1523522215.842549,-0.736102,-0.071966,-1.683832,0.021815,-0.158983,0.149544,-0.669664,0.071904,-0.739170,0.068422,-0.123692,-0.029584,3.640808,8.409683,-10.848755,,,,,,,
1523522215.872517,-0.737993,-0.072063,-1.679682,0.109110,-0.040879,0.096216,-0.671055,0.072001,-0.737897,0.068165,-0.135767,-0.015734,4.165009,8.556946,-11.224121,,,,,,,
1523522215.902485,-0.736381,-0.069208,-1.674678,0.193001,0.063257,0.067399,-0.670000,0.069153,-0.739127,0.058351,-0.108033,-0.027871,3.341110,8.485962,-10.924194,,,,,,,
1523522215.932454,-0.733003,-0.066018,-1.668293,0.193867,0.099927,0.139827,-0.667644,0.065970,-0.741546,0.066463,-0.106833,-0.043244,3.936874,8.332825,-11.373291,,,,,,,
1523522215.962422,-0.731854,-0.066254,-1.660665,0.086660,-0.092986,0.261408,-0.666781,0.066206,-0.742302,0.055422,-0.119505,-0.037621,4.082962,8.256638,-11.897949,,,,,,,
1523522215.992390,-0.735257,-0.070015,-1.654073,0.027872,-0.129872,0.240083,-0.669132,0.069957,-0.739838,0.080142,-0.135128,0.005615,3.629852,8.258163,-12.423157,,,,,,,
1523522216.022358,-0.734271,-0.072306,-1.648581,0.073210,0.130854,0.167406,-0.668292,0.072243,-0.740377,0.065723,-0.155602,-0.040751,3.781021,8.332550,-12.348389,,,,,,,
1523522216.052327,-0.729227,-0.071717,-1.642927,0.154478,0.129772,0.141892,-0.664578,0.071656,-0.743770,0.051617,-0.125916,-0.065465,4.679794,8.253433,-12.422607,,,,,,,
1523522216.082295,-0.724448,-0.069672,-1.635746,0.224926,0.135901,0.151531,-0.661111,0.069616,-0.747046,0.011743,-0.125478,-0.061136,4.450592,7.879395,-12.496216,,,,,,,
1523522216.112263,-0.715237,-0.065209,-1.625530,0.374167,0.389097,0.208920,-0.654400,0.065163,-0.753330,0.036938,-0.183220,-0.095181,5.047272,7.726410,-12.795288,,,,,,,
1523522216.142231,-0.698079,-0.060471,-1.611740,0.396069,0.596753,0.286525,-0.641570,0.060434,-0.764675,-0.006258,-0.172144,-0.207279,5.572708,7.724121,-12.720093,,,,,,,
1523522216.172171,-0.681752,-0.058035,-1.597926,0.314966,0.408660,0.318610,-0.629091,0.058003,-0.775160,-0.003264,-0.186039,-0.281817,5.940964,7.047455,-12.717163,,,,,,,
1523522216.202139,-0.674751,-0.057797,-1.585541,0.231185,0.052950,0.311443,-0.623658,0.057765,-0.779555,0.020814,-0.251826,-0.280320,6.313538,6.895630,-12.866333,,,,,,,
1523522216.232107,-0.678199,-0.058848,-1.575031,0.164858,-0.244232,0.285056,-0.626303,0.058814,-0.777353,0.059500,-0.267645,-0.194205,6.236755,6.671051,-12.790466,,,,,,,
1523522216.262075,-0.688448,-0.060739,-1.566653,0.101222,-0.436108,0.242581,-0.634166,0.060701,-0.770806,0.062037,-0.214922,-0.094947,6.389130,7.045151,-13.016968,,,,,,,
1523522216.292044,-0.704145,-0.064426,-1.558906,0.052001,-0.613966,0.316253,-0.646037,0.064382,-0.760581,0.099955,-0.216649,-0.009667,6.840759,7.342896,-13.242859,,,,,,,
1523522216.322012,-0.722205,-0.070939,-1.549029,0.058798,-0.603263,0.454763,-0.659376,0.070879,-0.748459,0.128278,-0.202059,0.082657,5.933441,6.971375,-13.841858,,,,,,,
1523522216.351980,-0.733981,-0.079465,-1.534902,0.144003,-0.248492,0.596183,-0.667714,0.079381,-0.740168,0.047566,-0.209707,0.152246,6.155594,6.820145,-14.066162,,,,,,,
1523522216.381949,-0.731311,-0.087106,-1.516928,0.259485,0.273994,0.602126,-0.665311,0.086996,-0.741474,0.015897,-0.253881,0.074330,6.455719,6.968567,-14.291565,,,,,,,
1523522216.411917,-0.714196,-0.089943,-1.497855,0.401417,0.586881,0.480463,-0.652360,0.089822,-0.752562,0.037004,-0.301690,-0.144960,7.354034,6.889374,-14.440796,,,,,,,
1523522216.441885,-0.697945,-0.089261,-1.481574,0.314549,0.357398,0.354892,-0.640083,0.089142,-0.763111,0.078163,-0.319108,-0.259929,7.346710,6.289185,-14.663391,,,,,,,
1523522216.471853,-0.693594,-0.088017,-1.470456,0.269184,-0.001281,0.148520,-0.636828,0.087903,-0.765974,0.023348,-0.248060,-0.203372,8.020020,6.211014,-14.812805,,,,,,,
1523522216.501822,-0.694081,-0.079655,-1.463502,0.435922,-0.005293,-0.095363,-0.637649,0.079571,-0.766202,0.019744,-0.252300,-0.121158,8.392929,5.909485,-14.661377,,,,,,,
1523522216.531790,-0.686066,-0.061617,-1.458003,0.692387,0.470774,-0.340722,-0.632294,0.061578,-0.772273,-0.055374,-0.181879,-0.127416,8.317764,5.984665,-14.811707,,,,,,,
1523522216.561758,-0.664963,-0.034499,-1.453955,0.851822,0.813800,-0.521022,-0.616660,0.034493,-0.786469,-0.106972,-0.140404,-0.218414,9.367737,5.755325,-14.435303,,,,,,,
1523522216.591726,-0.643674,-0.005768,-1.449708,0.796414,0.512332,-0.393964,-0.600126,0.005768,-0.799880,-0.064425,-0.191101,-0.281602,9.282547,5.005264,-14.882324,,,,,,,
1523522216.621695,-0.641558,0.012859,-1.443889,0.480536,-0.262735,-0.069499,-0.598393,-0.012859,-0.801095,-0.006542,-0.167058,-0.223410,9.280304,4.780273,-14.881409,,,,,,,
1523522216.651663,-0.655821,0.017559,-1.434022,0.215655,-0.518898,0.339716,-0.609714,-0.017558,-0.792423,0.095142,-0.150045,-0.049969,10.027420,4.626678,-15.105408,,,,,,,
1523522216.681631,-0.672415,0.008708,-1.421033,-0.114007,-0.593494,0.637897,-0.622851,-0.008708,-0.782287,0.127016,-0.164097,-0.004135,9.796890,4.252426,-15.404053,,,,,,,
1523522216.711599,-0.692868,-0.013208,-1.409700,-0.459554,-0.766103,0.826417,-0.638689,0.013208,-0.769347,0.156206,-0.142740,0.026625,9.271317,4.329559,-15.629639,,,,,,,
1523522216.741568,-0.718458,-0.043576,-1.398888,-0.548702,-0.872580,1.040627,-0.657597,0.043562,-0.752104,0.238896,-0.143247,0.088178,9.347183,4.778625,-16.231384,,,,,,,
1523522216.771536,-0.739269,-0.076725,-1.382476,-0.369592,-0.547685,1.166165,-0.671763,0.076650,-0.736784,0.124522,-0.157186,0.111326,8.441986,4.482315,-16.605652,,,,,,,
1523522216.801504,-0.745312,-0.103023,-1.362826,-0.097406,-0.076274,0.973034,-0.674602,0.102841,-0.730976,-0.005970,-0.244534,0.026265,8.664566,4.555786,-17.130859,,,,,,,
1523522216.831472,-0.742938,-0.118003,-1.345527,0.083349,0.026900,0.591604,-0.671747,0.117729,-0.731359,-0.070440,-0.310173,-0.047800,9.938461,4.624756,-17.430481,,,,,,,
1523522216.861441,-0.740912,-0.121219,-1.335183,0.214133,0.082936,0.130275,-0.670006,0.120922,-0.732435,-0.104515,-0.296322,-0.027498,9.710480,4.325790,-17.429382,,,,,,,
1523522216.891409,-0.735712,-0.110712,-1.330044,0.519756,0.185717,-0.240400,-0.667004,0.110486,-0.736811,-0.109272,-0.348736,-0.062246,9.933060,4.399261,-17.954590,,,,,,,
1523522216.921377,-0.727209,-0.087554,-1.322571,0.851874,0.320560,-0.342581,-0.662238,0.087442,-0.744168,-0.117593,-0.419366,-0.024341,10.609665,4.471359,-17.804504,,,,,,,
1523522216.951345,-0.714252,-0.060795,-1.310240,0.959538,0.442594,-0.205173,-0.653840,0.060758,-0.754184,-0.088989,-0.440397,-0.023663,11.276703,3.718292,-17.876221,,,,,,,
1523522216.981314,-0.699810,-0.039352,-1.294984,0.778002,0.439454,0.003541,-0.643571,0.039342,-0.764369,-0.090514,-0.387028,-0.084798,12.243286,2.963791,-18.022644,,,,,,,
1523522217.011282,-0.691557,-0.028893,-1.282055,0.364770,0.141834,0.163360,-0.637469,0.028889,-0.769929,-0.038404,-0.263142,-0.119139,12.838165,2.585892,-18.245911,,,,,,,
1523522217.041250,-0.689089,-0.029308,-1.274170,0.035067,0.051706,0.251651,-0.635559,0.029304,-0.771491,0.059876,-0.158546,-0.113534,12.386978,2.512848,-18.320801,,,,,,,
1523522217.071219,-0.688592,-0.036865,-1.267980,-0.109134,-0.061370,0.367786,-0.635016,0.036857,-0.771614,0.103797,-0.112082,-0.136604,12.606461,1.911942,-18.243286,,,,,,,
1523522217.101187,-0.695606,-0.047097,-1.260038,-0.056592,-0.389411,0.454479,-0.640138,0.047080,-0.766811,0.112031,-0.092642,-0.108067,13.054474,2.209091,-19.069275,,,,,,,
1523522217.131155,-0.708890,-0.055991,-1.248252,0.083703,-0.451832,0.519631,-0.649969,0.055962,-0.757892,0.139563,-0.157432,-0.028256,12.530548,2.136765,-18.769226,,,,,,,
1523522217.161123,-0.717898,-0.063277,-1.232463,0.179221,-0.259199,0.593037,-0.656484,0.063235,-0.751680,0.096501,-0.191104,0.028459,12.523209,1.761185,-19.367737,,,,,,,
1523522217.191088,-0.717788,-0.068114,-1.214965,0.285466,0.025757,0.529963,-0.656192,0.068061,-0.751512,0.044391,-0.258201,-0.023573,13.193802,1.682571,-19.967041,,,,,,,
1523522217.221056,-0.713119,-0.068267,-1.197890,0.352801,0.112673,0.386077,-0.652670,0.068214,-0.754560,-0.007242,-0.320442,-0.059862,13.412979,1.006744,-19.814270,,,,,,,
1523522217.251024,-0.709851,-0.064623,-1.186060,0.279998,0.042175,0.160207,-0.650358,0.064578,-0.756873,-0.004580,-0.315906,-0.077707,13.261185,0.782501,-19.738464,,,,,,,
1523522217.280993,-0.708764,-0.058946,-1.178885,0.246254,0.024868,0.064301,-0.649763,0.058911,-0.757845,0.005217,-0.319074,-0.066877,14.084961,0.928345,-20.188660,,,,,,,
1523522217.310961,-0.707131,-0.053544,-1.172557,0.240799,0.020519,0.081343,-0.648722,0.053518,-0.759137,-0.001532,-0.324850,-0.086490,13.556366,0.480865,-20.037109,,,,,,,
1523522217.340930,-0.708889,-0.051384,-1.165732,0.170228,-0.161507,0.150741,-0.650129,0.051361,-0.758081,-0.017076,-0.285293,-0.082862,13.703232,0.255066,-20.186157,,,,,,,
1523522217.370898,-0.717038,-0.052301,-1.159703,0.058077,-0.363390,0.189217,-0.656254,0.052278,-0.752722,0.001255,-0.230729,-0.032328,14.301834,0.252151,-20.410828,,,,,,,
1523522217.400866,-0.726179,-0.056101,-1.154952,-0.008789,-0.247586,0.214631,-0.662970,0.056071,-0.746538,0.017783,-0.201930,0.022462,13.703812,0.629532,-20.712585,,,,,,,
1523522217.430835,-0.729482,-0.060601,-1.148894,0.020452,-0.043240,0.310338,-0.665257,0.060564,-0.744148,0.031895,-0.219515,0.005730,13.250534,0.481277,-21.012207,,,,,,,
1523522217.460803,-0.726965,-0.064030,-1.139866,0.162957,0.058462,0.302889,-0.663240,0.063986,-0.745661,-0.017622,-0.219565,-0.088217,14.300613,0.626328,-21.237305,,,,,,,
1523522217.490771,-0.725681,-0.062754,-1.129157,0.287009,0.006690,0.217784,-0.662336,0.062713,-0.746572,-0.006548,-0.229293,-0.070719,14.217987,-0.048447,-21.384644,,,,,,,
1523522217.520739,-0.725097,-0.058792,-1.119411,0.271263,0.006033,0.165562,-0.662060,0.058758,-0.747139,0.014431,-0.204205,-0.051644,14.142853,-0.197891,-21.159058,,,,,,,
1523522217.550708,-0.723442,-0.055783,-1.110870,0.220271,0.067762,0.169724,-0.660936,0.055754,-0.748363,0.020540,-0.194395,-0.071217,15.867203,-0.355499,-21.007568,,,,,,,
1523522217.580676,-0.719494,-0.054013,-1.102714,0.204472,0.134610,0.187766,-0.658041,0.053987,-0.751040,0.029485,-0.186723,-0.098188,15.112732,-0.577469,-21.382080,,,,,,,
1523522217.610644,-0.715006,-0.052877,-1.094149,0.217117,0.105809,0.197404,-0.654703,0.052852,-0.754031,0.010096,-0.181820,-0.126050,15.256729,-1.178116,-21.379578,,,,,,,
1523522217.640613,-0.714847,-0.052000,-1.085032,0.221534,-0.081314,0.211444,-0.654614,0.051977,-0.754170,-0.004291,-0.162710,-0.087368,16.004440,-1.181854,-21.754211,,,,,,,
1523522217.670581,-0.717640,-0.050966,-1.075527,0.245921,-0.097427,0.228521,-0.656753,0.050944,-0.752378,0.026931,-0.196925,-0.038744,15.400711,-1.554138,-21.752991,,,,,,,
1523522217.700549,-0.716515,-0.049688,-1.065114,0.246594,0.081990,0.252841,-0.655948,0.049668,-0.753166,0.024020,-0.207978,-0.030526,15.477386,-1.479340,-21.603333,,,,,,,
1523522217.730516,-0.711726,-0.048962,-1.054988,0.211642,0.127852,0.239988,-0.652357,0.048942,-0.756325,0.025129,-0.207420,-0.084815,15.624207,-1.705154,-21.752319,,,,,,,
1523522217.760486,-0.710452,-0.048979,-1.046100,0.150043,-0.038809,0.237978,-0.651392,0.048960,-0.757155,0.032068,-0.197718,-0.085527,15.843674,-2.081436,-22.050720,,,,,,,
1523522217.790453,-0.712989,-0.050585,-1.038555,0.078957,-0.169393,0.245522,-0.653258,0.050564,-0.755440,0.040389,-0.191906,-0.094322,16.963974,-2.237000,-22.574524,,,,,,,
1523522217.820421,-0.719881,-0.053442,-1.031680,0.047521,-0.257593,0.258366,-0.658352,0.053416,-0.750808,0.060299,-0.189082,-0.040848,16.214462,-2.233551,-22.499878,,,,,,,
1523522217.850389,-0.727122,-0.057191,-1.024426,0.044163,-0.253590,0.293530,-0.663633,0.057160,-0.745866,0.050565,-0.169846,0.008989,16.509338,-2.610107,-22.723267,,,,,,,
1523522217.880358,-0.732367,-0.060869,-1.016467,0.071024,-0.197437,0.308406,-0.667391,0.060831,-0.742214,0.049151,-0.156534,0.014629,17.409897,-2.239685,-23.249268,,,,,,,
1523522217.910326,-0.734567,-0.062465,-1.007605,0.139028,-0.058270,0.288078,-0.668956,0.062425,-0.740671,0.053630,-0.155198,0.005549,17.105560,-2.538528,-23.473267,,,,,,,
1523522217.940295,-0.733133,-0.062863,-0.997782,0.223032,0.069223,0.260313,-0.667877,0.062821,-0.741611,0.048706,-0.166245,-0.013547,16.427307,-3.135025,-23.021179,,,,,,,
1523522217.970263,-0.728040,-0.060758,-0.986967,0.310315,0.192610,0.212301,-0.664178,0.060721,-0.745100,0.033608,-0.142584,-0.039614,16.574768,-3.210999,-23.320801,,,,,,,
1523522218.000232,-0.722633,-0.055989,-0.976294,0.332628,0.111111,0.160179,-0.660324,0.055960,-0.748889,0.020980,-0.167166,-0.075544,17.092239,-3.963318,-23.317566,,,,,,,
1523522218.030200,-0.719599,-0.050363,-0.966186,0.345198,0.054763,0.159184,-0.658245,0.050342,-0.751114,0.025433,-0.192127,-0.067215,17.538025,-4.115784,-23.766724,,,,,,,
1523522218.060168,-0.716784,-0.045341,-0.954871,0.351252,0.047912,0.223137,-0.656286,0.045326,-0.753145,0.014089,-0.178977,-0.093199,17.608078,-4.566162,-23.839905,,,,,,,
1523522218.090136,-0.715246,-0.041274,-0.941478,0.399972,0.037766,0.289245,-0.655242,0.041262,-0.754286,0.003173,-0.156741,-0.061052,17.304520,-5.014648,-23.688232,,,,,,,
1523522218.120105,-0.712312,-0.037769,-0.926464,0.399062,0.107694,0.319006,-0.653117,0.037760,-0.756311,-0.018072,-0.183527,-0.067847,17.302429,-5.089859,-23.912964,,,,,,,
1523522218.150073,-0.707153,-0.034310,-0.911325,0.414284,0.161910,0.311497,-0.649288,0.034303,-0.759765,-0.002370,-0.214387,-0.105653,16.474014,-5.610825,-23.611267,,,,,,,
1523522218.180031,-0.702801,-0.031123,-0.896024,0.408460,0.082066,0.335013,-0.646042,0.031118,-0.762663,0.010864,-0.205740,-0.114489,18.645630,-5.995529,-23.533691,,,,,,,
1523522218.209999,-0.701027,-0.029904,-0.880042,0.353246,-0.005448,0.407524,-0.644712,0.029900,-0.763836,-0.011736,-0.223076,-0.101795,18.415253,-6.444641,-23.681946,,,,,,,
1523522218.239968,-0.702896,-0.030993,-0.863659,0.308666,-0.126816,0.456625,-0.646117,0.030988,-0.762604,-0.008531,-0.256162,-0.065505,18.635895,-6.745850,-23.905701,,,,,,,
1523522218.269936,-0.706034,-0.032832,-0.847850,0.287535,-0.111688,0.427828,-0.648469,0.032827,-0.760529,0.005677,-0.253270,-0.035202,18.552368,-7.645401,-23.827087,,,,,,,
1523522218.299904,-0.707201,-0.033873,-0.833188,0.296742,-0.031603,0.369149,-0.649334,0.033866,-0.759745,0.006054,-0.263679,-0.035467,18.400299,-7.944565,-23.675964,,,,,,,
1523522218.329873,-0.707437,-0.033898,-0.819930,0.269223,-0.034402,0.322255,-0.649512,0.033892,-0.759591,0.008277,-0.257784,-0.040382,19.214447,-8.623901,-24.347839,,,,,,,
1523522218.359841,-0.710588,-0.035004,-0.808569,0.164823,-0.229577,0.311709,-0.651878,0.034997,-0.757512,0.002494,-0.234033,-0.034923,18.614487,-8.845825,-23.972229,,,,,,,
1523522218.389809,-0.719732,-0.036880,-0.799489,0.116621,-0.324739,0.260629,-0.658732,0.036872,-0.751469,0.011989,-0.196174,0.052616,18.007935,-9.143692,-24.571411,,,,,,,
1523522218.419777,-0.725649,-0.036304,-0.791891,0.192936,-0.082003,0.167740,-0.663181,0.036296,-0.747573,0.007892,-0.187373,0.084686,18.833771,-8.922638,-24.796814,,,,,,,
1523522218.449746,-0.721988,-0.032069,-0.782851,0.305113,0.189624,0.184601,-0.660536,0.032064,-0.750105,-0.018420,-0.164022,0.031874,18.153564,-9.444580,-24.795105,,,,,,,
1523522218.479714,-0.717967,-0.028177,-0.771409,0.302914,0.042374,0.273182,-0.657591,0.028174,-0.752843,-0.043886,-0.114096,-0.017390,18.377823,-9.520584,-24.794678,,,,,,,
1523522218.509682,-0.720120,-0.026905,-0.758834,0.249472,-0.128012,0.343645,-0.659234,0.026902,-0.751452,-0.041632,-0.153642,0.001925,19.199921,-9.449890,-25.394592,,,,,,,
1523522218.539650,-0.722465,-0.027206,-0.745520,0.263686,-0.004006,0.385080,-0.660989,0.027203,-0.749897,-0.021796,-0.189618,0.027791,18.366760,-10.495758,-25.015808,,,,,,,
1523522218.569619,-0.719686,-0.028046,-0.731255,0.263115,0.123392,0.400939,-0.658887,0.028042,-0.751715,-0.027194,-0.171291,-0.023905,18.741745,-10.497437,-25.015625,,,,,,,
1523522218.599587,-0.718600,-0.030415,-0.717915,0.173715,-0.053793,0.395714,-0.658025,0.030410,-0.752377,-0.048488,-0.169250,-0.042377,19.713547,-10.726959,-25.164185,,,,,,,
1523522218.629555,-0.722697,-0.033853,-0.706602,0.149840,-0.187356,0.356414,-0.661028,0.033847,-0.749592,-0.043760,-0.228289,-0.005748,18.886322,-11.172867,-24.787781,,,,,,,
1523522218.659523,-0.724309,-0.034640,-0.694995,0.280422,0.058160,0.301924,-0.662218,0.034633,-0.748506,-0.041456,-0.226649,0.043763,18.654297,-11.697113,-25.085815,,,,,,,
1523522218.689492,-0.717519,-0.031397,-0.682068,0.385305,0.275126,0.236788,-0.657191,0.031392,-0.753065,-0.090123,-0.214711,-0.014284,19.474625,-12.075958,-25.233887,,,,,,,
1523522218.719460,-0.710753,-0.026326,-0.669837,0.363574,0.141614,0.192147,-0.652177,0.026323,-0.757605,-0.068709,-0.274965,-0.083276,19.018372,-12.973450,-24.780518,,,,,,,
1523522218.749428,-0.711700,-0.024069,-0.654818,0.225194,-0.179319,0.244580,-0.652931,0.024067,-0.757031,-0.034218,-0.270160,-0.044361,19.692596,-13.051483,-24.779907,,,,,,,
1523522218.779396,-0.720150,-0.026097,-0.636348,0.129392,-0.285758,0.303224,-0.659271,0.026094,-0.751448,-0.014267,-0.219636,0.061491,18.939621,-12.898849,-25.530884,,,,,,,
1523522218.809365,-0.725175,-0.028411,-0.622751,0.176490,-0.081495,0.251909,-0.662996,0.028407,-0.748079,-0.048857,-0.194484,0.066331,18.562683,-13.047226,-25.605469,,,,,,,
1523522218.839333,-0.721968,-0.026148,-0.605130,0.283872,0.176094,0.151568,-0.660635,0.026146,-0.750247,-0.053965,-0.196983,-0.009946,19.906174,-13.428726,-26.053284,,,,,,,
1523522218.869301,-0.717201,-0.022402,-0.591659,0.264161,0.116339,0.194233,-0.657111,0.022400,-0.753457,-0.046487,-0.171463,-0.068748,20.133713,-13.354446,-25.753479,,,,,,,
1523522218.899270,-0.717909,-0.021403,-0.576218,0.250962,-0.057754,0.324400,-0.657658,0.021402,-0.753008,-0.047817,-0.165399,-0.039030,19.680298,-13.877106,-25.451599,,,,,,,
1523522218.929238,-0.719135,-0.021831,-0.554430,0.283817,-0.043381,0.384083,-0.658575,0.021829,-0.752194,-0.032785,-0.208444,-0.023853,19.599167,-14.401886,-25.599548,,,,,,,
1523522218.959206,-0.719495,-0.022531,-0.535853,0.278554,-0.018934,0.387237,-0.658836,0.022529,-0.751945,-0.041314,-0.217475,-0.007165,20.571579,-14.481567,-25.898743,,,,,,,
1523522218.989174,-0.720999,-0.025125,-0.514846,0.173717,-0.087637,0.370191,-0.659925,0.025122,-0.750907,-0.038866,-0.227652,0.005927,19.214310,-15.300293,-25.746155,,,,,,,
1523522219.019143,-0.722322,-0.028515,-0.500582,0.122999,-0.029761,0.317882,-0.660858,0.028511,-0.749965,-0.045685,-0.230645,0.018398,19.740036,-15.227661,-25.746216,,,,,,,
1523522219.049111,-0.722900,-0.030302,-0.483009,0.173407,-0.021144,0.282753,-0.661256,0.030297,-0.749544,-0.044951,-0.226601,0.004091,19.214020,-15.375214,-25.670837,,,,,,,
1523522219.079079,-0.723609,-0.030284,-0.469775,0.174638,-0.040977,0.232687,-0.661788,0.030279,-0.749076,-0.056840,-0.212713,0.001166,19.284958,-15.825455,-25.593994,,,,,,,
1523522219.109047,-0.724466,-0.029911,-0.454549,0.140800,-0.029893,0.179374,-0.662438,0.029906,-0.748516,-0.027641,-0.213454,-0.012013,19.733887,-15.752777,-25.894043,,,,,,,
1523522219.139016,-0.725749,-0.029734,-0.444237,0.136398,-0.060679,0.177268,-0.663401,0.029729,-0.747669,-0.017141,-0.174734,0.003163,19.509201,-15.901474,-25.593567,,,,,,,
1523522219.168984,-0.726446,-0.027855,-0.429225,0.248990,0.014665,0.150644,-0.663957,0.027851,-0.747248,-0.034712,-0.137104,0.026834,19.353821,-16.350922,-25.741882,,,,,,,
1523522219.198963,-0.723075,-0.022033,-0.416730,0.357881,0.165770,0.080254,-0.661531,0.022031,-0.749590,-0.043730,-0.127653,0.006335,19.647980,-16.802475,-25.964905,,,,,,,
1523522219.228931,-0.717269,-0.015065,-0.404556,0.311035,0.198807,0.083382,-0.657252,0.015064,-0.753516,-0.034917,-0.138447,-0.039361,20.776077,-16.582397,-25.815186,,,,,,,
1523522219.258900,-0.713232,-0.011533,-0.389839,0.196818,0.061448,0.164414,-0.654236,0.011533,-0.756199,-0.031997,-0.125485,-0.084164,20.025360,-16.878647,-25.439392,,,,,,,
1523522219.288868,-0.713993,-0.011855,-0.378180,0.141288,-0.084536,0.243361,-0.654809,0.011854,-0.755698,-0.029807,-0.143095,-0.065332,20.323425,-17.254684,-25.137756,,,,,,,
1523522219.318836,-0.717224,-0.013233,-0.363545,0.111444,-0.124576,0.202905,-0.657236,0.013232,-0.753565,-0.032538,-0.125064,-0.033514,19.867599,-17.702850,-25.361206,,,,,,,
1523522219.348804,-0.718860,-0.013074,-0.354469,0.137081,0.002516,0.103694,-0.658469,0.013074,-0.752491,-0.011026,-0.111860,-0.007443,20.094086,-17.553879,-25.361694,,,,,,,
1523522219.378773,-0.715438,-0.009037,-0.342355,0.263267,0.188746,0.020486,-0.655919,0.009037,-0.754773,-0.014155,-0.089008,-0.022998,21.065308,-17.933243,-25.359741,,,,,,,
1523522219.408741,-0.709956,-0.001527,-0.332028,0.368655,0.139471,0.038732,-0.651798,0.001527,-0.758387,-0.018658,-0.077821,-0.076238,20.540329,-18.155502,-24.984070,,,,,,,
1523522219.438709,-0.710680,0.006131,-0.315549,0.397016,-0.110873,0.117859,-0.652335,-0.006131,-0.757902,0.000495,-0.070209,-0.048082,21.211258,-18.608444,-24.906921,,,,,,,
1523522219.468677,-0.715724,0.011740,-0.304034,0.301501,-0.192607,0.140241,-0.656117,-0.011739,-0.754564,0.004627,-0.074137,0.017290,21.590439,-18.684326,-24.081421,,,,,,,
1523522219.498646,-0.720296,0.013711,-0.296477,0.135169,-0.109485,0.166664,-0.659544,-0.013710,-0.751538,0.014158,-0.078727,0.025067,20.753799,-19.356384,-24.904175,,,,,,,
1523522219.528614,-0.723822,0.011903,-0.291460,0.014311,-0.148582,0.176215,-0.662204,-0.011903,-0.749225,-0.000302,-0.045364,0.026035,20.832092,-18.981812,-24.980652,,,,,,,
1523522219.558582,-0.728271,0.009301,-0.287475,0.024098,-0.127227,0.159146,-0.665550,-0.009301,-0.746292,-0.020257,-0.060248,0.027740,20.382858,-18.904785,-24.981140,,,,,,,
1523522219.588551,-0.731353,0.009182,-0.282898,0.121883,-0.047417,0.107993,-0.667847,-0.009182,-0.744238,-0.025009,-0.050938,0.028082,20.609039,-18.830734,-24.906311,,,,,,,
1523522219.618519,-0.731667,0.010999,-0.277796,0.158642,0.033378,0.089825,-0.668069,-0.010999,-0.744014,-0.026252,-0.038088,0.005458,20.675217,-19.581253,-25.128296,,,,,,,
1523522219.648487,-0.730480,0.012762,-0.269487,0.119096,0.033403,0.099391,-0.667171,-0.012761,-0.744791,-0.033268,-0.057170,-0.039129,21.276230,-19.434036,-25.203552,,,,,,,
1523522219.678455,-0.733363,0.012329,-0.265547,0.050823,-0.168459,0.118724,-0.669319,-0.012329,-0.742869,-0.026878,-0.043549,-0.038809,20.524628,-19.730423,-24.977783,,,,,,,
1523522219.708424,-0.738528,0.012243,-0.261688,0.117411,-0.131124,0.075046,-0.673148,-0.012243,-0.739402,-0.019449,-0.029795,0.030159,20.070435,-19.878830,-25.427368,,,,,,,
1523522219.738392,-0.737693,0.016501,-0.257559,0.229126,0.143444,-0.023179,-0.672489,-0.016500,-0.739919,-0.015408,-0.016719,0.027090,20.894211,-19.957611,-25.501648,,,,,,,
1523522219.768360,-0.732767,0.022300,-0.254256,0.177856,0.105495,-0.049810,-0.668760,-0.022298,-0.743139,-0.039598,0.001043,-0.052103,20.597244,-20.330154,-24.375305,,,,,,,
1523522219.798328,-0.734445,0.025811,-0.252406,0.108211,-0.134800,-0.004865,-0.669950,-0.025808,-0.741953,-0.037249,0.020955,-0.041021,21.043320,-20.407684,-24.899841,,,,,,,
1523522219.828297,-0.738477,0.027398,-0.244033,0.135619,-0.105766,0.087828,-0.672908,-0.027394,-0.739215,-0.006063,0.014439,0.036914,21.339996,-20.334686,-25.574951,,,,,,,
1523522219.858265,-0.739517,0.028666,-0.235220,0.170216,0.016206,0.109036,-0.673652,-0.028662,-0.738488,-0.022622,0.058935,0.054299,20.667130,-20.481064,-24.974731,,,,,,,
1523522219.888233,-0.738643,0.029318,-0.223704,0.084743,0.021634,0.123879,-0.672994,-0.029314,-0.739063,-0.015773,0.022188,0.004871,20.816681,-20.706436,-24.673706,,,,,,,
1523522219.918201,-0.738929,0.025896,-0.217107,-0.038679,-0.061328,0.177157,-0.673269,-0.025893,-0.738940,-0.017573,0.017500,-0.015073,21.337463,-21.083847,-24.746948,,,,,,,
1523522219.948170,-0.743715,0.021340,-0.210693,-0.016806,-0.192022,0.168779,-0.676870,-0.021339,-0.735788,-0.013788,0.018241,0.015772,20.739288,-20.856247,-24.823181,,,,,,,
1523522219.978199,-0.748203,0.018464,-0.200484,0.046881,-0.047603,0.160155,-0.680205,-0.018463,-0.732785,-0.000231,-0.007004,0.057660,20.134659,-21.004044,-25.347900,,,,,,,
,,,,,,,,,,,,,,,,25.317016,51.457112,11.523922,7.550000,7.734375,1523522219.398974,
1523522220.008167,-0.746364,0.015830,-0.189835,0.030220,0.069183,0.180271,-0.678886,-0.015830,-0.734068,-0.036995,-0.006326,-0.009066,19.984360,-21.078293,-25.272644,,,,,,,
1523522220.038135,-0.746812,0.012652,-0.182273,0.026469,-0.053024,0.181463,-0.679246,-0.012651,-0.733797,-0.018249,-0.037962,-0.009565,19.756973,-21.227417,-25.422119,,,,,,,
,,,,,,,,,,,,,,,,25.317056,51.457119,15.245937,7.560000,7.734375,1523522219.999974,
1523522220.068104,-0.749377,0.010217,-0.171509,0.063818,-0.070020,0.168714,-0.681144,-0.010217,-0.732073,-0.012383,-0.058585,0.007769,20.655441,-21.156830,-25.796997,,,,,,,
1523522220.098072,-0.751859,0.008975,-0.163094,0.112946,-0.076484,0.162373,-0.682968,-0.008975,-0.730388,0.000625,-0.057523,0.033748,20.276718,-21.530121,-25.795654,,,,,,,
1523522220.128040,-0.753320,0.009154,-0.153897,0.148675,0.004355,0.137813,-0.684033,-0.009154,-0.729389,-0.028766,-0.050172,0.077777,19.754593,-21.602173,-25.195679,,,,,,,
1523522220.158009,-0.750706,0.011343,-0.143034,0.175400,0.152601,0.052432,-0.682109,-0.011343,-0.731158,-0.013432,-0.057291,0.031603,19.903076,-21.528229,-25.570862,,,,,,,
1523522220.187979,-0.745951,0.015333,-0.135336,0.204335,0.148438,0.029020,-0.678588,-0.015333,-0.734354,-0.041657,-0.037951,-0.015402,20.354126,-21.829575,-24.894470,,,,,,,
