timestamp(unix),attitude_roll(radians),attitude_pitch(radians),attitude_yaw(radians),rotation_rate_x(radians/s),rotation_rate_y(radians/s),rotation_rate_z(radians/s),gravity_x(G),gravity_y(G),gravity_z(G),user_acc_x(G),user_acc_y(G),user_acc_z(G),magnetic_field_x(microteslas),magnetic_field_y(microteslas),magnetic_field_z(microteslas),latitude(degree),longitude(degree),altitude(meter),speed(m/s),course(degree),timestamp(unix),User Mark
1522313991.143008,-0.186906,-0.013296,0.885832,0.135811,0.016814,0.001069,-0.185804,0.013296,-0.982497,0.108792,-0.017171,-0.023134,-16.476486,-21.646538,-15.582458,,,,,,,1
1522313991.172946,-0.188490,-0.012471,0.886661,-0.029452,-0.144437,0.022416,-0.187362,0.012471,-0.982212,0.103789,-0.013753,-0.006756,-16.550568,-21.646065,-15.432495,,,,,,,1
,,,,,,,,,,,,,,,,25.306268,51.442058,13.228824,9.520000,256.289062,1522313990.999163,1
1522313991.202914,-0.188064,-0.010192,0.888257,0.176960,0.169595,0.021185,-0.186948,0.010192,-0.982317,0.101987,-0.030806,0.011873,-16.630646,-22.020927,-15.656067,,,,,,,1
1522313991.232882,-0.178068,-0.004824,0.889474,0.145635,0.287856,-0.011990,-0.177126,0.004824,-0.984176,0.094317,-0.050280,-0.173355,-16.403702,-22.096504,-15.205627,,,,,,,1
1522313991.262850,-0.177077,-0.004941,0.888841,-0.135074,-0.168370,-0.012799,-0.176151,0.004941,-0.984351,0.094257,-0.051068,-0.138345,-16.698318,-21.420403,-15.433472,,,,,,,1
1522313991.292819,-0.187084,-0.010919,0.887710,-0.213101,-0.392568,0.014002,-0.185984,0.010919,-0.982492,0.104151,-0.043939,-0.014578,-15.724869,-21.574791,-15.432373,,,,,,,1
1522313991.322789,-0.195642,-0.014558,0.888356,-0.010675,-0.198937,0.059777,-0.194376,0.014557,-0.980819,0.089594,-0.056931,0.025985,-16.326462,-21.871849,-15.206482,,,,,,,1
1522313991.352757,-0.197278,-0.010236,0.891054,0.213427,0.006700,0.053341,-0.195991,0.010236,-0.980552,0.081810,-0.060468,-0.049584,-16.474228,-21.646172,-15.207458,,,,,,,1
1522313991.382725,-0.199240,-0.005630,0.893172,0.120093,-0.135195,0.016120,-0.197921,0.005630,-0.980202,0.037826,-0.065185,-0.040184,-16.924484,-21.943703,-14.756470,,,,,,,1
1522313991.412694,-0.203532,-0.003894,0.893607,-0.002511,-0.116714,-0.001032,-0.202129,0.003894,-0.979351,0.033031,-0.039996,0.000637,-16.470779,-21.570747,-14.757751,,,,,,,1
1522313991.442662,-0.205523,-0.004328,0.892992,-0.015277,-0.130342,-0.022342,-0.204077,0.004328,-0.978945,-0.004037,-0.033045,-0.020597,-15.944427,-21.572899,-14.532471,,,,,,,1
1522313991.472630,-0.208475,-0.003563,0.891842,0.021262,-0.104783,-0.044710,-0.206967,0.003563,-0.978342,-0.015827,0.002510,-0.006079,-16.246368,-21.721611,-14.607056,,,,,,,1
1522313991.502598,-0.211332,-0.000396,0.890749,0.130184,-0.107129,-0.051023,-0.209763,0.000396,-0.977752,-0.073410,0.011201,0.024429,-16.849503,-21.944038,-14.756409,,,,,,,1
1522313991.532567,-0.214934,0.005886,0.891684,0.255964,-0.081295,0.009774,-0.213280,-0.005886,-0.976973,-0.105614,0.013042,0.034408,-16.470764,-21.795372,-14.381836,,,,,,,1
1522313991.562535,-0.216381,0.011867,0.894215,0.152499,-0.000641,0.060764,-0.214682,-0.011867,-0.976612,-0.132761,0.002025,0.025623,-17.667404,-21.639687,-14.083069,,,,,,,1
1522313991.592503,-0.216309,0.012100,0.896741,-0.033599,-0.039700,0.089437,-0.214611,-0.012100,-0.976625,-0.136067,0.025329,0.031404,-16.621338,-21.944542,-14.231323,,,,,,,1
1522313991.622471,-0.218616,0.010129,0.898994,-0.027034,-0.010991,0.084087,-0.216868,-0.010129,-0.976148,-0.116384,0.040891,0.015928,-16.693634,-21.719154,-14.157288,,,,,,,1
1522313991.652440,-0.216376,0.011313,0.900825,0.092693,0.193144,0.026427,-0.214678,-0.011313,-0.976619,-0.093061,0.004889,-0.106037,-17.520401,-21.940346,-14.081787,,,,,,,1
1522313991.682408,-0.206252,0.014695,0.901473,0.133905,0.494248,-0.042046,-0.204771,-0.014695,-0.978700,-0.083636,-0.046966,-0.308517,-17.070114,-22.092064,-13.780945,,,,,,,1
1522313991.712376,-0.190257,0.018192,0.899571,0.042394,0.467404,-0.123059,-0.189080,-0.018191,-0.981793,-0.074058,-0.091764,-0.495319,-16.468063,-21.794930,-13.931885,,,,,,,1
1522313991.742345,-0.185818,0.013390,0.893104,-0.426304,-0.106733,-0.212337,-0.184734,-0.013390,-0.982697,-0.029759,-0.075233,-0.383804,-17.149612,-22.092461,-14.531006,,,,,,,1
1522313991.772313,-0.199139,-0.006825,0.885166,-0.808475,-0.612753,-0.045888,-0.197821,0.006825,-0.980214,0.039389,-0.000965,-0.078578,-16.631683,-22.395470,-15.204529,,,,,,,1
1522313991.802281,-0.215624,-0.021241,0.884111,-0.148965,-0.471160,0.136667,-0.213909,0.021240,-0.976623,0.006984,0.047623,0.047622,-16.626297,-21.945351,-15.056335,,,,,,,1
1522313991.832249,-0.225309,-0.015329,0.891299,0.440886,-0.252260,0.230649,-0.223382,0.015328,-0.974611,-0.034309,0.002998,0.059037,-17.145111,-21.867119,-14.156921,,,,,,,1
1522313991.862218,-0.228125,-0.001423,0.900611,0.549182,-0.005458,0.151637,-0.226151,0.001423,-0.974091,-0.115783,-0.021564,0.020508,-17.896286,-21.938805,-14.231995,,,,,,,1
1522313991.892186,-0.228877,0.009736,0.905167,0.202614,-0.091688,-0.005170,-0.226873,-0.009736,-0.973876,-0.111887,-0.024581,0.034758,-17.438492,-21.789818,-13.182373,,,,,,,1
1522313991.922154,-0.235811,0.007394,0.903540,-0.230561,-0.307103,-0.044702,-0.233625,-0.007393,-0.972299,-0.086230,0.007134,0.205514,-18.339813,-21.785988,-13.407837,,,,,,,1
1522313991.952122,-0.247507,-0.000375,0.900683,-0.262135,-0.401857,-0.008397,-0.244987,0.000375,-0.969526,-0.086037,0.023291,0.341520,-18.262589,-21.336708,-13.784607,,,,,,,1
1522313991.982091,-0.257265,-0.006295,0.900355,-0.144333,-0.234772,0.066103,-0.254431,0.006295,-0.967070,-0.075159,0.025550,0.452178,-17.584763,-21.189537,-13.559875,,,,,,,1
1522313992.012059,-0.259066,-0.009364,0.902371,-0.027959,0.049427,0.107459,-0.256167,0.009364,-0.966587,-0.073850,0.000478,0.482212,-18.489822,-21.336067,-14.159729,,,,,,,1
1522313992.042027,-0.253699,-0.010116,0.905296,-0.029165,0.241829,0.096615,-0.250973,0.010116,-0.967941,-0.081577,0.018479,0.466171,-18.635788,-20.885490,-14.236572,,,,,,,1
,,,,,,,,,,,,,,,,25.306266,51.441930,13.065898,7.920000,259.101562,1522313991.999209,1
1522313992.071995,-0.246581,-0.014243,0.907405,-0.148690,0.236921,0.081613,-0.244065,0.014242,-0.969654,-0.046936,0.038507,0.449055,-17.887451,-21.188622,-14.009949,,,,,,,1
1522313992.101964,-0.241029,-0.016412,0.909343,0.074104,0.166199,0.087175,-0.238670,0.016411,-0.970962,-0.002251,0.025764,0.330291,-18.869003,-21.709435,-14.233398,,,,,,,1
1522313992.131932,-0.226901,-0.004734,0.913396,0.702617,0.886013,-0.044148,-0.224956,0.004734,-0.974357,-0.121067,0.066311,-0.081612,-18.497314,-21.861412,-14.532593,,,,,,,1
1522313992.161900,-0.191171,0.026505,0.913468,1.126292,1.179433,-0.366978,-0.189942,-0.026502,-0.981438,-0.284469,-0.013888,-0.389992,-18.270203,-22.236458,-13.556030,,,,,,,1
1522313992.191868,-0.165984,0.049649,0.904699,0.245080,0.333985,-0.411541,-0.165019,-0.049628,-0.985041,-0.235829,-0.026300,-0.288992,-17.515884,-21.939613,-13.331787,,,,,,,1
1522313992.221837,-0.169624,0.039173,0.893564,-0.808160,-0.185931,-0.147546,-0.168682,-0.039163,-0.984892,-0.229191,-0.040961,-0.023988,-14.972168,-22.026970,-14.230225,,,,,,,1
1522313992.251805,-0.177460,0.007791,0.893958,-1.027856,-0.237941,0.375523,-0.176524,-0.007791,-0.984265,-0.065709,-0.000113,0.153623,-15.654495,-21.950249,-15.580811,,,,,,,1
1522313992.281773,-0.173131,-0.012148,0.905128,-0.151244,0.565894,0.446760,-0.172254,0.012147,-0.984978,0.039686,0.024092,0.106117,-16.485626,-22.022408,-16.480957,,,,,,,1
1522313992.311721,-0.136333,0.000588,0.915377,0.810517,1.557248,0.115093,-0.135911,-0.000588,-0.990721,0.092530,-0.034172,-0.325106,-16.108383,-22.023720,-16.105774,,,,,,,1
1522313992.341659,-0.096112,0.025926,0.914896,0.740668,1.044557,-0.241395,-0.095932,-0.025923,-0.995050,0.076004,-0.153734,-0.384771,-15.054077,-21.728249,-15.881409,,,,,,,1
1522313992.371628,-0.077783,0.037099,0.906546,0.010505,0.286011,-0.307239,-0.077651,-0.037091,-0.996290,0.045897,-0.154606,-0.315126,-14.457535,-22.255623,-15.578979,,,,,,,1
1522313992.401596,-0.080493,0.028116,0.899555,-0.442908,-0.388814,-0.137474,-0.080374,-0.028112,-0.996368,0.008048,-0.081766,-0.225556,-14.383606,-21.956642,-16.255127,,,,,,,1
1522313992.431564,-0.098113,0.015251,0.898869,-0.372592,-0.609605,0.108932,-0.097944,-0.015250,-0.995075,-0.019991,-0.021920,-0.108685,-14.684509,-21.955437,-16.405334,,,,,,,1
1522313992.461532,-0.116331,0.006696,0.902242,-0.240557,-0.648438,0.144234,-0.116066,-0.006696,-0.993219,-0.029106,-0.021426,0.033899,-14.686005,-22.105431,-16.404724,,,,,,,1
1522313992.491501,-0.135584,-0.003315,0.906894,-0.369964,-0.580826,0.245300,-0.135169,0.003315,-0.990817,0.021079,0.008831,0.268390,-15.203171,-21.502800,-16.107422,,,,,,,1
1522313992.521469,-0.143568,-0.012975,0.912745,-0.177375,-0.038184,0.226784,-0.143063,0.012974,-0.989628,0.026044,0.039150,0.202229,-16.182190,-21.723701,-16.406982,,,,,,,1
1522313992.551437,-0.139570,-0.014214,0.918145,0.025547,0.126571,0.150039,-0.139103,0.014214,-0.990176,0.006794,0.054726,0.026965,-16.485336,-21.947472,-16.556274,,,,,,,1
1522313992.581405,-0.145339,-0.017047,0.921368,-0.163391,-0.415498,0.084386,-0.144807,0.017046,-0.989313,-0.052489,0.073622,0.048899,-16.479202,-21.422356,-16.408386,,,,,,,1
1522313992.611374,-0.163057,-0.023325,0.921726,-0.187649,-0.659388,0.020680,-0.162292,0.023322,-0.986467,-0.107468,0.079537,0.148668,-17.378403,-21.343315,-16.409119,,,,,,,1
1522313992.641342,-0.183614,-0.026516,0.922865,-0.002326,-0.681586,0.089038,-0.182520,0.026512,-0.982845,-0.138693,0.085167,0.239330,-17.978806,-21.565315,-16.108521,,,,,,,1
1522313992.671310,-0.200821,-0.024216,0.927407,0.185054,-0.485963,0.157186,-0.199416,0.024214,-0.979616,-0.140382,0.110918,0.289339,-18.572937,-21.337044,-15.509705,,,,,,,1
1522313992.701278,-0.206291,-0.016259,0.934113,0.380536,0.023527,0.168536,-0.204804,0.016258,-0.978668,-0.229736,0.071526,0.074096,-18.645996,-21.186638,-15.435425,,,,,,,1
1522313992.731247,-0.201082,-0.004543,0.938810,0.396893,0.141572,-0.000997,-0.199727,0.004543,-0.979841,-0.308223,0.013080,-0.133166,-19.393539,-21.482368,-14.534546,,,,,,,1
1522313992.761215,-0.200029,0.003904,0.936858,0.116201,-0.024468,-0.165132,-0.198697,-0.003904,-0.980053,-0.281391,-0.036837,-0.060566,-18.564667,-21.410576,-14.009399,,,,,,,1
1522313992.791183,-0.204312,0.000905,0.932286,-0.265042,-0.177152,-0.076825,-0.202893,-0.000905,-0.979200,-0.234805,-0.052227,0.021910,-18.870361,-21.709648,-14.458374,,,,,,,1
1522313992.821151,-0.206204,-0.005675,0.931730,-0.133212,0.096759,0.062580,-0.204742,0.005675,-0.978799,-0.157166,-0.023299,-0.018774,-19.317047,-21.332726,-14.535156,,,,,,,1
1522313992.851120,-0.196940,-0.006792,0.933679,0.043440,0.421567,0.047479,-0.195665,0.006792,-0.980647,-0.126707,-0.027666,-0.081883,-17.970398,-21.489082,-14.833801,,,,,,,1
1522313992.881088,-0.186092,-0.007266,0.933881,-0.094891,0.234175,-0.000391,-0.185015,0.007266,-0.982709,-0.080518,-0.045138,-0.038058,-18.272781,-21.637856,-14.983398,,,,,,,1
1522313992.911056,-0.179691,-0.012393,0.931326,-0.219293,0.271069,-0.066578,-0.178712,0.012392,-0.983823,-0.025588,-0.029574,0.055189,-17.900360,-21.714851,-15.282898,,,,,,,1
1522313992.941024,-0.169451,-0.016049,0.928996,-0.035096,0.422405,-0.043155,-0.168619,0.016048,-0.985551,-0.019049,-0.015758,-0.028793,-17.001297,-21.494423,-15.808350,,,,,,,1
1522313992.970993,-0.159031,-0.011033,0.929135,0.274494,0.219495,-0.007561,-0.158352,0.011033,-0.987321,-0.054371,-0.015778,-0.137374,-17.378983,-21.717796,-15.882629,,,,,,,1
1522313993.000961,-0.158711,-0.004475,0.930398,0.124525,-0.094859,0.020347,-0.158044,0.004475,-0.987422,-0.087760,-0.027104,-0.105123,-17.378525,-21.717720,-15.807678,,,,,,,1
1522313993.030929,-0.164352,-0.005142,0.932096,-0.093872,-0.177518,0.063964,-0.163611,0.005142,-0.986511,-0.070031,-0.018936,-0.017074,-17.148895,-21.343590,-15.658997,,,,,,,1
,,,,,,,,,,,,,,,,25.306243,51.441889,12.974055,7.250000,255.937500,1522313992.999253,1
1522313993.060898,-0.168432,-0.010053,0.934097,-0.126808,-0.102214,0.096889,-0.167628,0.010053,-0.985799,-0.064916,0.007464,0.021398,-17.673279,-21.416023,-15.434021,,,,,,,1
1522313993.090866,-0.169451,-0.010517,0.936420,0.068926,-0.042028,0.082057,-0.168632,0.010516,-0.985623,-0.039971,0.036618,-0.016651,-17.597382,-21.416206,-15.283936,,,,,,,1
1522313993.120834,-0.171655,-0.006972,0.938781,0.169138,-0.102687,0.058754,-0.170809,0.006972,-0.985280,-0.057524,0.015871,0.065022,-16.991867,-20.819008,-15.361023,,,,,,,1
1522313993.150802,-0.174439,-0.002333,0.941208,0.055093,-0.076781,0.042655,-0.173555,0.002333,-0.984821,-0.114897,-0.003477,-0.027203,-18.494781,-21.336861,-14.984741,,,,,,,1
1522313993.180771,-0.181365,-0.005693,0.942467,-0.153290,-0.359966,0.039595,-0.180369,0.005693,-0.983582,-0.087728,0.019453,0.025788,-18.573380,-21.561745,-15.208862,,,,,,,1
