timestamp(unix),attitude_roll(radians),attitude_pitch(radians),attitude_yaw(radians),rotation_rate_x(radians/s),rotation_rate_y(radians/s),rotation_rate_z(radians/s),gravity_x(G),gravity_y(G),gravity_z(G),user_acc_x(G),user_acc_y(G),user_acc_z(G),magnetic_field_x(microteslas),magnetic_field_y(microteslas),magnetic_field_z(microteslas),latitude(degree),longitude(degree),altitude(meter),speed(m/s),course(degree),timestamp(unix),User Mark
,,,,,,,,,,,,,,,,25.311483,51.444465,10.801785,8.710000,331.171875,1523695754.997584,
1523695755.898691,-0.564569,-0.026023,0.494242,0.167076,-0.011837,-0.062913,-0.534869,0.026020,-0.844531,0.023928,-0.031025,0.072009,12.281708,-10.100231,-8.890381,,,,,,,
1523695755.928659,-0.563354,-0.025478,0.493221,-0.091104,0.060897,-0.038675,-0.533850,0.025475,-0.845192,-0.041300,-0.074898,0.009682,13.804138,-9.429455,-6.267273,,,,,,,
1523695755.958627,-0.563070,-0.029760,0.489954,-0.172924,-0.064462,-0.015160,-0.533547,0.029756,-0.845244,-0.053032,-0.040849,-0.073289,13.955078,-9.879238,-5.365356,,,,,,,
1523695755.988595,-0.567889,-0.030643,0.488341,0.025251,-0.175373,-0.029810,-0.537600,0.030638,-0.842640,-0.013059,0.016237,0.020848,15.762970,-10.485043,-3.037048,,,,,,,
1523695756.018564,-0.570833,-0.028711,0.489655,0.043736,-0.002825,0.056343,-0.540109,0.028707,-0.841102,0.004266,0.067240,0.059898,16.512650,-10.787975,-2.585510,,,,,,,
1523695756.048532,-0.568168,-0.030664,0.491860,-0.041490,0.110694,0.114755,-0.537834,0.030659,-0.842490,0.024254,0.024547,0.018729,17.858887,-11.842892,-1.455627,,,,,,,
,,,,,,,,,,,,,,,,25.311547,51.444419,10.818233,8.700000,330.820312,1523695755.997573,
1523695756.078500,-0.565585,-0.032187,0.494139,0.034550,0.101289,0.063684,-0.535631,0.032182,-0.843836,0.032305,-0.055863,0.038294,17.928055,-12.518063,-1.302856,,,,,,,
1523695756.108469,-0.562573,-0.031911,0.495764,0.034747,0.088896,0.013610,-0.533092,0.031905,-0.845453,0.007472,-0.089889,0.016748,18.907806,-12.446789,-0.627625,,,,,,,
1523695756.138437,-0.559190,-0.031999,0.495699,-0.029093,0.110484,-0.010970,-0.530227,0.031993,-0.847249,-0.038743,-0.100933,-0.017329,18.156723,-14.090847,1.928528,,,,,,,
1523695756.168405,-0.556976,-0.032622,0.494186,-0.089050,0.051262,-0.030135,-0.528339,0.032617,-0.848404,-0.047650,-0.078958,-0.051254,19.658325,-14.696331,3.206726,,,,,,,
1523695756.198373,-0.556331,-0.034345,0.491466,-0.112662,0.012068,-0.039700,-0.527761,0.034339,-0.848695,-0.038797,-0.018408,-0.032515,23.563004,-15.312099,5.011169,,,,,,,
1523695756.228342,-0.556631,-0.035348,0.489203,-0.076415,0.022458,-0.019435,-0.527997,0.035341,-0.848507,-0.028094,0.043898,-0.021671,23.934998,-15.613766,5.012512,,,,,,,
1523695756.258310,-0.554874,-0.038011,0.487656,-0.107446,0.057318,0.022056,-0.526454,0.038002,-0.849351,-0.023030,0.104470,-0.040847,27.391861,-14.879406,4.936340,,,,,,,
1523695756.288278,-0.554383,-0.036782,0.488313,0.173300,0.001619,-0.014969,-0.526062,0.036774,-0.849648,0.043396,0.096664,0.026970,29.130707,-13.537151,5.006836,,,,,,,
1523695756.318246,-0.553277,-0.030984,0.491872,0.207747,0.099087,0.014792,-0.525225,0.030980,-0.850396,0.043963,0.038570,0.038797,32.143585,-11.751553,4.176208,,,,,,,
1523695756.348215,-0.549101,-0.030182,0.493623,-0.003472,0.147390,0.020976,-0.521682,0.030178,-0.852603,-0.009385,-0.049831,-0.055203,34.244980,-10.937130,3.048950,,,,,,,
1523695756.378183,-0.546345,-0.032163,0.492647,-0.084916,0.025705,-0.024773,-0.519298,0.032157,-0.853985,-0.051961,-0.081428,-0.141025,36.404678,-10.125744,-0.853149,,,,,,,
1523695756.408151,-0.550321,-0.034186,0.489928,-0.086104,-0.271612,-0.054312,-0.522654,0.034179,-0.851857,-0.036642,-0.016342,-0.106746,36.317642,-9.752987,-3.479675,,,,,,,
1523695756.438119,-0.559365,-0.034698,0.487904,-0.030744,-0.271970,-0.023367,-0.530327,0.034691,-0.847080,-0.011665,0.045661,0.075366,35.629135,-9.527508,-6.105957,,,,,,,
1523695756.468088,-0.563344,-0.035135,0.488622,-0.007780,-0.038930,0.073377,-0.533685,0.035127,-0.844950,0.024240,0.047682,0.072291,33.205658,-9.894909,-9.405701,,,,,,,
1523695756.498056,-0.561962,-0.036136,0.490747,0.049338,0.071497,0.065846,-0.532498,0.036128,-0.845657,0.040295,0.008244,0.020294,31.397781,-10.187603,-10.230408,,,,,,,
1523695756.528024,-0.560551,-0.034080,0.492822,0.122259,0.042141,-0.018238,-0.531343,0.034073,-0.846468,0.024537,-0.033875,-0.008589,31.084152,-11.012081,-11.127319,,,,,,,
1523695756.557992,-0.560700,-0.030988,0.493061,0.070990,-0.023224,-0.072559,-0.531522,0.030983,-0.846474,-0.011035,-0.055488,-0.008048,29.960403,-10.707333,-11.429077,,,,,,,
1523695756.587961,-0.562196,-0.029062,0.490831,-0.017600,-0.056755,-0.107758,-0.532819,0.029057,-0.845727,-0.045336,-0.063085,-0.012611,27.192429,-10.543972,-10.531067,,,,,,,
1523695756.617914,-0.563515,-0.030120,0.487050,-0.178940,-0.033307,-0.062075,-0.533918,0.030116,-0.844997,-0.085528,-0.022746,-0.047597,26.445602,-10.315456,-10.382385,,,,,,,
1523695756.647882,-0.563798,-0.035131,0.482808,-0.213351,-0.012399,0.000735,-0.534069,0.035124,-0.844708,-0.084538,0.012041,-0.107075,25.936356,-9.412045,-9.261292,,,,,,,
1523695756.677850,-0.566258,-0.038747,0.481404,-0.070928,-0.108724,0.045707,-0.536073,0.038738,-0.843279,-0.034788,0.067601,-0.038038,26.246368,-8.588146,-8.964417,,,,,,,
1523695756.707849,-0.569177,-0.038876,0.483577,0.105303,-0.063633,0.070292,-0.538531,0.038866,-0.841706,0.029848,0.080992,0.059143,27.365463,-8.818783,-9.562927,,,,,,,
1523695756.737818,-0.568837,-0.035579,0.487804,0.197755,0.052124,0.047864,-0.538310,0.035572,-0.841992,0.051509,0.008877,0.090405,27.590027,-8.819866,-9.637817,,,,,,,
1523695756.767786,-0.563171,-0.032777,0.491392,0.090940,0.273470,0.041159,-0.533581,0.032771,-0.845110,0.006177,-0.080745,0.015108,26.223694,-8.966198,-12.112915,,,,,,,
1523695756.797754,-0.555588,-0.034814,0.491459,-0.139887,0.198760,0.017625,-0.527122,0.034807,-0.849073,-0.044595,-0.133012,-0.121218,25.101425,-8.286816,-12.791138,,,,,,,
1523695756.827722,-0.555890,-0.039634,0.487965,-0.195564,-0.136522,-0.035349,-0.527284,0.039623,-0.848762,-0.053970,-0.112560,-0.113259,22.544937,-8.575924,-13.391296,,,,,,,
1523695756.857691,-0.563338,-0.041687,0.484785,-0.067998,-0.264298,-0.041527,-0.533546,0.041675,-0.844740,-0.027245,-0.006504,0.091047,18.207123,-8.030285,-12.270691,,,,,,,
1523695756.887659,-0.566718,-0.041682,0.484707,-0.005314,0.004823,0.046693,-0.536398,0.041670,-0.842932,0.000464,0.043092,0.086447,18.365372,-7.879864,-11.146179,,,,,,,
1523695756.917627,-0.563280,-0.042949,0.486777,0.007944,0.163802,0.099824,-0.533469,0.042936,-0.844726,0.047278,0.046908,0.013931,17.029739,-8.470486,-7.769531,,,,,,,
1523695756.947595,-0.558940,-0.041760,0.489845,0.156550,0.119353,0.022191,-0.529824,0.041748,-0.847076,0.065407,0.030258,-0.020035,17.631363,-9.071911,-6.491760,,,,,,,
1523695756.977564,-0.556876,-0.035878,0.492329,0.219645,0.035903,-0.070382,-0.528195,0.035870,-0.848362,0.043026,0.008304,0.006397,19.068497,-9.525600,-3.714294,,,,,,,
1523695757.007532,-0.556363,-0.031728,0.491971,0.025395,0.026952,-0.089692,-0.527834,0.031723,-0.848752,-0.002302,-0.026703,0.031109,19.737518,-10.802471,-2.583801,,,,,,,
1523695757.037500,-0.555104,-0.032921,0.488641,-0.149804,0.047329,-0.053619,-0.526744,0.032916,-0.849383,-0.034520,-0.054736,0.012255,20.111649,-11.927425,-0.854126,,,,,,,
1523695757.067468,-0.554589,-0.037977,0.485380,-0.209281,-0.025370,0.029526,-0.526213,0.037968,-0.849501,-0.054369,-0.024770,-0.019121,21.241409,-12.081463,0.197083,,,,,,,
,,,,,,,,,,,,,,,,25.311595,51.444374,10.652157,8.480000,330.468750,1523695756.997561,
1523695757.097437,-0.556361,-0.041654,0.485427,-0.020835,-0.063505,0.097896,-0.527640,0.041642,-0.848444,-0.009973,0.000091,0.001428,22.585861,-13.585934,1.778748,,,,,,,
1523695757.127405,-0.556278,-0.042443,0.489255,0.031756,0.049752,0.142571,-0.527552,0.042430,-0.848459,0.009333,-0.013301,-0.044592,23.784332,-14.190578,2.531799,,,,,,,
1523695757.157373,-0.555497,-0.042882,0.492656,0.071398,-0.016713,0.059560,-0.526879,0.042869,-0.848855,0.032326,-0.025107,-0.050330,26.336182,-14.276608,2.983398,,,,,,,
1523695757.187341,-0.555840,-0.040429,0.494118,0.067676,-0.000131,-0.031029,-0.527224,0.040418,-0.848761,0.041873,-0.053236,-0.032099,29.321381,-15.265865,2.163879,,,,,,,
1523695757.217310,-0.555865,-0.040002,0.492272,-0.081473,0.032345,-0.064199,-0.527255,0.039991,-0.848762,-0.039533,-0.053328,-0.036004,31.863159,-15.503277,1.191040,,,,,,,
1523695757.247278,-0.555656,-0.042017,0.488280,-0.141560,-0.049215,-0.079084,-0.527033,0.042004,-0.848802,-0.068151,-0.036984,-0.030485,33.943390,-15.815411,-1.581604,,,,,,,
1523695757.277246,-0.558147,-0.043217,0.484881,-0.061819,-0.098443,-0.057665,-0.529119,0.043204,-0.847444,-0.032069,0.016046,0.018296,33.180374,-16.263393,-3.005188,,,,,,,
1523695757.307214,-0.560582,-0.043199,0.483577,-0.007400,-0.051088,-0.010790,-0.531182,0.043186,-0.846153,0.002693,0.053509,0.057411,33.007263,-16.191586,-6.980652,,,,,,,
1523695757.337183,-0.562052,-0.042131,0.484476,0.058816,-0.001589,0.028636,-0.532450,0.042118,-0.845410,0.028009,0.071453,0.064679,33.068726,-16.418743,-8.854675,,,,,,,
1523695757.367151,-0.560342,-0.041045,0.486520,0.086874,0.063167,0.027526,-0.531027,0.041033,-0.846357,0.025061,0.050199,0.010161,30.947678,-17.311214,-10.877136,,,,,,,
1523695757.397119,-0.559591,-0.038118,0.488194,0.141404,0.012434,-0.030984,-0.530453,0.038109,-0.846854,0.028149,0.005562,0.019629,28.769302,-17.152248,-11.703857,,,,,,,
1523695757.427088,-0.558619,-0.036401,0.488309,-0.030231,0.073420,-0.029046,-0.529663,0.036393,-0.847423,-0.040070,-0.028688,-0.020771,27.119202,-16.620724,-12.606873,,,,,,,
1523695757.457056,-0.555359,-0.039626,0.485523,-0.162532,0.091833,-0.031297,-0.526833,0.039616,-0.849042,-0.078193,-0.066563,-0.135837,25.472092,-16.013836,-13.135071,,,,,,,
1523695757.487024,-0.556366,-0.042067,0.482757,-0.091888,-0.108100,-0.033173,-0.527635,0.042055,-0.848426,-0.081023,-0.040514,-0.117501,23.677414,-15.480770,-13.138123,,,,,,,
1523695757.516992,-0.560378,-0.044060,0.481640,-0.061337,-0.125665,0.034009,-0.530989,0.044045,-0.846230,-0.051439,0.010978,-0.028725,20.920197,-14.192532,-12.319702,,,,,,,
1523695757.546961,-0.562545,-0.045239,0.483294,0.039192,-0.018958,0.089366,-0.532794,0.045224,-0.845032,0.006716,0.029606,0.024109,19.425812,-14.035137,-11.645996,,,,,,,
1523695757.576929,-0.560886,-0.045046,0.486694,0.084534,0.076601,0.080797,-0.531395,0.045031,-0.845923,0.021935,0.004194,0.005408,18.079956,-14.477657,-10.219910,,,,,,,
1523695757.606898,-0.559145,-0.043098,0.489115,0.113551,0.015552,-0.010765,-0.529968,0.043085,-0.846919,0.039474,-0.015756,0.011653,18.914230,-14.404980,-8.794800,,,,,,,
1523695757.636866,-0.559810,-0.038840,0.489699,0.130876,-0.011625,-0.081051,-0.530623,0.038830,-0.846715,0.018904,-0.050244,0.036473,17.789627,-15.448116,-6.991211,,,,,,,
1523695757.666835,-0.559533,-0.036676,0.488353,-0.031372,0.007840,-0.071602,-0.530432,0.036667,-0.846930,-0.028375,-0.071030,0.040778,17.265411,-15.820004,-6.239990,,,,,,,
1523695757.696803,-0.559596,-0.038042,0.485410,-0.124546,-0.035613,-0.054580,-0.530458,0.038033,-0.846854,-0.036055,-0.033287,0.037634,16.890625,-16.791668,-4.586243,,,,,,,
1523695757.726771,-0.561201,-0.040363,0.482373,-0.111848,-0.028412,-0.025805,-0.531769,0.040352,-0.845924,-0.022202,0.024513,0.044166,16.972839,-17.015469,-3.010315,,,,,,,
1523695757.756739,-0.561304,-0.042534,0.480793,-0.086155,0.046601,0.026351,-0.531807,0.042521,-0.845794,-0.019478,0.071767,-0.003083,18.697952,-18.445827,-0.603760,,,,,,,
1523695757.786738,-0.559280,-0.044331,0.481352,-0.014587,0.095045,0.062587,-0.530053,0.044316,-0.846802,-0.005591,0.081035,-0.057556,19.823380,-18.900066,0.223633,,,,,,,
1523695757.816706,-0.557339,-0.043412,0.483325,0.123205,0.059974,0.016893,-0.528430,0.043399,-0.847863,0.021579,0.035886,-0.053550,22.305984,-19.583828,2.627625,,,,,,,
1523695757.846675,-0.557744,-0.039240,0.485510,0.187046,-0.054554,-0.039415,-0.528864,0.039230,-0.847796,0.007975,-0.026214,0.030382,24.110413,-19.591198,3.378540,,,,,,,
1523695757.876643,-0.556513,-0.036774,0.486582,0.013553,0.095495,-0.010918,-0.527870,0.036766,-0.848526,-0.031167,-0.090019,-0.017624,25.017868,-19.069912,3.751953,,,,,,,
1523695757.906611,-0.553245,-0.039156,0.484864,-0.152001,0.074704,-0.017417,-0.525046,0.039146,-0.850169,-0.074044,-0.115470,-0.093449,25.556793,-18.620754,5.325378,,,,,,,
1523695757.936580,-0.554937,-0.043323,0.481735,-0.173273,-0.138870,-0.011886,-0.526394,0.043309,-0.849134,-0.058171,-0.076314,-0.065387,26.692688,-18.025051,6.148560,,,,,,,
1523695757.966548,-0.560378,-0.046556,0.480122,-0.086159,-0.168179,0.045745,-0.530929,0.046539,-0.846134,-0.016129,0.010208,0.033023,28.651611,-17.358486,6.521851,,,,,,,
1523695757.996516,-0.562383,-0.048064,0.482045,0.020965,-0.007433,0.117056,-0.532586,0.048045,-0.845007,0.035775,0.045919,0.087347,29.771317,-17.663906,6.148682,,,,,,,
1523695758.026484,-0.561028,-0.047078,0.486429,0.149529,0.067836,0.096829,-0.531466,0.047061,-0.845768,0.059649,0.003553,0.086353,33.141357,-17.754742,5.475708,,,,,,,
,,,,,,,,,,,,,,,,25.311657,51.444322,10.806637,8.570000,330.117188,1523695757.997550,
1523695758.056453,-0.557703,-0.042996,0.490458,0.200466,0.122629,-0.004427,-0.528747,0.042982,-0.847686,0.050873,-0.053587,0.036392,33.591949,-17.831539,5.701233,,,,,,,
1523695758.086421,-0.554087,-0.039153,0.491658,0.059782,0.112676,-0.054578,-0.525762,0.039143,-0.849727,-0.013804,-0.089330,-0.033650,35.084076,-18.213924,5.028503,,,,,,,
1523695758.116389,-0.552345,-0.038711,0.488777,-0.091947,0.025246,-0.108951,-0.524290,0.038701,-0.850656,-0.054674,-0.075291,-0.095343,36.880539,-17.848217,3.827942,,,,,,,
1523695758.146357,-0.554549,-0.039893,0.483552,-0.164004,-0.091402,-0.114233,-0.526139,0.039882,-0.849459,-0.070419,-0.022670,-0.048658,36.943817,-17.850445,1.878052,,,,,,,
1523695758.176326,-0.556762,-0.043707,0.478319,-0.244400,-0.075847,-0.034375,-0.527934,0.043693,-0.848157,-0.081884,0.048424,-0.022922,36.412231,-17.699398,0.527100,,,,,,,
1523695758.206294,-0.558017,-0.049803,0.476002,-0.173328,-0.021704,0.099876,-0.528847,0.049782,-0.847252,-0.034431,0.103966,-0.017036,36.705719,-17.177670,-1.424866,,,,,,,
1523695758.236262,-0.558078,-0.051966,0.479281,0.119241,0.028301,0.138404,-0.528840,0.051943,-0.847127,0.025498,0.079801,0.037541,35.424744,-16.648785,-3.302612,,,,,,,
1523695758.266230,-0.556149,-0.047908,0.486172,0.297933,0.067480,0.095870,-0.527312,0.047890,-0.848317,0.051268,-0.000725,0.043752,35.282684,-15.673458,-3.606567,,,,,,,
1523695758.296199,-0.553414,-0.042056,0.492370,0.266346,0.104073,0.041464,-0.525129,0.042043,-0.849980,0.045240,-0.077291,0.027836,36.790359,-14.181438,-4.811768,,,,,,,
1523695758.326167,-0.550272,-0.038374,0.495003,0.081853,0.071013,-0.027898,-0.522532,0.038364,-0.851752,-0.013631,-0.140339,-0.014962,35.967468,-13.653271,-5.339294,,,,,,,
1523695758.356135,-0.550633,-0.039678,0.492141,-0.198315,-0.082033,-0.075900,-0.522813,0.039668,-0.851520,-0.055053,-0.128810,-0.075573,34.693817,-12.074947,-7.746277,,,,,,,
1523695758.386103,-0.556480,-0.044375,0.485482,-0.273604,-0.236794,-0.103503,-0.527679,0.044361,-0.848281,-0.058304,-0.019153,0.032210,34.614441,-11.476315,-9.473633,,,,,,,
1523695758.416072,-0.561557,-0.047421,0.480228,-0.158970,-0.074958,-0.038581,-0.531904,0.047403,-0.845473,-0.035677,0.073233,0.082319,31.756424,-11.240185,-11.201050,,,,,,,
1523695758.446040,-0.560682,-0.049761,0.479820,-0.016821,0.099144,0.084957,-0.531104,0.049741,-0.845841,0.006751,0.130008,0.029633,31.080246,-11.087582,-11.651978,,,,,,,
1523695758.476008,-0.557035,-0.048455,0.484708,0.232892,0.113166,0.119220,-0.528050,0.048436,-0.847827,0.039265,0.077052,0.025485,29.574478,-11.755657,-11.500061,,,,,,,
1523695758.505976,-0.551806,-0.042145,0.491964,0.327648,0.222777,0.061646,-0.523759,0.042132,-0.850820,0.036927,-0.041995,-0.055689,28.974823,-11.902660,-11.199829,,,,,,,
1523695758.535945,-0.546403,-0.038103,0.495365,0.082003,0.104969,-0.023656,-0.519239,0.038094,-0.853776,-0.022692,-0.108254,-0.127608,28.070511,-12.198818,-11.424072,,,,,,,
1523695758.565913,-0.547776,-0.038864,0.492808,-0.143024,-0.150075,-0.090706,-0.520395,0.038854,-0.853038,-0.048392,-0.097708,-0.089513,27.765900,-12.572598,-11.572754,,,,,,,
1523695758.595881,-0.554959,-0.043251,0.487186,-0.280279,-0.240338,-0.052348,-0.526414,0.043237,-0.849124,-0.061370,-0.044046,0.013416,25.962830,-13.014263,-11.346863,,,,,,,
1523695758.625857,-0.559950,-0.050151,0.483546,-0.225881,-0.090560,0.087125,-0.530474,0.050130,-0.846213,-0.054349,-0.005956,0.082618,24.522614,-14.358074,-11.642151,,,,,,,
1523695758.655825,-0.558841,-0.054833,0.485809,-0.003476,0.084672,0.174484,-0.529405,0.054805,-0.846593,-0.001219,-0.013744,0.029820,24.742081,-14.958981,-11.564697,,,,,,,
1523695758.685793,-0.556960,-0.053044,0.491811,0.262470,0.025010,0.103346,-0.527863,0.053019,-0.847669,0.046693,-0.028513,0.016874,23.837936,-16.003857,-10.510925,,,,,,,
1523695758.715761,-0.556825,-0.044881,0.498126,0.345191,0.010708,-0.007396,-0.527959,0.044866,-0.848080,0.054708,-0.035085,0.001293,23.612823,-16.377239,-9.909546,,,,,,,
1523695758.745730,-0.556902,-0.037024,0.500771,0.173795,0.009691,-0.104487,-0.528195,0.037015,-0.848312,-0.007343,-0.061338,0.038574,22.787247,-16.298748,-10.135254,,,,,,,
1523695758.775698,-0.556986,-0.033592,0.497607,-0.025631,-0.013829,-0.166403,-0.528331,0.033586,-0.848370,-0.041127,-0.031312,0.008465,21.743286,-15.918682,-9.762329,,,,,,,
1523695758.805666,-0.557257,-0.034561,0.491617,-0.225525,-0.016827,-0.122861,-0.528543,0.034554,-0.848199,-0.086402,0.012001,-0.012976,19.963882,-14.260006,-9.094849,,,,,,,
1523695758.835634,-0.557150,-0.040115,0.485870,-0.262205,0.039820,-0.003615,-0.528342,0.040104,-0.848080,-0.053705,0.071315,-0.053974,19.150330,-13.880077,-7.821838,,,,,,,
1523695758.865633,-0.557560,-0.044117,0.485085,-0.020666,-0.031625,0.095743,-0.528600,0.044103,-0.847720,-0.001521,0.121196,-0.003659,17.882263,-13.723461,-6.923035,,,,,,,
1523695758.895601,-0.557678,-0.042906,0.490232,0.212224,0.039831,0.128867,-0.528728,0.042892,-0.847703,0.019024,0.053024,0.002442,18.193497,-13.273754,-5.799683,,,,,,,
1523695758.925570,-0.555346,-0.037508,0.497274,0.298113,0.079302,0.074560,-0.526865,0.037500,-0.849117,0.036584,-0.043649,-0.038257,19.477921,-13.053326,-4.599915,,,,,,,
1523695758.955538,-0.553708,-0.033202,0.501373,0.128476,0.027122,0.002015,-0.525553,0.033196,-0.850109,0.009226,-0.101738,-0.040303,18.367233,-12.971081,-2.350830,,,,,,,
1523695758.985506,-0.553834,-0.032927,0.501251,-0.079868,-0.040183,-0.025768,-0.525665,0.032921,-0.850050,-0.032151,-0.115029,-0.024339,18.075500,-12.594021,-1.602478,,,,,,,
1523695759.015474,-0.556642,-0.037169,0.497699,-0.234033,-0.121672,-0.017282,-0.527971,0.037161,-0.848445,-0.058012,-0.066015,0.008723,17.943344,-11.841702,0.119446,,,,,,,
,,,,,,,,,,,,,,,,25.311750,51.444285,11.056179,8.740000,330.820312,1523695758.997539,
1523695759.045443,-0.559268,-0.041730,0.494715,-0.152823,-0.054215,0.030668,-0.530102,0.041718,-0.846903,-0.043858,-0.021363,0.023340,18.631668,-11.543072,1.843628,,,,,,,
1523695759.075411,-0.559633,-0.043810,0.494733,-0.017040,0.020702,0.058395,-0.530364,0.043796,-0.846634,-0.006364,0.005612,0.033539,21.408676,-11.929592,2.821533,,,,,,,
1523695759.105379,-0.559065,-0.042127,0.497699,0.143090,0.022391,0.063839,-0.529922,0.042115,-0.846996,0.038085,0.018783,0.024120,22.391006,-12.007656,4.172302,,,,,,,
1523695759.135347,-0.558678,-0.038002,0.501280,0.193679,0.040761,0.002060,-0.529681,0.037993,-0.847341,0.046862,-0.000838,0.045904,26.078156,-11.423199,5.221863,,,,,,,
1523695759.165316,-0.556498,-0.032763,0.502794,0.139792,0.069128,-0.083257,-0.527931,0.032757,-0.848651,0.000023,-0.043133,0.011905,28.484039,-10.834026,5.220703,,,,,,,
1523695759.195284,-0.554180,-0.030903,0.500301,-0.087406,0.081563,-0.111131,-0.525993,0.030898,-0.849923,-0.050148,-0.036269,-0.058539,30.437057,-9.719173,3.867188,,,,,,,
1523695759.225252,-0.554297,-0.032345,0.495203,-0.139299,-0.064900,-0.116359,-0.526068,0.032339,-0.849823,-0.057336,-0.000754,-0.040649,31.191040,-8.823391,3.039001,,,,,,,
1523695759.255221,-0.557809,-0.033705,0.491063,-0.114135,-0.095135,-0.055580,-0.529026,0.033698,-0.847932,-0.052334,0.064736,0.025102,30.820374,-7.623013,1.759033,,,,,,,
1523695759.285189,-0.557975,-0.036064,0.489785,-0.073465,0.056974,0.058314,-0.529123,0.036056,-0.847774,-0.032385,0.103607,-0.019611,29.679764,-7.021481,-1.843994,,,,,,,
1523695759.315157,-0.555920,-0.037755,0.492203,0.061925,0.074318,0.112740,-0.527347,0.037746,-0.848807,0.010868,0.052434,-0.051065,28.546097,-7.167583,-3.043884,,,,,,,
1523695759.345125,-0.554264,-0.035116,0.497078,0.214689,0.029710,0.056421,-0.525991,0.035109,-0.849761,0.010534,-0.010237,-0.050813,25.382767,-8.054089,-3.791931,,,,,,,
1523695759.375094,-0.554960,-0.030507,0.500447,0.173059,-0.061037,-0.021293,-0.526662,0.030502,-0.849523,0.016820,-0.057159,-0.019770,23.359375,-8.793484,-2.289978,,,,,,,
1523695759.405062,-0.556790,-0.027956,0.501042,0.012000,-0.041424,-0.034215,-0.528255,0.027953,-0.848621,-0.025074,-0.093795,-0.000012,22.897934,-11.563702,0.420776,,,,,,,
1523695759.435030,-0.558260,-0.030089,0.498462,-0.180278,-0.063260,-0.034336,-0.529469,0.030084,-0.847791,-0.045085,-0.084085,0.008649,24.770340,-12.770535,2.001587,,,,,,,
1523695759.464998,-0.560538,-0.034002,0.494934,-0.156986,-0.085746,-0.017252,-0.531332,0.033996,-0.846477,-0.031015,-0.033401,0.026698,26.173172,-15.625790,3.063660,,,,,,,
1523695759.494967,-0.562543,-0.036022,0.493172,-0.068312,-0.042601,0.010479,-0.532991,0.036014,-0.845350,-0.009489,0.020581,0.045087,28.341965,-16.609951,3.668762,,,,,,,
1523695759.524935,-0.563230,-0.035982,0.493610,0.043811,-0.014316,0.029707,-0.533573,0.035974,-0.844984,0.036106,0.062292,0.070128,32.075485,-18.126965,3.451660,,,,,,,
1523695759.554903,-0.562916,-0.033172,0.496338,0.165867,0.056618,0.024394,-0.533359,0.033166,-0.845234,0.047183,0.032752,0.061085,32.903610,-18.354794,4.352966,,,,,,,
1523695759.584871,-0.559515,-0.029111,0.499084,0.137682,0.150463,-0.015136,-0.530549,0.029107,-0.847150,-0.003189,-0.027886,-0.009448,34.852921,-18.288784,4.128723,,,,,,,
1523695759.614825,-0.555274,-0.027367,0.498504,-0.012624,0.126851,-0.080219,-0.526976,0.027364,-0.849435,-0.056337,-0.072331,-0.109488,39.343246,-18.085934,2.180176,,,,,,,
1523695759.644793,-0.554088,-0.027724,0.494533,-0.111389,-0.037340,-0.118486,-0.525964,0.027720,-0.850051,-0.071234,-0.049037,-0.140779,40.089020,-17.790493,0.979309,,,,,,,
1523695759.674761,-0.558708,-0.029728,0.489332,-0.149574,-0.202033,-0.105567,-0.529855,0.029724,-0.847563,-0.056510,0.023896,-0.020739,40.375870,-16.446224,-3.450867,,,,,,,
1523695759.704729,-0.563163,-0.031226,0.486252,-0.080063,-0.064772,-0.006552,-0.533601,0.031221,-0.845156,-0.043273,0.072508,0.055162,40.365631,-16.073498,-5.777405,,,,,,,
1523695759.734698,-0.561363,-0.033805,0.487001,-0.041509,0.096941,0.106243,-0.532034,0.033798,-0.846043,-0.019495,0.090088,-0.028926,36.683533,-14.935009,-8.858826,,,,,,,
1523695759.764666,-0.559595,-0.033638,0.490725,0.176121,0.030654,0.085171,-0.530541,0.033632,-0.846988,0.034950,0.028716,0.011035,35.260681,-14.179516,-9.762512,,,,,,,
1523695759.794634,-0.559184,-0.028752,0.495803,0.234950,-0.010550,0.029852,-0.530274,0.028748,-0.847334,0.047821,-0.016602,0.034026,31.229416,-12.436153,-9.546509,,,,,,,
1523695759.824603,-0.560446,-0.025081,0.498990,0.133586,-0.018652,0.009536,-0.531395,0.025079,-0.846748,0.034615,-0.065087,0.093956,30.871948,-11.083874,-8.877136,,,,,,,
1523695759.854571,-0.558011,-0.024448,0.499592,-0.051464,0.126411,-0.003531,-0.529339,0.024446,-0.848053,-0.025745,-0.127916,0.036545,30.078308,-8.978588,-7.160889,,,,,,,
1523695759.884539,-0.554781,-0.028809,0.496550,-0.255622,0.067459,-0.010017,-0.526537,0.028805,-0.849660,-0.089354,-0.114865,-0.091624,30.697281,-7.480709,-6.491577,,,,,,,
1523695759.914507,-0.555516,-0.034945,0.491565,-0.244566,-0.096132,-0.020504,-0.527057,0.034938,-0.849107,-0.059658,-0.063334,-0.083602,31.527954,-7.183987,-6.042358,,,,,,,
1523695759.944506,-0.559922,-0.037865,0.488689,-0.098515,-0.124265,-0.001182,-0.530737,0.037856,-0.846686,-0.032938,0.034303,-0.035272,33.708679,-6.294338,-6.569824,,,,,,,
1523695759.974474,-0.562753,-0.038048,0.488418,0.050202,-0.050306,0.005255,-0.533129,0.038039,-0.845174,0.017672,0.104784,0.026418,35.495087,-6.529247,-8.442993,,,,,,,
1523695760.004443,-0.561589,-0.033822,0.491048,0.213090,0.089554,0.007354,-0.532225,0.033815,-0.845922,0.035125,0.076887,0.015448,34.050201,-7.125072,-10.766357,,,,,,,
1523695760.034411,-0.556859,-0.029302,0.493801,0.126105,0.191901,-0.010922,-0.528293,0.029298,-0.848552,0.003772,0.008941,-0.078359,34.033707,-7.876492,-12.263367,,,,,,,
1523695760.064379,-0.553371,-0.027222,0.493380,0.042455,0.018382,-0.088589,-0.525362,0.027218,-0.850439,-0.016447,-0.043530,-0.078303,30.189804,-8.685986,-14.062073,,,,,,,
,,,,,,,,,,,,,,,,25.311850,51.444252,11.189602,8.960000,331.171875,1523695759.997528,
1523695760.094347,-0.556899,-0.026828,0.490468,-0.097235,-0.176804,-0.086367,-0.528364,0.026825,-0.848589,-0.019640,-0.016403,0.030154,29.359467,-9.132397,-14.210693,,,,,,,
1523695760.124316,-0.561107,-0.029725,0.487070,-0.141116,-0.114513,-0.012944,-0.531887,0.029720,-0.846289,-0.020909,0.000599,0.074957,27.326416,-9.124599,-15.561707,,,,,,,
1523695760.154284,-0.562610,-0.032365,0.486719,-0.043919,0.001470,0.080782,-0.533114,0.032360,-0.845420,-0.015989,-0.003826,0.048728,26.572861,-9.571056,-15.410278,,,,,,,
1523695760.184252,-0.560427,-0.033970,0.489514,0.029914,0.072259,0.111670,-0.531240,0.033963,-0.846536,-0.002727,-0.018186,-0.065833,24.459488,-10.462307,-16.157715,,,,,,,
1523695760.214220,-0.562208,-0.032044,0.492638,0.166269,-0.110142,0.011791,-0.532779,0.032038,-0.845643,0.034611,-0.028437,0.004426,22.961182,-10.155788,-16.384766,,,,,,,
1523695760.244189,-0.564365,-0.028054,0.494200,0.092202,-0.029827,-0.049087,-0.534667,0.028051,-0.844592,0.019347,-0.028875,0.053134,21.610199,-10.299633,-16.309814,,,,,,,
1523695760.274157,-0.562782,-0.026508,0.492695,-0.042615,0.110945,-0.074895,-0.533352,0.026505,-0.845473,-0.050968,-0.038056,-0.005006,16.601746,-9.450756,-14.965820,,,,,,,
1523695760.304125,-0.558730,-0.027880,0.489210,-0.141884,0.129173,-0.063265,-0.529902,0.027877,-0.847596,-0.088796,-0.020003,-0.109451,14.288849,-8.914227,-13.844116,,,,,,,
1523695760.334093,-0.556563,-0.030726,0.485644,-0.130732,0.025898,-0.038644,-0.528020,0.030721,-0.848671,-0.075572,0.013911,-0.132057,10.499832,-7.468578,-10.251770,,,,,,,
1523695760.364062,-0.559299,-0.031697,0.484379,-0.000391,-0.128861,0.013810,-0.530324,0.031692,-0.847198,-0.013759,0.060517,-0.015610,9.537354,-7.162670,-8.678467,,,,,,,
1523695760.394030,-0.561692,-0.032164,0.486619,0.031616,-0.027608,0.108575,-0.532341,0.032158,-0.845914,0.016899,0.041588,0.037809,10.163788,-7.535458,-3.651672,,,,,,,
1523695760.423998,-0.561297,-0.031807,0.490542,0.130189,0.023295,0.087292,-0.532014,0.031801,-0.846134,0.038331,-0.021715,0.049625,9.423309,-7.979809,-1.325256,,,,,,,
1523695760.453967,-0.559136,-0.029008,0.494637,0.140335,0.093717,0.043535,-0.530229,0.029004,-0.847354,0.016236,-0.082730,0.007739,11.538574,-9.109890,3.105347,,,,,,,
1523695760.483935,-0.557511,-0.028366,0.495742,-0.020954,0.022208,-0.005529,-0.528861,0.028362,-0.848230,-0.015893,-0.103420,-0.032355,14.611816,-9.872738,4.084961,,,,,,,
1523695760.513903,-0.558120,-0.030246,0.493669,-0.135509,-0.079310,-0.034287,-0.529348,0.030242,-0.847861,-0.044581,-0.084014,-0.066140,16.785583,-11.305340,6.266724,,,,,,,
1523695760.543871,-0.562062,-0.033417,0.489977,-0.181643,-0.121758,-0.026815,-0.532632,0.033411,-0.845682,-0.044120,-0.018183,-0.017233,18.506058,-11.987713,6.645325,,,,,,,
1523695760.573840,-0.564565,-0.036741,0.487442,-0.123899,-0.046806,0.022172,-0.534685,0.036733,-0.844247,-0.045637,0.031230,-0.000372,22.755081,-13.508617,4.853577,,,,,,,
1523695760.603808,-0.564885,-0.038313,0.487864,0.021284,-0.003882,0.062725,-0.534923,0.038304,-0.844027,0.003582,0.039913,0.007372,23.045044,-14.335217,4.556946,,,,,,,
1523695760.633795,-0.564937,-0.036292,0.491260,0.174000,-0.006309,0.052182,-0.535008,0.036284,-0.844063,0.042424,0.021120,0.054268,23.710571,-15.013668,4.110046,,,,,,,
1523695760.663763,-0.564334,-0.031659,0.495452,0.208643,0.052306,0.013799,-0.534583,0.031653,-0.844518,0.060279,-0.029059,0.075475,25.425903,-15.397350,3.137390,,,,,,,
1523695760.693732,-0.562513,-0.028732,0.496971,0.045601,0.070030,-0.031094,-0.533092,0.028728,-0.845565,0.017497,-0.067409,0.043563,24.975327,-15.769802,3.663696,,,,,,,
1523695760.723700,-0.560260,-0.028944,0.494945,-0.107977,0.060069,-0.071687,-0.531182,0.028940,-0.846759,-0.040519,-0.065744,-0.036496,26.027542,-15.774166,4.039246,,,,,,,
1523695760.753668,-0.560539,-0.031848,0.490021,-0.200147,-0.028868,-0.083395,-0.531371,0.031843,-0.846536,-0.053270,-0.002119,-0.053611,27.377182,-15.630535,3.739380,,,,,,,
1523695760.783636,-0.561895,-0.035692,0.485391,-0.198379,-0.044167,-0.024769,-0.532449,0.035684,-0.845705,-0.052924,0.049231,-0.057005,28.496872,-15.486706,2.614319,,,,,,,
1523695760.813605,-0.563666,-0.038851,0.483684,-0.071770,-0.057750,0.048861,-0.533884,0.038841,-0.844660,-0.015341,0.086479,-0.004720,29.322739,-15.265636,2.388855,,,,,,,
1523695760.843573,-0.563789,-0.039454,0.486054,0.081197,0.051036,0.088294,-0.533974,0.039443,-0.844575,0.009942,0.042817,0.015291,32.246063,-14.530300,0.887329,,,,,,,
1523695760.873541,-0.560981,-0.037505,0.489908,0.144606,0.093692,0.044609,-0.531640,0.037496,-0.846135,0.033731,-0.028066,0.013920,32.096649,-14.155148,0.360840,,,,,,,
1523695760.903509,-0.558322,-0.035141,0.491870,0.075487,0.079465,-0.022562,-0.529434,0.035134,-0.847618,0.020508,-0.067605,0.019661,33.452728,-12.962231,-0.618286,,,,,,,
1523695760.933478,-0.556247,-0.035309,0.490374,-0.091966,0.084335,-0.051461,-0.527672,0.035301,-0.848710,-0.025932,-0.083382,-0.030624,34.807266,-11.919308,-1.596802,,,,,,,
1523695760.963446,-0.556717,-0.037974,0.486225,-0.164195,-0.105501,-0.080085,-0.528019,0.037965,-0.848379,-0.043683,-0.047517,-0.022272,33.762085,-11.165051,-2.050354,,,,,,,
1523695760.993414,-0.560659,-0.039119,0.482293,-0.075667,-0.114279,-0.071489,-0.531335,0.039109,-0.846253,-0.026419,0.017898,0.028657,33.616089,-9.366726,-4.382629,,,,,,,
1523695761.023413,-0.562719,-0.038642,0.480617,-0.005032,-0.018104,-0.021456,-0.533088,0.038632,-0.845173,-0.017068,0.073047,0.037571,34.142532,-8.545223,-5.510620,,,,,,,
1523695761.053381,-0.561589,-0.037459,0.481622,0.067727,0.071711,0.025388,-0.532156,0.037450,-0.845813,0.002783,0.071192,-0.026837,33.851532,-7.643917,-5.514404,,,,,,,
,,,,,,,,,,,,,,,,25.311923,51.444202,11.293941,8.960000,331.875000,1523695760.997517,
1523695761.083350,-0.559626,-0.035132,0.483599,0.141493,0.050513,-0.009691,-0.530539,0.035124,-0.846927,0.020804,0.034257,-0.013409,34.984100,-6.973873,-5.366455,,,,,,,
1523695761.113318,-0.558590,-0.032489,0.484936,0.065671,0.028488,-0.024640,-0.529709,0.032484,-0.847552,-0.007736,-0.024015,0.002948,38.064072,-6.163250,-5.893188,,,,,,,
1523695761.143286,-0.557866,-0.033882,0.484290,-0.109646,0.022297,0.011463,-0.529071,0.033876,-0.847896,-0.041165,-0.051851,-0.014927,39.035233,-5.644131,-7.394775,,,,,,,
1523695761.173254,-0.557569,-0.038708,0.482495,-0.172966,-0.011767,0.043411,-0.528726,0.038699,-0.847905,-0.049414,-0.054934,-0.048412,40.826828,-3.781704,-11.901367,,,,,,,
1523695761.203223,-0.560019,-0.043298,0.481552,-0.104207,-0.131109,0.064899,-0.530702,0.043284,-0.846447,-0.025084,-0.033824,0.014706,40.962692,-3.485165,-14.752441,,,,,,,
1523695761.233191,-0.561702,-0.045165,0.483205,0.006146,-0.004136,0.102151,-0.532082,0.045150,-0.845483,0.002007,-0.045653,0.013116,39.061905,-2.956783,-19.930481,,,,,,,
1523695761.263159,-0.562092,-0.044298,0.486538,0.125844,-0.014799,0.067076,-0.532433,0.044284,-0.845308,0.031609,-0.050280,0.036654,37.327484,-2.501308,-22.258179,,,,,,,
1523695761.293127,-0.561331,-0.041252,0.489267,0.112570,0.021927,-0.015007,-0.531858,0.041241,-0.845824,0.014707,-0.052822,0.010542,35.664917,-2.046673,-25.110840,,,,,,,
1523695761.323096,-0.560536,-0.037836,0.488835,0.036206,0.042883,-0.096072,-0.531258,0.037827,-0.846360,-0.022484,-0.040237,-0.024855,27.778809,-1.264355,-28.267883,,,,,,,
1523695761.353064,-0.560543,-0.036808,0.485064,-0.089974,-0.035228,-0.125921,-0.531284,0.036800,-0.846389,-0.048535,-0.003627,-0.043854,25.079620,-0.503338,-29.397278,,,,,,,
1523695761.383032,-0.562134,-0.036971,0.480408,-0.081551,-0.043854,-0.110989,-0.532627,0.036962,-0.845538,-0.057034,0.031565,-0.002683,16.919357,0.434269,-28.505127,,,,,,,
1523695761.413000,-0.563245,-0.037162,0.477505,-0.053049,-0.026407,-0.033201,-0.533561,0.037153,-0.844940,-0.026238,0.105852,0.050567,13.101120,0.302799,-27.156494,,,,,,,
1523695761.442969,-0.562937,-0.038169,0.478069,0.011812,0.047005,0.081852,-0.533281,0.038160,-0.845072,0.011766,0.086794,0.043833,9.431320,-1.252224,-23.702087,,,,,,,
1523695761.472937,-0.560308,-0.038847,0.481774,0.100546,0.118754,0.122339,-0.531044,0.038838,-0.846449,0.020759,0.019954,-0.009767,8.380966,-2.819942,-21.146362,,,,,,,
1523695761.502905,-0.556594,-0.036985,0.486440,0.180891,0.098825,0.055298,-0.527934,0.036976,-0.848475,0.014307,-0.053883,-0.049581,6.054245,-5.879650,-16.335266,,,,,,,
1523695761.532873,-0.555242,-0.034151,0.489095,0.072998,0.028277,0.003069,-0.526840,0.034144,-0.849274,-0.017579,-0.095515,-0.082581,5.599823,-7.675350,-14.078369,,,,,,,
1523695761.562842,-0.555665,-0.035986,0.487589,-0.163214,-0.048574,-0.015147,-0.527165,0.035978,-0.848996,-0.044307,-0.108000,-0.074542,6.422806,-10.449764,-9.791870,,,,,,,
1523695761.592810,-0.559391,-0.041412,0.483630,-0.259836,-0.151533,0.000879,-0.530213,0.041400,-0.846848,-0.051574,-0.056872,-0.011215,5.822266,-11.720043,-7.762085,,,,,,,
1523695761.622776,-0.562793,-0.046834,0.480873,-0.146478,-0.058569,0.041343,-0.532963,0.046817,-0.844837,-0.045559,-0.006519,0.045185,6.274689,-12.470425,-6.108826,,,,,,,
1523695761.652745,-0.563049,-0.047471,0.481936,0.081327,0.036432,0.049947,-0.533164,0.047453,-0.844675,-0.002710,0.029680,0.049005,6.790756,-14.945110,-3.473694,,,,,,,
1523695761.682713,-0.561332,-0.043930,0.485709,0.196828,0.065982,0.038281,-0.531798,0.043916,-0.845727,0.039092,0.051620,0.046685,6.641388,-15.693081,-2.120789,,,,,,,
1523695761.712681,-0.558790,-0.039477,0.488914,0.148152,0.102573,-0.011864,-0.529745,0.039467,-0.847233,0.053396,0.035179,0.027134,5.519211,-17.259960,0.959900,,,,,,,
1523695761.742649,-0.556493,-0.037309,0.489007,0.008354,0.070251,-0.051356,-0.527842,0.037300,-0.848518,0.019999,-0.008232,0.010383,3.954056,-17.625652,3.210632,,,,,,,
1523695761.772618,-0.555359,-0.038142,0.486438,-0.095336,0.019673,-0.073768,-0.526863,0.038133,-0.849090,-0.046135,-0.034638,-0.013780,2.257828,-18.212246,8.987122,,,,,,,
1523695761.802586,-0.556148,-0.039626,0.483483,-0.081984,-0.063455,-0.043838,-0.527502,0.039616,-0.848624,-0.061075,-0.025242,-0.042657,4.225647,-18.367886,12.213745,,,,,,,
1523695761.832554,-0.558519,-0.042128,0.481935,-0.098434,-0.076689,0.029691,-0.529458,0.042115,-0.847285,-0.049155,0.002425,-0.017782,6.802933,-19.423168,18.519226,,,,,,,
1523695761.862522,-0.559893,-0.043737,0.482737,0.010501,-0.023027,0.068070,-0.530586,0.043723,-0.846498,-0.011864,0.011819,-0.011885,10.188324,-19.736156,20.772156,,,,,,,
1523695761.892491,-0.559496,-0.044084,0.485031,0.033180,0.031109,0.066973,-0.530241,0.044070,-0.846696,0.011747,0.019361,-0.015609,18.673355,-20.671108,24.005188,,,,,,,
1523695761.922459,-0.558694,-0.043092,0.486803,0.071900,0.018730,0.000947,-0.529585,0.043079,-0.847157,0.018965,-0.003268,0.018071,22.128632,-20.685741,24.906921,,,,,,,
1523695761.952427,-0.558102,-0.040992,0.487220,0.046591,0.054081,-0.030011,-0.529130,0.040981,-0.847546,-0.003188,-0.022365,0.024654,30.384415,-19.973125,24.683228,,,,,,,
1523695761.982395,-0.555648,-0.041131,0.486457,-0.029219,0.063765,-0.020487,-0.527046,0.041120,-0.848837,-0.030861,-0.060376,-0.001124,33.984985,-19.240459,23.557129,,,,,,,
1523695762.012364,-0.553983,-0.041811,0.485684,-0.049739,0.024375,-0.005529,-0.525616,0.041799,-0.849689,-0.056171,-0.065313,-0.069103,36.831985,-18.954235,22.582336,,,,,,,
1523695762.042362,-0.555749,-0.042918,0.484659,-0.040683,-0.097784,-0.010749,-0.527092,0.042905,-0.848720,-0.033272,-0.021527,-0.049474,42.299789,-17.332745,18.678650,,,,,,,
,,,,,,,,,,,,,,,,25.312003,51.444154,11.518459,9.120000,331.523438,1523695761.997504,
1523695762.072331,-0.559824,-0.042522,0.483978,-0.000202,-0.132912,-0.019191,-0.530555,0.042509,-0.846579,0.003165,0.029848,0.034003,43.340271,-16.665127,15.976440,,,,,,,
1523695762.102299,-0.562715,-0.042189,0.484134,0.010618,-0.039779,0.031862,-0.533008,0.042176,-0.845054,0.028155,0.076003,0.097205,47.889481,-15.866222,10.350525,,,,,,,
1523695762.132267,-0.560289,-0.042388,0.485655,0.028379,0.140644,0.057264,-0.530952,0.042375,-0.846337,0.030311,0.042265,0.061867,48.700912,-15.198254,6.973267,,,,,,,
1523695762.162235,-0.555143,-0.042338,0.487416,0.047973,0.191769,0.031664,-0.526590,0.042326,-0.849060,-0.004019,-0.017881,-0.000839,48.082825,-13.401485,0.965759,,,,,,,
1523695762.192204,-0.550744,-0.042056,0.488129,0.023241,0.100771,-0.014084,-0.522856,0.042044,-0.851379,-0.035509,-0.082175,-0.093202,45.599640,-12.642941,-1.663513,,,,,,,
1523695762.222172,-0.550251,-0.041903,0.487205,-0.031783,-0.057210,-0.042743,-0.522440,0.041890,-0.851642,-0.055822,-0.072027,-0.095319,41.539230,-10.979168,-6.172180,,,,,,,
1523695762.252140,-0.554216,-0.042612,0.485259,-0.069700,-0.172992,-0.036256,-0.525797,0.042599,-0.849538,-0.039496,-0.023266,-0.017756,39.279984,-10.371563,-8.725769,,,,,,,
1523695762.282109,-0.559485,-0.042900,0.483710,-0.016278,-0.149825,-0.024522,-0.530259,0.042887,-0.846745,-0.009704,0.018682,0.052266,33.564133,-10.198772,-11.654297,,,,,,,
1523695762.312077,-0.560842,-0.044014,0.483644,-0.057554,0.015504,0.050942,-0.531382,0.044000,-0.845984,0.004877,0.063727,0.043662,31.239395,-10.038540,-11.881104,,,,,,,
1523695762.342045,-0.559798,-0.044396,0.485346,0.090948,0.040640,0.052084,-0.530490,0.044381,-0.846524,0.047564,0.042838,0.070950,30.336426,-10.559093,-11.504517,,,,,,,
1523695762.372013,-0.557568,-0.040366,0.488769,0.217610,0.132057,0.002009,-0.528691,0.040355,-0.847850,0.034352,-0.007533,0.062282,27.188110,-11.518047,-9.627258,,,,,,,
1523695762.401982,-0.553074,-0.035961,0.490932,0.108897,0.130476,-0.036433,-0.524964,0.035953,-0.850360,-0.011535,-0.057697,-0.009702,26.066345,-12.410976,-7.599182,,,,,,,
1523695762.431950,-0.549640,-0.036139,0.489189,-0.118632,0.072780,-0.063178,-0.522037,0.036131,-0.852153,-0.054638,-0.073256,-0.098302,27.059372,-13.086315,-3.471008,,,,,,,
1523695762.461918,-0.551844,-0.038890,0.484897,-0.155785,-0.134236,-0.077911,-0.523860,0.038881,-0.850912,-0.054494,-0.009233,-0.088266,27.141876,-13.459805,-1.594482,,,,,,,
1523695762.491886,-0.556563,-0.040624,0.481047,-0.084412,-0.149420,-0.059727,-0.527833,0.040613,-0.848372,-0.052810,0.057241,-0.026003,29.629868,-14.142696,1.709534,,,,,,,
1523695762.521855,-0.559434,-0.040602,0.480186,0.020347,-0.040690,0.007360,-0.530267,0.040591,-0.846854,-0.019614,0.083173,0.023703,32.331299,-14.678722,2.838013,,,,,,,
1523695762.551823,-0.558734,-0.038725,0.482330,0.129517,0.052336,0.037185,-0.529714,0.038715,-0.847287,0.033071,0.060833,0.035993,35.270905,-14.839260,5.540161,,,,,,,
1523695762.581791,-0.556078,-0.035783,0.485156,0.143848,0.108852,0.001986,-0.527519,0.035775,-0.848784,0.023857,-0.004724,0.006774,37.145950,-14.697918,5.315491,,,,,,,
1523695762.611749,-0.553120,-0.033057,0.486047,0.069309,0.089265,-0.055598,-0.525056,0.033051,-0.850421,-0.019652,-0.049149,-0.029660,39.534637,-15.384411,4.569397,,,,,,,
1523695762.641718,-0.551176,-0.032051,0.484510,-0.033293,0.048182,-0.070550,-0.523418,0.032046,-0.851468,-0.059971,-0.076250,-0.078402,39.223831,-15.834057,3.521057,,,,,,,
1523695762.671686,-0.551488,-0.034009,0.481282,-0.154590,-0.061186,-0.039626,-0.523650,0.034002,-0.851250,-0.068681,-0.060278,-0.103325,38.764236,-15.983349,2.171448,,,,,,,
1523695762.701654,-0.556207,-0.037257,0.479003,-0.097866,-0.195649,0.022351,-0.527600,0.037249,-0.848671,-0.028583,-0.028063,-0.005516,36.413239,-16.875607,-0.676208,,,,,,,
1523695762.731622,-0.560508,-0.038806,0.479922,0.011209,-0.097478,0.075615,-0.531214,0.038796,-0.846344,0.002680,0.004569,0.051178,35.806671,-17.173489,-1.275269,,,,,,,
1523695762.761591,-0.561326,-0.038158,0.482961,0.106743,0.009658,0.069181,-0.531919,0.038149,-0.845930,0.041288,-0.015261,0.059019,35.561874,-18.298794,-2.695923,,,,,,,
1523695762.791559,-0.560221,-0.034453,0.486182,0.184223,0.062059,-0.004344,-0.531056,0.034446,-0.846631,0.050740,-0.032584,0.077817,35.553329,-18.524807,-3.744995,,,,,,,
1523695762.821527,-0.557721,-0.030331,0.487403,0.065103,0.099899,-0.056670,-0.529009,0.030327,-0.848069,0.022569,-0.046501,0.042115,34.484055,-19.870968,-4.715149,,,,,,,
1523695762.851495,-0.554887,-0.030449,0.484780,-0.110969,0.088857,-0.085564,-0.526601,0.030444,-0.849562,-0.027751,-0.050128,-0.021577,34.772186,-20.473248,-5.687622,,,,,,,
1523695762.881464,-0.554006,-0.032273,0.479967,-0.139040,-0.011826,-0.113189,-0.525822,0.032267,-0.849977,-0.066448,-0.013438,-0.065168,33.183731,-20.692959,-7.562500,,,,,,,
1523695762.911432,-0.555686,-0.033449,0.475355,-0.114880,-0.073712,-0.087524,-0.527228,0.033443,-0.849060,-0.057260,0.043294,-0.034836,31.975525,-20.614025,-9.063416,,,,,,,
1523695762.941400,-0.557865,-0.035087,0.472600,-0.096019,-0.054153,-0.003358,-0.529048,0.035080,-0.847861,-0.023870,0.102310,0.022696,30.905029,-21.586010,-10.860046,,,,,,,
1523695762.971369,-0.558450,-0.036880,0.473376,0.023404,0.015043,0.087235,-0.529509,0.036871,-0.847497,0.007521,0.087091,0.030404,28.725327,-22.101131,-10.784119,,,,,,,
1523695763.001337,-0.555719,-0.035613,0.477729,0.192509,0.106028,0.085132,-0.527218,0.035606,-0.848979,0.031582,0.007332,0.023173,26.555405,-22.315166,-9.584351,,,,,,,
1523695763.031305,-0.552871,-0.030097,0.482904,0.281576,0.126460,0.018055,-0.524892,0.030092,-0.850631,0.020833,-0.052874,0.000869,26.035660,-22.237072,-8.834961,,,,,,,
,,,,,,,,,,,,,,,,25.312069,51.444110,11.576290,9.060000,331.523438,1523695762.997493,
1523695763.061304,-0.547863,-0.026335,0.485741,0.074826,0.182417,-0.007733,-0.520681,0.026332,-0.853340,-0.032251,-0.100306,-0.116143,25.217636,-22.531734,-7.184143,,,,,,,
1523695763.091272,-0.544911,-0.027150,0.483575,-0.126359,0.004843,-0.071632,-0.518149,0.027147,-0.854855,-0.061563,-0.085557,-0.144611,25.685486,-22.231365,-4.710144,,,,,,,
1523695763.121240,-0.548467,-0.030782,0.478434,-0.245564,-0.141520,-0.067320,-0.521130,0.030777,-0.852917,-0.046481,-0.012833,-0.030079,25.694916,-21.555965,-4.262817,,,,,,,
1523695763.151209,-0.552454,-0.036019,0.474338,-0.179683,-0.111511,0.022215,-0.524435,0.036011,-0.850684,-0.028727,0.043182,0.073325,27.887360,-20.439785,-3.216187,,,,,,,
1523695763.181177,-0.552897,-0.039563,0.475513,-0.034411,0.054109,0.146803,-0.524742,0.039553,-0.850337,0.015037,0.033842,0.060649,29.398361,-19.471355,-2.994263,,,,,,,
1523695763.211145,-0.549261,-0.040054,0.480838,0.162365,0.127959,0.151147,-0.521636,0.040043,-0.852223,0.028258,-0.015370,0.009770,32.570236,-17.235714,-3.076660,,,,,,,
1523695763.241113,-0.545549,-0.036507,0.486425,0.205676,0.142364,0.049948,-0.518540,0.036499,-0.854269,0.021531,-0.076203,-0.065729,32.360504,-15.884487,-2.782166,,,,,,,
1523695763.271082,-0.544689,-0.032671,0.488265,0.099640,-0.077525,-0.074572,-0.517874,0.032665,-0.854828,-0.016321,-0.101314,-0.124939,33.061371,-13.337566,-2.716980,,,,,,,
1523695763.301050,-0.549649,-0.030151,0.485241,-0.037147,-0.197737,-0.156607,-0.522148,0.030146,-0.852317,-0.014885,-0.051493,-0.022424,32.698059,-11.986233,-3.022583,,,,,,,
1523695763.331018,-0.554462,-0.029578,0.480209,-0.136239,-0.106378,-0.117351,-0.526254,0.029574,-0.849808,-0.046958,0.034651,0.073853,30.775085,-9.951473,-1.906677,,,,,,,
1523695763.360986,-0.555403,-0.033085,0.475322,-0.206731,-0.013301,-0.031187,-0.526994,0.033079,-0.849219,-0.038893,0.087938,0.017051,30.936630,-9.201519,-1.234619,,,,,,,
1523695763.390955,-0.555051,-0.036173,0.474094,-0.029750,0.031349,0.055205,-0.526640,0.036165,-0.849314,-0.015291,0.091109,-0.008261,32.072372,-8.755581,-0.185791,,,,,,,
1523695763.420923,-0.554849,-0.034440,0.477322,0.207161,0.006316,0.055408,-0.526500,0.034433,-0.849472,0.034404,0.058356,0.022949,31.576797,-7.475582,2.583862,,,,,,,
1523695763.450891,-0.555177,-0.028706,0.482870,0.273414,0.016793,0.053315,-0.526874,0.028702,-0.849453,0.028110,-0.024888,0.037930,32.415558,-6.728313,3.631287,,,,,,,
1523695763.480860,-0.553078,-0.026510,0.486616,0.058014,0.070511,0.046703,-0.525122,0.026507,-0.850609,-0.019296,-0.085253,-0.015038,34.103226,-4.034115,5.421326,,,,,,,
1523695763.510828,-0.551345,-0.027326,0.486902,-0.056098,0.040290,-0.000220,-0.523635,0.027322,-0.851499,-0.038255,-0.133066,-0.050585,34.570435,-2.760479,6.166443,,,,,,,
1523695763.540796,-0.551783,-0.030611,0.484806,-0.184667,-0.057155,0.000845,-0.523959,0.030606,-0.851188,-0.074293,-0.083356,-0.083077,36.758179,-0.447063,4.433289,,,,,,,
1523695763.570764,-0.555207,-0.034297,0.482517,-0.088894,-0.114861,0.012699,-0.526807,0.034290,-0.849288,-0.035571,-0.028507,-0.000673,37.647293,-0.003628,1.881958,,,,,,,
1523695763.600733,-0.556224,-0.034863,0.483100,-0.000911,0.028127,0.049901,-0.527660,0.034856,-0.848735,-0.016285,0.020335,0.001018,35.526794,0.152241,-1.794739,,,,,,,
1523695763.630694,-0.554267,-0.033839,0.485248,0.114679,0.076775,0.040358,-0.526017,0.033832,-0.849796,0.014191,0.040707,-0.032528,33.713821,-0.291027,-3.218872,,,,,,,
1523695763.660662,-0.551809,-0.029873,0.487822,0.160992,0.095160,-0.021429,-0.523992,0.029868,-0.851194,0.012029,0.021890,-0.044055,29.195129,-1.396938,-4.491699,,,,,,,
1523695763.690630,-0.549508,-0.027244,0.487816,0.001889,0.041663,-0.064115,-0.522071,0.027241,-0.852461,-0.025353,0.012142,-0.078737,27.538773,-2.214184,-4.189209,,,,,,,
1523695763.720599,-0.550360,-0.027254,0.485336,-0.038181,-0.089964,-0.069340,-0.522798,0.027251,-0.852016,-0.001067,-0.005598,0.026637,25.510147,-3.029308,-3.437012,,,,,,,
1523695763.750567,-0.553505,-0.028308,0.483872,-0.074942,-0.089429,0.019070,-0.525459,0.028304,-0.850343,-0.015388,0.009766,0.075471,24.834732,-4.149471,-1.632874,,,,,,,
1523695763.780535,-0.554574,-0.031324,0.484478,-0.046214,-0.012526,0.104255,-0.526320,0.031319,-0.849704,0.014876,-0.029717,0.070361,24.079544,-4.895687,-1.255249,,,,,,,
1523695763.810503,-0.554082,-0.032796,0.487730,0.042463,0.017964,0.119208,-0.525878,0.032791,-0.849923,0.037627,-0.026473,0.045815,25.806778,-5.576962,0.248352,,,,,,,
1523695763.840472,-0.554139,-0.031903,0.491196,0.110015,0.004440,0.053213,-0.525941,0.031897,-0.849917,0.041856,-0.029776,0.031069,27.235947,-5.882183,1.450317,,,,,,,
1523695763.870440,-0.553837,-0.029584,0.493093,0.071950,0.013500,-0.011829,-0.525722,0.029580,-0.850137,0.021022,-0.031121,0.008721,29.047119,-5.663830,2.950317,,,,,,,
1523695763.900409,-0.553016,-0.028223,0.492245,-0.010954,0.034254,-0.064115,-0.525045,0.028220,-0.850601,-0.025142,-0.036307,-0.020050,31.445236,-6.124172,3.403320,,,,,,,
1523695763.930376,-0.551929,-0.028101,0.489309,-0.070692,0.012277,-0.091837,-0.524121,0.028098,-0.851174,-0.039233,-0.030036,-0.041755,33.694397,-6.209301,3.404785,,,,,,,
1523695763.960346,-0.552856,-0.028004,0.485801,-0.056967,-0.020718,-0.089659,-0.524911,0.028000,-0.850691,-0.059332,0.008956,-0.028078,34.292862,-6.137371,3.029785,,,,,,,
1523695763.990313,-0.552885,-0.028193,0.483480,-0.057159,0.007562,-0.030024,-0.524933,0.028190,-0.850671,-0.054840,0.033074,-0.066321,37.040298,-7.502041,0.711670,,,,,,,
1523695764.020281,-0.552877,-0.030121,0.482747,-0.061921,-0.021591,0.038193,-0.524897,0.030117,-0.850627,-0.018133,0.079869,-0.049657,38.299805,-8.558529,-0.108459,,,,,,,
,,,,,,,,,,,,,,,,25.312157,51.444070,11.386349,9.180000,332.226562,1523695763.997482,
1523695764.050249,-0.553617,-0.031364,0.484601,0.027492,-0.017941,0.092595,-0.525507,0.031359,-0.850206,0.021509,0.044935,0.006593,39.760773,-10.892727,-2.723389,,,,,,,
1523695764.080248,-0.552998,-0.032556,0.487649,0.024440,0.030835,0.107467,-0.524960,0.032550,-0.850499,0.022412,-0.029270,0.013249,41.391663,-11.502239,-4.895142,,,,,,,
1523695764.110217,-0.553188,-0.031672,0.490981,0.159945,-0.058308,0.044780,-0.525137,0.031666,-0.850423,0.024893,-0.103123,0.042729,41.224701,-12.253048,-6.467224,,,,,,,
1523695764.140185,-0.554387,-0.027731,0.494112,0.143286,-0.017580,-0.000020,-0.526217,0.027727,-0.849892,-0.003492,-0.125445,0.038079,39.686646,-13.225857,-11.189148,,,,,,,
1523695764.170153,-0.554109,-0.026475,0.494169,-0.061385,0.016106,-0.033240,-0.525999,0.026472,-0.850068,-0.038866,-0.111753,-0.034637,38.847427,-13.074703,-13.815186,,,,,,,
1523695764.200121,-0.554872,-0.029586,0.490387,-0.235726,-0.070491,-0.048198,-0.526602,0.029581,-0.849592,-0.055506,-0.030634,-0.070666,33.724045,-12.756084,-18.243958,,,,,,,
1523695764.230090,-0.556880,-0.034817,0.485021,-0.269814,-0.043903,-0.039724,-0.528217,0.034809,-0.848390,-0.052899,0.079662,-0.073683,31.392197,-12.447231,-19.896301,,,,,,,
1523695764.260058,-0.558879,-0.040301,0.481474,-0.184891,-0.056398,0.044531,-0.529803,0.040290,-0.847158,-0.030851,0.137139,-0.034571,27.721405,-12.205425,-19.599121,,,,,,,
1523695764.290026,-0.559753,-0.043879,0.482899,0.010340,0.018982,0.137295,-0.530464,0.043865,-0.846566,-0.008874,0.103611,0.021844,25.618683,-13.020061,-18.696960,,,,,,,
1523695764.319994,-0.555786,-0.043808,0.488416,0.160494,0.175812,0.144716,-0.527103,0.043794,-0.848667,0.005313,-0.025270,-0.007229,24.486145,-15.037853,-16.589417,,,,,,,
1523695764.349963,-0.550067,-0.041196,0.493552,0.168189,0.118013,0.051008,-0.522298,0.041184,-0.851762,0.005437,-0.103302,-0.084670,24.705444,-15.788540,-16.286316,,,,,,,
1523695764.379931,-0.551496,-0.038255,0.495054,0.076665,-0.185908,-0.064902,-0.523576,0.038246,-0.851114,-0.010664,-0.089272,-0.091620,23.199417,-17.430035,-14.555603,,,,,,,
1523695764.409899,-0.560577,-0.036610,0.492507,-0.062453,-0.309577,-0.109630,-0.531316,0.036602,-0.846377,0.002080,-0.004162,0.050997,22.820251,-18.252651,-13.877441,,,,,,,
1523695764.439867,-0.566267,-0.038332,0.488133,-0.184619,-0.107747,-0.055591,-0.536088,0.038322,-0.843286,0.002412,0.042748,0.107690,23.197495,-18.478588,-13.126343,,,,,,,
1523695764.469836,-0.566745,-0.042072,0.485681,-0.118285,0.037973,0.048753,-0.536411,0.042059,-0.842902,0.003513,0.075296,0.086677,24.843613,-20.133892,-11.018921,,,,,,,
1523695764.499804,-0.564097,-0.044050,0.487229,0.052755,0.128709,0.082872,-0.534131,0.044035,-0.844248,0.008497,0.033174,-0.006353,26.121399,-20.214046,-10.417969,,,,,,,
1523695764.529772,-0.560573,-0.041508,0.491092,0.184223,0.109570,0.038235,-0.531211,0.041496,-0.846217,0.007453,-0.026207,-0.022161,29.115128,-20.977276,-10.188416,,,,,,,
1523695764.559740,-0.558029,-0.038828,0.492778,0.044461,0.050880,-0.029995,-0.529113,0.038818,-0.847657,-0.007386,-0.051483,-0.028777,29.333084,-21.503567,-10.486206,,,,,,,
1523695764.589709,-0.557909,-0.039451,0.490703,-0.105042,0.002601,-0.064146,-0.528999,0.039441,-0.847700,-0.038201,-0.039807,-0.042376,30.515030,-21.961132,-12.733765,,,,,,,
1523695764.619677,-0.559495,-0.041216,0.487028,-0.106430,-0.070674,-0.068345,-0.530305,0.041204,-0.846800,-0.048751,0.005884,-0.034014,31.183380,-21.590862,-14.459961,,,,,,,
1523695764.649645,-0.560657,-0.042270,0.484555,-0.042364,-0.031764,-0.034233,-0.531266,0.042257,-0.846145,-0.028717,0.039255,-0.035630,29.653870,-22.337658,-18.132629,,,,,,,
1523695764.679613,-0.562050,-0.041044,0.484722,0.078094,-0.023848,0.007398,-0.532470,0.041032,-0.845448,0.021026,0.067442,0.030201,28.896240,-22.335522,-19.408081,,,,,,,
1523695764.709582,-0.561064,-0.038731,0.486713,0.115813,0.052574,0.006284,-0.531686,0.038721,-0.846050,0.033929,0.030264,0.026608,25.811600,-21.948895,-21.661133,,,,,,,
1523695764.739550,-0.559100,-0.036149,0.487951,0.074544,0.093338,-0.032157,-0.530074,0.036141,-0.847175,0.017501,-0.013039,0.014152,22.888947,-21.486111,-22.039490,,,,,,,
1523695764.769518,-0.556961,-0.035467,0.486808,-0.020535,0.036424,-0.067320,-0.528274,0.035459,-0.848328,-0.023530,-0.047514,-0.046555,19.966751,-21.023266,-22.342773,,,,,,,
1523695764.799487,-0.558025,-0.035550,0.483964,-0.056177,-0.071758,-0.083224,-0.529174,0.035543,-0.847763,-0.022324,-0.027074,-0.005570,16.174881,-19.053967,-20.102539,,,,,,,
1523695764.829455,-0.559627,-0.036217,0.480919,-0.087114,-0.033618,-0.055583,-0.530519,0.036209,-0.846894,-0.014067,0.015275,0.027085,13.423096,-17.989483,-18.008118,,,,,,,
1523695764.859423,-0.560290,-0.036877,0.479065,-0.029513,0.005236,-0.010823,-0.531068,0.036868,-0.846521,0.001023,0.050122,0.027857,13.535919,-16.635952,-13.963562,,,,,,,
1523695764.889391,-0.559209,-0.037106,0.479199,-0.015463,0.086763,0.026397,-0.530149,0.037098,-0.847087,-0.008716,0.032177,-0.055653,15.726715,-16.044155,-12.314880,,,,,,,
1523695764.919360,-0.555666,-0.038776,0.479577,-0.049577,0.110162,0.035934,-0.527110,0.038766,-0.848907,-0.026967,-0.012719,-0.136704,19.049667,-15.007015,-10.217346,,,,,,,
1523695764.949328,-0.555776,-0.040228,0.479151,-0.024475,-0.060669,-0.009686,-0.527173,0.040217,-0.848800,-0.009784,-0.036952,-0.072983,20.330017,-14.562634,-10.068481,,,,,,,
1523695764.979296,-0.559192,-0.040384,0.478186,-0.022579,-0.137013,-0.031993,-0.530066,0.040373,-0.846989,-0.012689,-0.047590,0.044270,21.889786,-14.871670,-12.091431,,,,,,,
1523695765.009264,-0.561434,-0.041446,0.477209,-0.069291,-0.032011,0.010499,-0.531941,0.041434,-0.845761,-0.018825,-0.061378,0.085157,22.025681,-15.473629,-13.439026,,,,,,,
1523695765.039233,-0.559754,-0.044039,0.476876,-0.070018,0.089931,0.048728,-0.530460,0.044025,-0.846560,-0.012554,-0.083103,0.034671,20.578079,-16.069881,-16.212280,,,,,,,
,,,,,,,,,,,,,,,,25.312221,51.444029,11.427242,9.030000,332.226562,1523695764.997471,
1523695765.069231,-0.557943,-0.044433,0.477475,0.027134,0.029454,-0.000145,-0.528917,0.044418,-0.847505,-0.012495,-0.036285,-0.058974,18.468704,-16.511227,-17.036560,,,,,,,
1523695765.099200,-0.559217,-0.041577,0.477460,0.082647,-0.048857,-0.066086,-0.530062,0.041565,-0.846934,0.016451,0.021087,-0.073018,15.991867,-16.650158,-17.112244,,,,,,,
1523695765.129168,-0.561415,-0.038391,0.475804,0.012295,-0.079124,-0.117265,-0.531989,0.038382,-0.845875,-0.002404,0.099161,-0.031017,12.327576,-17.156033,-14.487122,,,,,,,
1523695765.159136,-0.563661,-0.036966,0.472460,-0.051797,-0.067399,-0.100273,-0.533917,0.036958,-0.844723,-0.004490,0.108153,0.029934,12.114594,-16.853588,-12.988403,,,,,,,
1523695765.189104,-0.563087,-0.039246,0.469874,-0.137260,0.054230,0.012481,-0.533386,0.039236,-0.844956,-0.038316,0.067316,0.019364,11.847351,-16.996670,-7.287964,,,,,,,
1523695765.219073,-0.561773,-0.042968,0.469949,-0.040610,0.022667,0.083980,-0.532193,0.042955,-0.845527,-0.023974,0.009840,-0.002175,14.110168,-16.929836,-5.262085,,,,,,,
1523695765.249041,-0.561285,-0.043804,0.472736,0.091873,0.024561,0.069163,-0.531761,0.043790,-0.845756,-0.007728,-0.047361,-0.007928,17.731659,-16.493282,-2.412048,,,,,,,
1523695765.279009,-0.561314,-0.042795,0.475036,0.051307,-0.022840,0.025487,-0.531809,0.042782,-0.845777,0.004145,-0.064282,-0.025240,19.687119,-16.576031,-1.360718,,,,,,,
1523695765.308978,-0.563164,-0.043375,0.475108,-0.075817,-0.053249,0.012637,-0.533359,0.043361,-0.844771,-0.010128,-0.038372,-0.009508,24.192017,-15.996456,-1.510803,,,,,,,
1523695765.338946,-0.563068,-0.047089,0.473053,-0.176874,0.024592,0.009289,-0.533188,0.047071,-0.844680,-0.035919,-0.012953,-0.089707,25.098114,-15.475384,-1.362427,,,,,,,
1523695765.368914,-0.563261,-0.048829,0.471348,0.007787,-0.034034,-0.030999,-0.533307,0.048810,-0.844507,-0.028903,-0.017758,-0.096961,27.275696,-14.586224,-2.414917,,,,,,,
1523695765.398882,-0.565373,-0.045595,0.471868,0.130395,-0.086301,-0.044715,-0.535172,0.045579,-0.843507,-0.008407,-0.036607,0.019212,28.318436,-14.367504,-3.990295,,,,,,,
1523695765.428851,-0.566016,-0.043446,0.472477,-0.008180,0.008327,-0.004418,-0.535765,0.043433,-0.843244,-0.005816,-0.049933,0.041471,27.263626,-13.764553,-5.793213,,,,,,,
1523695765.458819,-0.564628,-0.046344,0.470584,-0.171298,0.065020,-0.000333,-0.534524,0.046327,-0.843877,-0.010321,-0.039980,0.025304,26.814087,-13.313213,-6.470215,,,,,,,
1523695765.488787,-0.563008,-0.049670,0.467833,-0.098676,0.043731,-0.021564,-0.533072,0.049649,-0.844606,-0.007486,0.010654,-0.012068,25.533600,-13.233501,-7.521179,,,,,,,
1523695765.518755,-0.563712,-0.049507,0.467026,0.027864,-0.049134,-0.005401,-0.533671,0.049487,-0.844237,0.010859,0.051251,0.017532,24.248734,-13.453991,-8.795959,,,,,,,
1523695765.548724,-0.564526,-0.047590,0.468460,0.094173,0.008929,0.024430,-0.534407,0.047572,-0.843881,0.025100,0.029439,0.065286,24.846619,-13.756527,-8.644409,,,,,,,
1523695765.578692,-0.562482,-0.046903,0.470735,0.018555,0.094909,0.063714,-0.532698,0.046885,-0.845000,0.015196,-0.029734,0.048003,22.825287,-13.297588,-8.797302,,,,,,,
1523695765.608660,-0.559267,-0.049169,0.472059,-0.061463,0.112066,0.068971,-0.529921,0.049150,-0.846616,0.001570,-0.087937,-0.060306,20.577026,-13.436947,-8.272827,,,,,,,
1523695765.638623,-0.557842,-0.051348,0.472185,-0.044477,0.025297,0.011528,-0.528656,0.051326,-0.847277,-0.043945,-0.090739,-0.086622,18.942413,-12.977795,-6.475464,,,,,,,
1523695765.668592,-0.557695,-0.051145,0.471331,-0.009162,-0.015849,-0.041688,-0.528537,0.051123,-0.847364,-0.045330,-0.066168,-0.078830,19.105164,-12.377407,-5.352783,,,,,,,
1523695765.698560,-0.559469,-0.051136,0.469234,-0.095758,-0.059086,-0.057694,-0.530040,0.051114,-0.846425,-0.023518,0.000964,-0.003871,17.692245,-12.294170,-3.478821,,,,,,,
1523695765.728528,-0.559973,-0.053745,0.466203,-0.159656,0.031079,-0.012019,-0.530393,0.053719,-0.846042,-0.015856,0.056557,-0.008862,18.596848,-12.372341,-2.578125,,,,,,,
1523695765.758496,-0.558221,-0.057998,0.464123,-0.130939,0.055133,0.031672,-0.528785,0.057966,-0.846768,-0.003594,0.090258,-0.036105,21.314301,-11.932400,-0.403442,,,,,,,
1523695765.788465,-0.558192,-0.058717,0.465012,0.096060,-0.034709,0.034064,-0.528738,0.058684,-0.846748,0.018591,0.056108,0.024651,21.692459,-12.158199,0.497559,,,,,,,
1523695765.818433,-0.558401,-0.054248,0.469057,0.252132,0.002133,0.028813,-0.529049,0.054221,-0.846852,0.038662,-0.004661,0.069569,23.647308,-12.166164,1.323608,,,,,,,
1523695765.848401,-0.557862,-0.049405,0.473408,0.197807,0.021448,0.021295,-0.528725,0.049385,-0.847350,0.035057,-0.067497,0.058898,25.305359,-11.723034,1.922668,,,,,,,
1523695765.878369,-0.556966,-0.046663,0.475476,0.054950,0.030526,-0.010784,-0.528035,0.046646,-0.847935,0.001424,-0.105973,0.005070,24.106750,-11.492779,1.771179,,,,,,,
1523695765.908338,-0.556548,-0.048473,0.473366,-0.182176,-0.034512,-0.047122,-0.527635,0.048454,-0.848082,-0.039854,-0.052864,-0.114030,23.644913,-12.316311,1.174194,,,,,,,
1523695765.938306,-0.560913,-0.051469,0.468316,-0.160100,-0.164939,-0.093859,-0.531253,0.051447,-0.845644,-0.013257,0.007208,-0.049497,24.235626,-12.844631,0.501587,,,,,,,
1523695765.968274,-0.566150,-0.052498,0.464348,-0.096095,-0.134559,-0.055477,-0.535645,0.052474,-0.842806,-0.016372,0.083345,0.066087,24.073990,-14.867474,1.934631,,,,,,,
1523695765.998243,-0.566584,-0.053482,0.463681,-0.011524,0.035602,0.046699,-0.535983,0.053457,-0.842529,0.008136,0.076380,0.079620,25.799088,-15.399334,2.837646,,,,,,,
1523695766.028211,-0.562597,-0.053056,0.466700,0.123578,0.206071,0.084992,-0.532632,0.053032,-0.844678,0.001321,-0.023231,-0.002062,27.439743,-16.606258,3.293274,,,,,,,
,,,,,,,,,,,,,,,,25.312306,51.443992,11.394527,9.080000,332.929688,1523695765.997459,
1523695766.058210,-0.556419,-0.051344,0.470795,0.125740,0.181802,0.059448,-0.527450,0.051321,-0.848029,-0.015183,-0.087378,-0.107568,27.430923,-17.356441,3.071228,,,,,,,
