timestamp(unix),attitude_roll(radians),attitude_pitch(radians),attitude_yaw(radians),rotation_rate_x(radians/s),rotation_rate_y(radians/s),rotation_rate_z(radians/s),gravity_x(G),gravity_y(G),gravity_z(G),user_acc_x(G),user_acc_y(G),user_acc_z(G),magnetic_field_x(microteslas),magnetic_field_y(microteslas),magnetic_field_z(microteslas),latitude(degree),longitude(degree),altitude(meter),speed(m/s),course(degree),timestamp(unix),User Mark
1523694388.182810,0.812978,-0.026200,0.971063,0.113331,0.172578,-0.099325,0.726080,0.026197,-0.687095,0.020670,-0.035031,-0.040002,17.430328,6.273883,0.971619,,,,,,,
,,,,,,,,,,,,,,,,25.312606,51.443720,12.067300,13.420000,151.523438,1523694387.997378,
1523694388.212779,0.815295,-0.026325,0.967024,0.082636,0.024772,-0.073627,0.727668,0.026322,-0.685408,0.028726,-0.017777,-0.019944,17.007584,5.531558,6.749329,,,,,,,
1523694388.242747,0.816444,-0.024171,0.964814,0.132239,0.052412,0.059567,0.728494,0.024169,-0.684609,0.040183,0.013093,-0.069938,15.372818,5.167071,9.900024,,,,,,,
1523694388.272715,0.817101,-0.018561,0.963114,0.183042,0.010487,0.109731,0.729031,0.018559,-0.684213,0.044757,0.013774,-0.105705,8.038635,4.453891,13.724182,,,,,,,
1523694388.302683,0.815444,-0.014146,0.962429,0.045073,-0.100404,0.060729,0.727949,0.014146,-0.685469,0.007952,0.003661,-0.104219,3.845703,5.072909,13.869568,,,,,,,
1523694388.332652,0.813418,-0.015898,0.964216,-0.161023,0.003950,-0.048217,0.726539,0.015897,-0.686925,-0.059440,-0.028852,0.013631,-2.481522,4.872180,9.667297,,,,,,,
1523694388.362620,0.816654,-0.021367,0.966959,-0.180476,0.141345,-0.087788,0.728684,0.021366,-0.684500,-0.091142,-0.041629,0.091452,-4.608871,3.754046,6.970642,,,,,,,
1523694388.392588,0.816961,-0.025615,0.968022,-0.057789,-0.108693,-0.083193,0.728822,0.025613,-0.684208,-0.024781,-0.026803,-0.045376,-4.003448,-0.603009,2.638367,,,,,,,
1523694388.422549,0.811551,-0.025515,0.964749,0.165037,-0.169880,-0.074439,0.725112,0.025512,-0.688142,0.038560,-0.033767,-0.160628,-1.847870,-1.739041,1.294006,,,,,,,
1523694388.452487,0.807573,-0.022449,0.959412,0.191028,-0.056464,-0.044691,0.722421,0.022447,-0.691073,0.026251,-0.064515,-0.131590,-2.165558,-2.564191,-0.277893,,,,,,,
1523694388.482455,0.811207,-0.020762,0.957066,0.024416,0.243165,0.018811,0.724955,0.020761,-0.688468,-0.080729,-0.090493,0.087500,-2.020676,-2.715436,-0.877136,,,,,,,
1523694388.512424,0.819132,-0.020580,0.959646,-0.124568,0.193112,0.086947,0.730390,0.020579,-0.682703,-0.100782,-0.066492,0.152506,-1.560196,-1.892148,-0.505249,,,,,,,
1523694388.542392,0.819291,-0.022546,0.965640,-0.183504,-0.079900,0.096767,0.730468,0.022544,-0.682558,-0.102127,0.020730,0.056734,-0.884201,-1.745267,-0.580505,,,,,,,
1523694388.572360,0.816666,-0.023812,0.969026,-0.075418,-0.128387,0.004186,0.728652,0.023810,-0.684453,-0.011749,0.029184,-0.099849,0.919037,-1.603070,-0.280151,,,,,,,
1523694388.602328,0.811611,-0.026584,0.968262,-0.028918,-0.138291,-0.116169,0.725132,0.026581,-0.688080,0.064052,0.012268,-0.239822,0.993469,-2.651761,1.374084,,,,,,,
1523694388.632297,0.813318,-0.028169,0.964108,0.125161,0.153666,-0.133399,0.726274,0.028165,-0.686811,0.003859,-0.070142,-0.072512,-0.813904,-3.618237,1.752075,,,,,,,
1523694388.662265,0.818305,-0.027093,0.959167,0.144050,0.196459,-0.031130,0.729712,0.027089,-0.683201,-0.064704,-0.067739,0.100330,-4.438339,-5.253278,0.406738,,,,,,,
1523694388.692233,0.821710,-0.024016,0.958672,0.012040,-0.041082,0.099002,0.732092,0.024014,-0.680766,-0.051672,-0.030331,0.025645,-4.822617,-5.552594,-0.642273,,,,,,,
1523694388.722201,0.816039,-0.023551,0.962433,-0.142304,-0.204138,0.071341,0.728227,0.023549,-0.684914,0.032484,0.007228,-0.167182,-3.780670,-4.510373,-3.720886,,,,,,,
1523694388.752170,0.813470,-0.025561,0.966688,-0.108075,0.003196,0.038145,0.726429,0.025559,-0.686749,0.004177,-0.033386,-0.164935,-2.796906,-3.315320,-4.250183,,,,,,,
1523694388.782138,0.817139,-0.025598,0.967948,0.004936,0.201690,0.031618,0.728944,0.025595,-0.684078,-0.063203,-0.059592,0.022884,-0.874207,0.203113,-2.163269,,,,,,,
1523694388.812106,0.824070,-0.023149,0.967660,0.102171,0.231101,0.044456,0.733711,0.023147,-0.679050,-0.130440,-0.010681,0.164798,0.128052,1.850390,-0.369385,,,,,,,
1523694388.842075,0.827713,-0.020724,0.966588,0.038354,0.007293,0.009473,0.736219,0.020723,-0.676408,-0.122663,-0.006730,0.161394,-0.359756,3.955279,2.321960,,,,,,,
1523694388.872043,0.824097,-0.021239,0.967215,-0.061776,-0.186864,0.002135,0.733761,0.021238,-0.679059,-0.066662,0.008791,-0.023471,-3.624878,6.821017,3.358826,,,,,,,
1523694388.902011,0.816880,-0.023786,0.968492,-0.117064,-0.215982,-0.068205,0.728800,0.023784,-0.684297,0.102682,0.001958,-0.238280,-4.527100,6.824695,2.983398,,,,,,,
1523694388.931979,0.816288,-0.024393,0.967508,0.155209,0.139686,0.030731,0.728383,0.024390,-0.684719,0.067576,0.005639,-0.220631,-5.310028,4.651355,1.116699,,,,,,,
1523694388.961917,0.823547,-0.016339,0.961754,0.380840,0.292720,0.097883,0.733455,0.016338,-0.679525,-0.048869,-0.018017,0.021520,-7.645264,3.761645,0.894104,,,,,,,
1523694388.991885,0.832361,-0.007550,0.957449,0.203371,0.271763,0.121199,0.739493,0.007549,-0.673104,-0.119117,-0.027966,0.178781,-9.460480,3.093387,-0.529114,,,,,,,
1523694389.021854,0.837675,-0.006258,0.960193,-0.223081,0.065156,0.032665,0.743066,0.006258,-0.669171,-0.172509,-0.043932,0.159970,-9.611877,4.216968,-2.633728,,,,,,,
1523694389.051822,0.834449,-0.015863,0.968521,-0.501191,-0.197823,-0.097277,0.740825,0.015862,-0.671493,-0.117793,-0.037271,-0.017304,-6.077499,6.598651,-5.041443,,,,,,,
,,,,,,,,,,,,,,,,25.312497,51.443773,12.133854,13.520000,151.875000,1523694388.997357,
1523694389.081790,0.829602,-0.028140,0.975730,-0.352897,-0.057482,-0.160178,0.737362,0.028136,-0.674894,0.015476,0.030946,-0.261141,-3.300217,6.736300,-4.890625,,,,,,,
1523694389.111758,0.832307,-0.031656,0.973162,0.239017,0.092650,-0.110872,0.739107,0.031650,-0.672826,-0.063753,-0.052036,-0.079997,-1.418686,6.579181,-3.539062,,,,,,,
1523694389.141727,0.833577,-0.023580,0.962072,0.541510,0.024367,-0.028525,0.740126,0.023578,-0.672037,-0.040190,-0.065448,-0.043478,-1.879745,5.830661,-4.136292,,,,,,,
1523694389.171695,0.831739,-0.016796,0.951388,0.259550,-0.057462,-0.079792,0.738991,0.016795,-0.673488,-0.015465,-0.098247,-0.028401,-0.694046,5.074206,-5.257690,,,,,,,
1523694389.201663,0.834440,-0.016585,0.950744,-0.131998,0.167873,0.053924,0.740810,0.016584,-0.671492,-0.004558,-0.074842,-0.022783,0.327469,2.444247,-5.621643,,,,,,,
1523694389.231631,0.838140,-0.018539,0.958841,-0.296523,0.053676,0.181789,0.743264,0.018538,-0.668724,-0.022988,-0.004255,-0.057213,0.233749,0.569674,-5.614197,,,,,,,
1523694389.261600,0.839587,-0.019903,0.967773,-0.202272,0.044335,0.116870,0.744211,0.019902,-0.667630,-0.073663,0.042186,-0.020312,1.176285,-3.183728,-4.773743,,,,,,,
1523694389.291568,0.838148,-0.020430,0.971098,-0.041109,-0.081820,0.018020,0.743242,0.020429,-0.668693,-0.150941,0.038912,-0.043251,2.515182,-4.838849,-3.866394,,,,,,,
1523694389.321536,0.837830,-0.021401,0.969820,0.016808,0.060290,-0.114205,0.743014,0.021400,-0.668916,-0.095446,-0.050376,0.003358,1.780228,-4.907910,-1.241516,,,,,,,
1523694389.351504,0.839059,-0.026734,0.967728,-0.130188,0.027295,-0.206976,0.743740,0.026731,-0.667917,-0.005688,-0.070798,-0.071890,0.293350,-4.449796,0.180908,,,,,,,
1523694389.381473,0.840673,-0.033365,0.966396,-0.041587,0.116838,-0.127088,0.744669,0.033358,-0.666582,0.051031,-0.025622,-0.162001,-2.471832,-3.013104,-0.576233,,,,,,,
1523694389.411441,0.842778,-0.029634,0.962652,0.296338,0.027251,0.102346,0.746158,0.029629,-0.665092,0.025342,-0.002728,-0.101723,-4.726410,-2.704236,-1.853577,,,,,,,
1523694389.441342,0.842188,-0.020285,0.958833,0.242411,-0.032485,0.154576,0.745939,0.020284,-0.665687,-0.024122,-0.010290,-0.002144,-4.061859,-1.136594,-6.209534,,,,,,,
1523694389.471310,0.842002,-0.015999,0.960315,-0.075339,-0.002632,0.101035,0.745874,0.015998,-0.665877,-0.090814,-0.009559,0.006392,-1.963470,-0.622159,-7.335510,,,,,,,
1523694389.501278,0.840483,-0.020586,0.965968,-0.325642,-0.040284,-0.047224,0.744799,0.020585,-0.666954,-0.031725,-0.006257,-0.100289,-0.022079,-1.306195,-7.631836,,,,,,,
1523694389.531247,0.841640,-0.026981,0.971462,-0.179079,0.061136,-0.015250,0.745456,0.026977,-0.665991,-0.006626,0.019135,-0.151865,1.930405,-1.464307,-6.955200,,,,,,,
1523694389.561215,0.841329,-0.025235,0.969832,0.233312,-0.064521,0.028868,0.745283,0.025232,-0.666253,-0.009367,-0.007120,-0.142036,2.538162,-1.091367,-6.281433,,,,,,,
1523694389.591183,0.840057,-0.018621,0.963222,0.319327,0.049084,0.011769,0.744544,0.018620,-0.667297,-0.054266,-0.054509,-0.017472,1.884155,0.562320,-5.538330,,,,,,,
1523694389.621151,0.842769,-0.014426,0.958569,0.083745,0.119880,0.000866,0.746402,0.014426,-0.665321,-0.102619,-0.067633,0.099525,0.691101,1.167834,-5.391357,,,,,,,
1523694389.651120,0.846857,-0.018520,0.961966,-0.351538,0.136175,-0.047421,0.749065,0.018519,-0.662220,-0.092464,-0.052409,0.112980,-0.956451,1.550021,-5.618713,,,,,,,
1523694389.681088,0.848763,-0.027826,0.970725,-0.386603,-0.036058,-0.022762,0.750164,0.027822,-0.660648,-0.063122,0.024088,-0.035030,-1.571259,0.427203,-6.214539,,,,,,,
1523694389.711056,0.843851,-0.030263,0.974390,0.037236,-0.223384,0.023552,0.746857,0.030259,-0.664278,0.018371,0.066741,-0.199476,-0.035110,-2.656049,-7.551392,,,,,,,
1523694389.741024,0.838444,-0.026324,0.969700,0.276205,-0.112961,-0.048836,0.743337,0.026321,-0.668381,0.043192,0.027527,-0.266555,1.983673,-3.414914,-7.322388,,,,,,,
1523694389.770993,0.838479,-0.022529,0.960866,0.300917,0.076614,-0.119332,0.743429,0.022527,-0.668417,0.044641,-0.061895,-0.183267,2.288330,-3.715009,-6.046021,,,,,,,
1523694389.800961,0.843225,-0.018862,0.954430,0.178096,0.236349,0.026395,0.746650,0.018860,-0.664932,-0.070426,-0.110795,0.060470,2.374435,-3.414044,-4.697205,,,,,,,
1523694389.830929,0.850485,-0.015596,0.955756,-0.077137,0.153094,0.170134,0.751500,0.015595,-0.659531,-0.093449,-0.062088,0.137604,2.235397,-3.037213,-3.498779,,,,,,,
1523694389.860897,0.848119,-0.015323,0.964346,-0.270868,-0.166408,0.190554,0.749940,0.015323,-0.661310,-0.099855,0.072064,-0.004584,0.054977,-4.301206,-2.294800,,,,,,,
1523694389.890866,0.844839,-0.017974,0.972140,-0.220462,-0.076088,0.021082,0.747734,0.017973,-0.663737,-0.096886,0.076372,-0.066503,0.274872,-4.677411,-2.518188,,,,,,,
1523694389.920834,0.843574,-0.023700,0.973251,-0.102536,-0.001422,-0.212258,0.746805,0.023697,-0.664603,-0.053903,-0.002045,-0.057580,0.334610,-6.027982,-2.812744,,,,,,,
1523694389.950772,0.843522,-0.030216,0.967820,0.081554,-0.022401,-0.316522,0.746639,0.030211,-0.664525,0.025516,-0.064055,-0.085841,0.701950,-6.704770,-2.959900,,,,,,,
1523694389.980740,0.842903,-0.031684,0.958072,0.302064,0.009107,-0.191715,0.746194,0.031679,-0.664956,-0.030450,-0.085710,-0.063239,2.272354,-6.487973,-4.084961,,,,,,,
1523694390.010708,0.841415,-0.026066,0.949818,0.307944,-0.081734,0.033199,0.745325,0.026063,-0.666175,-0.050516,-0.130616,0.002280,3.849533,-6.045438,-4.460938,,,,,,,
1523694390.040676,0.838027,-0.021455,0.949161,-0.070615,-0.100624,0.133099,0.743145,0.021453,-0.668769,-0.050762,-0.114578,-0.026528,4.919846,-4.324735,-3.942261,,,,,,,
,,,,,,,,,,,,,,,,25.312397,51.443827,12.128855,13.180000,152.226562,1523694389.997336,
1523694390.070645,0.836169,-0.024038,0.957495,-0.376571,-0.032698,0.101901,0.741857,0.024036,-0.670110,-0.073995,-0.067843,-0.085353,5.005951,-3.799161,-2.969360,,,,,,,
1523694390.100613,0.836610,-0.029605,0.967365,-0.339700,0.054560,0.069882,0.742042,0.029600,-0.669682,-0.068672,0.004534,-0.113979,4.719345,-3.945386,-0.493896,,,,,,,
1523694390.130581,0.839134,-0.031839,0.972284,-0.036192,0.052093,0.011503,0.743679,0.031833,-0.667761,-0.039852,0.054257,-0.115335,4.050095,-4.315808,1.082275,,,,,,,
1523694390.160550,0.839098,-0.030377,0.969076,0.180801,0.011790,-0.074612,0.743689,0.030372,-0.667818,-0.024252,0.019768,-0.107176,3.232773,-4.086225,1.980896,,,,,,,
1523694390.190518,0.840986,-0.028913,0.962598,0.169711,0.111958,-0.112009,0.744981,0.028909,-0.666441,-0.052735,-0.061410,-0.023164,0.778091,-2.050183,1.971558,,,,,,,
1523694390.220486,0.844298,-0.028905,0.959929,-0.020649,0.162729,-0.009918,0.747184,0.028901,-0.663971,-0.093787,-0.083970,0.071564,-0.490601,-1.144940,1.517273,,,,,,,
1523694390.250454,0.848195,-0.030529,0.963546,-0.190245,0.061572,0.078506,0.749729,0.030524,-0.661022,-0.074146,-0.013129,0.033748,-0.782074,0.430179,0.310913,,,,,,,
1523694390.280423,0.846113,-0.031619,0.969656,-0.119819,-0.138653,0.118185,0.748326,0.031614,-0.662559,-0.017979,0.064395,-0.128426,-2.731873,0.588717,0.084229,,,,,,,
1523694390.310391,0.841793,-0.029394,0.971724,0.082371,-0.117480,0.058640,0.745507,0.029389,-0.665831,0.036841,0.072356,-0.226289,-1.907944,1.108966,-0.967407,,,,,,,
1523694390.340359,0.840922,-0.026512,0.967321,0.212003,0.051110,-0.086348,0.744987,0.026508,-0.666534,-0.006126,-0.051228,-0.117555,-2.128311,1.709720,-1.194885,,,,,,,
1523694390.370327,0.843586,-0.025338,0.960445,0.168610,0.106631,-0.109872,0.746783,0.025335,-0.664567,-0.069934,-0.120367,0.022324,-1.292389,1.857532,0.379883,,,,,,,
1523694390.400296,0.845071,-0.024060,0.958017,0.022092,0.012316,0.058459,0.747793,0.024057,-0.663478,-0.042196,-0.090479,0.023494,-2.342041,1.487933,1.055847,,,,,,,
1523694390.430279,0.845593,-0.021027,0.962113,-0.069394,0.038982,0.225666,0.748190,0.021026,-0.663133,-0.098837,-0.004745,0.030610,-6.020615,1.578738,0.303650,,,,,,,
1523694390.460217,0.844889,-0.018982,0.968683,-0.169924,-0.083502,0.151123,0.747754,0.018981,-0.663686,-0.085660,0.053788,-0.003687,-9.253479,1.966327,-1.649536,,,,,,,
1523694390.490185,0.843395,-0.023149,0.974796,-0.276182,0.021287,-0.057894,0.746696,0.023147,-0.664745,-0.067817,0.068039,-0.064931,-10.016785,4.513309,-8.110107,,,,,,,
1523694390.520153,0.844691,-0.029870,0.975776,-0.065185,0.022727,-0.185607,0.747424,0.029866,-0.663658,-0.048739,-0.002445,-0.052238,-6.211777,4.717517,-11.783997,,,,,,,
1523694390.550121,0.843916,-0.032187,0.970189,0.190511,-0.046218,-0.141666,0.746855,0.032182,-0.664190,0.005266,-0.036393,-0.113307,-1.939835,5.221942,-13.133911,,,,,,,
1523694390.580090,0.842823,-0.028102,0.962113,0.336306,0.005616,-0.007360,0.746221,0.028098,-0.665087,0.018687,-0.069510,-0.134275,8.715363,3.527682,-9.446777,,,,,,,
1523694390.610058,0.841756,-0.019401,0.956433,0.286027,-0.045480,0.173801,0.745665,0.019400,-0.666021,-0.005415,-0.090018,-0.090632,10.605179,3.072406,-6.218994,,,,,,,
1523694390.640026,0.841254,-0.012742,0.959057,-0.091855,0.036852,0.233117,0.745411,0.012741,-0.666466,-0.077808,-0.025314,0.024071,4.097183,1.756717,-1.191956,,,,,,,
1523694390.669994,0.843097,-0.014007,0.968942,-0.364691,0.043482,0.143395,0.746624,0.014006,-0.665081,-0.106808,0.045183,0.008007,0.419647,1.323565,-0.892090,,,,,,,
1523694390.699963,0.842577,-0.018708,0.978087,-0.266299,-0.038922,0.040194,0.746221,0.018707,-0.665417,-0.061407,0.105866,-0.109317,-1.486496,0.503314,-4.714783,,,,,,,
1523694390.729931,0.842250,-0.020615,0.979987,0.047244,0.011963,-0.053392,0.745976,0.020614,-0.665636,-0.037846,0.052461,-0.122175,-1.134445,-0.625211,-6.660095,,,,,,,
1523694390.759899,0.840832,-0.020118,0.974054,0.206569,-0.038816,-0.142724,0.745039,0.020117,-0.666700,0.025331,-0.024054,-0.149859,3.348572,-1.247190,-8.455383,,,,,,,
1523694390.789867,0.842518,-0.019802,0.966259,0.183854,0.119641,-0.153552,0.746167,0.019801,-0.665447,-0.052227,-0.106120,-0.037266,6.798584,-2.011426,-7.175537,,,,,,,
1523694390.819836,0.846764,-0.020146,0.961867,0.023509,0.193740,-0.054661,0.748980,0.020144,-0.662269,-0.089632,-0.117389,0.096641,7.638504,-3.809720,-1.692993,,,,,,,
1523694390.849804,0.850950,-0.021361,0.964590,-0.150893,0.048606,0.095594,0.751726,0.021359,-0.659111,-0.095263,-0.045346,0.061516,5.391190,-4.847440,0.485046,,,,,,,
1523694390.879772,0.848419,-0.020156,0.970417,-0.078418,-0.146486,0.158720,0.750075,0.020155,-0.661028,-0.056136,0.027132,-0.019987,2.544647,-5.358197,1.910645,,,,,,,
1523694390.909741,0.843128,-0.018266,0.973989,-0.047167,-0.176789,0.075657,0.746594,0.018265,-0.665012,-0.000546,0.051193,-0.159466,-3.093781,-5.484860,-0.116638,,,,,,,
1523694390.939678,0.843463,-0.019013,0.975321,-0.046241,0.135337,-0.036536,0.746807,0.019012,-0.664752,-0.054470,-0.001297,-0.077573,-4.154709,-5.407025,-2.067505,,,,,,,
1523694390.969647,0.845931,-0.021479,0.975462,-0.078586,0.035723,-0.063101,0.748407,0.021477,-0.662874,-0.066965,-0.062630,-0.014174,-2.889236,-5.414304,-3.641846,,,,,,,
1523694390.999615,0.845178,-0.022925,0.975897,0.026221,-0.082978,0.006359,0.747884,0.022923,-0.663416,0.000575,-0.018727,-0.099707,-1.766083,-5.419660,-3.941223,,,,,,,
1523694391.029583,0.841003,-0.018755,0.974190,0.185940,-0.113501,0.060843,0.745173,0.018754,-0.666590,-0.049479,0.022567,-0.096258,0.490372,-4.455335,-4.468994,,,,,,,
1523694391.059551,0.840410,-0.015475,0.971845,0.065063,0.005152,0.003097,0.744819,0.015474,-0.667069,-0.075660,-0.039095,-0.055129,1.023148,-3.408185,-4.922852,,,,,,,
,,,,,,,,,,,,,,,,25.312291,51.443898,12.062112,13.370000,151.875000,1523694390.997315,
1523694391.089520,0.839806,-0.015784,0.973090,-0.096285,0.002183,0.027495,0.744413,0.015784,-0.667516,-0.059552,-0.053534,-0.070765,4.040833,-1.996167,-4.327026,,,,,,,
1523694391.119488,0.841177,-0.017147,0.976571,-0.100179,0.098820,0.038048,0.745310,0.017146,-0.666480,-0.064981,0.009053,-0.045907,5.175262,-1.999692,-2.751404,,,,,,,
1523694391.149457,0.844092,-0.017566,0.977574,0.014230,0.074480,-0.016188,0.747244,0.017565,-0.664300,-0.082892,0.028974,-0.035087,3.562698,-1.087720,1.969116,,,,,,,
1523694391.179424,0.844692,-0.017104,0.974942,0.090079,0.019434,-0.072551,0.747648,0.017103,-0.663857,-0.050184,0.006503,-0.032676,1.702606,-0.402997,3.315491,,,,,,,
1523694391.209394,0.844174,-0.016923,0.971088,0.089834,-0.040043,-0.076753,0.747307,0.016922,-0.664246,-0.049568,-0.061737,-0.039948,-0.840561,0.508060,2.935547,,,,,,,
1523694391.239361,0.843073,-0.017626,0.969451,-0.029786,0.015110,-0.020421,0.746566,0.017625,-0.665060,-0.083999,-0.088807,-0.002222,-4.140915,1.870578,0.603455,,,,,,,
1523694391.269329,0.844044,-0.019661,0.971559,-0.131451,0.010834,0.019994,0.747183,0.019660,-0.664310,-0.080817,-0.056311,-0.007794,-4.604126,1.945331,-1.722107,,,,,,,
1523694391.299297,0.841430,-0.020953,0.973952,-0.044429,-0.104163,0.022307,0.745424,0.020952,-0.666243,-0.050738,-0.014940,-0.069063,-2.668793,2.458331,-5.023193,,,,,,,
1523694391.329266,0.838995,-0.020367,0.972616,0.085186,-0.107096,-0.060700,0.743809,0.020366,-0.668064,-0.064869,-0.023662,-0.105511,-1.541458,2.828021,-5.249146,,,,,,,
1523694391.359234,0.836266,-0.022433,0.969499,-0.024933,-0.036935,-0.176997,0.741950,0.022431,-0.670062,-0.024497,-0.090485,-0.112729,1.396713,4.464282,-5.779175,,,,,,,
1523694391.389202,0.836341,-0.026855,0.968012,-0.064382,0.074129,-0.090828,0.741920,0.026852,-0.669933,-0.073814,-0.133465,-0.036961,2.392487,6.185397,-5.185608,,,,,,,
1523694391.419114,0.837563,-0.027078,0.969447,-0.023185,-0.035730,0.104307,0.742733,0.027075,-0.669022,-0.009076,-0.048712,-0.077514,3.613266,7.905490,-4.591797,,,,,,,
1523694391.449082,0.835649,-0.021509,0.971985,0.127683,-0.055028,0.228033,0.741552,0.021508,-0.670533,-0.024663,0.051826,-0.148848,4.970108,8.050281,-3.691772,,,,,,,
1523694391.479050,0.833225,-0.014213,0.972726,0.105981,-0.024446,0.117173,0.740020,0.014212,-0.672417,-0.052185,0.066904,-0.087989,6.776978,7.519183,-1.663696,,,,,,,
1523694391.509019,0.836580,-0.014633,0.973007,-0.092953,0.156941,-0.069627,0.742268,0.014632,-0.669926,-0.118016,-0.019241,-0.025127,4.829620,6.929370,-0.237305,,,,,,,
1523694391.538987,0.838952,-0.018921,0.973484,-0.089134,0.022175,-0.098253,0.743801,0.018920,-0.668115,-0.095181,-0.071456,-0.000494,3.028244,6.113605,0.890015,,,,,,,
1523694391.568955,0.837434,-0.021273,0.972885,0.028647,-0.058294,-0.028829,0.742751,0.021271,-0.669212,-0.077193,-0.022049,-0.076317,0.609055,3.650393,1.798706,,,,,,,
1523694391.598924,0.837025,-0.019280,0.969760,0.154989,0.041135,-0.009650,0.742508,0.019279,-0.669542,-0.108322,-0.043174,-0.002928,-1.948471,2.537509,2.401855,,,,,,,
1523694391.628892,0.836726,-0.017861,0.966620,0.023491,-0.043245,-0.051227,0.742327,0.017860,-0.669782,-0.084292,-0.057853,0.008451,-7.302612,0.834582,0.380981,,,,,,,
1523694391.658860,0.834067,-0.021248,0.966203,-0.096311,-0.124561,-0.080007,0.740494,0.021246,-0.671710,-0.006089,-0.072348,-0.138502,-8.965744,0.914737,-1.945129,,,,,,,
1523694391.688828,0.832749,-0.024148,0.966592,-0.051885,0.057840,-0.044986,0.739560,0.024146,-0.672641,-0.006970,-0.090293,-0.151853,-12.831757,0.775531,-8.546570,,,,,,,
1523694391.718797,0.835973,-0.024019,0.966369,0.037622,0.117591,0.040261,0.741727,0.024017,-0.670255,-0.085385,-0.084075,-0.010501,-10.011490,0.458423,-12.968872,,,,,,,
1523694391.748765,0.836489,-0.020895,0.967351,0.021456,-0.069889,0.111827,0.742124,0.020893,-0.669919,-0.085783,-0.035633,0.016156,-2.014297,0.193240,-17.163818,,,,,,,
1523694391.778733,0.833277,-0.018722,0.969473,-0.022155,-0.080134,0.072384,0.740001,0.018721,-0.672328,-0.074931,0.038514,-0.087865,1.810837,0.700198,-17.988953,,,,,,,
1523694391.808702,0.833507,-0.019410,0.970930,-0.098897,0.062132,-0.034369,0.740145,0.019408,-0.672149,-0.055438,-0.031066,-0.086793,7.694000,3.075305,-16.420532,,,,,,,
1523694391.838670,0.833806,-0.023154,0.973387,-0.142804,0.033553,-0.034375,0.740287,0.023152,-0.671874,-0.030998,-0.015126,-0.086549,10.782379,3.288272,-14.544800,,,,,,,
1523694391.868639,0.834507,-0.024567,0.974073,0.042608,-0.010690,-0.003294,0.740733,0.024565,-0.671333,-0.012614,0.006884,-0.096108,9.749985,3.745090,-12.372192,,,,,,,
1523694391.898607,0.833510,-0.021615,0.971005,0.193054,-0.024901,0.001087,0.740114,0.021613,-0.672116,-0.030809,0.027276,-0.082629,7.205383,2.709170,-9.744324,,,,,,,
1523694391.928545,0.832193,-0.018010,0.967010,0.137391,-0.057719,0.002151,0.739281,0.018009,-0.673139,-0.059120,-0.030552,-0.117404,6.598206,2.261462,-10.192749,,,,,,,
1523694391.958513,0.831380,-0.017463,0.966517,-0.055243,0.057651,-0.016222,0.738741,0.017462,-0.673746,-0.052095,-0.062353,-0.096777,5.604950,1.738757,-12.366211,,,,,,,
1523694391.988480,0.834842,-0.020507,0.969504,-0.175648,0.130098,-0.000403,0.741025,0.020505,-0.671146,-0.093183,-0.073026,-0.049115,8.591492,0.525088,-12.584839,,,,,,,
1523694392.018450,0.838330,-0.023415,0.973735,-0.141757,0.109563,0.035876,0.743314,0.023413,-0.668514,-0.062559,-0.014136,-0.054264,13.073746,-3.241757,-9.267517,,,,,,,
1523694392.048417,0.839098,-0.022222,0.975128,0.088086,-0.019839,0.072404,0.743848,0.022220,-0.667961,-0.019208,0.052014,-0.086158,13.071869,-5.188825,-6.334778,,,,,,,
,,,,,,,,,,,,,,,,25.312190,51.443957,11.980788,12.920000,151.523438,1523694391.997294,
1523694392.078385,0.838889,-0.016947,0.972707,0.189973,0.050224,0.045774,0.743785,0.016946,-0.668186,-0.074642,0.035956,-0.036847,11.948059,-7.504697,-2.276001,,,,,,,
1523694392.108353,0.839995,-0.015668,0.970430,-0.026345,0.028066,-0.052388,0.744539,0.015668,-0.667377,-0.076112,-0.038327,0.000247,10.078415,-7.869794,-0.775513,,,,,,,
1523694392.138322,0.841933,-0.020178,0.972765,-0.208686,0.086933,-0.047261,0.745771,0.020177,-0.665878,-0.071516,-0.049565,-0.001282,6.271576,-7.175778,1.094849,,,,,,,
1523694392.168290,0.841992,-0.023670,0.976372,-0.095449,-0.041442,0.035002,0.745753,0.023668,-0.665784,-0.053034,0.002226,-0.056430,4.714600,-5.593411,1.462708,,,,,,,
1523694392.198258,0.839293,-0.021238,0.976748,0.129398,-0.090077,0.073567,0.743994,0.021236,-0.667830,0.030618,0.057881,-0.211976,3.907593,-3.789792,1.455139,,,,,,,
1523694392.228226,0.836615,-0.016612,0.973091,0.214158,-0.080247,0.004367,0.742268,0.016611,-0.669879,0.001750,-0.006891,-0.197309,1.318619,-0.627408,2.191162,,,,,,,
1523694392.258195,0.835772,-0.013365,0.968521,0.139865,-0.004459,-0.017081,0.741739,0.013365,-0.670537,-0.055765,-0.110670,-0.039027,0.356094,0.576999,2.260803,,,,,,,
1523694392.288163,0.836775,-0.013673,0.968473,-0.119313,0.088385,0.015679,0.742408,0.013673,-0.669790,-0.108238,-0.092378,0.024343,-3.074158,2.242953,2.777466,,,,,,,
1523694392.318131,0.838459,-0.016681,0.973531,-0.215965,0.005525,0.048709,0.743501,0.016681,-0.668508,-0.090425,-0.012622,-0.037272,-4.281281,1.573306,2.704529,,,,,,,
1523694392.348100,0.837550,-0.018895,0.978030,-0.100629,0.001018,0.042418,0.742863,0.018894,-0.669158,-0.055653,0.073132,-0.129686,-4.605209,-0.825223,2.713989,,,,,,,
1523694392.378068,0.837843,-0.018082,0.977320,0.098392,0.014850,-0.029909,0.743071,0.018081,-0.668950,-0.077025,0.023895,-0.076534,-5.148010,-2.473004,2.495300,,,,,,,
1523694392.408006,0.837840,-0.017655,0.973118,0.090128,-0.003758,-0.100225,0.743074,0.017655,-0.668957,-0.039858,-0.073761,-0.071140,-5.917282,-4.269757,2.277039,,,,,,,
1523694392.437971,0.839742,-0.019261,0.970060,0.012679,0.138612,-0.070588,0.744323,0.019259,-0.667523,-0.043685,-0.128894,-0.039569,-5.775055,-5.319943,2.731323,,,,,,,
1523694392.467939,0.844285,-0.019578,0.970601,-0.043518,0.142080,0.061489,0.747344,0.019577,-0.664130,-0.068373,-0.099487,-0.011926,-7.144318,-7.113996,2.512878,,,,,,,
1523694392.497907,0.843739,-0.018249,0.974438,-0.072891,-0.109277,0.154424,0.747000,0.018248,-0.664554,-0.041342,0.041749,-0.079586,-6.102127,-7.494367,1.839905,,,,,,,
1523694392.527876,0.839825,-0.015911,0.977613,-0.022269,-0.098244,0.078796,0.744423,0.015910,-0.667500,-0.082329,0.041677,-0.085674,-5.352325,-7.422879,1.690002,,,,,,,
1523694392.557844,0.837879,-0.016790,0.977650,-0.044813,-0.068418,-0.075749,0.743112,0.016789,-0.668938,-0.112710,-0.036000,-0.071083,-5.406372,-5.322644,1.681580,,,,,,,
1523694392.587812,0.835733,-0.021146,0.976912,-0.091201,-0.000965,-0.131262,0.741613,0.021145,-0.670475,-0.094335,-0.107937,-0.019817,-5.093689,-4.049054,1.676636,,,,,,,
1523694392.617780,0.836861,-0.024973,0.976915,-0.076506,0.039835,-0.046044,0.742303,0.024971,-0.669580,-0.038568,-0.071952,-0.057471,-3.053787,-2.782865,2.047607,,,,,,,
1523694392.647749,0.836457,-0.025049,0.977490,0.016537,-0.037646,0.060651,0.742031,0.025047,-0.669878,-0.002148,0.013177,-0.142942,-2.668594,-2.483411,3.246582,,,,,,,
1523694392.677717,0.836015,-0.021428,0.977904,0.079722,0.045910,0.094706,0.741798,0.021426,-0.670263,-0.015342,0.030865,-0.119105,-2.265396,-1.507154,6.317871,,,,,,,
1523694392.707685,0.837103,-0.019100,0.977339,0.045810,0.022052,0.024376,0.742561,0.019099,-0.669487,-0.022255,0.006673,-0.107262,-2.997406,0.071521,6.686218,,,,,,,
1523694392.737653,0.839426,-0.017799,0.976467,0.056929,0.112353,0.021110,0.744132,0.017798,-0.667776,-0.072944,-0.030890,0.020132,-9.349686,2.125461,7.049805,,,,,,,
1523694392.767622,0.841288,-0.016367,0.976603,-0.005520,0.023096,0.043526,0.745393,0.016366,-0.666405,-0.076463,0.013099,0.042931,-12.128372,2.886096,5.170410,,,,,,,
1523694392.797590,0.840657,-0.017383,0.978306,-0.079172,-0.021046,0.000890,0.744959,0.017382,-0.666865,-0.034449,0.066663,-0.036352,-13.579514,4.236011,-1.435791,,,,,,,
1523694392.827558,0.839534,-0.017784,0.978073,0.050183,-0.040175,-0.045871,0.744205,0.017783,-0.667696,-0.041934,0.044656,-0.053801,-13.079178,4.604037,-6.161987,,,,,,,
1523694392.857526,0.838346,-0.019287,0.974717,0.020762,-0.040519,-0.137530,0.743390,0.019286,-0.668561,-0.034268,-0.058791,-0.076846,-10.024765,5.111011,-10.437500,,,,,,,
1523694392.887495,0.838161,-0.022541,0.973197,-0.055979,0.061267,-0.076963,0.743216,0.022539,-0.668652,-0.086997,-0.111284,-0.018939,0.452850,5.659213,-15.084412,,,,,,,
1523694392.917432,0.839709,-0.024656,0.974195,-0.083301,0.034067,0.022145,0.744213,0.024653,-0.667468,-0.052151,-0.097804,-0.014585,4.799240,4.890338,-14.404175,,,,,,,
1523694392.947401,0.840439,-0.023333,0.976654,0.005771,0.016137,0.123452,0.744724,0.023331,-0.666945,-0.054844,-0.024933,-0.023225,10.216049,3.595920,-9.446289,,,,,,,
1523694392.977369,0.840172,-0.020106,0.978627,-0.003751,-0.029158,0.069155,0.744598,0.020105,-0.667191,-0.055557,0.038779,-0.044006,11.726669,3.216525,-7.044067,,,,,,,
1523694393.007337,0.838748,-0.021727,0.980124,-0.120338,-0.008707,-0.077998,0.743622,0.021725,-0.668228,-0.056183,0.010379,-0.061142,8.146500,3.310779,-3.896179,,,,,,,
1523694393.037306,0.839622,-0.026378,0.981393,-0.135038,0.026491,-0.092953,0.744122,0.026374,-0.667503,-0.027783,-0.040535,-0.059990,6.191177,2.644809,-3.669556,,,,,,,
,,,,,,,,,,,,,,,,25.312096,51.444013,12.565976,12.760000,151.171875,1523694392.997275,
1523694393.067274,0.841051,-0.030478,0.982474,-0.092371,0.058015,-0.057790,0.744988,0.030473,-0.666362,-0.020333,-0.017747,-0.053014,3.906860,-0.794904,-3.656921,,,,,,,
1523694393.097242,0.841738,-0.031385,0.982608,0.020334,0.014877,-0.006522,0.745425,0.031380,-0.665831,-0.011309,0.017357,-0.040758,3.225464,-1.616529,-3.354004,,,,,,,
1523694393.127210,0.841556,-0.030070,0.981615,0.081010,-0.018262,-0.000049,0.745334,0.030065,-0.665994,0.008511,0.038721,-0.124030,3.592056,-2.368329,-3.500732,,,,,,,
1523694393.157179,0.840658,-0.027893,0.978944,0.132479,-0.003265,-0.033071,0.744783,0.027890,-0.666705,0.005446,-0.012524,-0.113843,3.831741,-1.168958,-3.055420,,,,,,,
1523694393.187147,0.841078,-0.025449,0.976941,0.082128,0.036745,0.036118,0.745111,0.025447,-0.666435,-0.009897,-0.069865,-0.067665,2.046478,0.039523,-2.611206,,,,,,,
1523694393.217115,0.843779,-0.024056,0.978670,-0.088542,0.127144,0.084918,0.746934,0.024054,-0.664443,-0.062745,-0.054297,0.030502,0.790543,2.219714,-3.070496,,,,,,,
1523694393.247083,0.847100,-0.025465,0.983945,-0.190086,0.064953,0.050799,0.749111,0.025462,-0.661936,-0.064571,0.022542,0.023081,1.314880,2.516757,-3.671448,,,,,,,
1523694393.277052,0.847426,-0.027530,0.987385,-0.063106,-0.024196,-0.010812,0.749285,0.027527,-0.661655,-0.027132,0.070953,-0.068630,0.916534,0.942279,-4.940308,,,,,,,
1523694393.307020,0.846738,-0.028083,0.985839,0.052855,0.016521,-0.100270,0.748819,0.028079,-0.662160,-0.017373,0.003766,-0.060755,0.678040,0.491855,-6.438660,,,,,,,
1523694393.336988,0.847482,-0.030681,0.983029,-0.025922,0.044476,-0.119533,0.749253,0.030676,-0.661553,-0.014634,-0.051352,-0.060432,1.475998,-0.190106,-9.810486,,,,,,,
1523694393.366956,0.849932,-0.033739,0.982050,-0.042012,0.107761,-0.048210,0.750798,0.033733,-0.659649,-0.038991,-0.092388,-0.008167,3.340118,-0.424924,-11.233704,,,,,,,
1523694393.396894,0.851462,-0.033574,0.983438,-0.014187,0.035634,0.077601,0.751811,0.033568,-0.658504,0.004385,-0.012099,-0.069249,9.173233,-1.801694,-11.750244,,,,,,,
1523694393.426864,0.850583,-0.029505,0.984538,0.117620,-0.051042,0.116150,0.751328,0.029501,-0.659249,-0.002899,0.045435,-0.070197,10.444931,-3.080838,-10.169495,,,,,,,
1523694393.456833,0.850207,-0.026257,0.984123,0.020294,0.010595,-0.002255,0.751148,0.026254,-0.659592,-0.039691,0.021949,-0.034653,12.991013,-5.189435,-7.309753,,,,,,,
1523694393.486801,0.850634,-0.029186,0.985210,-0.150093,0.019019,-0.081245,0.751368,0.029182,-0.659217,-0.047267,-0.041557,-0.019585,14.037857,-6.317792,-5.954773,,,,,,,
1523694393.516769,0.850761,-0.033641,0.987650,-0.152627,-0.014266,-0.032195,0.751347,0.033635,-0.659029,-0.008869,-0.047582,-0.072706,14.038986,-8.863355,-1.519531,,,,,,,
1523694393.546737,0.850527,-0.035255,0.989142,0.009472,0.004101,0.019051,0.751151,0.035248,-0.659169,0.042627,0.018325,-0.150539,12.916351,-9.981046,0.734375,,,,,,,
1523694393.576706,0.850482,-0.031167,0.986749,0.232587,0.025674,0.044774,0.751224,0.031162,-0.659291,0.002774,0.058926,-0.062968,12.847977,-10.354016,2.460815,,,,,,,
1523694393.606674,0.851130,-0.026218,0.982063,0.185820,0.004963,-0.014915,0.751757,0.026215,-0.658898,-0.033984,-0.002564,-0.052039,10.854401,-8.917203,5.304077,,,,,,,
1523694393.636642,0.849751,-0.025107,0.979188,0.034174,-0.025328,-0.035247,0.750869,0.025104,-0.659954,-0.037704,-0.055424,-0.044484,9.452682,-7.259778,6.421692,,,,,,,
1523694393.666611,0.850251,-0.026886,0.980112,-0.133115,0.069520,-0.016281,0.751165,0.026883,-0.659547,-0.104161,-0.080365,0.022157,5.137161,-4.614011,7.759033,,,,,,,
1523694393.696579,0.853588,-0.031488,0.983778,-0.211939,0.086886,-0.038743,0.753259,0.031483,-0.656949,-0.073694,-0.052693,0.018002,1.249619,-3.321607,7.676880,,,,,,,
1523694393.726547,0.852712,-0.033413,0.986495,0.002836,-0.061687,0.007396,0.752637,0.033407,-0.657567,-0.017102,0.018595,-0.074672,0.653305,-1.596173,5.419678,,,,,,,
1523694393.756515,0.851205,-0.030465,0.983425,0.192143,-0.010995,-0.013833,0.751716,0.030460,-0.658763,-0.021095,0.001568,-0.084783,2.833450,-0.856366,5.042847,,,,,,,
1523694393.786484,0.852769,-0.027062,0.978811,0.156344,0.085858,-0.024605,0.752819,0.027059,-0.657650,-0.076824,-0.081502,0.028363,0.922241,0.506427,9.236450,,,,,,,
1523694393.816452,0.854005,-0.027180,0.977737,-0.092706,0.034344,-0.015149,0.753629,0.027177,-0.656717,-0.032208,-0.086976,0.033213,-2.367264,0.972201,10.207886,,,,,,,
1523694393.846420,0.854441,-0.030144,0.981546,-0.155189,-0.016947,0.047723,0.753851,0.030140,-0.656333,-0.060705,-0.026661,-0.003426,-8.217056,1.897021,8.701294,,,,,,,
1523694393.876388,0.853219,-0.029592,0.984828,-0.023234,-0.067493,0.087295,0.753060,0.029588,-0.657265,-0.022363,0.048827,-0.115120,-11.904083,2.136203,6.298523,,,,,,,
1523694393.906326,0.851323,-0.027340,0.984927,0.091522,-0.052282,-0.000015,0.751861,0.027337,-0.658733,0.006012,0.029426,-0.145069,-12.448013,2.360126,2.772339,,,,,,,
1523694393.936294,0.850653,-0.026532,0.981086,0.112633,0.024791,-0.089573,0.751436,0.026529,-0.659251,-0.032106,-0.066385,-0.052342,-11.441803,2.797580,-5.253967,,,,,,,
1523694393.966263,0.851880,-0.026857,0.977661,0.042207,0.060919,-0.065151,0.752238,0.026853,-0.658323,-0.074962,-0.107298,0.080594,-9.664673,1.812411,-7.424133,,,,,,,
1523694393.996231,0.853768,-0.028762,0.978793,-0.132234,0.044959,-0.000268,0.753439,0.028758,-0.656867,-0.073386,-0.061198,0.058402,-1.977753,-0.474713,-9.961121,,,,,,,
1523694394.026199,0.852366,-0.030601,0.982413,-0.100957,-0.089200,0.027592,0.752477,0.030596,-0.657886,-0.057805,0.029417,-0.040920,3.417557,-1.622861,-8.828857,,,,,,,
1523694394.056167,0.849947,-0.031227,0.983202,0.018108,-0.041208,-0.038436,0.750869,0.031222,-0.659692,-0.024062,0.030546,-0.093527,8.912964,-2.917035,-3.270935,,,,,,,
,,,,,,,,,,,,,,,,25.311999,51.444078,11.884635,12.460000,151.171875,1523694393.997253,
1523694394.086136,0.849164,-0.031027,0.980372,0.094153,-0.025236,-0.070360,0.750357,0.031022,-0.660284,-0.045080,-0.053178,-0.082285,9.917328,-2.093030,0.251343,,,,,,,
1523694394.116104,0.849263,-0.031699,0.976779,0.042227,0.033512,-0.094967,0.750406,0.031694,-0.660195,-0.047998,-0.114671,-0.009452,7.810669,0.473559,7.364990,,,,,,,
1523694394.146072,0.851411,-0.033434,0.976739,-0.085989,0.109712,-0.007754,0.751780,0.033428,-0.658545,-0.066203,-0.047588,0.049948,5.509186,1.386310,9.760193,,,,,,,
1523694394.176040,0.852338,-0.035105,0.980073,-0.132780,-0.030762,0.039233,0.752347,0.035098,-0.657810,-0.013349,0.038816,-0.053784,0.881424,2.533923,11.553284,,,,,,,
1523694394.206009,0.849949,-0.034958,0.982663,-0.004993,-0.101237,0.042597,0.750777,0.034951,-0.659609,0.026933,0.043479,-0.159453,-1.815155,2.471744,12.227173,,,,,,,
1523694394.235977,0.847464,-0.033658,0.980568,0.122710,-0.042585,-0.031957,0.749169,0.033652,-0.661502,0.016410,-0.032965,-0.189847,-5.125687,2.185351,10.951660,,,,,,,
1523694394.265945,0.848782,-0.031871,0.976398,0.136284,0.117889,-0.039568,0.750084,0.031865,-0.660553,-0.015984,-0.099446,-0.054352,-10.328674,1.230700,7.877869,,,,,,,
1523694394.295913,0.853014,-0.031233,0.974971,-0.021925,0.146566,0.019947,0.752888,0.031228,-0.657386,-0.037525,-0.077157,0.040748,-9.596268,0.550601,6.080994,,,,,,,
1523694394.325882,0.855814,-0.031037,0.978416,-0.096563,0.025006,0.104204,0.754730,0.031032,-0.655279,-0.026672,0.004506,-0.030207,-7.961029,0.016681,4.508911,,,,,,,
1523694394.355850,0.853486,-0.029700,0.981496,-0.001887,-0.091868,0.069228,0.753233,0.029696,-0.657061,0.022539,0.070646,-0.149672,-7.056580,0.462604,4.507568,,,,,,,
1523694394.385788,0.853485,-0.029061,0.980252,0.069959,0.049221,-0.073643,0.753247,0.029057,-0.657074,-0.013104,0.003994,-0.155579,-7.174225,3.164020,5.396729,,,,,,,
1523694394.415756,0.855876,-0.030240,0.976176,0.070413,0.089942,-0.123756,0.754789,0.030235,-0.655248,-0.022108,-0.082771,-0.068522,-7.905930,4.817615,5.689758,,,,,,,
1523694394.445725,0.859768,-0.031236,0.973013,0.053401,0.183061,-0.059943,0.757310,0.031231,-0.652285,-0.036333,-0.104107,0.033312,-8.640656,6.620456,5.232178,,,,,,,
1523694394.475694,0.862930,-0.029781,0.972240,0.039172,0.030187,0.077646,0.759403,0.029777,-0.649916,-0.052326,-0.051048,0.041624,-9.536713,6.700015,5.756409,,,,,,,
1523694394.505662,0.862011,-0.027219,0.973294,0.024917,-0.069580,0.064956,0.758861,0.027215,-0.650661,-0.040645,0.009848,0.000286,-10.975601,6.254916,4.182434,,,,,,,
1523694394.535630,0.856970,-0.025345,0.973406,0.032111,-0.188280,0.017136,0.755608,0.025342,-0.654510,-0.026193,0.013644,-0.091873,-11.589081,6.030795,2.308044,,,,,,,
1523694394.565598,0.853829,-0.026151,0.972433,-0.009449,-0.044060,-0.077871,0.753533,0.026148,-0.656867,0.018882,-0.031687,-0.153863,-13.695618,6.413547,0.580505,,,,,,,
1523694394.595567,0.855674,-0.027360,0.970697,0.043483,0.126679,-0.048168,0.754719,0.027356,-0.655455,-0.020115,-0.074109,-0.071642,-15.751480,6.342776,-4.445312,,,,,,,
1523694394.625535,0.858409,-0.025203,0.968868,0.119329,0.040607,0.075581,0.756552,0.025200,-0.653425,0.003245,-0.027886,-0.027788,-15.769669,6.414706,-7.595581,,,,,,,
1523694394.655503,0.857941,-0.019586,0.968470,0.117346,-0.039796,0.179007,0.756341,0.019585,-0.653861,-0.016962,0.008385,-0.029611,-11.601349,5.492206,-11.339783,,,,,,,
1523694394.685471,0.854714,-0.014566,0.969793,0.023355,-0.118848,0.119354,0.754292,0.014565,-0.656355,-0.045583,0.035163,-0.068499,-9.361053,5.330783,-12.688049,,,,,,,
1523694394.715440,0.854007,-0.014908,0.971377,-0.094792,0.033350,-0.024737,0.753824,0.014908,-0.656884,-0.096292,-0.031280,-0.029959,-3.673279,4.329822,-13.056213,,,,,,,
1523694394.745408,0.854937,-0.019281,0.973525,-0.173753,0.002990,-0.060997,0.754378,0.019280,-0.656134,-0.052581,-0.053811,-0.042337,-3.233597,2.529117,-11.773743,,,,,,,
1523694394.775376,0.853673,-0.022132,0.975627,-0.036540,-0.027612,0.011591,0.753503,0.022130,-0.657049,0.018759,0.006526,-0.108866,-2.525925,-2.797238,-9.952087,,,,,,,
1523694394.805344,0.854715,-0.018837,0.973970,0.193180,0.072405,0.063867,0.754239,0.018836,-0.656307,-0.038464,0.002313,-0.043247,-2.251511,-5.498242,-9.716187,,,,,,,
1523694394.835313,0.856447,-0.013717,0.970350,0.162374,0.044134,0.012740,0.755437,0.013716,-0.655054,-0.086630,-0.034713,0.036783,-1.987442,-9.099423,-9.701660,,,,,,,
1523694394.865281,0.857189,-0.013095,0.969046,-0.041431,0.027903,-0.024690,0.755930,0.013095,-0.654499,-0.108759,-0.071108,0.082096,-0.797516,-10.154691,-9.621826,,,,,,,
1523694394.895219,0.857965,-0.016788,0.972731,-0.252808,0.034788,-0.022722,0.756396,0.016787,-0.653876,-0.116885,-0.064776,0.067069,0.622955,-11.060330,-8.867493,,,,,,,
1523694394.925187,0.858146,-0.022931,0.979144,-0.291585,-0.027894,-0.010965,0.756422,0.022929,-0.653660,-0.048292,0.025106,-0.049328,1.385864,-11.660611,-5.714661,,,,,,,
1523694394.955155,0.858421,-0.026061,0.982715,-0.038513,-0.006290,0.000921,0.756543,0.026058,-0.653401,-0.004758,0.045369,-0.129375,2.607117,-11.063550,-3.166504,,,,,,,
1523694394.985123,0.856961,-0.024048,0.979589,0.211562,-0.013975,-0.052164,0.755626,0.024046,-0.654539,0.006733,-0.004102,-0.128969,4.425476,-9.720914,-2.345947,,,,,,,
1523694395.015092,0.857298,-0.020145,0.972996,0.256554,0.036815,-0.037265,0.755912,0.020144,-0.654340,-0.056419,-0.087633,-0.015566,4.378220,-8.068845,-0.477539,,,,,,,
1523694395.045060,0.858690,-0.018126,0.969991,-0.025341,0.081808,0.009371,0.756852,0.018125,-0.653312,-0.058854,-0.105436,0.060051,5.704132,-5.445691,3.637634,,,,,,,
,,,,,,,,,,,,,,,,25.311900,51.444137,11.786103,12.460000,151.523438,1523694394.997233,
1523694395.075028,0.860724,-0.020851,0.975907,-0.283388,0.020224,0.095542,0.758139,0.020850,-0.651737,-0.093497,-0.015585,0.008579,6.244995,-4.846478,5.285461,,,,,,,
1523694395.104997,0.859244,-0.022692,0.983744,-0.186782,-0.068376,0.121261,0.757143,0.022690,-0.652833,-0.037828,0.071243,-0.100448,2.145233,-4.299726,8.581299,,,,,,,
1523694395.134965,0.857560,-0.021719,0.986249,0.055236,-0.024726,0.022311,0.756059,0.021717,-0.654121,-0.042939,0.088695,-0.117425,-0.100937,-3.690000,8.202698,,,,,,,
1523694395.164933,0.858185,-0.020109,0.981102,0.206990,0.047287,-0.148134,0.756493,0.020107,-0.653670,-0.067009,-0.051052,-0.027390,-1.301224,-2.411786,6.021973,,,,,,,
1523694395.194901,0.858479,-0.021553,0.974128,0.099327,0.040384,-0.186564,0.756662,0.021552,-0.653428,-0.064097,-0.111182,0.021501,-0.549911,-2.190320,5.871460,,,,,,,
1523694395.224870,0.860261,-0.024238,0.970587,-0.027194,0.030479,-0.092883,0.757779,0.024236,-0.652038,-0.020352,-0.116551,-0.005524,-0.465485,-1.739865,6.694702,,,,,,,
1523694395.254838,0.857985,-0.025511,0.972475,-0.074446,-0.096909,0.056392,0.756269,0.025508,-0.653741,0.057162,-0.005672,-0.120780,0.375580,-1.890729,9.620728,,,,,,,
1523694395.284806,0.856878,-0.022706,0.975455,0.029016,-0.010676,0.149077,0.755596,0.022704,-0.654622,0.016224,0.005601,-0.165217,-0.813889,-1.733884,11.119507,,,,,,,
1523694395.314774,0.859000,-0.018823,0.976319,0.063212,0.131164,0.062658,0.757044,0.018822,-0.653070,-0.109492,-0.046013,-0.000510,-5.287582,-0.586270,13.587646,,,,,,,
1523694395.344743,0.861092,-0.018853,0.975781,-0.036851,0.059983,-0.055616,0.758409,0.018852,-0.651484,-0.124787,-0.072289,0.083521,-8.348373,0.478091,14.181946,,,,,,,
1523694395.374680,0.863931,-0.023016,0.977112,-0.172200,0.099765,-0.071753,0.760189,0.023014,-0.649271,-0.089153,-0.060505,0.070796,-16.062286,1.862338,13.722534,,,,,,,
1523694395.404649,0.864446,-0.027198,0.980155,-0.151902,-0.060150,-0.005507,0.760443,0.027195,-0.648812,-0.010901,0.026547,-0.053016,-19.672958,1.876788,11.920654,,,,,,,
1523694395.434587,0.860674,-0.027209,0.982090,0.042962,-0.115208,0.047974,0.757990,0.027205,-0.651676,0.035650,0.064561,-0.116604,-24.501663,3.016833,5.238647,,,,,,,
1523694395.464555,0.859237,-0.024283,0.979069,0.194212,-0.043865,-0.026573,0.757110,0.024280,-0.652813,0.032349,0.026730,-0.156787,-25.725952,3.692172,0.060303,,,,,,,
1523694395.494522,0.858208,-0.020934,0.973155,0.229830,0.007287,-0.058573,0.756495,0.020932,-0.653641,0.032338,-0.061917,-0.106475,-24.209473,3.825366,-9.914429,,,,,,,
1523694395.524492,0.859444,-0.017364,0.968753,0.154727,0.065085,0.060649,0.757354,0.017363,-0.652751,-0.053496,-0.080550,0.037166,-21.851730,2.385119,-14.557495,,,,,,,
1523694395.554459,0.859298,-0.013442,0.969419,-0.014950,-0.090050,0.118228,0.757305,0.013442,-0.652901,-0.071681,-0.020491,0.025444,-12.935333,-1.712110,-21.661682,,,,,,,
1523694395.584427,0.853588,-0.013064,0.973568,-0.118687,-0.182962,0.070292,0.753568,0.013064,-0.657218,-0.058286,0.051572,-0.081308,-7.270340,-4.139386,-23.449158,,,,,,,
1523694395.614395,0.851481,-0.014898,0.975873,-0.088433,-0.017423,-0.059844,0.752162,0.014898,-0.658787,-0.076442,0.000087,-0.082210,-2.488647,-5.661435,-23.965698,,,,,,,
1523694395.644364,0.852512,-0.019875,0.974816,-0.086326,0.077968,-0.177149,0.752776,0.019874,-0.657954,-0.060638,-0.077720,-0.034215,2.601288,-7.482968,-22.605835,,,,,,,
1523694395.674332,0.854562,-0.023522,0.972756,0.034938,0.073894,-0.093942,0.754064,0.023520,-0.656357,-0.034200,-0.110937,0.019578,5.080414,-8.017545,-21.027405,,,,,,,
1523694395.704300,0.854793,-0.021927,0.970827,0.112627,-0.024179,0.074569,0.754242,0.021925,-0.656207,0.021698,-0.002455,-0.070966,7.051529,-8.022885,-17.501465,,,,,,,
1523694395.734268,0.854127,-0.015991,0.970489,0.111310,0.033579,0.172539,0.753890,0.015990,-0.656784,-0.037703,0.018433,-0.036194,6.896317,-8.996442,-16.747620,,,,,,,
1523694395.764237,0.856940,-0.011308,0.972403,-0.010997,0.094735,0.132958,0.755783,0.011308,-0.654702,-0.086349,-0.000810,0.046899,8.560165,-7.878476,-16.301270,,,,,,,
1523694395.794205,0.856712,-0.011141,0.976337,-0.126653,-0.066011,0.062717,0.755635,0.011141,-0.654875,-0.108098,0.004026,0.024031,8.190125,-7.426740,-16.228210,,,,,,,
1523694395.824173,0.855471,-0.013169,0.979314,-0.105691,0.005613,-0.005535,0.754803,0.013168,-0.655797,-0.115658,-0.006592,0.032551,10.742569,-7.362927,-15.927246,,,,,,,
1523694395.854142,0.855144,-0.015497,0.980571,-0.049203,-0.068612,-0.049099,0.754563,0.015496,-0.656021,-0.064500,0.037497,-0.032165,14.272659,-7.303067,-15.175720,,,,,,,
1523694395.884079,0.849909,-0.015628,0.977783,0.164963,-0.186947,-0.069071,0.751118,0.015627,-0.659961,0.019085,0.032316,-0.063290,16.916809,-7.910764,-10.971924,,,,,,,
1523694395.914048,0.846745,-0.012140,0.970813,0.271109,-0.070415,-0.055263,0.749062,0.012140,-0.662366,-0.017983,-0.017313,-0.072329,18.358429,-7.689847,-8.572144,,,,,,,
1523694395.944016,0.844220,-0.011022,0.964948,0.069614,-0.074836,-0.112936,0.747397,0.011022,-0.664265,0.058435,-0.087712,-0.109036,18.830750,-6.939496,-6.099854,,,,,,,
1523694395.973984,0.843189,-0.012483,0.965086,-0.066523,-0.013938,0.041395,0.746699,0.012482,-0.665023,-0.026408,-0.128464,-0.056351,15.880280,-5.944623,0.494690,,,,,,,
1523694396.003953,0.843800,-0.012019,0.969362,-0.137285,0.034409,0.141459,0.747109,0.012019,-0.664571,-0.063241,-0.093058,0.003026,13.718597,-6.232190,3.194763,,,,,,,
1523694396.033921,0.843573,-0.011255,0.976312,-0.141977,-0.026328,0.168149,0.746965,0.011255,-0.664746,-0.065828,0.022757,-0.047366,8.558990,-5.906964,5.215881,,,,,,,
1523694396.063890,0.842989,-0.011056,0.980617,-0.100510,-0.008341,0.012597,0.746578,0.011056,-0.665184,-0.043789,0.063178,-0.083138,5.181442,-5.892209,4.764160,,,,,,,
,,,,,,,,,,,,,,,,25.311808,51.444201,11.576058,12.860000,151.875000,1523694395.997212,
1523694396.093858,0.844536,-0.014711,0.979926,-0.028514,0.103351,-0.182448,0.747572,0.014710,-0.663996,-0.072126,-0.038621,-0.019155,3.815704,-5.888700,2.138428,,,,,,,
1523694396.123826,0.846932,-0.019279,0.975481,0.012970,0.055524,-0.195159,0.749102,0.019277,-0.662152,-0.000948,-0.109670,-0.032931,5.012039,-5.894681,1.539062,,,,,,,
1523694396.153795,0.847555,-0.021903,0.972810,0.014036,-0.013487,-0.051248,0.749474,0.021901,-0.661650,0.047050,-0.051320,-0.129397,2.537766,-6.407559,2.514893,,,,,,,
1523694396.183763,0.845175,-0.020850,0.971331,0.079661,-0.038702,0.036198,0.747914,0.020849,-0.663446,0.027752,0.015940,-0.090963,0.818405,-6.249158,3.188354,,,,,,,
1523694396.213730,0.846321,-0.017332,0.970694,0.097892,0.064876,0.109627,0.748724,0.017331,-0.662633,-0.034552,-0.019483,0.011068,-1.508804,-5.115933,0.932678,,,,,,,
1523694396.243698,0.846602,-0.012492,0.971546,0.054550,-0.038336,0.143801,0.748964,0.012492,-0.662471,-0.071199,-0.045207,0.044841,-1.353439,-3.992612,-0.046692,,,,,,,
1523694396.273667,0.845820,-0.010665,0.974489,-0.102868,0.017788,0.076495,0.748462,0.010665,-0.663070,-0.088809,-0.019820,0.041229,-1.497025,-2.718030,-1.101929,,,,,,,
1523694396.303635,0.848390,-0.014288,0.979676,-0.280405,0.088937,-0.006813,0.750129,0.014287,-0.661115,-0.061790,0.001063,0.036221,-0.218094,-1.375363,-2.681641,,,,,,,
1523694396.333603,0.848843,-0.019318,0.986034,-0.220299,-0.038969,0.027460,0.750365,0.019317,-0.660719,-0.021132,0.060318,-0.030748,-1.341827,-1.295224,-2.607544,,,,,,,
1523694396.363571,0.845558,-0.019592,0.987903,0.079264,-0.138523,0.026711,0.748187,0.019591,-0.663177,0.037260,0.111864,-0.140534,-0.524994,-1.749494,-3.205322,,,,,,,
1523694396.393509,0.842396,-0.015471,0.982315,0.293719,-0.051238,-0.072303,0.746140,0.015471,-0.665587,0.039840,0.080309,-0.118364,-0.448029,-1.150525,-3.882629,,,,,,,
1523694396.423466,0.841850,-0.013175,0.973616,0.218307,-0.036769,-0.137380,0.745801,0.013174,-0.666016,-0.009473,-0.034414,-0.055053,-2.247513,-1.142346,-3.808533,,,,,,,
1523694396.453435,0.839914,-0.012857,0.969914,0.021125,-0.040432,-0.000068,0.744513,0.012856,-0.667462,-0.061804,-0.122094,0.015683,-2.030640,-1.369306,-4.782593,,,,,,,
1523694396.483403,0.838861,-0.012132,0.973426,-0.130387,-0.049803,0.177772,0.743817,0.012132,-0.668251,-0.057736,-0.052736,-0.071647,-2.571793,-2.492688,-5.603394,,,,,,,
1523694396.513371,0.836337,-0.009698,0.980519,-0.107139,-0.064981,0.211905,0.742147,0.009697,-0.670145,-0.052313,0.060157,-0.115546,-2.129150,-2.870282,-6.201599,,,,,,,
1523694396.543340,0.836063,-0.008732,0.985113,-0.096235,0.025435,0.042407,0.741970,0.008732,-0.670354,-0.028591,0.090679,-0.106929,-0.181671,-2.355313,-7.477722,,,,,,,
1523694396.573308,0.838749,-0.011582,0.984864,-0.022233,0.121109,-0.141966,0.743746,0.011582,-0.668339,0.027768,0.030685,-0.086147,-0.177475,-2.204892,-7.028320,,,,,,,
1523694396.603276,0.841395,-0.014155,0.980745,0.098271,0.101644,-0.134410,0.745488,0.014155,-0.666347,0.013133,-0.074793,-0.015676,0.129272,-2.205152,-5.903137,,,,,,,
1523694396.633244,0.843729,-0.013373,0.976424,0.127231,0.026391,-0.020302,0.747049,0.013372,-0.664612,0.010810,-0.071554,-0.079147,-0.170242,-2.652966,-5.076477,,,,,,,
1523694396.663213,0.842790,-0.010103,0.974446,0.117839,-0.043396,0.084190,0.746453,0.010103,-0.665338,0.023536,0.011031,-0.166510,-0.027420,-3.328687,-5.148743,,,,,,,
1523694396.693181,0.843008,-0.005899,0.973367,0.100115,0.052288,0.084077,0.746623,0.005899,-0.665199,0.000966,-0.036478,-0.129250,0.045639,-3.479093,-5.223145,,,,,,,
1523694396.723149,0.844815,-0.004644,0.973346,-0.042432,0.072356,0.000837,0.747829,0.004644,-0.663853,-0.033778,-0.071737,-0.045559,0.199493,-2.955014,-5.450134,,,,,,,
1523694396.753117,0.848256,-0.008861,0.974999,-0.184531,0.152156,-0.115490,0.750087,0.008861,-0.661257,-0.082362,-0.107234,0.051882,0.290985,-1.530042,-5.080750,,,,,,,
1523694396.783086,0.852267,-0.015584,0.976980,-0.177156,0.111870,-0.131427,0.752671,0.015584,-0.658189,-0.105592,-0.084141,0.082322,0.002670,-0.403684,-5.010376,,,,,,,
1523694396.813054,0.853436,-0.020313,0.978111,-0.107536,-0.000320,-0.067335,0.753377,0.020311,-0.657252,-0.033085,-0.022188,-0.012593,1.661850,0.788394,-5.464355,,,,,,,
1523694396.843022,0.853150,-0.021547,0.978229,0.019117,-0.025480,-0.010737,0.753169,0.021545,-0.657450,0.030614,0.017700,-0.132344,1.362762,1.014514,-5.690369,,,,,,,
1523694396.872960,0.853396,-0.020305,0.976862,0.056891,0.071089,-0.005480,0.753350,0.020304,-0.657283,-0.018090,-0.047083,-0.039785,3.020340,1.682208,-5.542236,,,,,,,
1523694396.902928,0.856075,-0.019474,0.976448,0.012903,0.074054,0.040311,0.755121,0.019472,-0.655272,-0.068735,-0.077746,0.053801,5.425644,1.447665,-4.265076,,,,,,,
1523694396.932896,0.856003,-0.017620,0.978692,-0.038245,-0.052812,0.117122,0.755100,0.017619,-0.655349,-0.057895,-0.010219,0.076355,5.217636,1.526294,-1.565491,,,,,,,
1523694396.962865,0.853493,-0.015908,0.983328,-0.097391,-0.102853,0.153350,0.753474,0.015908,-0.657262,-0.087260,0.072181,0.011479,3.218384,1.764194,2.332520,,,,,,,
1523694396.992833,0.848737,-0.013411,0.987881,-0.014409,-0.180542,0.141764,0.750367,0.013410,-0.660862,-0.072038,0.101214,-0.047771,1.652313,2.296832,2.929626,,,,,,,
1523694397.022801,0.843485,-0.010681,0.988681,0.051409,-0.150228,0.037367,0.746911,0.010681,-0.664815,-0.089425,0.047501,-0.058558,-2.322891,3.587543,0.747437,,,,,,,
1523694397.052769,0.841222,-0.010787,0.987072,0.021585,-0.037688,-0.087449,0.745404,0.010787,-0.666504,-0.091290,-0.033752,-0.024796,-3.006714,3.738894,-0.978516,,,,,,,
,,,,,,,,,,,,,,,,25.311704,51.444263,11.533277,12.530000,152.578125,1523694396.997192,
1523694397.082738,0.841524,-0.013639,0.985102,-0.029192,0.035933,-0.113130,0.745579,0.013638,-0.666256,-0.071857,-0.055569,-0.001759,-1.691162,2.903628,-5.324463,,,,,,,
1523694397.112706,0.842074,-0.015397,0.983142,0.059970,-0.017791,-0.059735,0.745926,0.015397,-0.665828,-0.036453,-0.032944,-0.031071,-1.779190,2.227969,-6.371887,,,,,,,
1523694397.142674,0.839060,-0.013705,0.979781,0.140639,-0.075681,-0.016989,0.743934,0.013704,-0.668090,-0.053581,-0.005403,-0.034211,3.131622,-0.121732,-8.984985,,,,,,,
1523694397.172643,0.838440,-0.012479,0.977263,0.028951,-0.004068,-0.036327,0.743532,0.012479,-0.668562,-0.091249,-0.069135,0.002745,5.369553,-0.882550,-9.730835,,,,,,,
1523694397.202611,0.837958,-0.015512,0.978053,-0.167463,-0.013050,-0.050312,0.743178,0.015512,-0.668891,-0.061339,-0.104776,-0.038949,5.906876,-1.182416,-7.179321,,,,,,,
1523694397.232579,0.838931,-0.020216,0.981482,-0.185318,0.076101,-0.029101,0.743766,0.020215,-0.668112,-0.038291,-0.083996,-0.050470,6.069748,-0.656873,-5.906372,,,,,,,
1523694397.262547,0.841947,-0.023038,0.984348,-0.101999,0.124546,0.003940,0.745732,0.023036,-0.665825,-0.012090,0.012044,-0.038445,5.629059,-0.129224,-5.233704,,,,,,,
1523694397.292516,0.844819,-0.023166,0.984856,0.029113,0.066869,-0.002287,0.747639,0.023164,-0.663679,0.022518,0.027297,-0.086840,4.213715,0.702365,-5.012695,,,,,,,
1523694397.322484,0.845984,-0.022039,0.982995,0.093177,0.046659,-0.021402,0.748431,0.022037,-0.662824,-0.000933,0.003735,-0.045657,3.464310,1.304843,-5.915527,,,,,,,
1523694397.352452,0.847469,-0.020996,0.980844,0.037547,0.043498,-0.004398,0.749431,0.020995,-0.661726,-0.079128,-0.068511,0.060545,3.904953,1.900302,-8.467712,,,,,,,
1523694397.382390,0.848430,-0.022759,0.982850,-0.193156,0.037601,0.008228,0.750038,0.022757,-0.660980,-0.054389,-0.059165,0.046616,3.524857,1.751407,-9.067261,,,,,,,
1523694397.412358,0.846967,-0.026907,0.988689,-0.203559,-0.107073,0.035002,0.748993,0.026904,-0.662009,0.053650,0.036405,-0.157053,6.365601,1.362735,-9.964294,,,,,,,
1523694397.442334,0.846213,-0.026959,0.990135,0.102427,0.022912,0.027646,0.748492,0.026956,-0.662573,0.092527,0.059943,-0.249949,9.063248,1.125598,-9.962036,,,,,,,
1523694397.472303,0.847261,-0.020254,0.984529,0.381275,0.075293,0.036320,0.749305,0.020252,-0.661892,-0.004203,-0.004887,-0.061954,9.233047,1.577380,-7.413757,,,,,,,
1523694397.502271,0.849264,-0.012862,0.977350,0.260360,0.009762,0.029899,0.750721,0.012862,-0.660471,-0.067219,-0.088942,0.065973,8.489853,1.357226,-5.913208,,,,,,,
1523694397.532239,0.848944,-0.010332,0.977099,-0.092315,-0.019420,0.072294,0.750532,0.010332,-0.660730,-0.054777,-0.107500,0.065012,5.043320,0.624530,-4.112061,,,,,,,
1523694397.562207,0.848002,-0.012606,0.984113,-0.269788,-0.021394,0.114779,0.749889,0.012605,-0.661420,-0.018489,0.019362,-0.052828,4.504745,-0.648190,-4.257202,,,,,,,
1523694397.592176,0.849105,-0.014598,0.991422,-0.166901,0.043292,0.096680,0.750598,0.014597,-0.660575,-0.033282,0.098989,-0.100228,4.567764,-2.073087,-3.876465,,,,,,,
1523694397.622144,0.849930,-0.014349,0.992160,0.092178,0.024582,-0.054415,0.751145,0.014349,-0.659958,-0.021302,0.091028,-0.064011,4.925400,-4.174085,-3.267883,,,,,,,
1523694397.652112,0.849833,-0.013519,0.984319,0.277455,-0.001530,-0.185307,0.751090,0.013518,-0.660038,-0.065161,-0.060470,0.010273,4.023651,-4.394956,-3.192444,,,,,,,
1523694397.682080,0.848834,-0.012764,0.974522,0.219666,-0.024786,-0.181071,0.750438,0.012764,-0.660794,-0.046687,-0.129341,0.106885,4.037308,-3.569119,-2.295715,,,,,,,
1523694397.712049,0.848306,-0.014575,0.970806,-0.087441,-0.041859,-0.063002,0.750070,0.014574,-0.661175,-0.084436,-0.121539,0.102138,4.723648,-2.971311,-1.397766,,,,,,,
1523694397.742017,0.845272,-0.019364,0.976282,-0.322368,-0.158950,0.048825,0.748000,0.019363,-0.663394,0.007402,-0.068268,-0.103269,2.491913,-2.583875,0.999573,,,,,,,
1523694397.771985,0.839319,-0.022193,0.983396,-0.137139,-0.155893,0.154440,0.743994,0.022191,-0.667795,0.071710,0.034373,-0.292837,1.818146,-2.505765,1.073914,,,,,,,
1523694397.801953,0.838262,-0.018452,0.984992,0.129184,0.090532,0.073414,0.743344,0.018451,-0.668632,-0.028165,-0.002887,-0.098335,-1.313919,-0.616834,0.914795,,,,,,,
1523694397.831922,0.842929,-0.016509,0.981996,0.079920,0.155284,-0.049234,0.746482,0.016508,-0.665178,-0.120323,-0.100157,0.091966,-2.067047,-0.613965,0.389343,,,,,,,
1523694397.861890,0.846697,-0.018810,0.981347,-0.118813,0.091118,-0.073813,0.748952,0.018808,-0.662334,-0.096349,-0.096949,0.129787,-3.131256,-1.360303,-0.733154,,,,,,,
1523694397.891828,0.846133,-0.022137,0.984295,-0.130785,-0.077449,0.027568,0.748528,0.022135,-0.662711,-0.034600,0.011984,-0.001230,-4.490768,-2.179410,-0.955566,,,,,,,
1523694397.921796,0.844934,-0.022040,0.987318,-0.033623,-0.021699,0.074465,0.747734,0.022038,-0.663609,0.007637,0.081890,-0.111674,-5.861588,-2.551084,-3.804749,,,,,,,
1523694397.951764,0.844942,-0.021141,0.987537,0.064226,0.020170,-0.021400,0.747754,0.021140,-0.663616,0.006900,0.035531,-0.099629,-5.273178,-2.630536,-5.604187,,,,,,,
1523694397.981733,0.845651,-0.019654,0.983774,0.146677,0.034005,-0.054380,0.748247,0.019653,-0.663106,-0.027193,-0.061340,-0.079249,-5.573181,-2.179929,-6.356140,,,,,,,
1523694398.011701,0.848517,-0.019671,0.979010,0.070435,0.125885,-0.097155,0.750144,0.019669,-0.660958,-0.048866,-0.099061,0.054757,-5.741180,-2.631421,-8.604431,,,,,,,
1523694398.041669,0.850412,-0.021555,0.978295,-0.103509,-0.008092,-0.023624,0.751366,0.021553,-0.659510,-0.055428,-0.059777,0.029093,-4.853363,-3.311322,-9.501221,,,,,,,
1523694398.071637,0.846431,-0.024691,0.982084,-0.161032,-0.163403,0.021241,0.748680,0.024689,-0.662448,0.014824,-0.007721,-0.081234,-4.267365,-3.091657,-12.201782,,,,,,,
,,,,,,,,,,,,,,,,25.311597,51.444324,11.701795,12.540000,152.226562,1523694397.997169,
1523694398.101606,0.843182,-0.024297,0.984795,0.036753,-0.045241,0.072414,0.746532,0.024294,-0.664883,-0.009532,0.011091,-0.169193,-3.146515,-2.198880,-14.379822,,,,,,,
1523694398.131574,0.844617,-0.021520,0.983083,0.086991,0.107179,-0.011880,0.747532,0.021518,-0.663854,-0.016148,-0.070819,-0.050074,2.250946,-0.651166,-17.383301,,,,,,,
1523694398.161542,0.848037,-0.022061,0.982539,-0.048432,0.135205,-0.020533,0.749790,0.022060,-0.661285,-0.074436,-0.050105,0.080871,4.436356,-0.060254,-16.634583,,,,,,,
1523694398.191510,0.852013,-0.023715,0.983960,-0.101119,0.076739,0.000800,0.752384,0.023713,-0.658274,-0.082523,-0.028306,0.120524,9.312378,-0.905622,-15.053711,,,,,,,
1523694398.221479,0.850821,-0.026092,0.987137,-0.133004,-0.109238,0.015876,0.751554,0.026089,-0.659131,-0.033384,0.057194,-0.061709,11.330566,-1.814313,-14.674072,,,,,,,
1523694398.251447,0.846893,-0.027411,0.988191,0.000758,-0.101802,-0.033036,0.748933,0.027408,-0.662055,0.014113,0.032086,-0.124612,12.081924,-2.715970,-12.945129,,,,,,,
1523694398.281415,0.845731,-0.027630,0.985580,0.081288,-0.020034,-0.052248,0.748159,0.027626,-0.662921,-0.016606,-0.037713,-0.140485,12.239136,-2.715482,-11.745056,,,,,,,
1523694398.311383,0.846665,-0.027515,0.982083,0.083913,0.081993,-0.056605,0.748780,0.027512,-0.662224,0.033218,-0.084107,-0.071861,13.889236,-3.247006,-10.842102,,,,,,,
1523694398.341352,0.849219,-0.024427,0.980377,0.142835,0.083877,0.109652,0.750529,0.024424,-0.660362,-0.044673,-0.036387,0.042534,15.636871,-3.550595,-6.565002,,,,,,,
1523694398.371320,0.848558,-0.019402,0.980722,0.045823,-0.090353,0.137466,0.750175,0.019401,-0.660931,-0.025840,0.020897,0.028180,16.629227,-3.252652,-4.165710,,,,,,,
1523694398.401258,0.845670,-0.016854,0.983242,-0.029560,-0.067425,0.076653,0.748297,0.016853,-0.663126,-0.079917,0.052895,0.010217,18.311935,-3.179898,1.159851,,,,,,,
1523694398.431231,0.843816,-0.018154,0.984878,-0.138763,-0.065062,-0.069413,0.747050,0.018153,-0.664496,-0.087718,-0.034449,0.003913,15.783081,-3.314771,4.909119,,,,,,,
1523694398.461199,0.842659,-0.025794,0.987741,-0.266293,-0.018572,-0.139868,0.746155,0.025791,-0.665249,-0.076096,-0.052418,-0.011585,10.399170,-5.983411,12.042114,,,,,,,
1523694398.491167,0.842565,-0.032277,0.988547,-0.067635,-0.010497,-0.148260,0.745953,0.032272,-0.665193,-0.006542,-0.050811,-0.035078,5.814240,-8.060971,13.848145,,,,,,,
1523694398.521136,0.841294,-0.033501,0.984916,0.147616,-0.029521,-0.086288,0.745076,0.033494,-0.666114,-0.004979,-0.028962,-0.045327,-7.642548,-10.701322,12.951965,,,,,,,
1523694398.551104,0.839002,-0.029694,0.979424,0.241654,-0.133538,0.014051,0.743637,0.029689,-0.667901,0.029114,-0.021663,-0.116691,-11.494125,-10.838178,8.750549,,,,,,,
