timestamp(unix),attitude_roll(radians),attitude_pitch(radians),attitude_yaw(radians),rotation_rate_x(radians/s),rotation_rate_y(radians/s),rotation_rate_z(radians/s),gravity_x(G),gravity_y(G),gravity_z(G),user_acc_x(G),user_acc_y(G),user_acc_z(G),magnetic_field_x(microteslas),magnetic_field_y(microteslas),magnetic_field_z(microteslas),latitude(degree),longitude(degree),altitude(meter),speed(m/s),course(degree),timestamp(unix),User Mark
,,,,,,,,,,,,,,,,25.306158,51.445662,10.999999,-1.000000,-1.000000,1522139352.930785,
1522139484.752711,-0.014420,0.037203,0.999288,-0.009117,-0.001530,-0.031168,-0.014409,-0.037194,-0.999204,-0.016383,0.079354,-0.050341,-6.365707,-42.185925,5.377258,,,,,,,
1522139484.782679,-0.014220,0.037180,0.998356,-0.002563,0.029270,-0.032255,-0.014210,-0.037172,-0.999208,-0.014354,0.055330,-0.030806,-7.343811,-42.855907,5.979492,,,,,,,
1522139484.812647,-0.013890,0.036725,0.997532,-0.005905,0.010088,-0.022651,-0.013881,-0.036717,-0.999229,0.039088,0.095219,0.024605,-7.797913,-44.576687,8.161133,,,,,,,
1522139484.842615,-0.013647,0.036563,0.996921,0.003885,0.053607,-0.019490,-0.013638,-0.036555,-0.999239,-0.038105,0.068537,-0.092055,-8.694412,-45.171078,9.738098,,,,,,,
1522139484.872584,-0.013275,0.036713,0.996253,0.001470,-0.002729,-0.015177,-0.013266,-0.036705,-0.999238,-0.029459,0.060203,0.048356,-8.238968,-46.295345,12.517761,,,,,,,
1522139484.902552,-0.013061,0.036430,0.995613,0.003718,0.015361,-0.020517,-0.013052,-0.036422,-0.999251,-0.041651,0.062637,-0.052461,-6.514771,-46.827343,13.270752,,,,,,,
1522139484.932520,-0.012509,0.036458,0.994910,0.001800,0.062127,-0.021630,-0.012501,-0.036450,-0.999257,-0.045254,0.013287,-0.120173,-4.329178,-47.209789,15.673401,,,,,,,
1522139484.962489,-0.012564,0.036292,0.994134,0.005884,0.016476,-0.026919,-0.012556,-0.036284,-0.999263,-0.070864,0.038023,-0.036412,-1.921326,-46.695171,16.122559,,,,,,,
1522139484.992457,-0.012314,0.036356,0.993227,0.004861,0.015450,-0.034365,-0.012305,-0.036348,-0.999263,-0.079324,-0.033476,-0.061146,4.238266,-45.598110,15.896240,,,,,,,
1522139485.022425,-0.012089,0.036420,0.992268,0.002853,0.047328,-0.032274,-0.012081,-0.036412,-0.999264,-0.056202,0.018330,-0.121525,7.994690,-44.415920,14.993408,,,,,,,
1522139485.052393,-0.012166,0.036610,0.991248,0.007968,-0.005826,-0.033270,-0.012158,-0.036602,-0.999256,-0.056782,0.006710,-0.058941,11.373978,-43.082623,13.489807,,,,,,,
1522139485.082331,-0.012583,0.036514,0.990229,-0.010049,0.021866,-0.035445,-0.012574,-0.036506,-0.999254,-0.034804,0.015525,0.033846,14.791229,-3.623024,-0.333374,,,,,,,
1522139485.112299,-0.012939,0.036002,0.989262,-0.003850,-0.016412,-0.031154,-0.012931,-0.035994,-0.999268,-0.048669,-0.027757,-0.074767,17.413940,-2.137672,-3.188049,,,,,,,
1522139485.142268,-0.013457,0.035642,0.988312,-0.013309,0.012284,-0.032238,-0.013448,-0.035634,-0.999274,-0.046900,0.040303,0.052268,18.416336,6.595047,-2.589966,,,,,,,
1522139485.172236,-0.013982,0.035201,0.987303,-0.008183,-0.035519,-0.034326,-0.013973,-0.035194,-0.999283,-0.058110,-0.003594,-0.033585,19.986221,8.384140,-6.421387,,,,,,,
1522139485.202204,-0.014480,0.034542,0.986488,-0.021985,-0.011091,-0.027967,-0.014470,-0.034536,-0.999299,-0.056040,0.089681,-0.018646,17.405640,9.738388,-13.778137,,,,,,,
1522139485.232172,-0.015302,0.033822,0.985718,-0.006026,-0.020706,-0.025816,-0.015293,-0.033816,-0.999311,-0.094799,0.025103,-0.038790,14.613770,9.673264,-16.479248,,,,,,,
1522139485.262141,-0.015932,0.033204,0.984914,-0.028430,-0.016413,-0.024768,-0.015922,-0.033198,-0.999322,-0.117806,0.032237,-0.030372,6.712540,9.255142,-20.156555,,,,,,,
1522139485.292109,-0.016657,0.032568,0.984125,0.009874,-0.047302,-0.026844,-0.016648,-0.032563,-0.999331,0.018646,0.027024,0.111392,1.220978,8.004181,-20.829285,,,,,,,
1522139485.322077,-0.017011,0.032477,0.983395,-0.000545,0.010106,-0.026910,-0.017001,-0.032471,-0.999328,-0.018720,0.067475,-0.070206,-7.872025,5.795776,-20.150024,,,,,,,
1522139485.352045,-0.017622,0.032591,0.982557,0.005710,-0.026042,-0.027927,-0.017612,-0.032585,-0.999314,0.010028,0.017448,-0.002899,-13.729370,4.023849,-18.420776,,,,,,,
1522139485.382014,-0.017687,0.032476,0.981694,-0.000452,0.026043,-0.029046,-0.017677,-0.032470,-0.999316,-0.006752,0.068984,-0.094052,-18.382004,2.996078,-17.144043,,,,,,,
1522139485.411982,-0.017821,0.032949,0.980700,0.015502,0.011168,-0.032228,-0.017810,-0.032943,-0.999299,-0.010373,0.021728,-0.005539,-24.904968,0.405090,-12.486938,,,,,,,
1522139485.441950,-0.017699,0.032940,0.979740,0.002736,0.019705,-0.033310,-0.017689,-0.032934,-0.999301,-0.106655,0.042044,-0.165280,-27.377106,-0.481842,-10.534607,,,,,,,
1522139485.471895,-0.017808,0.033166,0.978763,0.006914,0.003721,-0.029026,-0.017797,-0.033160,-0.999292,-0.064783,0.014453,0.033471,-31.936371,-2.330612,-4.829468,,,,,,,
1522139485.501864,-0.017525,0.033009,0.977857,-0.001635,0.007972,-0.024780,-0.017515,-0.033003,-0.999302,-0.060671,0.029722,-0.041699,-32.899750,-2.698730,-2.278503,,,,,,,
1522139485.531832,-0.017502,0.032900,0.977086,0.020743,-0.006934,-0.029008,-0.017492,-0.032894,-0.999306,-0.045878,0.060940,0.065193,-32.570908,-3.144653,3.273438,,,,,,,
1522139485.561800,-0.016919,0.033469,0.976328,0.026208,0.017498,-0.031153,-0.016909,-0.033463,-0.999297,-0.008070,0.034135,-0.125001,-31.439163,-3.822495,5.526733,,,,,,,
1522139485.591738,-0.017015,0.034096,0.975621,0.023848,-0.022905,-0.024732,-0.017005,-0.034089,-0.999274,-0.051935,-0.017821,0.045051,-25.870178,-3.320236,7.852539,,,,,,,
1522139485.621706,-0.016605,0.034297,0.974950,0.006858,-0.004801,-0.025821,-0.016594,-0.034290,-0.999274,-0.055214,0.033359,0.040854,-23.917694,-3.478348,8.529114,,,,,,,
1522139485.651674,-0.016624,0.034369,0.974355,0.006859,0.001538,-0.020500,-0.016614,-0.034362,-0.999271,-0.058322,-0.022431,-0.023129,-19.350281,-3.200623,6.805298,,,,,,,
1522139485.681643,-0.016683,0.034284,0.973737,-0.007115,-0.019681,-0.020488,-0.016672,-0.034277,-0.999273,0.011301,0.052862,0.042028,-18.079849,-2.757828,5.304199,,,,,,,
1522139485.711611,-0.017004,0.033988,0.973032,0.003724,0.011152,-0.025844,-0.016993,-0.033981,-0.999278,-0.043798,-0.020645,-0.103673,-18.978180,-2.229401,4.701599,,,,,,,
1522139485.741579,-0.017730,0.034158,0.972325,0.002397,-0.045170,-0.024722,-0.017719,-0.034151,-0.999260,-0.022747,-0.001448,0.058784,-21.000122,-1.246429,3.571655,,,,,,,
1522139485.771548,-0.018588,0.033891,0.971511,0.001288,-0.062129,-0.031096,-0.018576,-0.033884,-0.999253,0.006613,0.010279,0.089616,-21.440231,-0.119675,3.341919,,,,,,,
1522139485.801516,-0.019667,0.034026,0.970629,0.005622,-0.048343,-0.030035,-0.019654,-0.034020,-0.999228,-0.053817,0.033089,-0.016397,-25.387054,2.074127,4.381165,,,,,,,
1522139485.831484,-0.021194,0.034251,0.969727,0.019469,-0.061070,-0.036415,-0.021180,-0.034244,-0.999189,-0.070892,0.027851,0.039640,-26.645401,3.430298,4.900146,,,,,,,
1522139485.861452,-0.022651,0.034832,0.968870,0.004594,-0.039825,-0.031115,-0.022635,-0.034825,-0.999137,-0.088754,-0.007884,-0.046380,-29.450912,5.996063,8.038452,,,,,,,
1522139485.891421,-0.024139,0.034531,0.968058,-0.005113,-0.058943,-0.028971,-0.024122,-0.034524,-0.999113,-0.050753,0.072122,0.126661,-31.081635,6.755341,9.984619,,,,,,,
1522139485.921389,-0.024973,0.034385,0.967325,-0.002816,-0.022834,-0.027936,-0.024956,-0.034378,-0.999097,0.001854,0.023178,0.004728,-33.443726,8.120026,14.027954,,,,,,,
1522139485.951357,-0.025702,0.033693,0.966549,-0.020009,-0.038767,-0.021545,-0.025684,-0.033686,-0.999102,-0.066723,0.042628,-0.062955,-33.577225,8.872131,15.524902,,,,,,,
1522139485.981325,-0.026173,0.033125,0.965753,-0.005013,-0.031341,-0.024740,-0.026155,-0.033119,-0.999109,-0.079664,0.002128,0.064188,-36.470108,9.339722,20.096558,,,,,,,
1522139486.011294,-0.025658,0.032477,0.965025,-0.027200,0.021822,-0.022673,-0.025641,-0.032471,-0.999144,-0.006066,0.033264,0.078108,-36.227997,9.341476,22.946655,,,,,,,
1522139486.041262,-0.024925,0.031721,0.964368,-0.005851,0.019668,-0.024793,-0.024910,-0.031715,-0.999186,-0.057670,0.015571,-0.009420,-36.433899,9.495331,25.871033,,,,,,,
1522139486.071230,-0.023717,0.031511,0.963744,-0.024101,-0.001549,-0.023718,-0.023703,-0.031506,-0.999222,-0.084360,0.019726,0.014191,-35.343094,9.572083,32.546204,,,,,,,
1522139486.101168,-0.022081,0.030588,0.963259,-0.018501,0.071687,-0.012074,-0.022069,-0.030583,-0.999289,-0.083263,0.020177,-0.097406,-33.150620,9.789780,35.096375,,,,,,,
1522139486.131136,-0.020829,0.030120,0.962799,-0.001450,0.054686,-0.019497,-0.020818,-0.030116,-0.999330,-0.078304,-0.006475,0.035020,-25.611908,10.286484,40.723206,,,,,,,
1522139486.161104,-0.019543,0.029822,0.962341,-0.011166,0.037674,-0.014162,-0.019533,-0.029817,-0.999364,-0.035475,0.015901,0.088461,-21.854248,10.420624,41.774536,,,,,,,
1522139486.191073,-0.018529,0.029499,0.961789,0.004736,-0.002693,-0.024749,-0.018520,-0.029495,-0.999393,-0.037434,0.047470,0.013111,-10.445404,10.445709,43.205078,,,,,,,
1522139486.221041,-0.018287,0.029679,0.961166,0.002590,-0.003740,-0.024756,-0.018278,-0.029674,-0.999392,-0.067507,0.007793,-0.024610,-4.445236,10.868042,42.531433,,,,,,,
1522139486.251009,-0.018403,0.029703,0.960537,0.009066,0.015366,-0.022646,-0.018394,-0.029698,-0.999390,-0.046578,0.032994,-0.017593,6.565781,11.265488,39.535339,,,,,,,
1522139486.280977,-0.019309,0.029943,0.959770,0.006726,-0.033502,-0.024724,-0.019299,-0.029938,-0.999365,-0.062259,0.024979,0.050330,12.401550,11.686157,36.461548,,,,,,,
1522139486.310946,-0.021028,0.030083,0.958985,0.010750,-0.088757,-0.025734,-0.021017,-0.030078,-0.999327,-0.070444,0.044375,0.172758,22.780731,12.006271,28.290466,,,,,,,
1522139486.340914,-0.022610,0.030205,0.958250,0.004591,-0.036676,-0.026850,-0.022598,-0.030200,-0.999288,-0.056794,0.014224,-0.013910,27.177582,11.981842,23.642883,,,,,,,
1522139486.370882,-0.024445,0.030182,0.957531,-0.002014,-0.074920,-0.023630,-0.024432,-0.030178,-0.999246,-0.051542,0.031154,0.002221,29.770752,12.264404,17.867981,,,,,,,
1522139486.400851,-0.026056,0.030039,0.956872,0.002415,-0.038827,-0.021525,-0.026041,-0.030034,-0.999210,-0.066885,0.007222,0.014224,31.349518,11.571579,7.146606,,,,,,,
1522139486.430819,-0.027406,0.029828,0.956216,-0.003789,0.008995,-0.019450,-0.027391,-0.029824,-0.999180,-0.110701,0.043252,-0.171017,29.892136,11.348114,2.121704,,,,,,,
1522139486.460787,-0.028543,0.029891,0.955707,0.011982,-0.039937,-0.016199,-0.028527,-0.029887,-0.999146,-0.057701,0.030406,-0.009887,23.307968,9.795456,-5.150391,,,,,,,
1522139486.490752,-0.029309,0.029959,0.955171,0.005632,-0.030345,-0.018343,-0.029292,-0.029955,-0.999122,-0.057332,0.022524,-0.014504,19.165298,9.287003,-7.250427,,,,,,,
1522139486.520721,-0.029357,0.029985,0.954750,0.006815,-0.002738,-0.016237,-0.029339,-0.029980,-0.999120,-0.047092,-0.017459,-0.042598,8.937683,7.606232,-9.048767,,,,,,,
1522139486.550689,-0.029309,0.030273,0.954427,0.006925,0.029095,-0.009875,-0.029292,-0.030268,-0.999113,-0.031316,0.050471,-0.069033,4.660324,6.876297,-8.223083,,,,,,,
1522139486.580627,-0.028932,0.030588,0.954115,0.008025,0.032301,-0.013073,-0.028915,-0.030583,-0.999114,-0.041123,-0.009899,-0.067826,-1.853851,6.607864,-5.975159,,,,,,,
1522139486.610595,-0.028620,0.030416,0.953828,-0.002555,0.050384,-0.014154,-0.028603,-0.030411,-0.999128,-0.059196,0.051438,0.017225,-4.321243,6.245834,-4.099976,,,,,,,
1522139486.640563,-0.027996,0.030621,0.953558,0.017452,-0.004940,-0.009829,-0.027979,-0.030617,-0.999140,-0.013174,-0.003517,-0.004400,-5.954636,6.330826,-1.476135,,,,,,,
1522139486.670532,-0.027401,0.030872,0.953239,-0.000760,-0.020851,-0.009815,-0.027384,-0.030867,-0.999148,-0.039678,0.069823,0.002917,-7.150391,6.262024,-0.651489,,,,,,,
1522139486.700500,-0.026709,0.031277,0.952789,0.024977,0.001462,-0.015164,-0.026693,-0.031272,-0.999154,-0.044459,0.003425,0.025522,-7.298279,6.113297,-0.050903,,,,,,,
1522139486.730469,-0.026026,0.031707,0.952460,0.001532,0.010013,-0.015184,-0.026010,-0.031702,-0.999159,-0.026831,0.054407,0.125914,-8.797272,5.670929,0.850037,,,,,,,
1522139486.760437,-0.025505,0.032187,0.952050,0.035815,0.039658,-0.011992,-0.025489,-0.032181,-0.999157,-0.062829,-0.009536,-0.026218,-10.664246,5.755539,2.048767,,,,,,,
1522139486.790405,-0.025186,0.032628,0.951740,0.005678,-0.013426,-0.009820,-0.025170,-0.032623,-0.999151,-0.065361,0.035873,0.101095,-14.712677,4.875488,3.775330,,,,,,,
1522139486.820374,-0.025062,0.033099,0.951496,0.023805,-0.008180,-0.003434,-0.025046,-0.033092,-0.999138,-0.090570,-0.037052,0.005715,-15.299438,5.030075,5.724365,,,,,,,
1522139486.850342,-0.025229,0.033233,0.951339,-0.009271,-0.010225,-0.006637,-0.025212,-0.033226,-0.999130,-0.055980,0.024819,-0.052979,-18.207916,4.521759,9.325012,,,,,,,
1522139486.880310,-0.025387,0.033027,0.951235,0.006813,0.009928,-0.004527,-0.025371,-0.033021,-0.999133,-0.038548,-0.003752,-0.001615,-18.422836,4.449524,11.125183,,,,,,,
1522139486.910278,-0.025742,0.033144,0.951110,0.004662,0.004624,-0.005586,-0.025725,-0.033138,-0.999120,-0.055239,-0.003895,-0.030406,-17.961136,4.000153,13.827209,,,,,,,
1522139486.940247,-0.026294,0.033547,0.951034,0.019533,-0.011363,-0.004491,-0.026276,-0.033541,-0.999092,-0.045791,-0.003156,0.038337,-17.886230,3.176178,15.180542,,,,,,,
1522139486.970215,-0.026617,0.033731,0.950999,-0.004882,0.021634,-0.003479,-0.026598,-0.033725,-0.999077,-0.062269,-0.021374,-0.059257,-17.438019,1.601486,17.512024,,,,,,,
1522139487.000182,-0.027174,0.033592,0.951056,0.000247,-0.014580,0.006155,-0.027155,-0.033586,-0.999067,-0.051992,0.032594,0.006940,-15.267868,0.842178,17.966187,,,,,,,
1522139487.030152,-0.027385,0.033705,0.951127,-0.007191,-0.008164,0.004007,-0.027366,-0.033699,-0.999057,-0.032998,0.026237,-0.050183,-14.598114,-0.135086,18.720459,,,,,,,
1522139487.060119,-0.027834,0.033978,0.951135,0.004472,-0.032599,-0.001285,-0.027814,-0.033971,-0.999036,-0.061923,0.009420,-0.073733,-11.754059,-1.047348,19.250488,,,,,,,
1522139487.090058,-0.028194,0.033849,0.951088,-0.002965,-0.026217,-0.001288,-0.028174,-0.033843,-0.999030,-0.067682,0.000304,-0.004342,-9.579910,-0.907516,18.875977,,,,,,,
1522139487.120025,-0.028210,0.033808,0.951058,-0.002792,0.015231,-0.000274,-0.028190,-0.033802,-0.999031,-0.052941,0.014545,0.030021,-6.499954,-0.321518,18.725220,,,,,,,
1522139487.149993,-0.028471,0.033642,0.950943,0.001328,-0.018771,-0.001305,-0.028451,-0.033636,-0.999029,-0.067786,0.042334,0.012121,-4.401855,0.117981,17.674500,,,,,,,
1522139487.179961,-0.028499,0.033865,0.950824,0.007890,0.014158,-0.002397,-0.028479,-0.033859,-0.999021,-0.048838,-0.039552,-0.002536,0.174866,0.921341,16.623535,,,,,,,
1522139487.209930,-0.028551,0.033487,0.950715,-0.021925,0.028051,-0.004558,-0.028531,-0.033480,-0.999032,-0.044147,-0.015836,-0.114615,1.002655,1.517090,16.096619,,,,,,,
1522139487.239898,-0.028920,0.033051,0.950676,-0.006116,-0.015555,-0.003441,-0.028900,-0.033045,-0.999036,-0.051437,-0.018515,0.026883,4.436569,1.573853,13.323059,,,,,,,
1522139487.269866,-0.029514,0.033016,0.950602,0.002468,-0.012336,-0.009837,-0.029493,-0.033010,-0.999020,-0.108354,-0.011454,0.007946,6.606674,1.937668,11.897705,,,,,,,
1522139487.299834,-0.029991,0.033279,0.950582,0.008766,-0.028349,-0.002354,-0.029970,-0.033273,-0.998997,-0.068785,-0.044257,-0.024349,7.119766,2.232880,9.421814,,,,,,,
1522139487.329803,-0.030674,0.033270,0.950559,-0.005221,-0.048543,0.001925,-0.030652,-0.033264,-0.998976,-0.069705,-0.012772,0.063262,7.346527,2.906036,8.594238,,,,,,,
1522139487.359771,-0.031128,0.033291,0.950647,0.007713,-0.017765,0.004028,-0.031105,-0.033285,-0.998962,-0.046775,-0.031076,0.022537,8.624146,3.799240,7.541321,,,,,,,
1522139487.389740,-0.031585,0.033211,0.950727,0.003367,-0.040044,-0.000211,-0.031563,-0.033205,-0.998950,-0.036064,0.036073,0.068042,8.794022,6.422409,6.480835,,,,,,,
1522139487.419708,-0.031590,0.033668,0.950841,0.008020,0.048134,0.001829,-0.031567,-0.033661,-0.998935,-0.078144,-0.048553,-0.109769,9.321518,7.169205,5.653198,,,,,,,
1522139487.449677,-0.032035,0.033331,0.950871,-0.019858,0.020582,0.000771,-0.032012,-0.033325,-0.998932,-0.015199,-0.030289,0.023819,11.503845,9.481750,3.020020,,,,,,,
1522139487.479623,-0.032241,0.033067,0.951104,0.005605,-0.009291,0.007221,-0.032218,-0.033061,-0.998934,-0.052880,0.086344,-0.047560,12.853149,10.448959,1.291809,,,,,,,
1522139487.509591,-0.032435,0.033826,0.951217,0.017397,-0.001855,0.004023,-0.032411,-0.033820,-0.998902,-0.079131,0.015479,-0.085891,14.421570,11.863449,-2.163086,,,,,,,
1522139487.539559,-0.032789,0.034284,0.951262,0.015210,-0.015631,0.000832,-0.032764,-0.034277,-0.998875,-0.044720,0.053732,-0.009044,15.239304,12.307816,-4.114441,,,,,,,
1522139487.569528,-0.033214,0.034802,0.951355,0.017192,-0.045408,0.004057,-0.033188,-0.034795,-0.998843,-0.010452,-0.023753,0.047626,14.101837,13.134476,-7.568298,,,,,,,
1522139487.599465,-0.033334,0.034306,0.951524,-0.024286,-0.012385,0.004007,-0.033308,-0.034300,-0.998856,-0.037645,0.012525,0.011399,13.422821,13.361481,-8.619629,,,,,,,
1522139487.629434,-0.033539,0.033642,0.951571,-0.001914,-0.032565,-0.004484,-0.033514,-0.033635,-0.998872,-0.049174,-0.038035,0.077318,11.683899,13.816223,-11.697266,,,,,,,
1522139487.659402,-0.033829,0.033262,0.951612,-0.033839,-0.004893,-0.000269,-0.033803,-0.033256,-0.998875,-0.039698,-0.083916,0.058110,9.728546,14.273376,-13.350098,,,,,,,
1522139487.689370,-0.033854,0.031798,0.951668,-0.033675,0.031234,-0.000305,-0.033831,-0.031792,-0.998922,0.016710,-0.004920,-0.006785,7.103134,15.857483,-16.057739,,,,,,,
1522139487.719338,-0.033899,0.031342,0.951812,-0.028528,-0.008104,0.001866,-0.033876,-0.031337,-0.998935,-0.044310,-0.044819,-0.039762,4.025558,16.095505,-16.885254,,,,,,,
1522139487.749307,-0.034069,0.030881,0.951947,-0.026417,-0.012351,0.001866,-0.034046,-0.030876,-0.998943,-0.021206,0.115257,0.109997,1.331207,16.707550,-16.963989,,,,,,,
1522139487.779275,-0.033898,0.030868,0.952071,0.007833,0.013031,0.007192,-0.033875,-0.030863,-0.998949,0.000611,-0.018637,0.046816,-6.449448,18.243225,-16.299072,,,,,,,
1522139487.809243,-0.033722,0.030540,0.952354,-0.033905,0.000320,0.015701,-0.033700,-0.030535,-0.998965,-0.048194,0.026309,-0.141766,-9.209900,18.258041,-13.900513,,,,,,,
1522139487.839212,-0.034072,0.029953,0.952541,0.012953,-0.029525,0.012567,-0.034050,-0.029949,-0.998971,-0.022804,0.066906,-0.011252,-16.150970,18.145126,-8.053528,,,,,,,
1522139487.869180,-0.034303,0.030287,0.952583,-0.019043,-0.031525,0.005091,-0.034281,-0.030282,-0.998953,-0.026281,-0.052466,-0.139886,-18.459793,18.008438,-5.129089,,,,,,,
1522139487.899148,-0.034581,0.029505,0.952535,-0.008127,0.020542,0.002908,-0.034559,-0.029501,-0.998967,-0.000048,0.041570,0.027394,-20.223770,17.198730,2.223267,,,,,,,
1522139487.929116,-0.034725,0.030050,0.952422,0.012150,0.007793,-0.005583,-0.034702,-0.030046,-0.998946,-0.036526,-0.010848,0.025389,-19.236160,16.971771,4.699646,,,,,,,
1522139487.959085,-0.035243,0.029935,0.952301,-0.010342,-0.004913,-0.003459,-0.035220,-0.029930,-0.998931,-0.055051,0.043175,-0.001221,-15.458710,17.333740,8.675110,,,,,,,
1522139487.989053,-0.035487,0.030088,0.952123,0.013156,-0.010257,-0.008757,-0.035464,-0.030084,-0.998918,-0.049604,-0.023719,-0.028899,-14.401382,17.255341,10.025940,,,,,,,
1522139488.019021,-0.036081,0.030193,0.951849,-0.002853,-0.009140,-0.009840,-0.036057,-0.030189,-0.998894,-0.061020,-0.010980,0.051201,-9.750381,17.534103,9.727173,,,,,,,
1522139488.048989,-0.036672,0.029615,0.951627,-0.015714,-0.018678,-0.008776,-0.036648,-0.029611,-0.998889,-0.090077,0.022485,-0.046246,-7.658859,16.999176,9.205322,,,,,,,
1522139488.078927,-0.037126,0.029191,0.951529,-0.010309,0.000418,-0.005597,-0.037101,-0.029187,-0.998885,-0.102272,0.026715,-0.049119,-6.838547,16.844955,8.681335,,,,,,,
1522139488.108895,-0.037286,0.028951,0.951305,-0.014615,-0.010202,-0.006648,-0.037262,-0.028947,-0.998886,-0.059967,-0.014922,-0.042068,-3.799088,15.402771,5.163696,,,,,,,
1522139488.138864,-0.037382,0.028515,0.951310,-0.018891,0.000372,0.002925,-0.037358,-0.028511,-0.998895,-0.038722,0.070580,0.013559,-3.371902,14.423676,2.992798,,,,,,,
1522139488.168832,-0.037301,0.028331,0.951453,0.016452,0.024724,0.002927,-0.037277,-0.028328,-0.998903,-0.046219,0.042991,-0.064970,-5.051086,13.078598,0.372375,,,,,,,
1522139488.198800,-0.037257,0.028695,0.951633,0.003619,0.021546,0.005057,-0.037233,-0.028691,-0.998895,-0.024183,-0.025523,-0.093116,-5.663345,12.480316,-0.675598,,,,,,,
1522139488.228768,-0.037518,0.028493,0.951800,0.007658,-0.026305,0.008305,-0.037494,-0.028489,-0.998891,-0.042874,0.031495,0.009679,-6.800735,11.734604,-1.498169,,,,,,,
1522139488.258737,-0.037375,0.028634,0.952009,-0.000697,0.010943,0.003996,-0.037351,-0.028630,-0.998892,-0.017947,-0.020992,0.038046,-8.306061,11.291229,-1.647156,,,,,,,
1522139488.288705,-0.037084,0.028534,0.952168,0.003688,0.033259,0.001847,-0.037060,-0.028530,-0.998906,-0.003955,-0.011723,0.050816,-9.588776,10.247452,-1.193604,,,,,,,
1522139488.318673,-0.036957,0.028689,0.952260,-0.000607,0.027956,0.001850,-0.036933,-0.028685,-0.998906,-0.037743,0.007781,-0.056300,-10.117508,9.874832,-1.192383,,,,,,,
1522139488.348641,-0.036744,0.029231,0.952236,0.027079,0.014058,0.004015,-0.036720,-0.029227,-0.998898,-0.058525,0.014182,-0.050586,-10.870010,9.353683,-0.740662,,,,,,,
1522139488.378610,-0.036558,0.030217,0.952216,0.030380,0.038494,0.005051,-0.036533,-0.030212,-0.998876,-0.011364,0.027206,-0.071086,-11.697800,9.207184,-0.965515,,,,,,,
1522139488.408578,-0.036667,0.031145,0.952190,0.035601,0.001339,-0.003425,-0.036641,-0.031140,-0.998843,-0.019114,0.032361,-0.007855,-10.718216,9.802536,-1.192383,,,,,,,
1522139488.438546,-0.036892,0.032088,0.952195,0.012099,0.003511,-0.000255,-0.036865,-0.032083,-0.998805,-0.013260,0.006402,-0.049642,-11.234833,10.555008,-1.045715,,,,,,,
1522139488.468522,-0.037305,0.032121,0.952208,0.012059,-0.006057,-0.000243,-0.037277,-0.032115,-0.998789,-0.041382,-0.008595,-0.049231,-11.008621,10.629059,-0.970886,,,,,,,
1522139488.498490,-0.038109,0.032475,0.952166,-0.006194,-0.030448,-0.001294,-0.038079,-0.032469,-0.998747,-0.042197,-0.029604,-0.015993,-10.185028,10.625137,-1.195435,,,,,,,
1522139488.528458,-0.038659,0.032097,0.951962,-0.001760,-0.000653,-0.007720,-0.038630,-0.032091,-0.998738,-0.021459,0.020296,-0.027568,-10.112289,10.624435,-1.570374,,,,,,,
1522139488.558426,-0.039517,0.032251,0.951817,-0.008243,-0.016602,-0.005570,-0.039487,-0.032245,-0.998700,-0.030414,-0.009122,-0.001224,-11.316879,10.254700,-1.719543,,,,,,,
1522139488.588364,-0.040206,0.031807,0.951704,-0.012521,-0.013433,-0.001314,-0.040175,-0.031802,-0.998686,-0.022585,0.026461,-0.048204,-10.190720,10.324722,-1.644226,,,,,,,
1522139488.618332,-0.040696,0.031658,0.951751,0.005838,0.033296,-0.002422,-0.040665,-0.031653,-0.998671,-0.043457,0.012915,-0.083986,-10.871201,9.278595,-0.815369,,,,,,,
1522139488.648301,-0.041348,0.032088,0.951734,0.006819,0.020489,0.003991,-0.041315,-0.032082,-0.998631,-0.028632,-0.003547,-0.016368,-11.395996,8.981491,-0.289490,,,,,,,
1522139488.678269,-0.041679,0.032177,0.951674,0.008888,0.000321,-0.000248,-0.041645,-0.032172,-0.998614,0.021915,-0.021188,-0.018887,-11.698822,8.158752,0.613647,,,,,,,
1522139488.708237,-0.041996,0.032133,0.951675,-0.003813,0.021630,-0.003477,-0.041962,-0.032128,-0.998603,-0.018508,0.038765,-0.039773,-11.249741,7.707336,1.215698,,,,,,,
1522139488.738205,-0.042160,0.032102,0.951597,0.003618,0.015225,-0.001337,-0.042126,-0.032096,-0.998597,-0.068165,-0.035165,-0.084533,-11.250305,7.108246,2.118103,,,,,,,
1522139488.768174,-0.041169,0.032110,0.951482,-0.010069,0.053530,-0.004578,-0.041136,-0.032105,-0.998638,-0.060777,-0.022369,-0.095082,-9.445724,7.026031,3.019348,,,,,,,
1522139488.798142,-0.040276,0.032199,0.951414,0.006789,0.003544,-0.004514,-0.040245,-0.032194,-0.998671,-0.025811,0.061582,0.061339,-8.325851,6.645752,2.796387,,,,,,,
1522139488.828110,-0.039480,0.032447,0.951269,-0.004558,0.096003,-0.001423,-0.039449,-0.032442,-0.998695,-0.037791,-0.044905,-0.144692,-5.321030,6.857697,3.247070,,,,,,,
1522139488.858078,-0.038690,0.031934,0.951226,-0.013466,0.013146,-0.002410,-0.038660,-0.031929,-0.998742,-0.031881,0.035865,-0.007132,-1.120010,7.138489,2.948059,,,,,,,
1522139488.888047,-0.038063,0.032183,0.951073,0.016495,0.022663,-0.006658,-0.038034,-0.032177,-0.998758,-0.043357,-0.018482,-0.046148,2.923294,8.092590,0.246277,,,,,,,
1522139488.918015,-0.037463,0.032259,0.950858,-0.009926,0.081177,-0.007801,-0.037435,-0.032253,-0.998778,-0.000071,-0.052524,-0.020677,4.860733,8.456177,-2.454224,,,,,,,
1522139488.947983,-0.035994,0.032176,0.950798,-0.016569,0.032309,-0.005632,-0.035968,-0.032170,-0.998835,-0.027143,0.032979,0.006312,6.940903,10.165649,-8.610046,,,,,,,
1522139488.977951,-0.036060,0.032058,0.950672,0.000337,-0.006015,-0.003441,-0.036034,-0.032052,-0.998836,-0.039696,-0.001746,0.071850,6.408676,11.514603,-12.065674,,,,,,,
1522139489.007920,-0.035933,0.031898,0.950555,-0.023916,0.064183,-0.002473,-0.035907,-0.031893,-0.998846,-0.035962,0.041765,-0.021051,0.844711,13.409149,-17.551086,,,,,,,
1522139489.037888,-0.036616,0.031660,0.950479,0.002332,-0.034710,-0.002351,-0.036589,-0.031655,-0.998829,-0.017793,0.007867,0.031132,-4.629196,13.883179,-18.155701,,,,,,,
1522139489.067826,-0.036932,0.031315,0.950403,-0.027324,0.018463,-0.000284,-0.036905,-0.031310,-0.998828,-0.050848,0.034163,-0.108792,-10.181213,13.683167,-18.157654,,,,,,,
1522139489.097794,-0.037296,0.030686,0.950498,-0.013684,-0.024112,0.007217,-0.037270,-0.030681,-0.998834,-0.046303,0.065242,0.043893,-19.082397,14.176361,-15.014160,,,,,,,
1522139489.127762,-0.037920,0.030315,0.950420,-0.018036,-0.039005,0.010428,-0.037894,-0.030310,-0.998822,-0.031503,-0.037332,0.024976,-23.795914,13.300949,-11.638000,,,,,,,
1522139489.157730,-0.038390,0.029312,0.950350,-0.036182,-0.045273,0.002956,-0.038364,-0.029307,-0.998834,-0.040387,0.031321,0.008706,-28.047836,11.826385,-5.334167,,,,,,,
1522139489.187699,-0.038747,0.028936,0.950346,0.007760,-0.008191,0.002951,-0.038722,-0.028932,-0.998831,-0.049856,0.005250,-0.076761,-27.366074,11.150558,-3.081116,,,,,,,
1522139489.217667,-0.039292,0.028912,0.950334,-0.015790,-0.028305,-0.001300,-0.039266,-0.028908,-0.998811,-0.019404,-0.029350,-0.060577,-26.899673,10.177826,1.273010,,,,,,,
1522139489.247635,-0.040004,0.028879,0.950328,0.013093,-0.016660,-0.003430,-0.039976,-0.028875,-0.998783,-0.027681,0.009404,-0.042598,-25.246872,9.871368,2.250061,,,,,,,
1522139489.277604,-0.040795,0.029159,0.950298,0.004513,-0.025156,-0.002356,-0.040766,-0.029155,-0.998743,-0.041082,-0.025365,-0.008764,-22.681686,10.536240,3.673706,,,,,,,
1522139489.307572,-0.041529,0.029181,0.950322,-0.000744,-0.011309,-0.005569,-0.041499,-0.029177,-0.998712,-0.046788,0.041017,-0.022696,-22.450394,10.311630,5.099670,,,,,,,
1522139489.337540,-0.042223,0.029262,0.950251,0.006731,-0.009172,-0.006646,-0.042193,-0.029258,-0.998681,-0.038984,0.026771,0.062371,-22.667252,10.313950,6.449524,,,,,,,
1522139489.367508,-0.042619,0.029214,0.950131,-0.014655,-0.008128,0.001869,-0.042588,-0.029209,-0.998666,-0.023528,0.031178,-0.023338,-21.919662,9.935822,6.676453,,,,,,,
1522139489.397477,-0.042976,0.029182,0.950022,0.018404,-0.026247,-0.004470,-0.042944,-0.029178,-0.998651,-0.038858,-0.004514,-0.000433,-22.821411,9.265701,7.503723,,,,,,,
1522139489.427445,-0.043299,0.029397,0.949982,-0.003836,0.016314,-0.003470,-0.043267,-0.029393,-0.998631,-0.002479,0.009205,-0.209926,-23.346939,8.219711,9.157593,,,,,,,
1522139489.457413,-0.043142,0.029097,0.949924,0.000381,0.004618,-0.003457,-0.043110,-0.029092,-0.998647,-0.034618,0.022028,0.037724,-23.420578,7.995651,9.758484,,,,,,,
1522139489.487363,-0.043357,0.029362,0.949894,0.011021,-0.006021,-0.005568,-0.043325,-0.029358,-0.998630,-0.045298,0.018509,-0.060849,-26.037643,7.484604,11.934204,,,,,,,
1522139489.517332,-0.043033,0.029477,0.949846,0.005793,0.019487,-0.004532,-0.043001,-0.029472,-0.998640,-0.000883,0.001778,0.012724,-27.607925,7.642197,12.457764,,,,,,,
1522139489.547300,-0.042708,0.029746,0.949816,0.006797,0.006708,-0.002381,-0.042676,-0.029741,-0.998646,-0.007235,0.018526,0.067707,-30.137100,7.881638,15.530579,,,,,,,
1522139489.577238,-0.042729,0.030408,0.949752,0.034455,-0.012496,-0.000215,-0.042696,-0.030403,-0.998625,-0.028090,0.048058,0.107649,-32.369598,8.418701,17.552307,,,,,,,
1522139489.607206,-0.042403,0.031445,0.949756,0.025030,0.030028,0.000799,-0.042369,-0.031440,-0.998607,-0.035649,0.005393,-0.018925,-34.737213,8.734253,22.424866,,,,,,,
1522139489.637174,-0.042138,0.032174,0.949691,0.041890,-0.028408,-0.006586,-0.042104,-0.032168,-0.998595,0.017522,0.077090,0.089889,-33.672821,8.507233,25.201294,,,,,,,
1522139489.667142,-0.041545,0.033377,0.949656,0.030472,0.052325,0.000784,-0.041510,-0.033371,-0.998581,-0.035547,0.014740,-0.035187,-32.054932,8.656845,32.101501,,,,,,,
1522139489.697111,-0.040998,0.033720,0.949500,0.002608,0.029033,-0.000285,-0.040963,-0.033713,-0.998592,0.010919,0.024360,-0.061558,-29.415436,8.123276,35.404907,,,,,,,
1522139489.727079,-0.040712,0.033778,0.949377,0.013134,-0.004968,-0.002384,-0.040677,-0.033771,-0.998601,-0.017428,-0.009213,0.048894,-24.906311,7.954788,37.207825,,,,,,,
1522139489.757047,-0.039992,0.033990,0.949267,-0.002583,0.056669,-0.002434,-0.039958,-0.033984,-0.998623,-0.023885,-0.035291,0.024350,-13.947891,7.981827,38.563232,,,,,,,
1522139489.787015,-0.039360,0.033888,0.949233,0.000587,0.055578,0.001825,-0.039328,-0.033882,-0.998652,0.002951,0.027473,0.030772,-7.199844,8.550186,37.289307,,,,,,,
1522139489.816984,-0.038830,0.034200,0.949231,0.001538,0.023736,-0.003471,-0.038797,-0.034193,-0.998662,-0.073126,-0.002519,0.042546,5.453064,9.987183,31.214905,,,,,,,
1522139489.846952,-0.038375,0.034488,0.949245,0.010091,0.030068,-0.000275,-0.038343,-0.034481,-0.998670,-0.049884,-0.022862,0.017178,10.011017,10.712616,27.164246,,,,,,,
1522139489.876920,-0.038413,0.034772,0.949297,0.013195,0.006689,-0.001313,-0.038380,-0.034765,-0.998658,-0.007991,0.005377,-0.053054,16.055923,13.375961,17.706665,,,,,,,
1522139489.906889,-0.038304,0.035234,0.949245,0.006899,0.029039,-0.003474,-0.038271,-0.035227,-0.998646,0.024385,-0.046941,0.057759,15.514969,14.124481,13.803467,,,,,,,
1522139489.936857,-0.038594,0.035082,0.949194,-0.004087,-0.042133,-0.004469,-0.038560,-0.035075,-0.998641,-0.010237,0.000574,0.069487,12.351654,16.307861,7.943115,,,,,,,
1522139489.966825,-0.038786,0.035112,0.949072,0.006780,-0.004938,-0.008760,-0.038753,-0.035105,-0.998632,-0.042226,-0.024587,-0.008006,9.940018,16.766006,5.240112,,,,,,,
1522139489.996793,-0.039149,0.035247,0.948904,-0.008357,-0.043160,-0.006609,-0.039115,-0.035239,-0.998613,-0.023538,0.009849,0.096666,3.786453,17.766449,2.983032,,,,,,,
1522139490.026762,-0.039419,0.035176,0.948669,0.004500,-0.035739,-0.008738,-0.039385,-0.035169,-0.998605,-0.037504,0.051679,0.015039,0.561462,17.631180,3.206909,,,,,,,
1522139490.056730,-0.039894,0.035155,0.948492,-0.019980,-0.011282,-0.002387,-0.039858,-0.035147,-0.998587,-0.027219,0.028357,-0.022638,-3.036438,17.572830,3.655396,,,,,,,
1522139490.086668,-0.040521,0.034513,0.948360,-0.020291,-0.084584,-0.005508,-0.040486,-0.034506,-0.998584,-0.031704,0.020163,0.012958,-7.076324,16.918777,6.430908,,,,,,,
1522139490.116636,-0.041107,0.033759,0.948271,-0.030621,-0.006983,-0.005596,-0.041072,-0.033752,-0.998586,-0.041371,0.006973,0.037389,-8.571289,16.477081,8.006958,,,,,,,
1522139490.146604,-0.041620,0.032920,0.948161,-0.023138,-0.000660,-0.001332,-0.041585,-0.032914,-0.998593,-0.023143,-0.001281,-0.107685,-8.345795,15.353027,9.961609,,,,,,,
1522139490.176572,-0.042349,0.032460,0.948003,-0.013645,-0.028292,-0.003431,-0.042314,-0.032455,-0.998577,-0.076628,0.003051,-0.083759,-8.647858,14.829910,10.488525,,,,,,,
1522139490.206541,-0.042965,0.032261,0.947766,0.002522,0.000388,-0.007710,-0.042929,-0.032256,-0.998557,-0.017343,-0.013749,-0.128671,-7.165298,13.622345,9.594116,,,,,,,
1522139490.236509,-0.043443,0.031842,0.947598,-0.020939,0.008931,-0.005604,-0.043407,-0.031836,-0.998550,-0.022129,-0.002328,-0.029663,-7.773972,13.024628,9.146179,,,,,,,
1522139490.266477,-0.044271,0.031834,0.947318,0.008700,-0.050620,-0.008724,-0.044234,-0.031829,-0.998514,-0.023347,0.004653,0.012186,-9.961121,11.534927,9.601074,,,,,,,
1522139490.296445,-0.045068,0.031783,0.946988,-0.010395,-0.033514,-0.017277,-0.045030,-0.031778,-0.998480,-0.020827,0.041635,0.011343,-11.615540,10.643127,10.353760,,,,,,,
1522139490.326414,-0.045622,0.031663,0.946609,-0.001727,-0.001695,-0.013035,-0.045583,-0.031658,-0.998459,-0.036952,0.021190,-0.111374,-12.660370,9.899933,12.456238,,,,,,,
1522139490.356382,-0.046431,0.031477,0.946164,0.000250,-0.040999,-0.016188,-0.046391,-0.031472,-0.998427,-0.030239,0.057992,0.034942,-13.332138,9.229599,14.108582,,,,,,,
1522139490.386350,-0.046730,0.031604,0.945730,0.006891,0.016339,-0.011980,-0.046690,-0.031599,-0.998410,-0.026171,-0.005129,-0.022068,-12.950531,9.079239,15.459351,,,,,,,
1522139490.416318,-0.047038,0.031298,0.945228,-0.015707,-0.027120,-0.017291,-0.046998,-0.031293,-0.998405,-0.020141,-0.004916,-0.052850,-8.971497,8.987167,16.286743,,,,,,,
1522139490.446287,-0.047382,0.030994,0.944686,0.006929,0.013214,-0.021564,-0.047341,-0.030989,-0.998398,-0.035926,-0.007982,-0.031128,-8.375549,8.759186,15.987976,,,,,,,
1522139490.476267,-0.047568,0.031065,0.944179,-0.015430,0.028155,-0.021601,-0.047527,-0.031060,-0.998387,-0.034138,0.018411,-0.065349,-5.766891,8.295486,14.041077,,,,,,,
1522139490.506235,-0.047590,0.031136,0.943625,0.019759,0.017451,-0.022632,-0.047549,-0.031131,-0.998384,-0.008969,0.055026,-0.086440,-4.500366,8.213516,12.767090,,,,,,,
1522139490.536203,-0.047931,0.031578,0.943046,0.003638,-0.001652,-0.019432,-0.047889,-0.031573,-0.998354,-0.006081,0.024295,0.052690,-4.882080,7.764862,12.393677,,,,,,,
1522139490.566141,-0.047901,0.031556,0.942577,0.003707,0.021651,-0.010921,-0.047859,-0.031551,-0.998356,-0.030923,0.024242,0.021854,-4.734024,7.614136,12.319336,,,,,,,
1522139490.596110,-0.048198,0.031398,0.942127,-0.002794,-0.002730,-0.015172,-0.048156,-0.031392,-0.998346,-0.060548,-0.007289,-0.021566,-3.009430,7.980682,11.643799,,,,,,,
1522139490.626078,-0.048367,0.031268,0.941610,-0.009274,-0.020775,-0.016222,-0.048325,-0.031263,-0.998342,-0.038391,0.007414,0.039160,-2.257523,8.352005,11.342590,,,,,,,
1522139490.656046,-0.048564,0.030803,0.941047,-0.004942,-0.008040,-0.016228,-0.048522,-0.030799,-0.998347,-0.019059,0.009497,0.067042,-1.284836,9.021118,9.840393,,,,,,,
1522139490.686014,-0.048454,0.030559,0.940566,-0.009122,0.013197,-0.014114,-0.048413,-0.030554,-0.998360,-0.035267,-0.005548,-0.003975,-0.160507,9.540085,8.863953,,,,,,,
1522139490.715983,-0.048521,0.030308,0.940087,-0.002882,-0.025033,-0.017279,-0.048480,-0.030303,-0.998364,-0.033033,0.050384,0.064038,-0.834457,10.366913,7.660278,,,,,,,
1522139490.745951,-0.048433,0.030394,0.939582,0.007929,0.000477,-0.021562,-0.048392,-0.030390,-0.998366,0.000159,-0.006475,0.013564,-1.063812,10.292343,7.060486,,,,,,,
1522139490.775919,-0.048099,0.030336,0.939102,-0.018607,0.037705,-0.018418,-0.048059,-0.030331,-0.998384,-0.015845,-0.007999,-0.088057,-0.759796,10.965530,6.607910,,,,,,,
1522139490.805887,-0.047862,0.029893,0.938620,0.003596,-0.006985,-0.016232,-0.047822,-0.029889,-0.998409,-0.032668,0.024884,0.018626,-1.731598,11.419678,6.380676,,,,,,,
1522139490.835856,-0.047517,0.030073,0.938057,0.002652,0.013252,-0.022646,-0.047478,-0.030068,-0.998420,-0.025734,-0.035499,0.045066,-1.737900,11.194031,5.706482,,,,,,,
1522139490.865824,-0.047311,0.029995,0.937442,-0.007035,-0.006917,-0.023691,-0.047272,-0.029990,-0.998432,-0.032456,-0.012475,0.091465,-2.794617,11.197662,4.580933,,,,,,,
1522139490.895792,-0.046971,0.029743,0.936796,0.003616,-0.011218,-0.021542,-0.046933,-0.029739,-0.998455,-0.028628,-0.007370,-0.019810,-3.175171,11.048691,3.906372,,,,,,,
1522139490.925760,-0.047015,0.029753,0.936288,-0.003911,-0.019708,-0.019413,-0.046977,-0.029749,-0.998453,-0.023290,0.048609,0.053339,-4.542679,10.602676,1.732483,,,,,,,
1522139490.955729,-0.047305,0.029433,0.935752,-0.005054,-0.038817,-0.021525,-0.047267,-0.029429,-0.998449,-0.041738,-0.002508,0.012090,-6.947510,10.388046,1.282104,,,,,,,
1522139490.985697,-0.047553,0.029070,0.935252,-0.010216,0.005782,-0.016242,-0.047515,-0.029066,-0.998448,-0.040071,-0.003695,-0.110439,-10.713058,8.830002,1.286499,,,,,,,
1522139491.015665,-0.048112,0.028583,0.934889,-0.007215,-0.032530,-0.009805,-0.048073,-0.028579,-0.998435,-0.040580,0.045257,0.037528,-12.138153,8.462006,1.887268,,,,,,,
1522139491.045633,-0.048890,0.028384,0.934485,0.002431,-0.030374,-0.016200,-0.048851,-0.028380,-0.998403,-0.029350,0.010009,-0.032588,-16.049759,6.081650,3.919800,,,,,,,
1522139491.075571,-0.049630,0.028278,0.934123,-0.007328,-0.053771,-0.008730,-0.049590,-0.028275,-0.998369,-0.017289,-0.015182,0.066134,-17.099991,5.337570,5.122253,,,,,,,
1522139491.105539,-0.050331,0.028275,0.933834,0.007773,-0.024054,-0.010870,-0.050290,-0.028272,-0.998334,-0.034244,0.009122,-0.010729,-17.399033,4.440567,6.775757,,,,,,,
1522139491.135508,-0.050777,0.028460,0.933648,0.003505,-0.018762,-0.006616,-0.050735,-0.028456,-0.998307,-0.033738,0.023024,-0.027114,-17.249603,3.391556,8.429993,,,,,,,
1522139491.165476,-0.051312,0.028671,0.933563,0.017300,-0.034748,-0.004460,-0.051269,-0.028667,-0.998273,-0.000962,-0.009206,0.038084,-16.646469,3.389359,8.955322,,,,,,,
1522139491.195444,-0.051660,0.028991,0.933448,0.012012,-0.024095,-0.005544,-0.051615,-0.028987,-0.998246,-0.029226,-0.008748,-0.067992,-15.064941,3.907471,9.179016,,,,,,,
1522139491.225412,-0.052013,0.029470,0.933316,0.024872,-0.019842,-0.010865,-0.051967,-0.029466,-0.998214,-0.024770,-0.014143,-0.005509,-15.281693,4.508820,9.551453,,,,,,,
1522139491.255381,-0.052157,0.029850,0.933229,0.004610,-0.008155,-0.004494,-0.052110,-0.029845,-0.998195,-0.017211,-0.008393,0.051723,-14.895172,5.257751,10.223694,,,,,,,
1522139491.285349,-0.051928,0.029805,0.933130,0.012070,-0.009221,-0.004498,-0.051882,-0.029801,-0.998208,-0.044905,0.001496,-0.022315,-13.994324,5.478470,9.998230,,,,,,,
1522139491.315317,-0.051711,0.030244,0.933017,0.002457,-0.011314,-0.005568,-0.051665,-0.030239,-0.998207,-0.044008,-0.003666,-0.012353,-15.115189,5.034943,11.424438,,,,,,,
1522139491.345286,-0.051290,0.030472,0.932880,0.019667,0.013105,-0.008777,-0.051243,-0.030467,-0.998221,-0.028911,-0.017034,-0.089761,-15.570999,3.912903,12.328735,,,,,,,
1522139491.375254,-0.050958,0.030957,0.932738,0.000420,0.009939,-0.005588,-0.050912,-0.030952,-0.998223,0.001412,-0.037591,-0.025000,-15.717590,2.042252,16.011169,,,,,,,
1522139491.405222,-0.050765,0.031297,0.932562,0.028130,-0.004986,-0.008748,-0.050718,-0.031292,-0.998223,-0.011690,0.063076,0.001000,-15.557831,1.444153,18.638611,,,,,,,
1522139491.435190,-0.050527,0.032206,0.932455,0.025040,0.026867,-0.003458,-0.050480,-0.032201,-0.998206,-0.000744,-0.044642,-0.032052,-13.906204,0.613373,20.292786,,,,,,,
1522139491.465159,-0.050513,0.032445,0.932271,0.004745,0.024775,-0.002399,-0.050465,-0.032439,-0.998199,0.009022,-0.004777,-0.044480,-8.124084,0.738327,21.270142,,,,,,,
1522139491.495127,-0.050559,0.032521,0.932189,-0.006115,-0.013467,-0.000237,-0.050511,-0.032516,-0.998194,0.006931,-0.019837,0.035838,-5.944839,1.028748,21.495056,,,,,,,
1522139491.525095,-0.050497,0.031956,0.932202,-0.029367,0.041817,0.002891,-0.050450,-0.031950,-0.998215,-0.019985,0.037398,-0.131515,-1.130386,2.881409,20.815063,,,,,,,
,,,,,,,,,,,,,,,,25.306548,51.445247,10.999999,-1.000000,-1.000000,1522139491.511559,
1522139491.555063,-0.051179,0.031540,0.932345,-0.017937,-0.020919,0.007214,-0.051131,-0.031535,-0.998194,-0.009263,-0.017018,0.041514,1.578308,4.293304,19.910828,,,,,,,
1522139491.585001,-0.051713,0.030980,0.932477,-0.013626,-0.015595,0.004016,-0.051665,-0.030975,-0.998184,-0.016999,0.002579,-0.017700,4.812988,6.751266,17.427551,,,,,,,
1522139491.614969,-0.052631,0.031091,0.932741,0.022579,-0.034830,0.006195,-0.052582,-0.031086,-0.998133,-0.043854,0.022037,0.030207,6.838303,7.865356,15.624146,,,,,,,
1522139491.644938,-0.053118,0.031650,0.932989,0.014303,0.023632,0.006132,-0.053067,-0.031645,-0.998089,-0.075641,-0.049898,-0.138233,8.851578,9.576492,10.818298,,,,,,,
1522139491.674906,-0.054145,0.032006,0.933283,0.024700,-0.038040,0.007272,-0.054091,-0.032000,-0.998023,-0.023119,-0.040891,0.030234,9.216934,10.097366,8.341370,,,,,,,
1522139491.704874,-0.054746,0.032625,0.933435,0.018621,0.027909,0.000803,-0.054690,-0.032619,-0.997970,-0.053373,-0.052418,0.056198,9.645844,10.690933,3.839172,,,,,,,
1522139491.734842,-0.055114,0.033115,0.933435,0.005829,0.027973,-0.003470,-0.055056,-0.033109,-0.997934,-0.053449,-0.061266,0.006677,8.737778,10.918289,2.112854,,,,,,,
1522139491.764811,-0.055260,0.032896,0.933345,-0.013415,0.024804,-0.000280,-0.055202,-0.032890,-0.997933,0.021435,-0.027794,-0.089362,6.554001,10.851776,0.762085,,,,,,,
1522139491.794779,-0.054917,0.032902,0.933366,-0.009190,0.018394,0.002927,-0.054860,-0.032896,-0.997952,0.022588,0.028028,-0.014072,3.157852,10.039886,-1.411438,,,,,,,
1522139491.824747,-0.054287,0.032870,0.933375,-0.004812,0.046007,0.005026,-0.054231,-0.032864,-0.997987,-0.005385,0.029096,-0.010649,1.867294,9.294342,-2.759094,,,,,,,
1522139491.854715,-0.053923,0.032672,0.933432,-0.001678,0.026876,0.002924,-0.053868,-0.032666,-0.998014,0.031269,-0.000980,0.005124,-2.871399,7.516342,-2.079346,,,,,,,
1522139491.884684,-0.052987,0.032302,0.933552,-0.015424,0.062987,0.009276,-0.052935,-0.032297,-0.998076,-0.006193,0.000040,-0.128725,-5.502869,6.553711,-1.551819,,,,,,,
1522139491.914652,-0.052855,0.032015,0.933689,0.001231,-0.032662,0.007244,-0.052804,-0.032010,-0.998092,-0.080741,-0.043628,0.016555,-9.562988,4.997894,-0.647644,,,,,,,
1522139491.944620,-0.052884,0.031901,0.933772,-0.013501,0.008837,0.002936,-0.052832,-0.031896,-0.998094,-0.025964,-0.010753,0.076951,-12.036835,4.709702,0.027344,,,,,,,
1522139491.974589,-0.052655,0.031659,0.933843,-0.009089,0.039672,0.000767,-0.052604,-0.031653,-0.998114,-0.014092,0.010123,-0.130777,-14.415421,5.322937,2.573669,,,,,,,
1522139492.004557,-0.053129,0.031610,0.933870,-0.003039,-0.037937,0.002986,-0.053077,-0.031605,-0.998090,-0.030907,0.057713,-0.033831,-16.652115,5.484955,4.521912,,,,,,,
1522139492.034525,-0.053529,0.031819,0.933950,0.018407,-0.015680,0.004044,-0.053476,-0.031814,-0.998062,-0.009390,-0.032487,0.051987,-18.960617,4.973938,8.122803,,,,,,,
1522139492.064463,-0.054127,0.031953,0.934002,-0.007191,-0.011360,0.002956,-0.054073,-0.031948,-0.998026,-0.043003,-0.065953,-0.045370,-19.264923,3.776596,9.402466,,,,,,,
1522139492.094431,-0.055084,0.031622,0.934036,0.001394,-0.007104,-0.001302,-0.055029,-0.031617,-0.997984,-0.041971,-0.014831,-0.145174,-20.537247,2.734497,11.580994,,,,,,,
1522139492.124399,-0.055619,0.031574,0.934134,-0.010269,0.009952,-0.003466,-0.055563,-0.031569,-0.997956,-0.012659,0.010420,-0.138732,-20.086395,-0.112640,16.467590,,,,,,,
1522139492.154368,-0.056623,0.031663,0.934252,0.016187,-0.041144,-0.001257,-0.056565,-0.031657,-0.997897,-0.027770,-0.019063,0.055194,-19.028610,-0.415604,18.269348,,,,,,,
1522139492.184336,-0.057386,0.032058,0.934275,0.007765,-0.023020,-0.007671,-0.057325,-0.032052,-0.997841,-0.017413,0.006051,0.022392,-12.555222,0.981842,19.841980,,,,,,,
1522139492.214304,-0.057490,0.032543,0.934368,0.023858,0.007688,0.002961,-0.057427,-0.032537,-0.997819,-0.024070,-0.064311,-0.038069,-8.720947,2.089279,19.539490,,,,,,,
1522139492.244272,-0.057512,0.032665,0.934450,-0.019991,-0.013439,-0.000243,-0.057450,-0.032659,-0.997814,-0.021194,-0.009348,0.021160,-0.158371,4.973053,16.832214,,,,,,,
1522139492.274241,-0.057268,0.032376,0.934465,0.015347,0.014066,0.004021,-0.057207,-0.032371,-0.997837,0.051500,0.074012,0.058827,2.009155,5.710815,14.355286,,,,,,,
1522139492.304209,-0.057021,0.032808,0.934404,-0.003852,0.013096,-0.001325,-0.056960,-0.032802,-0.997837,0.058119,-0.034581,-0.042644,4.908737,6.816696,8.277405,,,,,,,
1522139492.334177,-0.057013,0.032208,0.934335,-0.032887,-0.029360,0.001894,-0.056953,-0.032203,-0.997857,0.000007,0.030021,0.080011,5.570755,7.410568,5.125305,,,,,,,
1522139492.364145,-0.056311,0.031697,0.934250,0.000452,0.022631,0.000802,-0.056253,-0.031692,-0.997913,-0.022070,-0.020555,-0.011761,0.609512,8.404358,1.593811,,,,,,,
1522139492.394114,-0.055881,0.031780,0.934397,-0.018910,-0.003896,0.004002,-0.055824,-0.031774,-0.997935,0.048774,0.026327,0.075251,-2.086914,8.716568,1.666260,,,,,,,
1522139492.424082,-0.055364,0.031264,0.934309,-0.009159,0.021605,-0.000274,-0.055309,-0.031259,-0.997980,0.006984,-0.008703,0.011163,-5.063583,10.381073,2.783081,,,,,,,
1522139492.454050,-0.054981,0.030795,0.934312,-0.022066,0.002491,0.001870,-0.054927,-0.030790,-0.998016,-0.008428,-0.024889,-0.021317,-6.373764,11.666458,7.277283,,,,,,,
1522139492.483993,-0.054141,0.030353,0.934311,0.007060,0.067260,-0.000309,-0.054090,-0.030348,-0.998075,0.005262,0.036803,-0.035830,-4.484436,12.109604,8.926514,,,,,,,
1522139492.513962,-0.053605,0.030521,0.934350,-0.025046,0.061963,0.009260,-0.053554,-0.030516,-0.998099,0.011638,0.022597,-0.168390,1.303833,12.535065,10.427673,,,,,,,
1522139492.543930,-0.053071,0.030234,0.934279,0.012251,0.031142,-0.003467,-0.053022,-0.030229,-0.998136,0.008893,0.011751,0.054212,3.700729,12.448898,10.054260,,,,,,,
1522139492.573868,-0.053356,0.030539,0.934127,-0.005014,-0.012371,-0.005564,-0.053306,-0.030534,-0.998111,0.020957,-0.016570,-0.108685,8.323929,12.423676,5.631653,,,,,,,
1522139492.603836,-0.052947,0.030371,0.933965,0.012292,0.033299,-0.008793,-0.052898,-0.030366,-0.998138,-0.042195,0.028444,-0.157227,9.216812,13.017487,3.454651,,,,,,,
1522139492.633804,-0.053675,0.030678,0.933673,-0.002947,-0.029359,-0.007679,-0.053624,-0.030673,-0.998090,-0.046444,-0.053464,0.039258,8.376083,13.018646,0.829224,,,,,,,
1522139492.663772,-0.054368,0.030152,0.933457,-0.010518,-0.051659,-0.007660,-0.054317,-0.030148,-0.998069,-0.014027,0.058529,-0.007089,7.698380,13.245865,0.003052,,,,,,,
1522139492.693741,-0.055411,0.030076,0.933321,-0.006014,0.000382,-0.006637,-0.055357,-0.030072,-0.998014,0.021117,-0.051288,-0.069674,6.871323,13.623611,-0.973938,,,,,,,
1522139492.723709,-0.056741,0.029582,0.933334,-0.028855,-0.080360,0.001937,-0.056686,-0.029578,-0.997954,0.007125,0.048697,-0.021699,7.474121,13.995743,-1.125061,,,,,,,
1522139492.753677,-0.058066,0.029059,0.933330,-0.001964,-0.037953,0.002996,-0.058009,-0.029055,-0.997893,0.029338,0.003847,-0.101274,8.001480,14.817398,-2.103149,,,,,,,
1522139492.783646,-0.059445,0.028931,0.933424,-0.020347,-0.081497,0.008344,-0.059385,-0.028927,-0.997816,-0.009173,-0.003162,-0.054415,9.731262,17.056671,-5.036194,,,,,,,
1522139492.813614,-0.060523,0.028424,0.933418,-0.006363,-0.066618,0.001951,-0.060461,-0.028420,-0.997766,-0.021646,-0.004508,-0.033988,9.133957,18.407562,-6.841919,,,,,,,
1522139492.843582,-0.061215,0.028113,0.933561,-0.015834,-0.031543,0.005100,-0.061152,-0.028109,-0.997733,0.014140,-0.003751,-0.125787,7.186752,21.262039,-11.129333,,,,,,,
1522139492.873550,-0.061844,0.028158,0.933621,0.020740,0.023647,0.000813,-0.061780,-0.028155,-0.997693,-0.019351,0.027758,-0.014667,5.692154,23.066650,-13.237244,,,,,,,
1522139492.903519,-0.061981,0.028535,0.933569,-0.003019,-0.033688,0.002983,-0.061916,-0.028531,-0.997674,-0.008442,-0.044757,0.086586,-1.511795,24.071732,-15.569885,,,,,,,
1522139492.933487,-0.061440,0.028093,0.933552,-0.010132,0.040737,-0.001355,-0.061377,-0.028089,-0.997719,-0.005273,0.032667,0.013985,-6.088394,23.867401,-15.496338,,,,,,,
1522139492.963455,-0.060837,0.027984,0.933482,-0.010285,0.007787,-0.000256,-0.060775,-0.027981,-0.997759,-0.033692,-0.049580,-0.045026,-15.822922,22.715714,-10.996582,,,,,,,
1522139492.993423,-0.059866,0.027388,0.933366,-0.035653,0.062076,-0.003533,-0.059808,-0.027385,-0.997834,0.011987,-0.000294,-0.001540,-18.956238,22.358185,-7.621765,,,,,,,
1522139493.023392,-0.058580,0.026291,0.933265,-0.034564,0.069481,-0.000337,-0.058526,-0.026288,-0.997940,0.033151,0.004590,-0.008057,-21.703873,20.952454,-0.717529,,,,,,,
1522139493.053360,-0.056574,0.026051,0.933307,-0.006736,0.089587,0.002854,-0.056525,-0.026048,-0.998061,0.017676,0.055207,0.033981,-22.440750,20.059448,2.960754,,,,,,,
1522139493.083298,-0.054955,0.026039,0.933376,-0.001599,0.043891,0.001838,-0.054908,-0.026036,-0.998152,0.005607,0.027775,0.071623,-20.331039,19.677200,5.213318,,,,,,,
1522139493.113266,-0.053651,0.025888,0.933452,-0.008010,0.048132,0.006088,-0.053607,-0.025885,-0.998227,-0.032880,-0.002756,0.009976,-14.917877,19.280701,8.067566,,,,,,,
1522139493.143234,-0.052749,0.025923,0.933531,0.017414,-0.001850,0.001899,-0.052706,-0.025920,-0.998274,0.008868,0.023448,0.081098,-12.445206,18.819946,8.445679,,,,,,,
1522139493.173202,-0.051921,0.026398,0.933559,0.016391,-0.002842,-0.007692,-0.051879,-0.026395,-0.998304,0.051101,0.020307,0.060331,-7.202927,18.720245,7.323669,,,,,,,
1522139493.203171,-0.051692,0.026683,0.933641,0.016385,0.001350,-0.001293,-0.051651,-0.026680,-0.998309,0.009308,-0.004250,0.037234,-4.965805,18.558304,5.450439,,,,,,,
1522139493.233139,-0.051548,0.027121,0.933759,0.025886,-0.024155,-0.003396,-0.051506,-0.027118,-0.998304,-0.009452,0.037967,-0.025850,-3.106506,18.697083,2.600830,,,,,,,
1522139493.263107,-0.051918,0.028025,0.933886,0.019450,-0.023118,0.002989,-0.051874,-0.028021,-0.998260,-0.025381,-0.053705,-0.025086,-3.179886,19.221817,1.998657,,,,,,,
1522139493.293075,-0.052103,0.028198,0.934055,0.010947,-0.012506,0.006177,-0.052059,-0.028194,-0.998246,0.030743,0.047481,-0.015304,-0.480347,20.707108,-0.555908,,,,,,,
1522139493.323044,-0.052648,0.028841,0.934320,0.026894,-0.026367,0.007269,-0.052602,-0.028837,-0.998199,0.023855,-0.010317,0.041305,-0.184738,21.079422,-1.907227,,,,,,,
1522139493.353012,-0.053681,0.029091,0.934543,0.007503,-0.060323,0.009410,-0.053632,-0.029086,-0.998137,0.058149,0.030841,0.031798,-1.042419,20.104462,-5.728760,,,,,,,
1522139493.382980,-0.054548,0.029440,0.934802,0.017213,-0.041229,0.008343,-0.054497,-0.029436,-0.998080,0.023553,-0.028731,-0.033460,-2.482651,19.434525,-7.151855,,,,,,,
1522139493.412949,-0.055909,0.029772,0.935066,0.010772,-0.046523,0.009402,-0.055855,-0.029768,-0.997995,-0.026848,-0.033022,-0.021902,-5.126984,17.496429,-7.145447,,,,,,,
1522139493.442917,-0.056961,0.030311,0.935307,0.007605,-0.047528,0.001944,-0.056904,-0.030306,-0.997920,-0.024593,0.002367,-0.063146,-10.024384,15.118698,-6.913330,,,,,,,
1522139493.472897,-0.057614,0.030601,0.935427,0.003676,0.038514,0.009305,-0.057555,-0.030596,-0.997873,-0.015946,-0.049909,-0.115774,-11.158600,14.148880,-6.835022,,,,,,,
1522139493.502865,-0.058290,0.030441,0.935644,-0.006203,-0.022036,0.009362,-0.058230,-0.030437,-0.997839,-0.011167,-0.017384,0.021811,-15.814651,12.371796,-4.880188,,,,,,,
1522139493.532834,-0.058347,0.030913,0.935887,0.028015,-0.014648,0.005114,-0.058286,-0.030908,-0.997821,-0.018847,-0.000525,0.047809,-17.087936,12.003418,-3.979431,,,,,,,
1522139493.562802,-0.057300,0.031167,0.935985,0.001661,0.052387,-0.000292,-0.057241,-0.031162,-0.997874,-0.031092,-0.088162,-0.131811,-19.338516,10.366180,-1.348999,,,,,,,
1522139493.592740,-0.056755,0.031111,0.936133,-0.019864,0.016293,0.001862,-0.056697,-0.031106,-0.997907,-0.004597,-0.014395,0.019239,-21.433899,9.477859,0.903503,,,,,,,
1522139493.622708,-0.056270,0.030859,0.936254,-0.006108,-0.006051,0.004013,-0.056213,-0.030854,-0.997942,0.010239,-0.012374,0.012529,-24.126190,7.769104,5.033997,,,,,,,
1522139493.652676,-0.055277,0.030485,0.936422,-0.028290,0.044994,0.003955,-0.055224,-0.030480,-0.998009,-0.038282,-0.030616,0.047432,-24.642273,7.173904,7.511169,,,,,,,
1522139493.682644,-0.054587,0.029666,0.936614,-0.018949,-0.001840,0.013592,-0.054536,-0.029662,-0.998071,0.015305,-0.026216,0.050546,-25.521606,5.683792,13.441711,,,,,,,
1522139493.712613,-0.053655,0.029423,0.936886,-0.008141,0.024713,0.011442,-0.053606,-0.029419,-0.998129,0.032701,0.061020,0.100271,-24.238052,5.005569,15.995056,,,,,,,
1522139493.742581,-0.053016,0.029429,0.937134,-0.005977,0.027887,0.010385,-0.052969,-0.029425,-0.998163,0.023000,-0.006693,-0.034537,-21.449814,5.070129,18.096130,,,,,,,
1522139493.772549,-0.052430,0.029086,0.937437,-0.018706,0.047052,0.010353,-0.052384,-0.029082,-0.998203,0.041962,-0.006959,-0.065883,-14.610977,4.966827,20.575012,,,,,,,
1522139493.802517,-0.052784,0.028836,0.937696,0.005311,-0.069909,0.012618,-0.052738,-0.028832,-0.998192,0.027713,0.015999,0.175896,-10.185562,5.096756,20.426697,,,,,,,
1522139493.832486,-0.052788,0.028562,0.937975,-0.014524,0.021561,0.006124,-0.052742,-0.028558,-0.998200,-0.002724,-0.024496,-0.060867,-2.620255,6.334045,16.750549,,,,,,,
1522139493.862454,-0.053181,0.028502,0.938247,0.014002,-0.041206,0.008331,-0.053134,-0.028498,-0.998181,0.012088,-0.025884,0.049450,-2.029297,6.779129,14.499023,,,,,,,
1522139493.892422,-0.053466,0.029283,0.938475,0.036591,-0.007250,0.006186,-0.053418,-0.029278,-0.998143,-0.045871,0.007428,-0.037685,-1.585220,7.674652,12.020691,,,,,,,
1522139493.922390,-0.053786,0.030684,0.938784,0.037664,-0.007262,0.006194,-0.053735,-0.030679,-0.998084,-0.002463,-0.027411,-0.026529,-1.809464,7.750671,12.020264,,,,,,,
1522139493.952359,-0.054029,0.031208,0.939091,0.015359,0.024668,0.009329,-0.053977,-0.031203,-0.998055,-0.021844,0.039382,0.064858,-1.129959,7.074493,13.898315,,,,,,,
1522139493.982327,-0.054121,0.031949,0.939512,0.028002,-0.010445,0.011505,-0.054067,-0.031944,-0.998026,-0.015498,-0.071206,-0.021673,0.815018,6.615662,13.826111,,,,,,,
1522139494.012295,-0.054047,0.032106,0.939856,0.001301,-0.008271,0.014677,-0.053993,-0.032100,-0.998025,-0.010354,-0.018421,-0.025519,5.590790,5.991180,10.830994,,,,,,,
1522139494.042263,-0.054078,0.032357,0.940266,0.016106,-0.045475,0.010467,-0.054024,-0.032351,-0.998015,-0.016533,0.019687,0.116683,6.774811,6.058075,8.056335,,,,,,,
1522139494.072232,-0.053435,0.032990,0.940708,0.014436,0.063924,0.016755,-0.053380,-0.032984,-0.998029,0.016637,-0.089865,-0.142199,6.156403,5.608521,5.732788,,,,,,,
1522139494.102170,-0.053550,0.033168,0.941297,0.017166,-0.043375,0.013662,-0.053495,-0.033162,-0.998017,-0.002688,0.016118,0.083955,2.253510,6.449219,3.852478,,,,,,,
1522139494.132138,-0.053709,0.034316,0.941750,0.033497,0.030933,0.017865,-0.053652,-0.034309,-0.997970,0.041933,-0.054802,-0.041840,0.154358,6.309036,4.226990,,,,,,,
1522139494.162106,-0.053856,0.034669,0.942058,-0.006149,-0.006118,0.012542,-0.053797,-0.034663,-0.997950,0.048899,-0.007559,-0.058507,-0.659790,6.539124,5.650696,,,,,,,
1522139494.192074,-0.054194,0.034795,0.942489,0.010816,-0.024282,0.020034,-0.054134,-0.034788,-0.997927,0.010418,0.020003,0.007998,0.392242,6.834244,5.500000,,,,,,,
1522139494.222043,-0.054438,0.035452,0.942854,0.020536,-0.007245,0.012561,-0.054377,-0.035444,-0.997891,0.030421,-0.028765,-0.012363,2.033417,8.248016,1.670166,,,,,,,
1522139494.252011,-0.054666,0.036002,0.943118,0.011998,-0.012515,0.008304,-0.054604,-0.035994,-0.997859,-0.009895,-0.032945,-0.025395,1.419754,8.323380,-0.730408,,,,,,,
1522139494.281979,-0.054596,0.036555,0.943366,0.029190,0.007653,0.005100,-0.054532,-0.036547,-0.997843,-0.012423,-0.040815,-0.082083,-3.988297,8.870468,-2.985291,,,,,,,
1522139494.311947,-0.054582,0.037378,0.943699,0.010047,0.025759,0.006133,-0.054517,-0.037370,-0.997813,0.007901,-0.004485,0.063625,-7.139053,8.435242,-2.385132,,,,,,,
1522139494.341916,-0.054401,0.037395,0.944043,-0.003852,0.025775,0.009316,-0.054336,-0.037386,-0.997823,0.027374,-0.040205,0.107549,-9.457016,7.698074,0.016663,,,,,,,
1522139494.371884,-0.054272,0.036867,0.944482,-0.020097,-0.025207,0.010427,-0.054208,-0.036859,-0.997849,-0.022925,-0.032172,0.049836,-9.754135,7.175766,1.368591,,,,,,,
1522139494.401852,-0.053887,0.036514,0.944935,-0.009266,0.011947,0.012526,-0.053825,-0.036505,-0.997883,-0.017937,-0.041757,-0.034328,-9.456833,6.949356,1.294617,,,,,,,
1522139494.431820,-0.053665,0.035942,0.945337,-0.024286,-0.001829,0.013589,-0.053605,-0.035934,-0.997915,-0.004806,-0.041306,-0.012567,-7.587952,7.688690,-0.957397,,,,,,,
1522139494.461789,-0.053516,0.035405,0.945905,-0.008347,-0.010424,0.021070,-0.053457,-0.035398,-0.997943,-0.009333,-0.014804,0.086627,-9.318283,7.695572,-1.858276,,,,,,,
1522139494.491749,-0.053930,0.035359,0.946393,-0.006106,0.004499,0.013598,-0.053871,-0.035352,-0.997922,0.033393,-0.048358,-0.011188,-15.317154,8.171967,-2.463196,,,,,,,
1522139494.521717,-0.054176,0.035248,0.946951,-0.012667,-0.025269,0.017886,-0.054116,-0.035241,-0.997913,0.033974,0.004617,-0.007840,-17.637238,8.033463,-1.413818,,,,,,,
1522139494.551685,-0.054892,0.035219,0.947448,0.015055,-0.033842,0.017917,-0.054831,-0.035212,-0.997875,0.039114,-0.005453,0.064494,-22.947525,6.487381,3.614746,,,,,,,
1522139494.581654,-0.055113,0.035604,0.947923,-0.004024,-0.009318,0.012551,-0.055051,-0.035597,-0.997849,0.051022,-0.056078,-0.009842,-23.022766,5.065048,5.945435,,,,,,,
1522139494.611591,-0.055603,0.035360,0.948323,-0.008283,0.000225,0.017861,-0.055540,-0.035352,-0.997830,0.000868,-0.045153,-0.027225,-21.812424,3.938217,9.550476,,,,,,,
1522139494.641560,-0.056055,0.034877,0.948669,-0.030774,-0.022000,0.012542,-0.055992,-0.034870,-0.997822,0.013282,-0.051312,0.043690,-21.589020,2.963547,10.904541,,,,,,,
1522139494.671528,-0.056013,0.034075,0.949069,-0.026437,-0.003973,0.015727,-0.055951,-0.034068,-0.997852,-0.001605,0.001689,-0.047222,-19.340286,2.204483,11.958679,,,,,,,
1522139494.701496,-0.056246,0.033623,0.949491,-0.015747,0.000244,0.016795,-0.056184,-0.033617,-0.997854,0.042650,-0.045592,0.045385,-18.360245,2.575302,12.182678,,,,,,,
1522139494.731463,-0.056324,0.033175,0.949920,-0.025393,-0.010343,0.014668,-0.056263,-0.033169,-0.997865,0.033421,-0.013248,0.040437,-17.000977,2.420990,13.983948,,,,,,,
1522139494.761433,-0.056100,0.032545,0.950351,-0.012501,0.006621,0.014664,-0.056041,-0.032540,-0.997898,-0.021473,-0.000450,-0.059048,-14.289108,3.384155,14.356445,,,,,,,
1522139494.791400,-0.056096,0.032251,0.950854,-0.024392,-0.022061,0.017880,-0.056037,-0.032246,-0.997908,-0.007058,-0.002224,0.038939,-12.562241,3.751083,14.055847,,,,,,,
1522139494.821368,-0.056304,0.031633,0.951228,-0.005103,-0.013562,0.011491,-0.056246,-0.031627,-0.997916,-0.018049,0.005474,-0.084283,-9.401016,5.011642,13.827454,,,,,,,
1522139494.851337,-0.056245,0.031528,0.951628,-0.007055,0.031052,0.014641,-0.056187,-0.031523,-0.997922,-0.020595,-0.011125,-0.063082,-7.518631,5.977783,13.449524,,,,,,,
1522139494.881305,-0.056184,0.031572,0.952067,0.008743,-0.012571,0.017889,-0.056127,-0.031567,-0.997925,-0.013103,-0.023090,0.044143,-4.200409,9.335297,10.887756,,,,,,,
1522139494.911273,-0.056098,0.031603,0.952642,-0.005093,-0.005098,0.016810,-0.056041,-0.031597,-0.997928,0.033259,0.016110,0.079029,-4.191025,10.909195,9.831421,,,,,,,
1522139494.941242,-0.055806,0.031868,0.953186,0.014463,0.069249,0.015681,-0.055749,-0.031862,-0.997936,0.004098,-0.067564,-0.054401,-4.472763,13.459259,8.621094,,,,,,,
1522139494.971210,-0.055394,0.032199,0.953668,-0.005202,-0.031648,0.014706,-0.055337,-0.032194,-0.997949,-0.004752,-0.051241,0.035378,-3.489883,14.204895,8.693604,,,,,,,
1522139495.001179,-0.054825,0.032432,0.954119,0.014155,-0.001934,0.013624,-0.054768,-0.032426,-0.997972,0.019383,0.040803,0.048326,-3.339417,13.979675,9.144592,,,,,,,
1522139495.031147,-0.053836,0.032907,0.954527,0.015551,0.071387,0.013548,-0.053781,-0.032901,-0.998011,0.039422,-0.023328,-0.006002,-3.271469,13.454071,8.846741,,,,,,,
1522139495.061115,-0.053048,0.033386,0.954961,0.015226,0.000182,0.014687,-0.052993,-0.033380,-0.998037,-0.005646,-0.023719,0.012365,-2.690048,11.726242,8.628967,,,,,,,
1522139495.091084,-0.052240,0.033667,0.955327,0.016410,0.020410,0.009337,-0.052187,-0.033660,-0.998070,0.038973,-0.044495,0.134758,-2.173920,11.198318,8.031250,,,,,,,
1522139495.121021,-0.050941,0.033689,0.955652,-0.002618,0.064003,0.011415,-0.050890,-0.033682,-0.998136,-0.007506,-0.015329,-0.065905,-2.105072,10.672852,7.883423,,,,,,,
