timestamp(unix),attitude_roll(radians),attitude_pitch(radians),attitude_yaw(radians),rotation_rate_x(radians/s),rotation_rate_y(radians/s),rotation_rate_z(radians/s),gravity_x(G),gravity_y(G),gravity_z(G),user_acc_x(G),user_acc_y(G),user_acc_z(G),magnetic_field_x(microteslas),magnetic_field_y(microteslas),magnetic_field_z(microteslas),latitude(degree),longitude(degree),altitude(meter),speed(m/s),course(degree),timestamp(unix),User Mark
,,,,,,,,,,,,,,,,25.299955,51.442182,11.924129,-1.000000,-1.000000,1522138922.494901,
1522138926.092798,-0.048273,-0.005486,0.747279,-0.006076,0.000573,-0.006382,-0.048254,0.005486,-0.998820,0.026601,0.000038,0.013255,-6.155731,-49.635468,-40.490173,,,,,,,
1522138926.122766,-0.048320,-0.005516,0.747012,0.004680,0.011204,-0.011709,-0.048300,0.005516,-0.998818,0.017035,0.000832,-0.016563,-7.206573,-49.855530,-40.264832,,,,,,,
1522138926.152735,-0.048400,-0.005116,0.746697,0.016374,0.000553,-0.011692,-0.048381,0.005116,-0.998816,0.018443,0.012691,-0.061212,-6.907654,-49.782166,-40.564941,,,,,,,
1522138926.182703,-0.048940,-0.004476,0.746358,0.026913,-0.032382,-0.014855,-0.048920,0.004476,-0.998793,0.008240,0.046550,0.004881,-6.449585,-49.109009,-40.342468,,,,,,,
1522138926.212671,-0.049522,-0.003555,0.745964,0.034468,-0.014336,-0.014867,-0.049502,0.003555,-0.998768,0.019350,0.026520,0.039951,-6.304977,-49.335175,-40.866455,,,,,,,
1522138926.242639,-0.050144,-0.002745,0.745640,0.024820,-0.018597,-0.010605,-0.050123,0.002745,-0.998739,0.024869,0.002305,0.028021,-7.205109,-49.256287,-41.017212,,,,,,,
1522138926.272608,-0.051076,-0.002270,0.745398,0.013028,-0.028140,-0.009538,-0.051054,0.002270,-0.998693,0.001020,0.023120,-0.016184,-6.902710,-49.332108,-40.491760,,,,,,,
1522138926.302576,-0.052254,-0.001914,0.745164,0.016075,-0.062147,-0.009504,-0.052230,0.001914,-0.998633,0.021743,0.010278,-0.016092,-7.278305,-49.031021,-41.093201,,,,,,,
1522138926.332544,-0.053212,-0.001559,0.744935,0.007703,-0.021758,-0.007422,-0.053187,0.001559,-0.998583,0.033289,0.012449,0.036334,-6.827423,-49.032898,-40.942932,,,,,,,
1522138926.362482,-0.054037,-0.001266,0.744688,0.006638,-0.023885,-0.008478,-0.054011,0.001266,-0.998540,-0.006368,-0.023834,-0.043971,-6.004700,-49.036972,-41.317505,,,,,,,
1522138926.392450,-0.054546,-0.001229,0.744446,-0.003958,-0.005775,-0.009578,-0.054519,0.001229,-0.998512,-0.007814,-0.026619,-0.026223,-6.752258,-49.108093,-40.792603,,,,,,,
1522138926.422418,-0.055120,-0.001258,0.744196,0.001262,-0.030233,-0.008486,-0.055092,0.001258,-0.998480,0.010582,-0.004966,-0.031152,-7.202560,-48.956375,-41.093445,,,,,,,
1522138926.452387,-0.055041,-0.001185,0.743917,0.003668,0.026086,-0.010666,-0.055013,0.001185,-0.998485,-0.007105,0.020742,0.044673,-6.600327,-48.734085,-41.094055,,,,,,,
1522138926.482355,-0.054957,-0.000950,0.743592,0.005668,-0.004725,-0.011701,-0.054930,0.000950,-0.998490,0.020552,0.001293,0.046326,-7.199997,-48.881088,-40.793762,,,,,,,
1522138926.512323,-0.054303,-0.001140,0.743358,-0.009186,0.021822,-0.005338,-0.054276,0.001140,-0.998525,0.006532,0.019322,-0.055582,-6.601974,-48.809219,-41.243713,,,,,,,
1522138926.542291,-0.053660,-0.001268,0.743256,0.002531,0.019664,-0.003203,-0.053634,0.001268,-0.998560,0.003677,0.034758,0.012430,-5.921753,-48.287277,-41.245422,,,,,,,
1522138926.572260,-0.052462,-0.001265,0.743191,-0.003711,0.056843,-0.001106,-0.052438,0.001265,-0.998623,-0.010490,-0.001799,-0.073719,-6.901825,-48.658096,-41.469482,,,,,,,
1522138926.602228,-0.051322,-0.001591,0.743175,-0.013438,0.035602,0.002098,-0.051299,0.001591,-0.998682,-0.003053,0.007228,-0.024496,-6.598557,-48.284531,-41.545837,,,,,,,
1522138926.632196,-0.050008,-0.001858,0.743242,-0.004849,0.049384,0.004219,-0.049987,0.001858,-0.998748,0.008193,-0.005368,0.025787,-6.074615,-48.436813,-41.469971,,,,,,,
1522138926.662164,-0.048676,-0.001913,0.743281,0.001557,0.045153,-0.000038,-0.048656,0.001913,-0.998814,0.016796,0.011011,-0.027141,-6.070877,-48.061829,-41.471436,,,,,,,
1522138926.692133,-0.047570,-0.001506,0.743205,0.019664,0.029206,-0.005336,-0.047552,0.001506,-0.998868,0.032552,0.009664,-0.009815,-6.148102,-48.511108,-41.094727,,,,,,,
1522138926.722101,-0.046639,-0.000813,0.743008,0.026052,0.019651,-0.009580,-0.046622,0.000813,-0.998912,0.021110,-0.010105,-0.006322,-5.250839,-48.515594,-41.544250,,,,,,,
1522138926.752069,-0.045863,-0.000034,0.742731,0.022912,0.030293,-0.011719,-0.045847,0.000034,-0.998948,-0.001974,-0.001819,0.016145,-6.528793,-48.809845,-41.543701,,,,,,,
1522138926.782038,-0.045381,0.000618,0.742362,0.022842,0.011207,-0.015970,-0.045365,-0.000618,-0.998970,-0.016204,0.016899,-0.001915,-6.299438,-48.510666,-41.319763,,,,,,,
1522138926.811975,-0.045173,0.001180,0.741919,0.016414,0.006961,-0.014902,-0.045157,-0.001180,-0.998979,0.022269,0.018819,0.048830,-5.626419,-48.439133,-41.769714,,,,,,,
1522138926.841944,-0.045050,0.001656,0.741473,0.014302,0.010156,-0.015969,-0.045034,-0.001656,-0.998984,0.036428,0.015709,0.048575,-6.080765,-48.737320,-41.993713,,,,,,,
1522138926.871912,-0.045181,0.002075,0.741031,0.015260,-0.014272,-0.017014,-0.045166,-0.002075,-0.998977,0.004303,0.003189,0.049499,-6.078659,-48.662094,-41.769043,,,,,,,
1522138926.901880,-0.045537,0.002327,0.740618,0.006663,-0.023843,-0.013809,-0.045521,-0.002327,-0.998961,0.024769,-0.009529,0.085112,-5.478546,-48.515030,-41.994324,,,,,,,
1522138926.931848,-0.045809,0.002398,0.740255,0.001365,-0.013207,-0.012761,-0.045792,-0.002398,-0.998948,-0.003295,0.017459,0.013993,-5.707275,-48.888992,-41.992920,,,,,,,
1522138926.961802,-0.046203,0.002489,0.739947,0.001342,-0.013236,-0.008500,-0.046186,-0.002489,-0.998930,-0.032290,-0.006819,0.003385,-5.930756,-48.737991,-41.993652,,,,,,,
1522138926.991770,-0.046615,0.002345,0.739690,-0.010442,-0.022777,-0.008494,-0.046598,-0.002345,-0.998911,0.014936,-0.003377,0.089304,-5.256241,-48.516479,-42.444214,,,,,,,
1522138927.021738,-0.046510,0.001987,0.739460,-0.011350,0.015469,-0.006405,-0.046494,-0.001987,-0.998917,-0.034073,0.007938,-0.014816,-4.953568,-48.517395,-41.994019,,,,,,,
1522138927.051706,-0.046322,0.001674,0.739280,-0.011454,-0.006840,-0.006387,-0.046306,-0.001674,-0.998926,-0.004872,0.012798,-0.003409,-6.081955,-48.812378,-42.068420,,,,,,,
1522138927.081675,-0.045612,0.001296,0.739086,-0.016587,0.039920,-0.005372,-0.045596,-0.001296,-0.998959,0.020450,-0.008042,0.013821,-5.257278,-48.891022,-41.992676,,,,,,,
1522138927.111643,-0.044729,0.000674,0.738934,-0.020924,0.028230,-0.003234,-0.044714,-0.000674,-0.999000,-0.043878,0.017001,-0.062249,-5.406693,-48.740494,-42.143372,,,,,,,
1522138927.141611,-0.043703,0.000323,0.738812,-0.002751,0.032465,-0.005366,-0.043690,-0.000323,-0.999045,-0.019192,0.015734,-0.030725,-5.332153,-48.516281,-42.594299,,,,,,,
1522138927.171579,-0.042418,0.000075,0.738608,-0.015420,0.062234,-0.005395,-0.042405,-0.000075,-0.999100,-0.026183,0.000929,-0.001052,-4.585922,-48.894638,-42.592407,,,,,,,
1522138927.201548,-0.041459,-0.000218,0.738409,-0.003855,0.018625,-0.006394,-0.041447,0.000218,-0.999141,0.001042,0.006649,-0.044561,-4.583542,-48.519882,-42.818848,,,,,,,
1522138927.231516,-0.040217,-0.000562,0.738193,-0.014399,0.053728,-0.004324,-0.040207,0.000562,-0.999191,0.024994,0.006442,0.024612,-4.806580,-48.368790,-42.744568,,,,,,,
1522138927.261454,-0.039388,-0.000772,0.738024,0.001428,0.006945,-0.007454,-0.039378,0.000772,-0.999224,0.019603,0.032141,0.054461,-4.583237,-48.444946,-42.894165,,,,,,,
1522138927.291422,-0.038400,-0.000772,0.737742,-0.003710,0.049481,-0.009634,-0.038390,0.000772,-0.999263,-0.009049,-0.012521,-0.075353,-4.284744,-48.596298,-42.893433,,,,,,,
1522138927.321390,-0.037996,-0.000823,0.737405,0.003500,-0.013213,-0.012759,-0.037987,0.000823,-0.999278,0.018990,0.015260,0.008586,-4.508972,-48.520279,-42.893860,,,,,,,
1522138927.351358,-0.037597,-0.000644,0.736938,0.004838,0.043144,-0.017085,-0.037588,0.000644,-0.999293,-0.050547,-0.000949,-0.052419,-4.356445,-48.445663,-42.594055,,,,,,,
1522138927.381327,-0.037781,-0.000590,0.736307,-0.001863,-0.032244,-0.024465,-0.037772,0.000590,-0.999286,-0.024942,0.004720,0.024829,-4.503738,-48.219940,-42.520020,,,,,,,
1522138927.411295,-0.038002,-0.000820,0.735586,-0.010127,0.030446,-0.022396,-0.037993,0.000820,-0.999278,-0.001070,0.010303,0.029139,-3.979965,-48.297363,-42.594482,,,,,,,
1522138927.441263,-0.038898,-0.001114,0.734825,-0.010612,-0.082144,-0.027617,-0.038889,0.001114,-0.999243,-0.005804,0.023697,0.008200,-4.655838,-48.294479,-42.744812,,,,,,,
1522138927.471232,-0.039623,-0.001506,0.733912,-0.011276,0.006062,-0.028772,-0.039613,0.001506,-0.999214,0.013185,0.031377,0.096000,-4.357056,-48.370895,-42.819336,,,,,,,
1522138927.501200,-0.040681,-0.001911,0.732954,-0.012740,-0.089528,-0.035068,-0.040670,0.001911,-0.999171,-0.047938,0.040279,-0.088369,-3.381042,-48.000732,-43.270325,,,,,,,
1522138927.531168,-0.041355,-0.002352,0.731873,-0.013385,0.005054,-0.035168,-0.041343,0.002352,-0.999142,-0.000985,0.049955,0.069821,-3.003815,-48.002060,-42.895142,,,,,,,
1522138927.561136,-0.042338,-0.003004,0.730803,-0.026593,-0.084151,-0.037224,-0.042325,0.003004,-0.999099,-0.037479,0.009096,-0.140488,-3.456039,-48.225021,-42.894470,,,,,,,
1522138927.591105,-0.042636,-0.003979,0.729730,-0.032483,0.031667,-0.035209,-0.042623,0.003979,-0.999083,-0.021037,0.062550,0.084075,-4.278473,-47.921402,-42.971130,,,,,,,
1522138927.621073,-0.043340,-0.004907,0.728552,-0.033909,-0.053315,-0.039383,-0.043326,0.004907,-0.999049,-0.056070,0.012839,-0.100118,-3.682678,-48.299164,-43.044312,,,,,,,
1522138927.651041,-0.043114,-0.005981,0.727354,-0.033486,0.043389,-0.038424,-0.043100,0.005981,-0.999053,0.004846,0.072388,0.089614,-3.830887,-48.073563,-43.120239,,,,,,,
1522138927.680979,-0.043133,-0.006742,0.726054,-0.027340,-0.022488,-0.043670,-0.043119,0.006742,-0.999047,-0.023516,0.039035,0.087655,-2.698898,-47.553360,-42.821777,,,,,,,
1522138927.710947,-0.042281,-0.007950,0.724670,-0.042039,0.033894,-0.044816,-0.042267,0.007950,-0.999075,-0.041580,0.056458,-0.057337,-3.228516,-47.926117,-42.970581,,,,,,,
1522138927.740915,-0.041561,-0.008939,0.723174,-0.031345,0.029640,-0.050122,-0.041547,0.008939,-0.999097,-0.024615,0.039447,0.048627,-3.231201,-48.151199,-43.044678,,,,,,,
1522138927.770884,-0.040394,-0.010062,0.721551,-0.042027,0.022282,-0.056521,-0.040381,0.010062,-0.999134,-0.014612,0.054849,-0.052578,-2.181396,-48.081055,-43.194397,,,,,,,
1522138927.800852,-0.039298,-0.011222,0.719780,-0.036514,0.056287,-0.059743,-0.039285,0.011221,-0.999165,-0.023840,0.051202,0.050358,-3.230011,-47.851501,-43.345886,,,,,,,
1522138927.830820,-0.037976,-0.012446,0.717921,-0.040961,0.011710,-0.065032,-0.037964,0.012446,-0.999202,-0.032120,0.062536,-0.050328,-3.006516,-48.002502,-43.345154,,,,,,,
1522138927.860788,-0.036519,-0.013484,0.715987,-0.037475,0.074380,-0.064021,-0.036508,0.013484,-0.999242,-0.003257,0.068425,0.125753,-2.103424,-47.556793,-43.571472,,,,,,,
1522138927.890757,-0.035035,-0.014975,0.713855,-0.054733,0.027726,-0.071450,-0.035024,0.014975,-0.999274,-0.057719,0.036554,-0.079965,-2.705643,-47.779083,-43.570862,,,,,,,
1522138927.920725,-0.033586,-0.016440,0.711716,-0.044917,0.078678,-0.067233,-0.033575,0.016440,-0.999301,0.001303,0.045359,0.182528,-2.403870,-47.555511,-43.646606,,,,,,,
1522138927.950693,-0.031690,-0.017598,0.709497,-0.032208,0.048958,-0.074661,-0.031680,0.017597,-0.999343,-0.082639,0.076503,0.016692,-1.949997,-47.257416,-43.497559,,,,,,,
1522138927.980653,-0.029274,-0.018021,0.707085,-0.006210,0.122259,-0.082169,-0.029265,0.018020,-0.999409,-0.047868,0.081880,0.217274,-1.802078,-47.557922,-43.346313,,,,,,,
1522138928.010622,-0.025561,-0.017706,0.704608,0.016215,0.124321,-0.081089,-0.025554,0.017705,-0.999517,-0.034733,0.055919,0.208318,-1.804626,-47.857834,-43.270142,,,,,,,
1522138928.040590,-0.020762,-0.016503,0.702237,0.052768,0.186873,-0.074727,-0.020758,0.016502,-0.999648,-0.021860,0.182152,0.065109,-1.202103,-47.560623,-43.346008,,,,,,,
1522138928.070558,-0.015646,-0.014551,0.699734,0.055990,0.172114,-0.091762,-0.015644,0.014551,-0.999772,0.096164,0.093955,-0.072509,-1.578278,-47.858627,-43.045044,,,,,,,
1522138928.100526,-0.010995,-0.013199,0.697466,0.047093,0.122008,-0.066142,-0.010994,0.013199,-0.999852,-0.005913,0.164658,-0.256312,-0.977859,-47.636627,-43.345581,,,,,,,
1522138928.130464,-0.008204,-0.010569,0.695017,0.126083,0.080572,-0.096932,-0.008204,0.010569,-0.999910,0.038752,0.231558,-0.036634,-0.903610,-47.711960,-43.345276,,,,,,,
1522138928.160432,-0.006802,-0.006208,0.692081,0.151445,0.010454,-0.107500,-0.006802,0.006208,-0.999958,0.036221,0.056490,0.000278,-0.080292,-48.015442,-43.118591,,,,,,,
1522138928.190401,-0.006511,-0.002395,0.689271,0.106451,0.004043,-0.085158,-0.006511,0.002395,-0.999976,0.012142,0.029221,-0.116769,-0.526230,-47.563507,-43.195679,,,,,,,
1522138928.220369,-0.008238,0.000713,0.686818,0.110349,-0.085175,-0.091462,-0.008238,-0.000713,-0.999966,-0.014314,0.173778,-0.163792,0.225388,-47.491745,-43.045593,,,,,,,
1522138928.250337,-0.011544,0.004211,0.683957,0.102738,-0.122315,-0.096755,-0.011543,-0.004211,-0.999924,0.031456,-0.007050,-0.040786,-0.227142,-47.789627,-42.969604,,,,,,,
1522138928.280306,-0.015914,0.005365,0.681327,0.005345,-0.154082,-0.078679,-0.015914,-0.005365,-0.999859,-0.101289,-0.027091,-0.157352,-0.904053,-47.936661,-43.044373,,,,,,,
1522138928.310274,-0.021278,0.006737,0.678848,0.086303,-0.202053,-0.084966,-0.021276,-0.006737,-0.999751,0.043874,0.206871,0.179240,-0.080444,-47.940582,-43.268921,,,,,,,
1522138928.340242,-0.026513,0.009678,0.676082,0.090521,-0.241235,-0.107291,-0.026509,-0.009678,-0.999602,0.017506,0.126773,-0.009905,-1.355972,-48.309326,-42.743042,,,,,,,
1522138928.370210,-0.033950,0.010620,0.673018,-0.019493,-0.245235,-0.103111,-0.033942,-0.010620,-0.999367,-0.058542,-0.082932,0.373513,-1.134430,-48.385773,-43.192688,,,,,,,
1522138928.400179,-0.041262,0.010351,0.670498,0.014715,-0.204076,-0.075421,-0.041249,-0.010351,-0.999095,-0.017452,0.121587,0.416530,-1.428894,-47.784515,-43.270203,,,,,,,
1522138928.430147,-0.047335,0.011464,0.668429,0.002962,-0.185030,-0.058407,-0.047315,-0.011464,-0.998814,0.302106,-0.083781,-0.457118,-1.206589,-48.010605,-43.344238,,,,,,,
1522138928.460115,-0.052867,0.010637,0.666867,-0.062094,-0.160480,-0.051021,-0.052840,-0.010637,-0.998546,-0.259966,0.373949,-0.489430,-0.976669,-47.561554,-43.270874,,,,,,,
1522138928.490083,-0.056787,0.012204,0.664424,0.111811,0.026242,-0.070260,-0.056752,-0.012204,-0.998314,-0.223017,0.032925,-0.354012,-1.199860,-47.560257,-42.971008,,,,,,,
1522138928.520052,-0.058293,0.015328,0.662535,-0.006203,-0.075626,-0.048934,-0.058253,-0.015327,-0.998184,-0.040685,-0.061440,-0.404450,-1.574677,-47.858047,-42.445007,,,,,,,
1522138928.550020,-0.058610,0.014188,0.660656,-0.005677,0.043371,-0.046922,-0.058571,-0.014187,-0.998182,0.016624,0.030682,0.419157,-0.677277,-47.712753,-43.120117,,,,,,,
1522138928.579958,-0.054695,0.015870,0.658565,0.058434,0.252774,-0.080114,-0.054661,-0.015870,-0.998379,0.216038,0.171952,-0.088901,-0.672333,-47.487335,-42.671082,,,,,,,
1522138928.609926,-0.050356,0.017243,0.655543,0.037964,0.184984,-0.103504,-0.050327,-0.017243,-0.998584,-0.033673,-0.053421,-0.330762,-2.024048,-47.930786,-42.219971,,,,,,,
1522138928.639894,-0.046949,0.018108,0.652354,-0.000625,0.137359,-0.116276,-0.046924,-0.018107,-0.998734,-0.088193,0.253214,0.186570,-1.651917,-48.082687,-42.444153,,,,,,,
1522138928.669862,-0.042647,0.019938,0.648420,0.093829,0.230722,-0.130145,-0.042625,-0.019937,-0.998892,0.091072,0.042352,0.679297,-1.201187,-48.009720,-42.444214,,,,,,,
1522138928.699831,-0.037879,0.021421,0.644535,-0.012896,0.227893,-0.141950,-0.037861,-0.021419,-0.999053,0.271290,0.065181,0.244308,-0.452271,-47.938385,-42.744080,,,,,,,
1522138928.729799,-0.035235,0.020611,0.640119,0.002217,0.005871,-0.158752,-0.035220,-0.020610,-0.999167,0.057864,0.064143,0.133460,0.444687,-48.017807,-43.118347,,,,,,,
1522138928.759767,-0.031418,0.021035,0.635892,-0.041937,0.166396,-0.152556,-0.031406,-0.021033,-0.999285,-0.106884,0.094168,0.212557,-0.224884,-47.789261,-42.594604,,,,,,,
1522138928.789735,-0.028208,0.020220,0.631198,0.001543,0.116275,-0.140761,-0.028198,-0.020218,-0.999398,0.067627,0.233613,-0.023017,0.445435,-47.942795,-43.118652,,,,,,,
1522138928.819704,-0.024624,0.020134,0.626864,-0.106221,0.127217,-0.146187,-0.024617,-0.020133,-0.999494,-0.000301,0.121512,0.048063,1.577118,-47.272903,-43.120728,,,,,,,
1522138928.849672,-0.021760,0.016795,0.622113,-0.065843,0.081419,-0.147168,-0.021755,-0.016794,-0.999622,0.366314,0.238443,0.527454,0.604858,-47.043457,-43.047180,,,,,,,
1522138928.879640,-0.017548,0.016259,0.618127,-0.008341,0.053609,-0.141768,-0.017545,-0.016258,-0.999714,0.080381,0.131431,-0.251324,1.200638,-47.421219,-43.120361,,,,,,,
1522138928.909609,-0.015444,0.013613,0.613309,-0.103363,0.040112,-0.153545,-0.015442,-0.013612,-0.999788,-0.312317,0.009157,-0.058500,1.956451,-46.974380,-42.896790,,,,,,,
1522138928.939577,-0.013373,0.011456,0.609175,-0.058619,0.033522,-0.139650,-0.013372,-0.011455,-0.999845,-0.029169,0.131557,0.025846,1.581909,-46.972626,-42.821960,,,,,,,
1522138928.969541,-0.011810,0.009112,0.605003,-0.084552,-0.017506,-0.125772,-0.011810,-0.009112,-0.999889,0.286391,-0.010312,-0.011372,1.280579,-46.971497,-43.047180,,,,,,,
1522138928.999509,-0.010626,0.006812,0.602005,-0.040137,-0.086863,-0.102219,-0.010625,-0.006812,-0.999920,-0.045039,0.376365,0.126919,2.854874,-46.679184,-43.647522,,,,,,,
1522138929.029447,-0.009903,0.008508,0.597465,0.109102,0.014257,-0.176811,-0.009902,-0.008508,-0.999915,0.072662,0.198328,0.148459,2.180984,-46.750839,-43.347595,,,,,,,
1522138929.059415,-0.009628,0.010066,0.592474,-0.048284,0.190803,-0.144069,-0.009628,-0.010065,-0.999903,0.290756,-0.474767,0.008494,2.402985,-47.051849,-43.346252,,,,,,,
1522138929.089384,-0.012749,0.007303,0.588489,-0.035212,-0.161347,-0.088295,-0.012748,-0.007303,-0.999892,-0.358727,0.255975,-0.203141,3.303970,-46.681351,-43.797302,,,,,,,
1522138929.119352,-0.014072,0.010796,0.583785,0.185038,-0.141420,-0.129703,-0.014071,-0.010796,-0.999843,0.177859,0.249215,0.273982,2.258530,-46.451263,-43.423767,,,,,,,
1522138929.149320,-0.017800,0.011437,0.578526,-0.115081,-0.010519,-0.202518,-0.017798,-0.011437,-0.999776,0.041754,0.040688,0.376363,2.561218,-46.452179,-42.973572,,,,,,,
1522138929.179288,-0.019892,0.010291,0.573393,0.045307,0.068609,-0.179034,-0.019890,-0.010290,-0.999749,-0.069435,0.033438,0.264276,2.709396,-46.228516,-43.649414,,,,,,,
1522138929.209257,-0.023273,0.011138,0.567852,-0.001400,-0.116112,-0.186345,-0.023269,-0.011137,-0.999667,0.210586,0.265013,-0.142301,2.487549,-46.226990,-43.124451,,,,,,,
1522138929.239225,-0.025202,0.010560,0.562990,-0.037894,-0.109947,-0.143756,-0.025198,-0.010559,-0.999627,0.112356,-0.041900,-0.201301,2.934708,-46.379242,-43.348694,,,,,,,
1522138929.269193,-0.026945,0.007295,0.557245,-0.108008,0.086449,-0.245224,-0.026941,-0.007295,-0.999610,0.068567,0.388170,-0.150689,4.212616,-45.635742,-44.101013,,,,,,,
1522138929.299161,-0.029150,0.008035,0.551579,0.087670,-0.015418,-0.184238,-0.029145,-0.008035,-0.999543,0.136735,-0.101203,-0.071426,3.385422,-46.081635,-43.724670,,,,,,,
1522138929.329130,-0.031030,0.007989,0.546355,-0.060871,-0.059567,-0.198165,-0.031024,-0.007988,-0.999487,-0.241009,0.042382,-0.076609,2.858032,-46.229416,-43.874268,,,,,,,
1522138929.359098,-0.032211,0.007449,0.540771,0.108081,-0.221595,-0.184028,-0.032205,-0.007449,-0.999454,0.273813,0.137423,0.449161,4.512161,-45.637161,-44.175903,,,,,,,
1522138929.389066,-0.032105,0.010651,0.536073,0.083410,0.005735,-0.168280,-0.032097,-0.010651,-0.999428,0.200051,0.077546,0.006035,4.139572,-45.709961,-43.650757,,,,,,,
1522138929.419034,-0.032798,0.012534,0.531317,0.056292,-0.082430,-0.162885,-0.032789,-0.012534,-0.999384,-0.347811,0.132437,-0.566397,3.763397,-45.783340,-43.725647,,,,,,,
1522138929.448972,-0.035454,0.013725,0.526424,-0.018984,0.021981,-0.174771,-0.035443,-0.013724,-0.999277,0.092083,0.246833,0.715815,4.518005,-45.411606,-43.576721,,,,,,,
1522138929.478940,-0.035435,0.013905,0.521738,0.011598,-0.031411,-0.148057,-0.035424,-0.013905,-0.999276,-0.333564,-0.049755,-0.316124,4.365753,-45.635910,-43.575928,,,,,,,
1522138929.508909,-0.037996,0.012319,0.517373,-0.120667,-0.255190,-0.161786,-0.037984,-0.012319,-0.999202,0.203420,0.037206,-0.016804,5.194168,-45.114944,-43.877563,,,,,,,
1522138929.538877,-0.038200,0.010803,0.513187,0.046679,-0.050685,-0.137367,-0.038189,-0.010802,-0.999212,-0.021443,0.176620,0.074682,4.440765,-45.636246,-43.575867,,,,,,,
1522138929.568845,-0.038723,0.012052,0.508155,0.030493,-0.129046,-0.171392,-0.038710,-0.012052,-0.999178,0.017897,0.186048,-0.206724,4.515747,-45.411957,-43.951721,,,,,,,
1522138929.598814,-0.038851,0.013305,0.503240,0.066187,-0.019732,-0.165081,-0.038838,-0.013304,-0.999157,-0.084300,0.037398,-0.321598,4.890442,-45.488571,-43.876221,,,,,,,
1522138929.628782,-0.038645,0.011854,0.498117,-0.167924,0.167768,-0.151588,-0.038633,-0.011853,-0.999183,-0.444171,-0.012256,-0.425560,6.011795,-45.718842,-44.099792,,,,,,,
1522138929.658750,-0.039338,0.007375,0.493642,-0.095234,-0.037559,-0.141741,-0.039327,-0.007375,-0.999199,0.151204,0.231130,0.395912,5.195663,-44.964951,-43.878174,,,,,,,
1522138929.688718,-0.037762,0.006410,0.488490,-0.004014,0.021972,-0.179021,-0.037752,-0.006410,-0.999267,0.469453,0.340470,0.482955,6.015976,-45.119156,-44.402161,,,,,,,
1522138929.718687,-0.037456,0.005417,0.482780,-0.052383,-0.048043,-0.177924,-0.037446,-0.005417,-0.999284,-0.107161,-0.021393,-0.338622,5.567795,-45.116852,-44.102417,,,,,,,
1522138929.748655,-0.036473,0.001287,0.477654,-0.153111,0.118976,-0.168580,-0.036465,-0.001287,-0.999334,0.042492,0.163488,0.008276,6.172836,-44.519714,-44.254456,,,,,,,
1522138929.778623,-0.035661,0.001138,0.472595,0.037831,0.082347,-0.166264,-0.035653,-0.001138,-0.999364,0.158777,0.455606,0.270787,6.845428,-44.672897,-44.403564,,,,,,,
1522138929.808591,-0.034170,0.003097,0.467188,-0.042057,0.077522,-0.206812,-0.034163,-0.003097,-0.999411,0.193343,-0.069825,-0.034814,6.097717,-44.893768,-43.653015,,,,,,,
1522138929.838560,-0.032842,-0.002391,0.461429,-0.232406,0.055401,-0.167504,-0.032836,0.002391,-0.999458,-0.071717,-0.108012,-0.295449,6.173447,-44.594498,-44.029175,,,,,,,
1522138929.868528,-0.031852,-0.003358,0.456225,0.102831,0.031345,-0.187485,-0.031846,0.003358,-0.999487,-0.060256,0.351333,0.527823,6.999603,-44.073883,-44.705872,,,,,,,
1522138929.898466,-0.027983,-0.000950,0.450659,-0.034735,-0.181843,-0.196955,-0.027979,0.000950,-0.999608,-0.071172,0.177776,-0.689555,7.601837,-44.076218,-44.330566,,,,,,,
1522138929.928434,-0.027964,-0.001972,0.443719,-0.094499,0.008828,-0.241943,-0.027960,0.001972,-0.999607,0.137213,-0.212345,0.121220,7.222961,-44.599289,-44.103638,,,,,,,
1522138929.958402,-0.028326,-0.007018,0.437931,-0.190267,-0.094378,-0.188636,-0.028322,0.007018,-0.999574,-0.052962,0.195451,-0.192839,7.445099,-44.525894,-44.703796,,,,,,,
1522138929.988374,-0.027392,-0.010087,0.432592,-0.074853,-0.057574,-0.175794,-0.027387,0.010087,-0.999574,-0.039355,0.190428,-0.520217,7.828491,-44.002090,-44.180786,,,,,,,
1522138930.018343,-0.028762,-0.014509,0.426501,-0.205220,-0.127083,-0.216321,-0.028755,0.014508,-0.999481,0.036949,0.045154,0.425461,7.833420,-43.552048,-44.107544,,,,,,,
1522138930.048311,-0.029396,-0.021963,0.421145,-0.228935,-0.104100,-0.152426,-0.029384,0.021961,-0.999327,0.112865,0.245174,-0.260713,8.956711,-43.182999,-45.008423,,,,,,,
1522138930.078279,-0.029930,-0.025735,0.416189,-0.084274,0.232480,-0.166506,-0.029915,0.025732,-0.999221,-0.077491,0.069819,-0.760087,8.355820,-43.405075,-44.782837,,,,,,,
1522138930.108248,-0.032825,-0.028713,0.410362,-0.142731,0.038264,-0.180205,-0.032806,0.028709,-0.999049,-0.453309,-0.055915,0.196666,7.990128,-42.877747,-44.110168,,,,,,,
1522138930.138216,-0.034212,-0.031890,0.405185,-0.079262,-0.076754,-0.166190,-0.034188,0.031884,-0.998907,0.281442,0.461188,0.497930,9.263840,-42.284683,-45.311890,,,,,,,
1522138930.168185,-0.034558,-0.032865,0.399711,0.041309,0.093258,-0.208890,-0.034532,0.032859,-0.998863,0.157488,0.272729,-0.025032,8.962097,-42.732864,-44.860229,,,,,,,
1522138930.198153,-0.036701,-0.031937,0.393858,-0.008182,-0.215903,-0.199028,-0.036674,0.031932,-0.998817,-0.014382,-0.111644,-0.125283,9.113876,-42.733261,-44.560181,,,,,,,
1522138930.228121,-0.038144,-0.032191,0.388465,0.090707,-0.026191,-0.162921,-0.038115,0.032186,-0.998755,-0.088198,0.068309,0.586569,9.792740,-41.762283,-45.538696,,,,,,,
1522138930.258090,-0.039804,-0.030511,0.382555,0.085016,-0.111152,-0.168164,-0.039775,0.030506,-0.998743,0.009471,0.441174,0.356592,9.642426,-41.836548,-45.463501,,,,,,,
1522138930.288058,-0.039074,-0.028909,0.376409,0.019977,-0.154176,-0.222511,-0.039048,0.028905,-0.998819,-0.076431,-0.072072,-0.602789,9.192307,-42.433533,-44.486328,,,,,,,
1522138930.318026,-0.037309,-0.031263,0.370919,-0.072973,0.157930,-0.146180,-0.037282,0.031258,-0.998816,-0.161281,0.287514,-0.163049,10.695969,-41.391434,-45.614746,,,,,,,
1522138930.347964,-0.036417,-0.029390,0.365859,0.079499,0.098137,-0.158795,-0.036393,0.029386,-0.998905,-0.063079,0.259036,0.036747,10.173996,-41.089096,-45.616211,,,,,,,
1522138930.377932,-0.034612,-0.030397,0.360174,-0.181613,0.180736,-0.177186,-0.034589,0.030392,-0.998939,-0.003360,0.018497,-0.799721,10.097534,-41.687988,-44.863892,,,,,,,
1522138930.407901,-0.034962,-0.032069,0.355047,0.000190,-0.221432,-0.171312,-0.034937,0.032064,-0.998875,0.096277,0.209437,0.311848,10.624588,-41.390503,-45.014771,,,,,,,
1522138930.437869,-0.032044,-0.031256,0.350267,0.014892,0.224681,-0.149380,-0.032023,0.031251,-0.998998,-0.154470,0.241790,-0.448450,10.549133,-41.390244,-45.089783,,,,,,,
1522138930.467837,-0.031158,-0.032071,0.345370,-0.078803,0.059047,-0.136490,-0.031137,0.032066,-0.999001,0.235453,0.043496,-0.010979,10.620529,-41.615784,-45.313904,,,,,,,
1522138930.497804,-0.030199,-0.033049,0.341487,-0.017978,0.075776,-0.117290,-0.030178,0.033043,-0.998998,0.078442,0.430824,0.058767,11.752075,-41.095673,-45.090393,,,,,,,
1522138930.527774,-0.029186,-0.032046,0.337159,0.042819,0.022714,-0.150215,-0.029167,0.032041,-0.999061,-0.009025,0.119052,-0.105569,10.924713,-41.242081,-45.240234,,,,,,,
1522138930.557741,-0.028415,-0.031336,0.333030,-0.019684,0.165045,-0.120567,-0.028397,0.031331,-0.999106,-0.013015,0.022731,0.030829,11.898483,-41.321548,-45.314453,,,,,,,
1522138930.587709,-0.028916,-0.031510,0.329377,0.020671,-0.116643,-0.119196,-0.028898,0.031505,-0.999086,0.055158,0.132985,-0.022124,12.423599,-41.174133,-45.539734,,,,,,,
1522138930.617677,-0.028834,-0.030283,0.325897,0.029043,0.092597,-0.109806,-0.028817,0.030279,-0.999126,0.193520,0.038493,0.318080,11.227570,-41.093231,-45.015625,,,,,,,
1522138930.647646,-0.028980,-0.029923,0.322483,0.009387,-0.013566,-0.117171,-0.028963,0.029919,-0.999133,0.218142,0.005115,0.066821,11.753128,-41.170364,-44.790100,,,,,,,
1522138930.677614,-0.030214,-0.028898,0.318883,0.026556,-0.005038,-0.126758,-0.030196,0.028894,-0.999126,-0.149323,0.148230,0.099911,12.353409,-40.873520,-45.241028,,,,,,,
1522138930.707582,-0.030364,-0.027397,0.315495,0.027028,0.148741,-0.084291,-0.030348,0.027393,-0.999164,0.018446,-0.001011,0.332660,11.979477,-40.946533,-44.940918,,,,,,,
1522138930.737550,-0.031992,-0.026624,0.312027,0.006973,-0.079407,-0.121372,-0.031975,0.026621,-0.999134,0.145134,0.152136,0.327274,11.827530,-41.095932,-45.015320,,,,,,,
1522138930.767488,-0.031864,-0.025215,0.308853,0.091598,0.009477,-0.097957,-0.031848,0.025212,-0.999175,-0.010098,0.027889,0.164321,11.898926,-41.321472,-45.239441,,,,,,,
1522138930.797457,-0.031709,-0.025107,0.305927,-0.031097,0.038429,-0.090624,-0.031694,0.025104,-0.999182,0.026338,-0.045459,-0.108575,11.904312,-40.871338,-45.091187,,,,,,,
1522138930.827425,-0.031817,-0.025004,0.303485,0.044459,0.000947,-0.075614,-0.031801,0.025001,-0.999181,-0.046507,0.179970,-0.143091,12.729446,-40.725296,-45.316406,,,,,,,
1522138930.857394,-0.032195,-0.023046,0.301138,0.051121,0.056175,-0.075657,-0.032180,0.023044,-0.999216,-0.163468,-0.011020,-0.213171,12.504593,-41.023743,-44.790283,,,,,,,
1522138930.887362,-0.033002,-0.022025,0.299128,0.021564,-0.086264,-0.058485,-0.032988,0.022023,-0.999213,0.175779,0.042277,0.219489,12.353271,-41.023285,-45.015381,,,,,,,
1522138930.917330,-0.033389,-0.021270,0.297434,0.056940,-0.058687,-0.062754,-0.033375,0.021269,-0.999217,-0.058483,-0.037703,0.110926,12.655182,-40.874573,-44.940857,,,,,,,
1522138930.947299,-0.033248,-0.019914,0.295989,0.005011,0.050735,-0.041587,-0.033235,0.019912,-0.999249,-0.021650,0.055100,-0.074863,12.806229,-40.725327,-45.016357,,,,,,,
1522138930.977247,-0.033659,-0.020424,0.294476,-0.015790,-0.078784,-0.053183,-0.033645,0.020423,-0.999225,0.012024,0.010812,-0.240002,12.134247,-40.646927,-44.641968,,,,,,,
1522138931.007215,-0.034004,-0.021075,0.293293,-0.033492,0.034901,-0.042666,-0.033990,0.021073,-0.999200,-0.059455,0.049392,0.067971,12.129761,-40.872284,-45.016052,,,,,,,
1522138931.037184,-0.034359,-0.022750,0.291989,-0.047648,-0.014019,-0.031972,-0.034343,0.022748,-0.999151,-0.079609,-0.007123,0.106222,12.130798,-40.722366,-45.091675,,,,,,,
1522138931.067152,-0.034754,-0.023844,0.291078,-0.036928,-0.008714,-0.035163,-0.034737,0.023842,-0.999112,-0.063606,0.129845,0.146832,11.903412,-40.871490,-45.241211,,,,,,,
1522138931.097120,-0.034972,-0.024921,0.289650,-0.016284,0.064592,-0.040549,-0.034954,0.024918,-0.999078,0.042934,0.049774,0.324594,12.498596,-41.174469,-45.539734,,,,,,,
1522138931.127088,-0.034909,-0.025678,0.288409,-0.051581,0.055084,-0.036302,-0.034891,0.025676,-0.999061,-0.005576,-0.030986,0.083595,12.057449,-40.646881,-44.942078,,,,,,,
1522138931.157057,-0.035576,-0.026634,0.287390,0.004567,-0.044913,-0.039361,-0.035556,0.026631,-0.999013,-0.039792,0.078792,0.093739,12.435425,-40.348587,-44.943054,,,,,,,
1522138931.187025,-0.034980,-0.026078,0.286334,0.032783,0.046462,-0.047956,-0.034961,0.026075,-0.999048,-0.027554,-0.001905,0.013590,13.034348,-40.276581,-45.243042,,,,,,,
1522138931.216963,-0.034164,-0.025413,0.285202,0.011285,0.027318,-0.037301,-0.034147,0.025410,-0.999094,-0.062045,-0.029088,-0.216299,11.983368,-40.646393,-44.792053,,,,,,,
1522138931.246931,-0.034437,-0.025649,0.284231,-0.010483,-0.059792,-0.032967,-0.034419,0.025647,-0.999078,-0.051366,0.030109,0.141534,12.507889,-40.648834,-44.866821,,,,,,,
1522138931.276899,-0.034152,-0.024869,0.283491,0.047438,0.001679,-0.030854,-0.034135,0.024867,-0.999108,-0.055068,0.099966,0.102425,13.110245,-40.276779,-45.092957,,,,,,,
1522138931.306867,-0.034025,-0.024188,0.282428,0.006143,0.069828,-0.037342,-0.034009,0.024186,-0.999129,0.083890,0.057464,0.152419,12.508789,-40.648682,-44.716797,,,,,,,
1522138931.336836,-0.033371,-0.023613,0.281526,0.007849,-0.006795,-0.021282,-0.033355,0.023610,-0.999165,-0.208558,-0.057973,-0.326214,12.431839,-40.573792,-45.167175,,,,,,,
1522138931.366804,-0.033189,-0.023341,0.280428,0.020802,0.001804,-0.040458,-0.033174,0.023339,-0.999177,-0.028654,0.093619,0.094087,13.333145,-40.353012,-45.317627,,,,,,,
1522138931.396772,-0.032322,-0.021796,0.279819,0.031572,0.064233,-0.005356,-0.032309,0.021794,-0.999240,0.039679,-0.022404,0.096652,13.107117,-40.726532,-44.866211,,,,,,,
1522138931.426740,-0.031473,-0.021360,0.279199,0.043292,0.028246,-0.030878,-0.031461,0.021358,-0.999277,-0.106631,0.135029,-0.100363,12.581985,-40.649307,-45.016724,,,,,,,
1522138931.456709,-0.031120,-0.018876,0.278688,0.075911,-0.058008,-0.014791,-0.031109,0.018875,-0.999338,-0.003192,-0.043060,-0.208701,13.634933,-40.354050,-45.017395,,,,,,,
1522138931.486677,-0.030741,-0.018936,0.278425,-0.018937,-0.000517,0.002133,-0.030731,0.018935,-0.999348,-0.032685,0.008638,-0.113231,12.807114,-40.500549,-45.242249,,,,,,,
1522138931.516645,-0.031109,-0.018249,0.278517,0.030000,-0.031513,0.009664,-0.031099,0.018248,-0.999350,-0.023726,-0.119292,0.041632,12.809814,-40.500122,-44.792236,,,,,,,
1522138931.546613,-0.030951,-0.018562,0.278843,-0.019985,0.011146,0.007443,-0.030941,0.018561,-0.999349,-0.121510,0.021921,-0.101084,12.583038,-40.724030,-44.716431,,,,,,,
1522138931.576582,-0.031112,-0.017816,0.278799,0.012174,0.051347,0.019158,-0.031102,0.017815,-0.999357,-0.142146,0.000831,-0.248583,12.955032,-41.025696,-44.715088,,,,,,,
1522138931.606550,-0.031238,-0.017941,0.278928,-0.009160,0.041919,0.007430,-0.031228,0.017940,-0.999351,-0.073905,0.041814,-0.165413,12.583038,-40.724030,-44.716431,,,,,,,
1522138931.636518,-0.031661,-0.017843,0.279220,-0.012597,-0.006948,0.008534,-0.031650,0.017842,-0.999340,-0.045574,-0.105809,-0.009342,13.408447,-40.503036,-45.016907,,,,,,,
1522138931.666456,-0.032051,-0.019108,0.279728,-0.018958,0.015326,0.018090,-0.032040,0.019107,-0.999304,-0.141239,0.100171,0.059088,12.356110,-40.873077,-44.791016,,,,,,,
1522138931.696424,-0.032437,-0.017528,0.279749,0.075936,-0.054821,-0.015854,-0.032426,0.017527,-0.999320,-0.082885,0.043661,-0.019112,12.506989,-40.873596,-44.640869,,,,,,,
1522138931.726392,-0.033034,-0.016505,0.279688,0.000271,-0.011171,-0.003158,-0.033023,0.016504,-0.999318,0.112949,-0.198007,0.257741,13.703949,-40.954361,-45.014954,,,,,,,
1522138931.756361,-0.033282,-0.017115,0.280063,0.008586,-0.062169,-0.005240,-0.033271,0.017114,-0.999300,0.073219,0.187094,0.068697,12.586182,-40.498886,-44.567383,,,,,,,
1522138931.786329,-0.033412,-0.014935,0.280068,0.076224,0.018436,-0.007402,-0.033402,0.014934,-0.999330,0.118119,-0.122829,0.165987,12.432587,-40.723434,-44.791565,,,,,,,
1522138931.816297,-0.033355,-0.016227,0.280307,-0.103551,-0.060883,0.002137,-0.033345,0.016226,-0.999312,-0.079387,-0.134085,-0.283677,12.057465,-40.871506,-44.566162,,,,,,,
1522138931.846266,-0.033488,-0.017444,0.280261,0.040898,-0.004824,-0.010606,-0.033477,0.017443,-0.999287,-0.098314,0.195417,0.064870,12.284546,-40.572678,-44.717224,,,,,,,
1522138931.876234,-0.033412,-0.015801,0.280232,-0.009579,-0.061079,-0.002061,-0.033402,0.015800,-0.999317,0.032608,-0.074256,-0.001614,12.957565,-40.725784,-44.791260,,,,,,,
1522138931.906202,-0.031896,-0.017577,0.280490,-0.034620,0.086573,0.013756,-0.031885,0.017576,-0.999337,-0.087988,0.072314,-0.078513,12.357605,-40.723099,-44.791565,,,,,,,
1522138931.936170,-0.032185,-0.016844,0.280191,0.047101,-0.072718,-0.029709,-0.032175,0.016843,-0.999340,-0.014899,0.088275,-0.305088,12.806976,-40.650330,-45.016602,,,,,,,
1522138931.966155,-0.031741,-0.016351,0.279994,-0.004967,0.024908,0.007450,-0.031732,0.016350,-0.999363,0.121484,-0.191994,0.038181,13.251862,-41.027557,-45.239929,,,,,,,
1522138931.996123,-0.030339,-0.016868,0.280685,0.004602,0.031189,0.019164,-0.030330,0.016867,-0.999398,-0.218449,0.258707,-0.469047,13.256210,-40.727356,-45.016113,,,,,,,
1522138932.026091,-0.029673,-0.015562,0.280337,0.011692,0.160947,-0.000143,-0.029665,0.015562,-0.999439,-0.261625,-0.113188,-0.350125,13.033325,-40.875748,-44.415649,,,,,,,
1522138932.056059,-0.029326,-0.016077,0.280386,-0.061450,0.068520,0.023336,-0.029318,0.016076,-0.999441,0.060523,-0.196359,0.007528,12.504745,-41.098602,-44.640015,,,,,,,
1522138932.085997,-0.029451,-0.017991,0.280755,-0.000850,-0.023893,-0.005285,-0.029442,0.017990,-0.999405,-0.042763,0.018464,0.386688,12.879730,-41.100281,-44.639771,,,,,,,
1522138932.115965,-0.028302,-0.017623,0.280877,0.000219,-0.020720,-0.003158,-0.028294,0.017622,-0.999444,-0.102779,-0.154616,-0.224143,12.578842,-41.099091,-44.789978,,,,,,,
1522138932.145934,-0.028567,-0.018651,0.280901,-0.058359,0.014483,-0.001110,-0.028558,0.018649,-0.999418,0.100213,0.077344,0.208204,13.556488,-40.653778,-45.091248,,,,,,,
1522138932.175902,-0.028569,-0.018099,0.280263,0.082741,0.018570,-0.028708,-0.028561,0.018098,-0.999428,-0.138203,-0.033921,-0.082267,12.658630,-40.574509,-44.867065,,,,,,,
1522138932.205870,-0.029679,-0.016978,0.280250,-0.028274,0.060059,0.003137,-0.029670,0.016977,-0.999416,0.018882,0.036200,0.260463,12.577042,-41.099380,-45.089966,,,,,,,
1522138932.235838,-0.029890,-0.016793,0.279911,0.047217,-0.022929,-0.008445,-0.029881,0.016792,-0.999412,0.118077,0.201439,-0.118782,13.102615,-40.951889,-45.240295,,,,,,,
1522138932.265807,-0.031494,-0.015463,0.279449,-0.027312,-0.219269,-0.014705,-0.031485,0.015463,-0.999385,-0.281350,-0.064459,-0.495336,12.356567,-40.873001,-44.716003,,,,,,,
1522138932.295775,-0.031325,-0.017237,0.279036,-0.016947,-0.001770,0.028773,-0.031315,0.017236,-0.999361,-0.095623,0.016226,0.034456,11.911652,-40.495773,-44.492737,,,,,,,
1522138932.325743,-0.030844,-0.016707,0.279154,0.035811,0.039887,-0.020245,-0.030834,0.016707,-0.999385,0.218395,0.188509,0.131816,12.581985,-40.649307,-45.016724,,,,,,,
1522138932.355711,-0.032043,-0.017394,0.278750,-0.078935,-0.050304,0.000013,-0.032033,0.017393,-0.999335,-0.003352,-0.145033,0.231010,12.281570,-41.097290,-44.340088,,,,,,,
1522138932.385680,-0.031851,-0.018961,0.278688,-0.025858,-0.111018,0.004365,-0.031840,0.018960,-0.999313,-0.134587,0.129859,-0.008866,12.054321,-41.096649,-44.715210,,,,,,,
1522138932.415648,-0.033188,-0.018706,0.278523,0.022308,-0.081414,0.007572,-0.033176,0.018705,-0.999274,0.188572,0.090242,0.592979,12.726608,-41.100128,-45.164917,,,,,,,
1522138932.445616,-0.032234,-0.019392,0.278777,-0.033676,0.065281,0.019106,-0.032222,0.019391,-0.999293,-0.161382,0.115161,-0.284857,12.503693,-41.023895,-44.940308,,,,,,,
1522138932.475585,-0.033141,-0.018852,0.278621,0.038477,-0.064345,-0.007352,-0.033129,0.018851,-0.999273,-0.004056,0.104013,0.175741,12.205063,-41.022324,-44.715454,,,,,,,
1522138932.505553,-0.032977,-0.017310,0.278880,0.065442,0.014120,0.007503,-0.032966,0.017309,-0.999307,0.001792,-0.105688,0.292336,13.179565,-41.026779,-44.789978,,,,,,,
1522138932.535491,-0.032572,-0.017004,0.279253,-0.004079,-0.022855,0.000037,-0.032561,0.017003,-0.999325,-0.054246,-0.003606,-0.025669,13.034668,-40.650909,-44.566589,,,,,,,
1522138932.565459,-0.032610,-0.017384,0.279789,-0.002881,0.018510,0.010650,-0.032599,0.017383,-0.999317,-0.013284,-0.009693,0.199406,12.730347,-40.949768,-44.790466,,,,,,,
1522138932.595427,-0.032151,-0.016830,0.280404,0.001991,0.147123,0.005189,-0.032141,0.016830,-0.999342,0.048620,-0.003234,0.369978,13.028381,-41.101181,-44.864746,,,,,,,
1522138932.625395,-0.032195,-0.016672,0.281075,0.009014,0.076776,0.031910,-0.032185,0.016671,-0.999343,-0.148922,-0.021478,-0.038514,12.354767,-41.097931,-44.640076,,,,,,,
1522138932.655364,-0.033011,-0.016054,0.281672,0.010700,-0.020974,0.032000,-0.033001,0.016053,-0.999326,-0.109394,-0.102433,0.089704,12.657303,-41.023972,-44.340210,,,,,,,
1522138932.685332,-0.032004,-0.015716,0.282540,-0.002793,0.068262,0.037241,-0.031995,0.015716,-0.999364,0.221723,-0.167190,0.243719,13.027176,-41.176254,-44.939453,,,,,,,
1522138932.715300,-0.032680,-0.015893,0.283404,0.004013,-0.078386,0.037387,-0.032670,0.015892,-0.999340,-0.068206,-0.030785,-0.361470,12.655487,-41.024261,-44.640198,,,,,,,
1522138932.745268,-0.031738,-0.015352,0.284119,0.031461,0.065154,0.015949,-0.031729,0.015351,-0.999379,-0.084513,-0.077744,-0.128521,12.434250,-40.872910,-44.265930,,,,,,,
1522138932.775237,-0.032426,-0.015463,0.284819,-0.023804,-0.107978,0.023548,-0.032417,0.015463,-0.999355,-0.027718,-0.150732,0.061992,13.251572,-41.327103,-44.788696,,,,,,,
1522138932.805205,-0.032942,-0.015729,0.285967,0.025600,-0.049620,0.018199,-0.032932,0.015728,-0.999334,-0.158703,0.180088,0.170598,12.057465,-40.871506,-44.566162,,,,,,,
1522138932.835173,-0.033380,-0.013383,0.286484,0.095173,-0.008383,0.021412,-0.033371,0.013383,-0.999353,0.013382,-0.099091,0.272760,12.134262,-40.871552,-44.266052,,,,,,,
1522138932.865141,-0.033337,-0.012869,0.287482,-0.018711,0.094838,0.041464,-0.033328,0.012869,-0.999362,0.003650,0.058786,-0.044706,11.756882,-41.020004,-44.415710,,,,,,,
1522138932.895110,-0.034209,-0.010961,0.287985,0.125729,-0.110391,0.010879,-0.034200,0.010961,-0.999355,-0.124339,0.021037,-0.186116,11.754776,-41.095230,-44.640381,,,,,,,
1522138932.925078,-0.034389,-0.009182,0.288901,-0.019905,0.055590,0.031914,-0.034380,0.009182,-0.999367,-0.113508,-0.303127,-0.018974,12.425858,-41.398392,-44.788879,,,,,,,
1522138932.955046,-0.035010,-0.011099,0.289878,-0.062836,0.018433,0.042573,-0.035000,0.011099,-0.999326,-0.033496,0.174097,0.064679,12.804291,-41.100021,-44.714844,,,,,,,
1522138932.984965,-0.035189,-0.010719,0.290723,0.030419,0.058823,0.007442,-0.035180,0.010719,-0.999323,-0.019950,-0.009605,-0.005788,11.904343,-41.320587,-44.339417,,,,,,,
1522138933.014933,-0.035926,-0.011445,0.291656,-0.060964,-0.030497,0.050078,-0.035916,0.011444,-0.999289,0.106122,-0.285080,0.057746,12.427078,-41.547943,-44.338257,,,,,,,
1522138933.044901,-0.036558,-0.013528,0.292726,-0.003089,-0.009229,0.026661,-0.036546,0.013528,-0.999240,-0.033004,0.069877,0.087451,12.577942,-41.099228,-44.940002,,,,,,,
1522138933.074870,-0.035671,-0.012254,0.293842,0.029044,0.043629,0.053274,-0.035660,0.012253,-0.999289,0.158738,-0.136002,0.107916,11.530701,-41.318695,-44.114624,,,,,,,
1522138933.104838,-0.035142,-0.013188,0.295045,-0.039441,-0.003918,0.040478,-0.035132,0.013188,-0.999296,0.038337,0.000210,-0.177035,10.932220,-41.166000,-44.115540,,,,,,,
1522138933.134806,-0.034275,-0.011976,0.296024,0.114585,0.039372,0.024569,-0.034266,0.011976,-0.999341,0.090525,-0.017744,0.041547,11.676361,-41.619553,-44.338318,,,,,,,
1522138933.164775,-0.032890,-0.010279,0.296956,-0.017576,0.075923,0.011645,-0.032883,0.010279,-0.999406,0.084549,-0.288721,0.128740,11.525467,-41.843674,-44.112549,,,,,,,
1522138933.194743,-0.031138,-0.011496,0.298405,-0.019790,0.114917,0.059548,-0.031131,0.011495,-0.999449,0.087879,0.173716,-0.210313,12.801300,-41.400009,-44.713623,,,,,,,
1522138933.224711,-0.030026,-0.010306,0.299523,0.039796,0.035281,0.029838,-0.030020,0.010306,-0.999496,-0.014856,-0.081992,-0.117310,11.900604,-41.695572,-44.337891,,,,,,,
1522138933.254679,-0.029528,-0.010296,0.300466,-0.039605,-0.051671,0.030938,-0.029522,0.010296,-0.999511,-0.107303,-0.130092,0.026214,12.348648,-41.847672,-44.412109,,,,,,,
1522138933.284648,-0.028496,-0.010893,0.301167,0.007232,0.145916,0.023311,-0.028491,0.010893,-0.999535,0.053134,-0.014112,0.259758,11.675903,-41.619629,-44.413330,,,,,,,
1522138933.314616,-0.027430,-0.010978,0.302069,-0.008536,-0.031534,0.027742,-0.027424,0.010978,-0.999564,0.010930,-0.143211,-0.107462,11.529510,-41.618378,-43.813416,,,,,,,
1522138933.344584,-0.027032,-0.012457,0.302906,-0.022467,-0.047405,0.023484,-0.027027,0.012457,-0.999557,0.133976,0.009089,0.221923,11.750458,-41.844681,-44.112427,,,,,,,
1522138933.374552,-0.025458,-0.013120,0.303947,-0.031547,0.076878,0.030819,-0.025453,0.013119,-0.999590,-0.038985,0.138141,-0.081663,11.750015,-41.844757,-44.187439,,,,,,,
1522138933.404490,-0.025022,-0.013636,0.304790,-0.007631,-0.055004,0.039493,-0.025017,0.013635,-0.999594,-0.016182,-0.069253,-0.244058,12.126801,-41.846146,-43.887207,,,,,,,
1522138933.434458,-0.025238,-0.014887,0.305881,-0.076639,0.043934,0.048925,-0.025233,0.014886,-0.999571,0.141871,-0.008920,0.300596,11.901047,-41.695511,-44.262878,,,,,,,
1522138933.464427,-0.025286,-0.016115,0.307224,0.008144,-0.102904,0.044884,-0.025280,0.016114,-0.999551,-0.114018,-0.095673,-0.315925,12.647858,-41.699387,-44.787537,,,,,,,
1522138933.494395,-0.025771,-0.017511,0.308476,-0.100359,-0.004920,0.052160,-0.025764,0.017510,-0.999515,-0.019386,-0.094307,-0.079099,11.674255,-41.694778,-44.563049,,,,,,,
1522138933.524363,-0.026558,-0.018000,0.309573,0.049010,-0.040282,0.041650,-0.026551,0.017999,-0.999485,0.083939,0.135809,-0.021602,11.978302,-41.470856,-44.263733,,,,,,,
1522138933.554331,-0.027248,-0.016333,0.310509,0.021457,-0.006130,0.030936,-0.027241,0.016332,-0.999495,-0.054271,-0.149831,-0.121232,12.354034,-41.397552,-44.263855,,,,,,,
1522138933.584300,-0.028341,-0.016980,0.311461,-0.036081,0.026910,0.037253,-0.028333,0.016979,-0.999454,0.066373,0.036335,0.099644,11.375778,-41.768066,-44.187927,,,,,,,
1522138933.614268,-0.028736,-0.016909,0.312268,0.028086,0.027943,0.018124,-0.028728,0.016908,-0.999444,0.003536,0.024428,0.030648,11.378922,-41.542938,-44.038818,,,,,,,
1522138933.644236,-0.029175,-0.016809,0.313140,-0.037131,0.043827,0.048960,-0.029167,0.016809,-0.999433,0.024651,-0.023767,-0.290102,12.125427,-41.397110,-44.864014,,,,,,,
1522138933.674204,-0.030245,-0.017016,0.314275,0.003022,-0.070898,0.029924,-0.030236,0.017016,-0.999398,-0.033607,0.048170,-0.171699,11.224152,-41.842529,-44.337646,,,,,,,
1522138933.704173,-0.030387,-0.017603,0.314944,-0.046334,0.127835,0.043540,-0.030378,0.017602,-0.999383,-0.092913,-0.004068,-0.053122,11.671249,-41.994766,-44.561890,,,,,,,
1522138933.734141,-0.031266,-0.017292,0.315802,-0.001374,-0.104854,0.024627,-0.031256,0.017291,-0.999362,0.140112,-0.050571,0.055392,11.674408,-41.769623,-44.412720,,,,,,,
1522138933.764109,-0.031182,-0.018144,0.316451,0.014968,-0.038978,0.019248,-0.031172,0.018143,-0.999349,-0.050951,-0.046540,-0.082087,11.301529,-41.692734,-44.188232,,,,,,,
1522138933.794077,-0.030357,-0.018177,0.317126,-0.001717,0.041850,0.013833,-0.030347,0.018176,-0.999374,-0.230395,-0.002109,-0.163071,11.001541,-41.691376,-44.188416,,,,,,,
1522138933.824046,-0.029841,-0.017899,0.317732,0.019895,0.107641,0.020170,-0.029832,0.017898,-0.999395,-0.007217,0.070404,0.199895,11.602875,-41.469238,-44.338989,,,,,,,
1522138933.853983,-0.030512,-0.017591,0.318700,-0.035534,-0.094206,0.033118,-0.030502,0.017590,-0.999380,0.039673,-0.119397,-0.052927,10.698990,-41.989944,-44.112366,,,,,,,
1522138933.883952,-0.029858,-0.019082,0.319991,0.002500,0.066065,0.044710,-0.029849,0.019081,-0.999372,-0.107313,0.064019,0.065565,10.554108,-41.614059,-43.888916,,,,,,,
1522138933.913920,-0.029463,-0.017848,0.320871,0.030234,0.016341,0.005349,-0.029454,0.017848,-0.999407,-0.100002,-0.172129,-0.219481,11.448959,-41.993317,-44.112000,,,,,,,
1522138933.943888,-0.030518,-0.018884,0.321772,-0.061013,-0.059071,0.034121,-0.030508,0.018883,-0.999356,-0.026072,-0.176246,0.106610,10.475525,-41.838943,-44.113098,,,,,,,
1522138933.973859,-0.030390,-0.020379,0.322951,-0.016662,0.070420,0.037230,-0.030379,0.020378,-0.999331,-0.108675,0.069329,-0.020429,10.772644,-41.990494,-44.337280,,,,,,,
1522138934.003827,-0.031180,-0.019777,0.324004,-0.001651,-0.143253,0.044914,-0.031169,0.019776,-0.999318,-0.177800,0.020996,-0.160700,10.998535,-41.991364,-44.187195,,,,,,,
1522138934.033795,-0.031935,-0.019498,0.325287,0.061887,-0.027541,0.039511,-0.031924,0.019497,-0.999300,-0.080701,0.201145,-0.097090,10.325211,-41.688568,-44.413757,,,,,,,
1522138934.063763,-0.033131,-0.015797,0.325983,0.149189,-0.088289,0.034309,-0.033120,0.015796,-0.999327,0.037103,-0.148929,-0.072329,10.099930,-41.987091,-43.962646,,,,,,,
1522138934.093732,-0.034216,-0.014359,0.326854,-0.032114,-0.052721,0.026681,-0.034206,0.014359,-0.999312,-0.123128,-0.181092,-0.261827,10.848999,-41.990616,-44.112305,,,,,,,
1522138934.123700,-0.035177,-0.014369,0.328266,0.061782,-0.047757,0.042731,-0.035166,0.014368,-0.999278,-0.299093,0.177542,-0.419331,10.320999,-42.063614,-44.487244,,,,,,,
1522138934.153668,-0.036030,-0.011334,0.329193,0.051230,-0.023266,0.039500,-0.036020,0.011334,-0.999287,-0.033118,-0.144986,0.045078,10.175385,-41.987366,-43.887573,,,,,,,
1522138934.183636,-0.036305,-0.012466,0.329872,-0.063773,0.036552,0.034035,-0.036294,0.012465,-0.999263,0.096979,-0.008529,0.312389,9.800552,-41.835907,-44.113403,,,,,,,
1522138934.213605,-0.036519,-0.012155,0.330837,0.049226,-0.001949,0.032014,-0.036508,0.012155,-0.999259,-0.037040,0.013678,0.009147,10.326416,-41.838120,-43.963135,,,,,,,
1522138934.243573,-0.035995,-0.012318,0.331902,-0.062842,0.022659,0.046827,-0.035984,0.012317,-0.999276,0.027836,-0.323353,0.127130,10.774139,-42.065125,-43.961975,,,,,,,
1522138934.273540,-0.035793,-0.015503,0.333010,-0.069268,0.014194,0.043637,-0.035781,0.015502,-0.999239,-0.084870,0.138017,-0.186460,10.922791,-42.066025,-44.186951,,,,,,,
1522138934.303479,-0.034190,-0.014748,0.334163,0.076488,0.113827,0.025542,-0.034180,0.014748,-0.999307,-0.131134,0.034584,-0.232291,9.577805,-42.059143,-43.362671,,,,,,,
1522138934.333447,-0.033054,-0.014043,0.335231,-0.056163,0.078997,0.042510,-0.033045,0.014042,-0.999355,-0.198934,-0.082265,-0.235829,9.946182,-42.361389,-43.961243,,,,,,,
1522138934.363415,-0.032040,-0.014508,0.336561,0.037673,0.063819,0.052185,-0.032031,0.014508,-0.999382,0.188495,-0.038586,0.148811,10.775497,-41.840302,-44.112915,,,,,,,
1522138934.393384,-0.031236,-0.013486,0.337691,0.043898,-0.015686,0.020315,-0.031228,0.013486,-0.999421,-0.077048,0.029986,-0.010955,10.246765,-42.212906,-44.111694,,,,,,,
1522138934.423352,-0.030979,-0.012631,0.338357,0.040735,-0.006093,0.019228,-0.030972,0.012631,-0.999440,-0.121967,-0.033398,-0.124400,9.417633,-42.808868,-43.809753,,,,,,,
1522138934.453320,-0.031541,-0.011640,0.339168,0.015902,-0.053932,0.030979,-0.031534,0.011640,-0.999435,-0.037360,-0.050413,0.043991,9.645462,-42.659668,-43.585205,,,,,,,
,,,,,,,,,,,,,,,,25.300152,51.440619,11.507454,-1.000000,-1.000000,1522138934.420179,
1522138934.483288,-0.031878,-0.011223,0.339768,0.015361,0.057656,0.027677,-0.031870,0.011223,-0.999429,0.039439,-0.049095,0.150064,9.268219,-42.658340,-43.960388,,,,,,,
1522138934.513257,-0.033207,-0.010929,0.340536,-0.013480,-0.188749,0.021507,-0.033199,0.010929,-0.999389,-0.047123,-0.093326,-0.177338,10.245728,-42.362823,-44.036072,,,,,,,
1522138934.543225,-0.033933,-0.012116,0.341306,-0.002864,0.039659,0.025546,-0.033924,0.012116,-0.999351,0.061252,0.074615,0.364768,9.794708,-42.510712,-43.960693,,,,,,,
1522138934.573193,-0.034518,-0.010782,0.341881,0.050288,-0.015726,0.023518,-0.034509,0.010782,-0.999346,-0.052008,0.048758,0.005770,9.721359,-42.435242,-43.811096,,,,,,,
1522138934.603162,-0.034512,-0.010108,0.342593,0.010249,0.123450,0.041462,-0.034503,0.010108,-0.999353,-0.036862,-0.100089,-0.031958,10.244370,-42.363037,-44.261047,,,,,,,
1522138934.633130,-0.034745,-0.009143,0.343342,0.027982,0.016188,0.027724,-0.034736,0.009143,-0.999355,-0.268608,0.099408,-0.165715,9.418976,-42.584030,-43.960571,,,,,,,
1522138934.663098,-0.033657,-0.008151,0.344368,-0.000391,0.138320,0.046763,-0.033650,0.008151,-0.999400,-0.215831,0.024152,-0.121815,9.717178,-42.810287,-43.884521,,,,,,,
1522138934.693066,-0.034298,-0.007660,0.345339,0.004037,-0.087876,0.025682,-0.034290,0.007660,-0.999383,0.132130,0.022995,0.266778,9.943344,-42.736237,-43.809753,,,,,,,
1522138934.723035,-0.032622,-0.007154,0.346607,-0.008624,0.208469,0.047749,-0.032616,0.007154,-0.999442,0.085930,-0.017225,-0.074837,9.651154,-42.359238,-43.136353,,,,,,,
1522138934.752972,-0.031420,-0.008181,0.347641,-0.024304,0.035339,0.040464,-0.031414,0.008181,-0.999473,-0.261280,0.000730,-0.489724,9.871796,-42.435852,-43.735962,,,,,,,
1522138934.782941,-0.031693,-0.008144,0.348719,0.004219,-0.043265,0.028831,-0.031687,0.008144,-0.999465,0.024897,-0.113124,0.146132,10.022675,-42.211746,-43.961792,,,,,,,
1522138934.812909,-0.031185,-0.008839,0.349491,-0.002792,0.050295,0.022347,-0.031179,0.008839,-0.999475,0.004461,0.075832,0.115792,9.422729,-42.433685,-43.586182,,,,,,,
1522138934.842877,-0.031909,-0.007980,0.350068,0.038368,-0.062375,0.015021,-0.031903,0.007980,-0.999459,-0.035648,0.069962,0.087487,9.867905,-42.735977,-43.884766,,,,,,,
1522138934.872845,-0.032661,-0.007929,0.350869,-0.018085,-0.013494,0.033052,-0.032654,0.007929,-0.999435,-0.073242,-0.128810,-0.071442,10.019241,-42.511795,-44.035583,,,,,,,
1522138934.902814,-0.034193,-0.008275,0.351717,-0.026684,-0.023046,0.035182,-0.034185,0.008275,-0.999381,-0.118602,0.123286,0.011710,9.345627,-42.508545,-43.810974,,,,,,,
1522138934.932782,-0.035118,-0.007576,0.352085,0.026144,0.068342,0.015950,-0.035110,0.007576,-0.999355,-0.059434,-0.109916,0.014751,9.418091,-42.808807,-43.734741,,,,,,,
1522138934.962750,-0.036932,-0.007725,0.352609,-0.018544,-0.115507,0.033156,-0.036923,0.007725,-0.999288,-0.144535,-0.083683,-0.143549,9.942001,-42.736450,-44.034729,,,,,,,
1522138934.992708,-0.037863,-0.007282,0.352958,0.045208,0.027919,0.012821,-0.037853,0.007282,-0.999257,-0.155720,0.118725,0.160832,9.046997,-42.506973,-43.586121,,,,,,,
1522138935.022677,-0.038549,-0.006651,0.353069,-0.022186,-0.002708,0.010667,-0.038539,0.006651,-0.999235,0.093791,-0.182219,0.155683,9.568222,-42.884323,-43.584351,,,,,,,
1522138935.052645,-0.038343,-0.008311,0.353409,-0.031448,0.072783,0.008448,-0.038332,0.008311,-0.999231,0.050631,0.119833,0.151727,9.345779,-42.358765,-44.036560,,,,,,,
1522138935.082613,-0.038097,-0.007714,0.353555,-0.010532,-0.017626,0.013880,-0.038087,0.007714,-0.999245,-0.094131,0.012122,0.005409,9.042053,-42.957031,-43.659302,,,,,,,
1522138935.112581,-0.037416,-0.008895,0.353616,-0.056433,-0.020654,0.008516,-0.037406,0.008895,-0.999261,0.034171,0.074341,0.041497,9.266129,-42.958191,-43.809204,,,,,,,
1522138935.142550,-0.036283,-0.009892,0.353536,-0.003673,0.065344,-0.001114,-0.036273,0.009892,-0.999293,-0.082410,-0.039997,0.043513,9.863861,-42.961258,-44.183899,,,,,,,
1522138935.172518,-0.035328,-0.010998,0.353245,-0.030426,0.041040,-0.010701,-0.035318,0.010998,-0.999316,0.073694,-0.072842,0.247759,8.968262,-42.881622,-43.584656,,,,,,,
1522138935.202456,-0.034232,-0.012508,0.353340,-0.037049,-0.014169,-0.015974,-0.034223,0.012508,-0.999336,0.039716,0.131382,0.002617,9.421524,-42.284119,-44.036804,,,,,,,
1522138935.232424,-0.033312,-0.011789,0.353285,0.027030,-0.004792,-0.011675,-0.033303,0.011788,-0.999376,-0.094230,-0.016442,0.082582,9.269424,-42.807907,-43.509766,,,,,,,
1522138935.262393,-0.032486,-0.012064,0.353308,-0.026402,-0.001568,0.001073,-0.032478,0.012064,-0.999400,0.007194,0.138449,0.214228,8.971405,-42.656479,-43.435547,,,,,,,
1522138935.292361,-0.031626,-0.011645,0.353396,0.057090,0.048185,0.001073,-0.031618,0.011645,-0.999432,-0.038633,0.013227,0.120312,8.893829,-42.506821,-44.111206,,,,,,,
1522138935.322330,-0.030725,-0.011086,0.353376,-0.009238,0.014330,0.000008,-0.030718,0.011086,-0.999467,-0.001386,-0.060006,-0.094405,9.867004,-42.736115,-44.034790,,,,,,,
1522138935.352298,-0.030239,-0.010427,0.353471,0.048891,0.116238,-0.004321,-0.030232,0.010427,-0.999489,0.225575,0.033259,0.245063,9.342041,-42.958389,-43.659180,,,,,,,
1522138935.382266,-0.029560,-0.008606,0.353602,0.037718,0.022661,0.009615,-0.029554,0.008606,-0.999526,-0.098223,-0.046005,-0.228394,9.412842,-43.109161,-44.108521,,,,,,,
1522138935.412235,-0.030214,-0.007367,0.354036,0.059402,-0.152663,0.000221,-0.030208,0.007366,-0.999516,-0.040745,0.086750,-0.505107,10.391373,-42.663712,-44.259766,,,,,,,
1522138935.442203,-0.029880,-0.005931,0.354629,0.042387,0.116132,0.013784,-0.029875,0.005931,-0.999536,0.040449,-0.002864,0.196268,9.718826,-42.735153,-43.734863,,,,,,,
1522138935.472171,-0.029783,-0.004895,0.355343,0.027717,-0.044393,0.027794,-0.029779,0.004895,-0.999545,-0.047065,-0.009732,-0.083234,9.271973,-42.507996,-43.585999,,,,,,,
1522138935.502139,-0.030390,-0.003989,0.356437,0.016179,0.015078,0.038374,-0.030385,0.003989,-0.999530,0.070013,-0.016456,0.002445,9.790085,-43.110474,-43.733337,,,,,,,
1522138935.532108,-0.030082,-0.002466,0.357588,0.067492,0.027704,0.037337,-0.030077,0.002466,-0.999545,0.240572,-0.061213,0.002856,9.119736,-42.732315,-43.585144,,,,,,,
1522138935.562076,-0.030180,-0.001701,0.358650,0.020375,-0.029404,0.014984,-0.030175,0.001701,-0.999543,-0.052635,-0.065117,-0.144805,9.642914,-42.734955,-43.884888,,,,,,,
1522138935.592044,-0.030387,-0.000915,0.359858,-0.012403,0.074611,0.043625,-0.030382,0.000915,-0.999538,0.058763,-0.099899,0.522670,9.640823,-43.034805,-43.733704,,,,,,,
1522138935.621982,-0.030697,-0.001731,0.361270,-0.013728,0.026731,0.052200,-0.030692,0.001731,-0.999527,0.088538,-0.068702,0.213807,9.190842,-43.032776,-43.733948,,,,,,,
1522138935.651949,-0.029738,-0.002705,0.362959,-0.089047,0.149046,0.063736,-0.029734,0.002705,-0.999554,0.006510,0.040446,-0.189716,9.044891,-42.582199,-43.810852,,,,,,,
1522138935.681917,-0.030602,-0.003485,0.363996,0.035927,-0.118770,0.025736,-0.030597,0.003485,-0.999526,0.220798,-0.201041,0.177474,8.963776,-43.331604,-43.582825,,,,,,,
1522138935.711886,-0.029039,-0.005354,0.365345,-0.109544,0.069590,0.036101,-0.029035,0.005354,-0.999564,-0.144656,-0.303542,-0.031045,9.114197,-43.332214,-43.507751,,,,,,,
1522138935.741854,-0.027547,-0.008433,0.366580,-0.087184,0.077899,0.055290,-0.027542,0.008433,-0.999585,0.083039,0.050756,-0.014194,8.737564,-43.181030,-44.033569,,,,,,,
1522138935.771822,-0.027303,-0.009352,0.367913,-0.024945,-0.112303,0.034209,-0.027298,0.009352,-0.999584,0.032608,0.067949,-0.186360,8.735779,-43.630569,-43.581726,,,,,,,
1522138935.801790,-0.025888,-0.009635,0.369251,0.009106,0.124431,0.055303,-0.025884,0.009635,-0.999619,-0.026606,0.064538,0.212143,8.963318,-43.107056,-44.033752,,,,,,,
1522138935.831759,-0.023844,-0.009856,0.370096,-0.033213,-0.044338,0.041600,-0.023841,0.009856,-0.999667,-0.267633,-0.030409,-0.714871,9.488876,-42.959579,-44.184082,,,,,,,
1522138935.861727,-0.023382,-0.011589,0.371192,-0.089778,0.028717,0.100085,-0.023378,0.011588,-0.999660,-0.436095,-0.136909,-0.325994,8.740265,-43.180603,-43.583557,,,,,,,
1522138935.891695,-0.024147,-0.015621,0.372463,-0.119992,-0.096285,0.054378,-0.024142,0.015620,-0.999587,0.078158,0.018437,0.428099,8.817505,-42.955963,-43.584412,,,,,,,
1522138935.921664,-0.023783,-0.016900,0.373743,-0.023247,-0.205843,0.037503,-0.023778,0.016900,-0.999574,0.314656,0.005516,0.278444,9.119873,-42.582535,-43.810791,,,,,,,
1522138935.951632,-0.024772,-0.020470,0.374434,-0.130899,-0.171551,0.033133,-0.024764,0.020469,-0.999484,-0.070329,-0.350211,0.110095,8.292542,-42.953598,-43.584656,,,,,,,
1522138935.981580,-0.024098,-0.023655,0.376095,-0.116518,0.211816,0.062587,-0.024089,0.023653,-0.999430,-0.003346,0.251753,-0.295522,8.965103,-42.882141,-44.109680,,,,,,,
1522138936.011549,-0.025288,-0.024219,0.377408,-0.019041,0.048950,0.067094,-0.025278,0.024217,-0.999387,-0.183355,-0.022874,-0.210421,9.114487,-42.808029,-44.334839,,,,,,,
1522138936.041517,-0.026800,-0.025423,0.378619,-0.060069,-0.065643,0.056529,-0.026788,0.025420,-0.999318,-0.017859,0.098801,-0.092967,8.442810,-42.654709,-44.035828,,,,,,,
1522138936.071455,-0.028434,-0.024958,0.379741,0.098735,-0.138210,0.046057,-0.028421,0.024956,-0.999284,0.422541,0.128609,0.251070,8.291336,-42.804031,-44.035278,,,,,,,
1522138936.101424,-0.029293,-0.023693,0.381181,-0.031632,0.084162,0.053186,-0.029281,0.023691,-0.999290,0.068084,-0.163446,0.122444,9.488281,-43.109421,-44.033447,,,,,,,
1522138936.131392,-0.029092,-0.024567,0.382503,-0.009679,-0.031675,0.044806,-0.029079,0.024565,-0.999275,-0.112034,0.118715,-0.654137,8.444458,-42.579575,-43.886108,,,,,,,
1522138936.161360,-0.030376,-0.023621,0.383269,0.029926,-0.052734,0.005422,-0.030362,0.023618,-0.999260,0.210492,0.120028,0.186027,8.214691,-42.878830,-44.185059,,,,,,,
1522138936.191328,-0.030766,-0.021833,0.383912,0.104658,-0.044499,0.015068,-0.030754,0.021831,-0.999289,-0.097603,-0.120327,-0.161356,8.814804,-42.956390,-44.034424,,,,,,,
1522138936.221297,-0.029734,-0.020954,0.384972,0.020776,0.057715,0.014906,-0.029723,0.020953,-0.999339,0.047225,0.151929,-0.079076,7.986984,-43.102890,-44.259216,,,,,,,
1522138936.251265,-0.030823,-0.018752,0.385261,0.079103,-0.060173,-0.012644,-0.030813,0.018751,-0.999349,0.137594,0.027133,0.275686,8.512115,-43.180099,-44.108704,,,,,,,
1522138936.281233,-0.030353,-0.017890,0.385507,0.007665,0.003478,0.025607,-0.030343,0.017889,-0.999379,0.049920,-0.142996,-0.281398,8.963913,-42.957214,-44.184387,,,,,,,
1522138936.311201,-0.030831,-0.018180,0.386224,0.047428,0.041757,0.008547,-0.030821,0.018179,-0.999360,-0.150529,0.225992,-0.045456,7.913651,-43.027405,-44.109619,,,,,,,
1522138936.341170,-0.030528,-0.014765,0.386375,0.082891,0.099014,0.013842,-0.030519,0.014765,-0.999425,0.002871,-0.306421,-0.157588,7.840927,-43.251328,-43.358765,,,,,,,
1522138936.371138,-0.031677,-0.013330,0.386188,0.042537,-0.147042,-0.037093,-0.031668,0.013329,-0.999410,-0.030435,0.185462,0.020100,8.737701,-43.031265,-44.259155,,,,,,,
