timestamp(unix),attitude_roll(radians),attitude_pitch(radians),attitude_yaw(radians),rotation_rate_x(radians/s),rotation_rate_y(radians/s),rotation_rate_z(radians/s),gravity_x(G),gravity_y(G),gravity_z(G),user_acc_x(G),user_acc_y(G),user_acc_z(G),magnetic_field_x(microteslas),magnetic_field_y(microteslas),magnetic_field_z(microteslas),latitude(degree),longitude(degree),altitude(meter),speed(m/s),course(degree),timestamp(unix),User Mark
1522139462.967479,-0.049481,-0.056502,-0.474598,0.005645,-0.009138,0.002642,-0.049382,0.056472,-0.997182,-0.113963,-0.039397,-0.057154,-14.536926,0.417988,47.502747,,,,,,,
,,,,,,,,,,,,,,,,25.306158,51.445662,10.999999,-1.000000,-1.000000,1522139352.930785,
1522139462.997416,-0.049427,-0.056342,-0.474443,0.004715,0.020612,0.002615,-0.049328,0.056312,-0.997194,-0.106052,-0.043327,-0.029967,-12.881729,0.486286,48.253296,,,,,,,
1522139463.027385,-0.049688,-0.056065,-0.474267,0.000390,0.007865,0.002629,-0.049590,0.056036,-0.997196,-0.116792,-0.032919,-0.046749,-9.801590,-0.350323,50.508179,,,,,,,
1522139463.057353,-0.049980,-0.055840,-0.474161,0.010922,-0.026145,0.000537,-0.049881,0.055811,-0.997195,-0.077087,-0.060740,0.067751,-8.372574,-0.580700,51.559875,,,,,,,
1522139463.087321,-0.050170,-0.055554,-0.474029,0.000423,0.013180,0.001562,-0.050071,0.055525,-0.997201,-0.099648,-0.028868,-0.031226,-5.598572,-1.042568,52.163086,,,,,,,
1522139463.117289,-0.050506,-0.055166,-0.473969,0.018404,-0.031464,-0.003703,-0.050407,0.055138,-0.997205,-0.056175,-0.091775,0.053419,-1.935364,-2.857998,53.222168,,,,,,,
1522139463.147258,-0.050893,-0.054907,-0.473864,-0.010333,-0.001666,0.002626,-0.050795,0.054879,-0.997200,-0.058260,-0.035211,0.023705,0.009323,-3.616375,53.601196,,,,,,,
1522139463.177226,-0.051190,-0.054761,-0.473738,0.009961,-0.000659,0.002644,-0.051091,0.054733,-0.997193,-0.084774,-0.043366,-0.040435,4.635040,-5.962322,53.462891,,,,,,,
1522139463.207194,-0.051569,-0.054441,-0.473592,-0.002922,-0.015514,0.003717,-0.051469,0.054414,-0.997191,-0.073470,-0.017717,0.007948,6.648743,-7.321011,53.844360,,,,,,,
1522139463.237163,-0.051824,-0.054350,-0.473425,0.000424,0.015286,0.003694,-0.051725,0.054323,-0.997183,-0.041186,-0.039766,0.041677,10.447235,-9.888241,53.706482,,,,,,,
1522139463.267131,-0.051992,-0.054511,-0.473221,-0.017725,0.025918,0.011119,-0.051892,0.054484,-0.997165,-0.041874,-0.056560,0.009021,14.179855,-11.180782,52.963501,,,,,,,
1522139463.297099,-0.052172,-0.054744,-0.472954,0.000294,-0.005993,0.009036,-0.052071,0.054717,-0.997143,-0.060234,-0.022643,-0.025623,19.702957,-13.156826,51.774170,,,,,,,
1522139463.327067,-0.052327,-0.054393,-0.472763,-0.006010,0.018461,0.010068,-0.052226,0.054366,-0.997154,-0.038655,-0.036376,-0.021675,22.831085,-14.222775,49.905029,,,,,,,
1522139463.357036,-0.052271,-0.054500,-0.472511,-0.001755,0.015264,0.010074,-0.052170,0.054473,-0.997151,-0.059738,-0.015014,-0.012431,29.617996,-15.607342,45.863953,,,,,,,
1522139463.387004,-0.052277,-0.054147,-0.472259,0.011115,0.024803,0.007947,-0.052177,0.054121,-0.997170,-0.056725,-0.047300,-0.049751,31.544205,-16.368710,43.167969,,,,,,,
1522139463.416972,-0.052158,-0.053797,-0.471979,0.003535,0.001447,0.007963,-0.052059,0.053771,-0.997195,-0.048099,-0.037078,-0.000348,33.924286,-17.056591,40.996887,,,,,,,
1522139463.446926,-0.052186,-0.053697,-0.471743,0.001423,0.003588,0.005831,-0.052087,0.053671,-0.997199,-0.038520,-0.050223,0.003730,36.791275,-18.951015,34.480896,,,,,,,
1522139463.476895,-0.051863,-0.053445,-0.471467,-0.002710,0.043934,0.013241,-0.051766,0.053419,-0.997230,-0.065819,-0.061750,-0.101892,36.759903,-20.154095,31.260681,,,,,,,
1522139463.506832,-0.051784,-0.053612,-0.471102,-0.007137,0.007840,0.011137,-0.051686,0.053586,-0.997225,-0.033091,0.001575,-0.036177,36.999130,-22.186916,24.518982,,,,,,,
1522139463.536801,-0.051798,-0.053385,-0.470809,-0.001801,0.005689,0.011152,-0.051701,0.053360,-0.997236,-0.042247,-0.059479,0.005491,36.971542,-23.464260,22.049133,,,,,,,
1522139463.566769,-0.051825,-0.053488,-0.470530,-0.003894,0.014221,0.009003,-0.051727,0.053462,-0.997229,-0.043106,-0.030940,0.027548,33.767395,-26.004635,17.257629,,,,,,,
1522139463.596737,-0.051893,-0.053304,-0.470242,0.001469,0.022665,0.013270,-0.051796,0.053278,-0.997235,-0.055091,-0.081202,-0.054324,31.416382,-27.121517,14.785950,,,,,,,
1522139463.626705,-0.052108,-0.053202,-0.469931,-0.001805,0.004642,0.010081,-0.052011,0.053177,-0.997230,-0.070212,0.021606,-0.102624,28.824783,-28.988674,10.967102,,,,,,,
1522139463.656674,-0.052784,-0.052775,-0.469675,0.006684,-0.007087,0.011173,-0.052686,0.052751,-0.997217,-0.040499,-0.070893,0.042581,26.549103,-30.255611,8.796021,,,,,,,
1522139463.686642,-0.053239,-0.052762,-0.469263,-0.009433,-0.024090,0.016508,-0.053140,0.052738,-0.997194,-0.068931,-0.030811,-0.104491,21.336075,-32.035519,5.425537,,,,,,,
1522139463.716610,-0.054221,-0.052575,-0.468856,0.011943,-0.023042,0.012255,-0.054120,0.052551,-0.997151,-0.061664,-0.046555,-0.071377,18.620758,-32.849499,4.227417,,,,,,,
1522139463.746578,-0.054658,-0.052268,-0.468383,-0.007101,0.025829,0.020714,-0.054556,0.052244,-0.997143,-0.096521,-0.044736,-0.067966,15.528488,-34.036495,3.330688,,,,,,,
1522139463.776547,-0.055854,-0.052192,-0.467938,0.006400,-0.067670,0.013364,-0.055749,0.052168,-0.997081,-0.065696,-0.055571,0.076503,9.744308,-34.685909,2.880371,,,,,,,
1522139463.806515,-0.056672,-0.051965,-0.467513,-0.004143,-0.036835,0.014391,-0.056565,0.051942,-0.997047,-0.042800,-0.050553,0.018211,8.389572,-34.980114,2.580872,,,,,,,
1522139463.836483,-0.057185,-0.052185,-0.467029,-0.003962,0.004599,0.015415,-0.057076,0.052161,-0.997006,-0.074165,-0.029456,-0.066699,4.795761,-35.262432,4.080200,,,,,,,
1522139463.866452,-0.057854,-0.051962,-0.466552,0.003242,-0.054924,0.015479,-0.057743,0.051939,-0.996979,-0.079769,-0.031507,0.034211,4.423630,-35.335171,4.680298,,,,,,,
1522139463.896420,-0.058391,-0.051749,-0.466075,0.014079,-0.019870,0.014382,-0.058280,0.051726,-0.996959,-0.035165,-0.017791,0.038387,5.489609,-34.588543,6.102844,,,,,,,
1522139463.926388,-0.058728,-0.051257,-0.465618,0.006522,-0.034734,0.016516,-0.058617,0.051234,-0.996965,-0.033103,-0.063350,0.038286,7.598801,-33.847729,6.400879,,,,,,,
1522139463.956356,-0.058933,-0.051241,-0.464994,0.003425,-0.008207,0.020760,-0.058822,0.051218,-0.996954,-0.072556,-0.029413,0.014089,13.388351,-31.849697,5.495850,,,,,,,
1522139463.986294,-0.058951,-0.050917,-0.464426,0.003404,-0.013507,0.019696,-0.058841,0.050895,-0.996969,-0.041623,-0.045402,-0.019144,16.236847,-30.739605,3.392761,,,,,,,
1522139464.016262,-0.059043,-0.050625,-0.463819,0.011944,-0.013544,0.020774,-0.058933,0.050603,-0.996979,-0.014950,-0.019048,0.088699,20.350937,-29.262402,-0.886047,,,,,,,
1522139464.046231,-0.058799,-0.050151,-0.463217,0.016256,-0.008221,0.017576,-0.058691,0.050130,-0.997017,-0.044611,-0.038258,0.011268,21.464005,-28.969891,-3.361694,,,,,,,
1522139464.076199,-0.058530,-0.049684,-0.462594,0.004491,-0.010332,0.019700,-0.058424,0.049663,-0.997056,-0.002474,-0.024578,0.025437,21.967194,-28.676266,-7.487610,,,,,,,
1522139464.106167,-0.058212,-0.049435,-0.462020,0.008832,0.000313,0.015431,-0.058108,0.049415,-0.997087,-0.034574,-0.055869,0.049760,21.878830,-28.977596,-9.211426,,,,,,,
1522139464.136135,-0.057836,-0.049040,-0.461429,0.004611,0.014110,0.018614,-0.057734,0.049020,-0.997128,-0.039556,-0.007883,0.006924,21.194839,-29.200649,-10.335876,,,,,,,
1522139464.166104,-0.057277,-0.048822,-0.460859,0.013156,0.013061,0.015416,-0.057178,0.048802,-0.997171,-0.046521,-0.067693,0.029580,21.247070,-30.178051,-12.506958,,,,,,,
1522139464.196072,-0.057109,-0.048504,-0.460230,-0.002855,0.022596,0.023925,-0.057011,0.048485,-0.997195,-0.035854,-0.017464,-0.034512,21.388641,-30.254971,-13.781555,,,,,,,
1522139464.226040,-0.056663,-0.048293,-0.459646,0.011083,0.030043,0.018596,-0.056566,0.048274,-0.997231,-0.032667,-0.088450,-0.056022,22.491989,-30.712780,-16.629150,,,,,,,
1522139464.256008,-0.056441,-0.048020,-0.459047,-0.010302,0.024761,0.020722,-0.056346,0.048002,-0.997257,-0.031651,-0.056211,-0.048001,21.958145,-30.562099,-18.355103,,,,,,,
1522139464.285977,-0.056104,-0.047724,-0.458399,0.018517,0.023632,0.020740,-0.056010,0.047706,-0.997290,-0.033360,-0.047187,-0.022455,21.718842,-29.739773,-22.108521,,,,,,,
1522139464.315945,-0.055809,-0.047090,-0.457796,0.000373,0.025791,0.021793,-0.055718,0.047073,-0.997336,-0.037895,-0.040816,-0.009774,21.787033,-29.067333,-24.361145,,,,,,,
1522139464.345913,-0.055620,-0.046745,-0.457197,0.014124,-0.003988,0.020767,-0.055530,0.046728,-0.997363,-0.057751,-0.014258,0.008517,19.834198,-27.411785,-27.593750,,,,,,,
1522139464.375881,-0.055491,-0.046289,-0.456621,0.005666,0.011986,0.018614,-0.055403,0.046272,-0.997391,-0.051866,-0.079262,0.008439,17.282761,-26.651806,-29.098022,,,,,,,
1522139464.405850,-0.055565,-0.046381,-0.456006,-0.011474,0.002456,0.020738,-0.055477,0.046364,-0.997383,-0.063618,-0.032616,0.010460,16.389374,-25.448696,-30.003357,,,,,,,
1522139464.435818,-0.055731,-0.046590,-0.455434,-0.010448,-0.010274,0.017554,-0.055642,0.046573,-0.997364,-0.064292,-0.061634,-0.011120,13.254135,-23.335644,-31.063354,,,,,,,
1522139464.465752,-0.056056,-0.046636,-0.454865,-0.014712,-0.008132,0.017545,-0.055966,0.046619,-0.997344,-0.045291,-0.079731,-0.050462,12.286819,-22.431515,-31.292419,,,,,,,
1522139464.495720,-0.056364,-0.046949,-0.454244,-0.015752,-0.000716,0.019675,-0.056273,0.046932,-0.997312,-0.028124,-0.066021,-0.075183,12.304001,-20.032726,-32.427002,,,,,,,
1522139464.525688,-0.056856,-0.047225,-0.453653,-0.010449,-0.007111,0.016552,-0.056762,0.047208,-0.997271,-0.025620,-0.035977,0.003664,12.083313,-18.833019,-33.706970,,,,,,,
1522139464.555657,-0.057298,-0.047312,-0.453180,-0.008258,0.006693,0.014833,-0.057202,0.047294,-0.997242,-0.038852,-0.059547,-0.050930,10.962479,-16.655910,-36.641174,,,,,,,
1522139464.585625,-0.057783,-0.047579,-0.452816,-0.015757,0.006686,0.015657,-0.057685,0.047561,-0.997201,-0.072839,-0.028686,-0.088095,10.817535,-15.156902,-38.297241,,,,,,,
1522139464.615593,-0.058332,-0.047728,-0.452421,-0.004138,-0.015668,0.018876,-0.058233,0.047709,-0.997162,-0.038142,-0.032268,0.003342,7.067291,-12.744091,-42.358765,,,,,,,
1522139464.645561,-0.058896,-0.047548,-0.452038,-0.002975,-0.002915,0.014620,-0.058796,0.047530,-0.997138,-0.008419,-0.019057,-0.037423,3.999435,-11.306499,-43.566040,,,,,,,
1522139464.675530,-0.059332,-0.047538,-0.451745,-0.000821,-0.000760,0.011414,-0.059231,0.047520,-0.997113,-0.008427,-0.054325,-0.020694,-2.952896,-7.902096,-45.458130,,,,,,,
1522139464.705498,-0.059460,-0.047434,-0.451503,-0.001813,0.009890,0.007146,-0.059358,0.047416,-0.997110,-0.031707,-0.078986,-0.055121,-7.510162,-6.755550,-44.415039,,,,,,,
1522139464.735466,-0.059668,-0.047458,-0.451226,-0.009415,-0.010302,0.012478,-0.059566,0.047441,-0.997096,-0.030614,-0.039262,-0.024006,-16.541901,-4.311779,-41.279297,,,,,,,
1522139464.765435,-0.059711,-0.047459,-0.450997,-0.000815,-0.005002,0.008231,-0.059609,0.047441,-0.997094,0.007744,-0.024736,0.003884,-19.363464,-2.721981,-39.187073,,,,,,,
1522139464.795403,-0.059643,-0.047267,-0.450759,-0.002906,0.003529,0.006083,-0.059541,0.047250,-0.997107,0.020112,-0.057580,0.015326,-23.011292,-2.027203,-35.816711,,,,,,,
1522139464.825372,-0.059288,-0.047317,-0.450436,0.003519,0.011994,0.009274,-0.059187,0.047300,-0.997126,-0.001604,-0.043805,-0.066854,-26.714767,-0.879696,-29.973145,,,,,,,
1522139464.855339,-0.058866,-0.046967,-0.450076,0.003535,0.020467,0.013527,-0.058767,0.046950,-0.997167,-0.058894,-0.061674,-0.046305,-27.361526,0.101292,-26.902344,,,,,,,
1522139464.885307,-0.058619,-0.046676,-0.449618,0.001325,0.005573,0.015676,-0.058522,0.046659,-0.997195,-0.034831,-0.019437,-0.027219,-27.770996,1.233006,-22.032104,,,,,,,
1522139464.915276,-0.058241,-0.046375,-0.449128,0.005624,0.015118,0.017796,-0.058145,0.046358,-0.997231,-0.037711,-0.063280,-0.036826,-27.453583,1.758610,-20.009094,,,,,,,
1522139464.945213,-0.057958,-0.046214,-0.448520,-0.005161,-0.007192,0.019946,-0.057864,0.046198,-0.997255,-0.056150,-0.041010,0.026262,-25.853897,2.654026,-17.386841,,,,,,,
1522139464.975182,-0.057710,-0.046172,-0.447883,0.001299,0.007658,0.022064,-0.057617,0.046156,-0.997271,-0.036698,-0.076322,0.023532,-25.697449,2.804142,-16.562378,,,,,,,
1522139465.005150,-0.057426,-0.045939,-0.447223,0.001254,-0.008260,0.017824,-0.057333,0.045923,-0.997298,-0.018426,-0.061350,0.006270,-24.335312,2.126163,-13.408936,,,,,,,
1522139465.035118,-0.057541,-0.045555,-0.446586,0.015129,-0.015714,0.013587,-0.057449,0.045539,-0.997309,-0.018356,-0.064414,0.058894,-25.004715,1.605976,-11.607239,,,,,,,
1522139465.065086,-0.057491,-0.045145,-0.445953,0.006643,0.002365,0.016749,-0.057401,0.045130,-0.997331,-0.036929,-0.027384,0.002229,-24.166733,-0.567013,-5.823059,,,,,,,
1522139465.095055,-0.057303,-0.044678,-0.445383,0.013041,0.004471,0.018875,-0.057215,0.044664,-0.997362,-0.091772,-0.079087,-0.029234,-21.306931,-0.802853,-3.795715,,,,,,,
1522139465.125023,-0.057248,-0.044244,-0.444828,0.011810,-0.034816,0.015714,-0.057160,0.044229,-0.997385,-0.042724,-0.005121,0.120203,-17.779633,-1.567059,-2.140869,,,,,,,
1522139465.154991,-0.056826,-0.043768,-0.444384,0.007847,0.030022,0.013519,-0.056741,0.043754,-0.997430,-0.028434,-0.091895,0.029473,-11.567490,-2.720242,-2.358215,,,,,,,
1522139465.184959,-0.056572,-0.043886,-0.443907,-0.023260,0.000313,0.016730,-0.056487,0.043872,-0.997439,-0.004395,-0.043338,-0.015165,-7.982788,-3.038387,-4.380127,,,,,,,
1522139465.214928,-0.056587,-0.044176,-0.443483,-0.006169,-0.006066,0.010359,-0.056501,0.044162,-0.997425,-0.020937,-0.074847,-0.014568,-5.468445,-4.178753,-8.424316,,,,,,,
1522139465.244896,-0.056517,-0.044412,-0.443049,-0.034891,0.026901,0.017759,-0.056431,0.044397,-0.997419,0.005528,-0.033105,-0.042117,-5.940033,-5.078732,-10.520935,,,,,,,
1522139465.274864,-0.056306,-0.044791,-0.442603,-0.011408,0.028960,0.019900,-0.056220,0.044776,-0.997414,-0.023690,-0.034949,-0.024025,-8.906418,-7.692913,-13.061951,,,,,,,
1522139465.304833,-0.056479,-0.044687,-0.442204,-0.010526,-0.014611,0.018885,-0.056392,0.044672,-0.997409,0.007060,-0.026636,0.011767,-12.146713,-8.953777,-13.508545,,,,,,,
1522139465.334801,-0.056104,-0.044933,-0.441697,-0.007171,0.019386,0.018852,-0.056018,0.044918,-0.997419,0.024951,0.006764,-0.057238,-18.776047,-12.298260,-12.823486,,,,,,,
1522139465.364769,-0.056226,-0.044800,-0.441204,0.001391,0.022560,0.017790,-0.056140,0.044785,-0.997418,0.013568,-0.055664,-0.051776,-20.806763,-13.637844,-11.544128,,,,,,,
1522139465.394737,-0.056318,-0.044752,-0.440631,-0.003973,0.020440,0.019914,-0.056232,0.044737,-0.997415,0.026233,-0.046766,-0.046332,-26.354813,-15.334728,-8.390137,,,,,,,
1522139465.424675,-0.056569,-0.044727,-0.440118,-0.001938,-0.004004,0.018880,-0.056482,0.044712,-0.997402,-0.012899,-0.057758,-0.060917,-28.222351,-15.849224,-6.289001,,,,,,,
1522139465.454629,-0.056810,-0.044491,-0.439603,-0.006186,-0.001856,0.016745,-0.056723,0.044476,-0.997399,-0.008920,-0.016339,-0.032676,-29.344864,-16.367901,-5.012451,,,,,,,
1522139465.484598,-0.056874,-0.044305,-0.439147,0.007772,0.010909,0.011408,-0.056788,0.044290,-0.997403,0.011820,-0.065500,-0.038836,-32.098114,-16.351910,-1.413940,,,,,,,
1522139465.514566,-0.057043,-0.043967,-0.438695,-0.003914,0.025779,0.014589,-0.056957,0.043953,-0.997409,0.015103,-0.031853,-0.089170,-32.991760,-16.571453,0.011475,,,,,,,
1522139465.544534,-0.057353,-0.043722,-0.438274,0.004549,0.008759,0.014611,-0.057267,0.043708,-0.997402,-0.013854,-0.027259,-0.053517,-34.469604,-16.561138,3.685730,,,,,,,
1522139465.574502,-0.057481,-0.043659,-0.437862,-0.009305,0.017265,0.017793,-0.057395,0.043645,-0.997397,0.011115,-0.054173,-0.057199,-36.409912,-17.074932,6.161865,,,,,,,
1522139465.604471,-0.057477,-0.043675,-0.437443,-0.000745,0.014102,0.011409,-0.057391,0.043661,-0.997397,0.026263,0.026865,-0.015024,-38.787521,-17.809277,11.113586,,,,,,,
1522139465.634439,-0.057733,-0.043549,-0.437139,-0.003830,0.049141,0.017758,-0.057646,0.043535,-0.997387,0.013227,-0.050722,-0.169437,-38.619522,-17.582409,13.737793,,,,,,,
1522139465.664407,-0.057669,-0.043798,-0.436677,-0.007138,0.026826,0.018844,-0.057582,0.043784,-0.997380,0.000407,0.040337,-0.113185,-39.640320,-17.947338,19.213684,,,,,,,
1522139465.694375,-0.057719,-0.043275,-0.436341,0.020647,0.023637,0.010338,-0.057633,0.043261,-0.997400,-0.015701,-0.082919,-0.078741,-38.952271,-17.948254,21.389038,,,,,,,
1522139465.724344,-0.057806,-0.043063,-0.435977,-0.016680,0.040655,0.018829,-0.057720,0.043050,-0.997404,-0.035344,-0.054692,-0.140078,-36.147522,-17.356915,25.363098,,,,,,,
1522139465.754312,-0.057693,-0.042959,-0.435589,0.014187,0.014056,0.013547,-0.057608,0.042946,-0.997415,-0.028024,-0.008140,-0.056723,-35.976364,-16.455654,27.384521,,,,,,,
1522139465.784280,-0.057597,-0.042102,-0.435228,0.019531,0.016175,0.013544,-0.057514,0.042089,-0.997457,-0.023006,-0.013479,-0.051264,-34.842239,-16.534115,29.035400,,,,,,,
1522139465.814248,-0.057262,-0.041259,-0.434922,0.038793,0.017224,0.007171,-0.057182,0.041247,-0.997511,-0.011436,-0.019518,-0.064638,-31.287888,-14.897930,31.205627,,,,,,,
1522139465.844217,-0.057214,-0.040217,-0.434662,0.021636,0.004495,0.010367,-0.057136,0.040206,-0.997556,-0.033745,-0.022994,-0.024721,-29.624420,-14.678539,33.080627,,,,,,,
1522139465.874185,-0.057115,-0.039353,-0.434337,0.030187,0.006615,0.009300,-0.057040,0.039343,-0.997596,-0.025282,-0.016119,-0.038781,-25.615738,-12.294933,34.723083,,,,,,,
1522139465.904153,-0.057131,-0.038412,-0.434089,0.023832,0.017268,0.008216,-0.057058,0.038403,-0.997632,-0.038736,-0.105984,-0.055209,-21.026993,-11.190136,35.170898,,,,,,,
1522139465.934091,-0.057044,-0.037654,-0.433808,0.024813,-0.005038,0.006111,-0.056972,0.037646,-0.997666,-0.022114,-0.000735,0.017563,-14.946426,-10.318035,34.645508,,,,,,,
1522139465.964059,-0.057066,-0.036941,-0.433580,0.011037,0.019413,0.008213,-0.056996,0.036933,-0.997691,-0.031459,-0.080527,-0.012426,-12.098831,-9.881969,33.520203,,,,,,,
1522139465.994028,-0.057132,-0.036739,-0.433316,-0.001928,-0.012418,0.008224,-0.057063,0.036731,-0.997695,-0.023794,-0.028812,-0.001146,-5.591217,-10.138729,31.049438,,,,,,,
1522139466.023996,-0.056919,-0.036550,-0.433075,0.010971,0.000320,0.003967,-0.056850,0.036542,-0.997714,-0.011662,0.006228,0.019641,-3.210938,-11.350704,29.780518,,,,,,,
1522139466.053964,-0.056774,-0.035894,-0.432927,0.015369,0.031110,0.006070,-0.056707,0.035886,-0.997746,0.000783,-0.049329,-0.051693,2.077988,-13.027721,26.564819,,,,,,,
1522139466.083932,-0.056765,-0.035412,-0.432769,0.007687,-0.016684,0.005049,-0.056699,0.035405,-0.997763,0.009351,-0.028172,0.023932,4.236115,-13.863857,25.144287,,,,,,,
1522139466.113901,-0.056526,-0.034953,-0.432683,0.012084,0.008823,0.002895,-0.056461,0.034946,-0.997793,0.004902,-0.038395,-0.040034,5.644089,-14.621761,23.573059,,,,,,,
1522139466.143869,-0.056343,-0.034538,-0.432666,0.003614,0.023748,0.000734,-0.056280,0.034532,-0.997818,-0.000864,-0.015611,-0.029694,8.915756,-15.389919,20.127808,,,,,,,
1522139466.173837,-0.056448,-0.034060,-0.432711,0.004573,-0.001751,-0.000304,-0.056385,0.034053,-0.997828,0.003162,-0.022563,0.002482,10.924759,-16.000622,18.481201,,,,,,,
1522139466.203805,-0.056554,-0.033992,-0.432826,-0.009372,-0.017667,-0.000290,-0.056491,0.033985,-0.997824,0.014865,-0.012852,0.021155,12.557251,-15.411861,14.579651,,,,,,,
1522139466.233774,-0.056582,-0.034219,-0.432997,-0.010369,-0.007010,-0.004563,-0.056519,0.034212,-0.997815,0.024963,-0.033327,-0.001376,13.370621,-15.043072,12.028564,,,,,,,
1522139466.263742,-0.056537,-0.034502,-0.433214,-0.013497,0.006842,-0.007781,-0.056473,0.034495,-0.997808,0.023011,-0.022273,-0.031763,13.277679,-13.323513,6.171692,,,,,,,
1522139466.293710,-0.056644,-0.034877,-0.433449,-0.024208,0.000485,-0.006717,-0.056579,0.034870,-0.997789,-0.013367,-0.006626,-0.021040,12.373749,-11.822598,3.015198,,,,,,,
1522139466.323678,-0.056827,-0.035362,-0.433640,-0.015757,-0.017618,-0.004559,-0.056761,0.035354,-0.997762,-0.006517,-0.010864,0.000951,8.321548,-9.333874,-1.496765,,,,,,,
1522139466.353647,-0.056956,-0.035580,-0.433753,-0.008252,-0.011249,-0.005629,-0.056889,0.035572,-0.997747,0.007603,-0.050053,-0.028666,3.454086,-8.262508,-2.028503,,,,,,,
1522139466.383615,-0.057185,-0.035802,-0.433824,-0.003973,-0.010221,-0.004550,-0.057117,0.035795,-0.997726,-0.007809,-0.036847,-0.000077,-4.849594,-6.574398,-1.289368,,,,,,,
1522139466.413553,-0.057447,-0.035846,-0.433861,-0.006122,-0.010226,-0.002424,-0.057379,0.035838,-0.997709,-0.021662,-0.027064,-0.042467,-8.289993,-6.332714,-0.092102,,,,,,,
1522139466.443521,-0.057694,-0.035969,-0.433893,-0.004057,-0.027227,-0.003470,-0.057625,0.035961,-0.997690,-0.021874,-0.024914,0.036005,-16.507950,-6.140713,4.928040,,,,,,,
1522139466.473493,-0.057969,-0.036109,-0.433926,-0.009340,-0.013388,-0.003495,-0.057899,0.036101,-0.997669,-0.017494,-0.036941,0.012257,-19.498322,-7.024181,8.005066,,,,,,,
1522139466.503461,-0.058266,-0.036234,-0.433983,-0.001893,-0.018732,-0.002416,-0.058195,0.036227,-0.997648,-0.009249,-0.026812,-0.049288,-22.185425,-7.758709,11.381714,,,,,,,
1522139466.533430,-0.058598,-0.036232,-0.434099,-0.012543,-0.011289,-0.000295,-0.058526,0.036224,-0.997628,0.008203,-0.021499,-0.006736,-25.012390,-9.464321,18.062073,,,,,,,
1522139466.563398,-0.058563,-0.036611,-0.434159,-0.007145,0.002516,-0.000308,-0.058491,0.036603,-0.997617,0.015217,-0.001065,-0.040073,-25.229385,-10.510265,21.141174,,,,,,,
1522139466.593366,-0.058718,-0.036457,-0.434282,0.002509,0.008907,-0.004576,-0.058646,0.036449,-0.997613,0.007712,-0.020900,-0.026114,-23.344604,-12.688473,26.400757,,,,,,,
1522139466.623334,-0.058871,-0.036376,-0.434398,-0.009282,0.001470,-0.001377,-0.058798,0.036368,-0.997607,-0.009195,-0.014274,0.012347,-23.188110,-13.661480,29.104797,,,,,,,
1522139466.653303,-0.058922,-0.036443,-0.434502,0.004615,0.000387,-0.004556,-0.058849,0.036435,-0.997602,-0.015354,-0.047086,0.013181,-20.621658,-14.269283,32.858459,,,,,,,
1522139466.683271,-0.058876,-0.036099,-0.434615,0.008880,0.002510,-0.003501,-0.058804,0.036091,-0.997617,0.003689,-0.046955,0.007001,-17.080444,-13.683483,34.582886,,,,,,,
1522139466.713239,-0.058696,-0.036071,-0.434739,-0.009149,0.025939,-0.005663,-0.058625,0.036063,-0.997629,-0.028595,0.010293,-0.018332,-12.485107,-12.727367,36.381348,,,,,,,
1522139466.743208,-0.058563,-0.036044,-0.434855,-0.003900,0.009949,-0.001376,-0.058492,0.036037,-0.997637,-0.024897,-0.044536,-0.002958,-8.720749,-11.244381,36.302307,,,,,,,
1522139466.773176,-0.058366,-0.036090,-0.434929,-0.002873,-0.000659,-0.003499,-0.058295,0.036083,-0.997647,-0.020319,-0.021495,-0.044864,-4.813293,-10.137569,35.699829,,,,,,,
1522139466.803144,-0.058177,-0.036074,-0.435044,-0.004977,0.003593,-0.004563,-0.058107,0.036066,-0.997659,-0.020766,-0.038248,-0.006812,0.288834,-8.662640,33.596497,,,,,,,
1522139466.833112,-0.058010,-0.036019,-0.435174,0.002498,0.001482,-0.007759,-0.057940,0.036012,-0.997670,-0.010130,-0.019700,0.061223,3.064270,-7.851406,32.319641,,,,,,,
1522139466.863081,-0.057786,-0.035955,-0.435332,-0.011363,0.008947,-0.005650,-0.057716,0.035947,-0.997686,-0.007988,-0.044096,0.012883,7.915207,-8.326458,29.098999,,,,,,,
1522139466.893018,-0.057486,-0.036215,-0.435386,-0.006120,-0.010195,-0.004565,-0.057417,0.036207,-0.997693,-0.007723,0.011400,0.059568,7.676880,-9.076351,28.126831,,,,,,,
1522139466.922987,-0.057307,-0.036059,-0.435511,-0.000691,0.005732,-0.006700,-0.057238,0.036051,-0.997709,-0.008894,-0.027140,0.008223,9.219406,-10.436443,24.983154,,,,,,,
1522139466.952955,-0.057074,-0.036197,-0.435669,-0.015644,0.008957,-0.004593,-0.057006,0.036189,-0.997718,0.006865,-0.018534,-0.004174,11.307465,-10.597561,23.259766,,,,,,,
1522139466.982923,-0.056795,-0.036646,-0.435788,-0.012481,-0.000654,-0.002433,-0.056726,0.036638,-0.997717,0.014154,-0.005480,0.015540,10.451752,-11.647076,19.888550,,,,,,,
1522139467.012891,-0.056530,-0.037139,-0.435937,-0.022103,-0.001694,-0.001378,-0.056461,0.037130,-0.997714,0.013431,-0.029546,-0.004636,9.159821,-12.168209,17.939941,,,,,,,
1522139467.042860,-0.056300,-0.037734,-0.436073,-0.015631,0.012132,-0.003527,-0.056230,0.037725,-0.997705,0.002184,0.002863,-0.041068,7.200760,-12.310680,16.664612,,,,,,,
1522139467.072828,-0.056220,-0.037895,-0.436276,-0.015525,0.035490,-0.002477,-0.056150,0.037886,-0.997703,-0.016284,-0.044889,-0.106301,6.222946,-12.456493,16.439636,,,,,,,
1522139467.102796,-0.056127,-0.038458,-0.436391,-0.021034,0.001497,0.000108,-0.056056,0.038449,-0.997687,-0.024617,-0.005688,-0.047723,5.852768,-11.929913,16.362427,,,,,,,
1522139467.132764,-0.056026,-0.038418,-0.436529,0.004628,0.005701,-0.003071,-0.055955,0.038409,-0.997694,0.000840,0.009031,-0.018602,5.788651,-9.756420,14.553650,,,,,,,
1522139467.162733,-0.056074,-0.038469,-0.436722,-0.007103,0.005758,-0.005624,-0.056003,0.038460,-0.997690,-0.008267,-0.030647,-0.003791,4.976959,-7.878689,13.645752,,,,,,,
1522139467.192701,-0.056351,-0.038499,-0.436877,0.001374,-0.011268,-0.006659,-0.056280,0.038489,-0.997673,0.000829,-0.019065,0.023811,3.200790,-4.272732,11.605408,,,,,,,
1522139467.222669,-0.056627,-0.038466,-0.437089,-0.001739,0.007861,-0.006677,-0.056555,0.038456,-0.997659,0.007421,0.003246,-0.053458,2.922516,-2.321117,11.972473,,,,,,,
1522139467.252637,-0.056909,-0.038291,-0.437346,0.003581,-0.002728,-0.013059,-0.056837,0.038281,-0.997649,-0.028017,-0.018826,-0.034959,1.395020,2.036427,12.629272,,,,,,,
1522139467.282606,-0.057257,-0.038316,-0.437664,0.000245,-0.026101,-0.009854,-0.057183,0.038306,-0.997629,-0.025016,-0.036307,0.044092,1.946060,4.509159,12.844666,,,,,,,
1522139467.312574,-0.057383,-0.038352,-0.438003,-0.002796,0.007896,-0.009881,-0.057309,0.038342,-0.997620,-0.017977,-0.059048,-0.038788,3.269592,9.827427,12.074097,,,,,,,
1522139467.342542,-0.057556,-0.038232,-0.438375,0.003498,-0.018665,-0.011984,-0.057483,0.038223,-0.997615,-0.018460,0.008362,0.027705,3.285599,11.926517,11.240662,,,,,,,
1522139467.372480,-0.057304,-0.038146,-0.438789,0.003589,-0.003761,-0.016259,-0.057231,0.038137,-0.997632,-0.007527,-0.016866,0.015180,3.176132,16.351398,10.622925,,,,,,,
1522139467.402448,-0.056948,-0.038116,-0.439175,-0.005895,0.023873,-0.015222,-0.056876,0.038107,-0.997654,0.008521,-0.060919,-0.061001,1.691620,17.633518,11.067017,,,,,,,
1522139467.432417,-0.056751,-0.038532,-0.439370,-0.010336,-0.003802,-0.006674,-0.056679,0.038522,-0.997649,0.007362,0.047003,0.027571,-0.306183,19.593784,12.333191,,,,,,,
1522139467.462371,-0.056532,-0.038415,-0.439597,0.005721,0.004686,-0.008810,-0.056460,0.038406,-0.997666,-0.002072,-0.018859,0.007294,-0.897308,20.122044,12.930786,,,,,,,
1522139467.492339,-0.056251,-0.038548,-0.439749,-0.009230,0.009982,-0.002427,-0.056180,0.038539,-0.997677,-0.001498,-0.015162,-0.008320,-2.086761,20.503513,14.053650,,,,,,,
1522139467.522307,-0.055925,-0.038470,-0.439894,0.012128,0.012045,-0.001347,-0.055855,0.038461,-0.997698,0.049233,-0.026834,0.017427,-4.387207,21.116932,17.125061,,,,,,,
1522139467.552276,-0.055565,-0.038152,-0.439981,0.002614,0.031199,-0.002436,-0.055496,0.038142,-0.997730,0.032318,0.018575,-0.052731,-4.224152,21.792255,18.172424,,,,,,,
1522139467.582244,-0.055238,-0.037719,-0.440127,0.006827,0.016330,-0.004550,-0.055171,0.037710,-0.997765,0.021418,-0.035772,-0.013039,-3.447510,23.515324,19.740967,,,,,,,
1522139467.612212,-0.055139,-0.037531,-0.440294,-0.002903,-0.010210,-0.004532,-0.055072,0.037522,-0.997777,0.017642,0.008987,0.005101,-2.459396,24.561329,20.187256,,,,,,,
1522139467.642180,-0.055195,-0.037746,-0.440485,0.000379,-0.000630,-0.009858,-0.055127,0.037737,-0.997766,0.004117,-0.033464,-0.052527,1.680237,26.566792,19.281311,,,,,,,
1522139467.672149,-0.055418,-0.037840,-0.440606,-0.016663,0.019551,-0.001373,-0.055350,0.037831,-0.997750,0.005896,-0.010457,-0.109580,2.807281,26.861561,19.130737,,,,,,,
1522139467.702117,-0.055907,-0.038061,-0.440865,-0.006192,-0.031436,-0.006646,-0.055837,0.038052,-0.997715,0.012365,0.012409,0.019687,7.360657,25.864140,17.186951,,,,,,,
1522139467.732085,-0.056362,-0.038040,-0.441076,-0.008234,-0.010192,-0.005600,-0.056291,0.038031,-0.997690,0.033800,-0.005469,-0.008307,10.785172,24.571629,15.093872,,,,,,,
1522139467.762053,-0.056951,-0.038040,-0.441254,0.003532,-0.010190,-0.009854,-0.056879,0.038031,-0.997656,-0.001043,0.040475,-0.018091,15.753601,21.245380,11.209656,,,,,,,
1522139467.792022,-0.057266,-0.037628,-0.441473,0.008979,0.019524,-0.005621,-0.057194,0.037619,-0.997654,-0.000393,-0.058112,-0.096691,18.492050,19.429996,8.143250,,,,,,,
1522139467.821990,-0.057348,-0.037487,-0.441672,0.003365,-0.042097,-0.005561,-0.057276,0.037478,-0.997655,0.021983,0.026670,0.029271,20.779144,17.841038,4.475769,,,,,,,
1522139467.851928,-0.057411,-0.037613,-0.441931,-0.012524,-0.013361,-0.005605,-0.057339,0.037604,-0.997646,0.031994,-0.065528,-0.016621,24.521973,14.066792,-2.932251,,,,,,,
1522139467.881896,-0.057508,-0.038576,-0.442088,-0.035957,0.004738,-0.001383,-0.057433,0.038567,-0.997604,0.045867,-0.043007,-0.039902,25.678238,12.481937,-7.575378,,,,,,,
1522139467.911864,-0.057701,-0.038951,-0.442233,0.002511,0.001478,-0.007730,-0.057625,0.038941,-0.997579,0.073341,0.019225,0.029729,25.295471,8.651249,-14.985229,,,,,,,
1522139467.941832,-0.057779,-0.038894,-0.442540,-0.014549,0.007906,-0.007755,-0.057704,0.038884,-0.997576,0.007868,-0.021016,-0.069120,22.635071,6.635685,-17.528503,,,,,,,
1522139467.971801,-0.057210,-0.039024,-0.442807,0.004757,0.029089,-0.005627,-0.057135,0.039014,-0.997604,0.021430,0.042041,0.000060,17.331467,3.655582,-21.494263,,,,,,,
1522139468.001769,-0.056589,-0.038595,-0.443058,0.008992,0.023751,-0.003488,-0.056517,0.038586,-0.997656,0.005644,-0.006466,0.004141,14.991119,2.839909,-22.692200,,,,,,,
1522139468.031737,-0.055703,-0.038689,-0.443180,-0.002633,0.045078,-0.008851,-0.055632,0.038680,-0.997702,0.029860,0.040819,-0.021387,9.639389,0.837879,-23.811890,,,,,,,
1522139468.061706,-0.054826,-0.038363,-0.443514,0.016444,0.008915,-0.011992,-0.054758,0.038353,-0.997763,0.018443,-0.061089,0.003027,7.683624,0.621082,-24.411926,,,,,,,
1522139468.091674,-0.053730,-0.038248,-0.443787,-0.009033,0.049332,-0.006731,-0.053665,0.038239,-0.997827,0.033142,-0.025590,-0.113349,4.063370,-0.414272,-26.059631,,,,,,,
1522139468.121642,-0.053073,-0.038393,-0.444140,0.002610,0.019579,-0.012015,-0.053009,0.038384,-0.997856,-0.015793,0.006889,-0.031349,0.613373,-0.323910,-26.211670,,,,,,,
1522139468.151610,-0.052498,-0.038006,-0.444597,0.003701,0.018568,-0.018413,-0.052436,0.037997,-0.997901,0.055854,0.063550,0.040641,-3.286606,-0.456127,-25.988159,,,,,,,
1522139468.181579,-0.052075,-0.037501,-0.445166,0.019700,0.012147,-0.019451,-0.052015,0.037492,-0.997942,0.062712,-0.034913,-0.006849,-9.576248,-1.399532,-22.687500,,,,,,,
1522139468.211547,-0.052039,-0.037243,-0.445639,0.001372,-0.027106,-0.020498,-0.051980,0.037235,-0.997954,0.053078,0.009610,0.024519,-13.239044,-1.980038,-19.687012,,,,,,,
1522139468.241515,-0.051802,-0.037239,-0.446133,0.008955,0.000462,-0.016250,-0.051743,0.037230,-0.997966,0.029023,0.042222,0.015224,-16.585007,-3.083309,-13.009216,,,,,,,
1522139468.271483,-0.051591,-0.037143,-0.446738,-0.013422,0.009026,-0.017341,-0.051532,0.037135,-0.997981,0.039615,-0.032328,-0.076406,-15.524200,-3.760159,-10.080994,,,,,,,
1522139468.301452,-0.052065,-0.037738,-0.447235,-0.032835,-0.027085,-0.011996,-0.052005,0.037729,-0.997934,0.022494,-0.003641,0.041238,-14.394943,-6.310284,-5.120239,,,,,,,
1522139468.331389,-0.052503,-0.038494,-0.447728,-0.021045,-0.020716,-0.015190,-0.052440,0.038484,-0.997882,0.072124,0.037230,0.011035,-13.117996,-7.289074,-3.165649,,,,,,,
1522139468.361358,-0.052976,-0.038687,-0.448188,-0.008147,0.000486,-0.013069,-0.052912,0.038677,-0.997850,0.081278,0.029805,0.020616,-10.648087,-10.146267,0.746948,,,,,,,
1522139468.391326,-0.053663,-0.038667,-0.448716,0.000392,-0.006942,-0.018379,-0.053597,0.038657,-0.997814,0.026863,0.027963,-0.039875,-9.899429,-11.497601,2.777771,,,,,,,
1522139468.421294,-0.053908,-0.038488,-0.449257,0.013208,-0.003802,-0.016240,-0.053842,0.038479,-0.997808,0.031641,0.013416,-0.031611,-3.979248,-13.471767,5.263611,,,,,,,
1522139468.451246,-0.053764,-0.038061,-0.449759,0.018625,0.015306,-0.015192,-0.053699,0.038052,-0.997832,0.009861,-0.005657,-0.060426,-1.060364,-14.534145,6.019348,,,,,,,
1522139468.481215,-0.053491,-0.037615,-0.450291,0.017482,-0.002748,-0.016240,-0.053427,0.037606,-0.997863,0.019980,0.029838,-0.011750,0.575500,-15.367474,5.048523,,,,,,,
1522139468.511183,-0.053389,-0.037255,-0.450941,0.005870,0.020698,-0.021601,-0.053326,0.037247,-0.997882,-0.017169,-0.021728,-0.096997,4.302536,-16.136791,2.503479,,,,,,,
1522139468.541151,-0.053226,-0.037471,-0.451588,-0.015540,0.015425,-0.017361,-0.053164,0.037462,-0.997883,0.025133,-0.049898,-0.055996,5.721893,-15.619976,0.702026,,,,,,,
1522139468.571119,-0.053042,-0.037861,-0.452137,-0.003793,0.011143,-0.019468,-0.052979,0.037852,-0.997878,-0.006622,0.097478,-0.010957,4.832642,-13.143307,-1.633240,,,,,,,
1522139468.601088,-0.052935,-0.037336,-0.452909,0.003671,0.005854,-0.023728,-0.052873,0.037327,-0.997903,0.045717,-0.016468,0.013437,3.268021,-11.562176,-2.540405,,,,,,,
1522139468.631056,-0.052753,-0.037647,-0.453621,-0.028365,0.011197,-0.017360,-0.052691,0.037638,-0.997901,0.002124,0.038015,-0.002007,1.807724,-7.355999,-2.932922,,,,,,,
1522139468.661024,-0.052373,-0.038052,-0.454266,0.004784,0.020698,-0.019480,-0.052311,0.038043,-0.997906,-0.003033,-0.041659,-0.097629,1.228546,-5.403179,-2.716064,,,,,,,
1522139468.690992,-0.052355,-0.038122,-0.454911,-0.008076,0.004818,-0.023733,-0.052293,0.038113,-0.997904,0.040223,0.022785,0.034052,1.713257,-1.880444,-2.804871,,,,,,,
1522139468.720961,-0.051806,-0.038346,-0.455651,-0.004839,0.012231,-0.022666,-0.051745,0.038337,-0.997924,0.046603,0.013971,-0.074677,2.029968,0.292301,-3.638428,,,,,,,
1522139468.750929,-0.052001,-0.038854,-0.456393,-0.012333,0.005927,-0.026943,-0.051939,0.038844,-0.997895,-0.003268,0.006184,-0.004516,3.099304,4.034473,-6.652832,,,,,,,
1522139468.780897,-0.052440,-0.038844,-0.457148,0.000378,-0.017523,-0.024761,-0.052377,0.038834,-0.997872,0.018197,-0.055542,-0.025703,4.157272,6.277302,-9.061340,,,,,,,
1522139468.810835,-0.052466,-0.039452,-0.457766,-0.017762,-0.013229,-0.023718,-0.052401,0.039442,-0.997847,0.016878,0.047548,-0.009309,4.099594,9.275440,-11.173340,,,,,,,
1522139468.840803,-0.052958,-0.039179,-0.458620,0.008948,-0.017509,-0.030082,-0.052892,0.039169,-0.997832,-0.014338,-0.047851,-0.020097,0.819183,14.759342,-17.046936,,,,,,,
1522139468.870772,-0.053136,-0.039518,-0.459414,-0.020856,0.011220,-0.023745,-0.053070,0.039508,-0.997809,0.030655,0.011182,-0.003427,-2.391678,17.621372,-19.459961,,,,,,,
1522139468.900740,-0.052913,-0.039629,-0.460192,0.008970,-0.010085,-0.027958,-0.052847,0.039619,-0.997816,0.026877,0.032540,0.012801,-12.106903,22.462818,-21.734192,,,,,,,
1522139468.930708,-0.052762,-0.039167,-0.461019,0.002757,0.030326,-0.030135,-0.052698,0.039157,-0.997843,0.028222,0.090696,0.005075,-18.527878,24.967381,-21.072449,,,,,,,
1522139468.960676,-0.052178,-0.038641,-0.461944,0.028361,0.024975,-0.032250,-0.052116,0.038631,-0.997894,0.049918,-0.019619,-0.042115,-30.309982,29.748737,-17.722412,,,,,,,
1522139468.990645,-0.051812,-0.038357,-0.462871,-0.002561,0.034604,-0.031214,-0.051751,0.038348,-0.997923,-0.047736,-0.006976,-0.038484,-36.421783,31.729313,-14.658386,,,,,,,
1522139469.020613,-0.051178,-0.038487,-0.463816,0.002756,0.034560,-0.026947,-0.051118,0.038478,-0.997951,0.042344,-0.032695,0.047741,-43.913681,35.820042,-7.628540,,,,,,,
1522139469.050581,-0.050492,-0.038875,-0.464710,-0.026188,0.004900,-0.030134,-0.050433,0.038865,-0.997971,0.009326,0.032302,-0.065933,-46.116226,38.458469,-4.115173,,,,,,,
1522139469.080549,-0.050252,-0.039155,-0.465622,-0.000377,0.045223,-0.031222,-0.050193,0.039145,-0.997972,-0.009576,-0.007345,-0.096098,-49.780884,42.008259,4.193787,,,,,,,
1522139469.110518,-0.050305,-0.039260,-0.466550,-0.016599,0.005897,-0.024798,-0.050245,0.039249,-0.997965,0.048704,0.027386,-0.036184,-49.974655,42.837955,8.015381,,,,,,,
1522139469.140486,-0.050364,-0.039501,-0.467309,0.003632,-0.002663,-0.022648,-0.050303,0.039490,-0.997953,0.032572,0.037933,-0.025301,-49.487610,44.114811,12.060486,,,,,,,
1522139469.170454,-0.050665,-0.039087,-0.468102,0.005795,0.002639,-0.022648,-0.050604,0.039077,-0.997954,0.008734,0.072495,0.000655,-49.517944,43.223881,20.989136,,,,,,,
1522139469.200422,-0.051002,-0.038833,-0.468860,0.023922,-0.005864,-0.026896,-0.050942,0.038823,-0.997947,-0.015358,-0.000066,-0.091088,-47.626755,42.094944,25.569519,,,,,,,
1522139469.230391,-0.051474,-0.038376,-0.469567,0.015318,-0.011209,-0.019438,-0.051414,0.038367,-0.997940,0.025260,-0.012748,-0.008041,-40.409683,39.294987,33.084290,,,,,,,
1522139469.260359,-0.052001,-0.038035,-0.470256,0.019572,-0.023938,-0.025807,-0.051940,0.038026,-0.997926,-0.006913,-0.029206,-0.048720,-36.058136,37.553562,36.243469,,,,,,,
1522139469.290297,-0.052876,-0.037766,-0.470990,0.002573,-0.007943,-0.027966,-0.052814,0.037757,-0.997890,0.025669,-0.021506,-0.050083,-26.396469,34.587803,38.960144,,,,,,,
1522139469.320265,-0.053338,-0.037425,-0.471546,0.012181,-0.002679,-0.023705,-0.053275,0.037417,-0.997879,-0.042428,-0.042284,-0.082673,-21.536057,33.215778,38.818054,,,,,,,
1522139469.350233,-0.053874,-0.037341,-0.472040,0.003506,-0.025001,-0.018367,-0.053811,0.037332,-0.997853,0.015664,-0.036875,0.046651,-14.818665,30.260059,38.308289,,,,,,,
1522139469.380201,-0.054061,-0.037131,-0.472426,0.007771,-0.021858,-0.014102,-0.053997,0.037122,-0.997851,0.008541,0.000750,0.056368,-12.365631,28.598133,37.416138,,,,,,,
1522139469.410170,-0.053843,-0.036801,-0.472832,0.022823,0.001466,-0.013043,-0.053781,0.036793,-0.997875,0.034600,-0.063282,0.028545,-9.390594,26.184605,37.277222,,,,,,,
1522139469.440138,-0.053273,-0.036396,-0.473091,0.004844,0.040804,-0.010959,-0.053212,0.036388,-0.997920,-0.024379,-0.023021,-0.132512,-7.142929,25.500248,38.031128,,,,,,,
1522139469.470117,-0.053096,-0.035695,-0.473323,0.034635,0.021597,-0.008793,-0.053037,0.035688,-0.997955,0.018400,-0.006452,-0.041093,-1.380569,23.825001,38.715759,,,,,,,
1522139469.500086,-0.052232,-0.034896,-0.473584,0.009030,0.026967,-0.007752,-0.052177,0.034889,-0.998028,0.061378,0.004433,0.012066,2.205811,22.683491,38.347107,,,,,,,
1522139469.530054,-0.051582,-0.034393,-0.473840,0.017678,0.046089,-0.010958,-0.051528,0.034386,-0.998079,0.021392,-0.029031,-0.063490,5.267029,21.843815,37.451965,,,,,,,
1522139469.560022,-0.050980,-0.034331,-0.474081,-0.005953,0.019553,-0.006687,-0.050928,0.034324,-0.998112,0.022837,-0.024512,0.026677,11.452469,20.087315,33.787109,,,,,,,
1522139469.589990,-0.050093,-0.034334,-0.474304,-0.001605,0.040775,-0.003510,-0.050043,0.034327,-0.998157,-0.028601,-0.038767,-0.031369,14.275803,18.947071,31.243042,,,,,,,
1522139469.619959,-0.049383,-0.034360,-0.474596,-0.009123,0.023855,-0.010965,-0.049334,0.034353,-0.998191,0.051775,-0.044378,0.029274,16.789383,17.731709,27.199158,,,,,,,
1522139469.649927,-0.048598,-0.034659,-0.474918,-0.016540,0.036611,-0.009913,-0.048549,0.034652,-0.998219,0.053234,-0.051529,-0.045817,18.496017,17.196857,25.027222,,,,,,,
1522139469.679895,-0.047978,-0.034997,-0.475108,-0.028292,0.038725,-0.005655,-0.047930,0.034990,-0.998238,0.024065,0.023726,-0.056694,20.732834,17.633869,22.101562,,,,,,,
1522139469.709863,-0.047416,-0.035223,-0.475263,-0.010229,0.021679,-0.004565,-0.047369,0.035216,-0.998257,0.010184,-0.030394,-0.069294,22.684662,18.673664,20.673401,,,,,,,
1522139469.739832,-0.047442,-0.035687,-0.475365,-0.024330,-0.018700,0.001852,-0.047394,0.035680,-0.998239,0.018890,-0.018834,0.030206,28.607346,21.417057,15.715393,,,,,,,
1522139469.769769,-0.047487,-0.036038,-0.475428,-0.002823,0.014179,0.001841,-0.047438,0.036030,-0.998224,-0.004152,-0.023182,-0.016333,30.552109,22.830067,12.485718,,,,,,,
1522139469.799738,-0.047917,-0.036104,-0.475487,-0.008228,-0.000701,0.002924,-0.047867,0.036097,-0.998201,-0.015869,-0.000849,-0.016066,33.080353,26.558857,2.647034,,,,,,,
1522139469.829706,-0.048153,-0.036003,-0.475551,-0.003025,-0.035717,-0.003443,-0.048104,0.035995,-0.998194,0.010582,-0.051345,-0.014593,32.985474,27.903721,-2.908386,,,,,,,
1522139469.859674,-0.048431,-0.035836,-0.475657,-0.000743,-0.002796,-0.002404,-0.048381,0.035828,-0.998186,-0.004903,-0.012757,-0.021391,29.596268,29.414097,-7.791199,,,,,,,
1522139469.889642,-0.048882,-0.035750,-0.475777,0.004497,-0.027236,-0.004505,-0.048831,0.035742,-0.998167,-0.006360,-0.031469,-0.009447,17.874313,31.185230,-14.404114,,,,,,,
1522139469.919611,-0.049281,-0.035554,-0.475721,0.004439,-0.033646,0.000827,-0.049229,0.035547,-0.998155,-0.013148,0.025412,0.029267,10.378769,32.492527,-15.838074,,,,,,,
1522139469.949579,-0.049536,-0.034980,-0.475659,0.028010,-0.012481,0.004023,-0.049486,0.034973,-0.998162,0.010408,-0.036987,-0.043021,-2.489349,34.427509,-13.752258,,,,,,,
1522139469.979547,-0.049791,-0.034579,-0.475537,-0.001928,-0.019862,0.006141,-0.049740,0.034572,-0.998164,0.038952,0.018696,0.057673,-7.110077,35.875767,-11.285339,,,,,,,
1522139470.009515,-0.050007,-0.034527,-0.475364,0.004618,0.020454,0.013561,-0.049956,0.034520,-0.998155,-0.041093,-0.048543,-0.105315,-10.275558,39.044651,-6.649597,,,,,,,
1522139470.039484,-0.049964,-0.034354,-0.475080,-0.002924,-0.002865,0.007189,-0.049914,0.034347,-0.998163,0.039522,0.018372,0.033395,-10.927734,40.249378,-4.854736,,,,,,,
1522139470.069452,-0.049549,-0.034165,-0.474914,0.006710,0.000313,0.005062,-0.049500,0.034159,-0.998190,-0.006851,-0.070978,-0.012827,-9.031219,40.918308,-2.381470,,,,,,,
1522139470.099420,-0.049284,-0.034411,-0.474712,-0.014729,-0.014529,0.008256,-0.049235,0.034404,-0.998195,0.062037,-0.009411,0.042338,-7.151062,41.434849,-2.382568,,,,,,,
1522139470.129388,-0.049151,-0.034255,-0.474490,0.017282,-0.019913,0.007218,-0.049102,0.034249,-0.998206,0.088943,-0.055291,0.034477,-6.322479,41.207096,-1.406311,,,,,,,
1522139470.159357,-0.049132,-0.034100,-0.474157,-0.010425,-0.007100,0.008250,-0.049083,0.034094,-0.998213,0.047908,0.008356,-0.022097,-5.575226,41.203281,-1.855835,,,,,,,
1522139470.189325,-0.048915,-0.033534,-0.474015,0.029246,0.019420,-0.000267,-0.048868,0.033528,-0.998242,0.058908,-0.030980,0.000913,-3.473984,41.867939,-2.757507,,,,,,,
1522139470.219293,-0.048616,-0.033243,-0.473880,-0.009378,-0.013475,0.007195,-0.048570,0.033237,-0.998267,0.079774,-0.030032,0.088782,-4.387314,41.570316,-4.481750,,,,,,,
1522139470.249231,-0.047757,-0.033438,-0.473603,0.014355,0.041728,0.007152,-0.047713,0.033432,-0.998301,0.026060,-0.025558,-0.055120,-5.523499,40.899677,-5.229614,,,,,,,
1522139470.279199,-0.047188,-0.032471,-0.473552,0.014164,-0.012401,-0.002380,-0.047145,0.032465,-0.998360,0.019557,-0.058512,0.029565,-9.979156,38.144215,-5.745850,,,,,,,
1522139470.309168,-0.046283,-0.032255,-0.473515,0.004706,0.023738,-0.000294,-0.046243,0.032250,-0.998410,0.043923,-0.018044,0.003704,-13.221039,35.685093,-4.462585,,,,,,,
1522139470.339136,-0.045701,-0.031724,-0.473421,0.012151,0.023682,0.005040,-0.045662,0.031719,-0.998453,0.082725,-0.023143,-0.031362,-18.345139,31.286472,-1.147583,,,,,,,
,,,,,,,,,,,,,,,,25.306548,51.445247,10.999999,-1.000000,-1.000000,1522139470.331950,
1522139470.369104,-0.044888,-0.031651,-0.473192,0.005844,0.052339,0.011402,-0.044851,0.031645,-0.998492,0.030248,-0.013228,-0.076398,-19.027252,29.491352,0.659241,,,,,,,
1522139470.399072,-0.044153,-0.031201,-0.472999,0.008878,0.011964,0.009316,-0.044117,0.031196,-0.998539,0.045094,-0.014229,0.024845,-20.238327,26.125568,4.422119,,,,,,,
1522139470.429041,-0.043215,-0.030736,-0.472770,0.011148,0.043818,0.011420,-0.043181,0.030731,-0.998595,0.028655,-0.038162,-0.075838,-19.118591,24.921650,5.552490,,,,,,,
1522139470.459000,-0.042381,-0.030432,-0.472376,0.003502,0.011938,0.015701,-0.042349,0.030427,-0.998639,0.065130,-0.000352,0.013959,-17.786438,22.816196,6.086609,,,,,,,
1522139470.488968,-0.041743,-0.030117,-0.471871,0.013165,0.024655,0.016763,-0.041712,0.030112,-0.998676,0.087229,0.001992,-0.041501,-19.066452,21.997486,6.614197,,,,,,,
1522139470.518936,-0.041529,-0.029840,-0.471308,-0.008342,-0.001884,0.022095,-0.041498,0.029835,-0.998693,0.064066,-0.069279,0.004568,-20.424301,20.355030,8.045105,,,,,,,
1522139470.548905,-0.041228,-0.030255,-0.470655,-0.007267,-0.006114,0.017842,-0.041197,0.030250,-0.998693,0.059096,0.002587,-0.014582,-22.761993,17.143772,11.281799,,,,,,,
1522139470.578873,-0.041161,-0.030085,-0.470078,0.002316,-0.012502,0.016788,-0.041131,0.030081,-0.998701,0.076134,-0.077261,0.008528,-24.870407,15.354847,12.862915,,,,,,,
1522139470.608841,-0.041305,-0.030307,-0.469444,-0.020071,-0.001863,0.021031,-0.041274,0.030303,-0.998688,0.080428,-0.057021,0.018113,-29.762314,11.854877,15.874451,,,,,,,
1522139470.638809,-0.041555,-0.030043,-0.468893,0.016211,-0.008313,0.018933,-0.041524,0.030039,-0.998686,0.067419,-0.035089,-0.055605,-30.814621,10.361713,17.979919,,,,,,,
1522139470.668778,-0.041735,-0.029254,-0.468339,0.016186,-0.010447,0.021062,-0.041705,0.029250,-0.998702,0.055179,-0.031538,-0.040208,-35.222061,7.838688,25.112793,,,,,,,
1522139470.698746,-0.041789,-0.028440,-0.467688,0.025715,-0.025358,0.023212,-0.041760,0.028436,-0.998723,0.068158,-0.055932,0.069203,-35.287552,7.166676,27.815369,,,,,,,
1522139470.728714,-0.042004,-0.027855,-0.467014,0.013964,-0.023227,0.026399,-0.041976,0.027851,-0.998730,0.070982,-0.052586,0.005490,-32.874405,5.960026,32.021423,,,,,,,
1522139470.758652,-0.042090,-0.027401,-0.466237,0.010835,-0.006213,0.026376,-0.042062,0.027398,-0.998739,0.065408,-0.055566,-0.019770,-32.643219,5.361012,34.048889,,,,,,,
1522139470.788620,-0.042074,-0.027031,-0.465409,0.000252,0.016123,0.027410,-0.042046,0.027027,-0.998750,0.076989,-0.021366,-0.035735,-31.063721,3.557667,37.806946,,,,,,,
1522139470.818588,-0.041944,-0.026790,-0.464589,-0.002901,0.021451,0.024216,-0.041917,0.026787,-0.998762,0.035081,-0.100533,-0.092226,-29.193527,1.676579,40.140381,,,,,,,
1522139470.848557,-0.041725,-0.026801,-0.463628,-0.010407,0.022493,0.030599,-0.041698,0.026798,-0.998771,0.026851,-0.040241,-0.076058,-28.522232,-0.273800,42.773560,,,,,,,
1522139470.878525,-0.041422,-0.026592,-0.462674,0.009816,0.006505,0.029568,-0.041396,0.026589,-0.998789,0.062758,-0.054787,0.015406,-24.501923,-5.687832,46.847168,,,,,,,
1522139470.908493,-0.041009,-0.026411,-0.461696,-0.008309,0.015039,0.031675,-0.040984,0.026408,-0.998811,0.053191,-0.054622,-0.066405,-20.098755,-8.781124,48.361755,,,,,,,
1522139470.938462,-0.040704,-0.026501,-0.460721,-0.000898,0.008618,0.037008,-0.040678,0.026498,-0.998821,0.068846,-0.086786,-0.057042,-12.355621,-15.114895,49.440979,,,,,,,
1522139470.968430,-0.040701,-0.026826,-0.459721,-0.024402,0.001242,0.034875,-0.040675,0.026823,-0.998812,0.019160,-0.043226,-0.032514,-8.329300,-17.083675,48.775879,,,,,,,
1522139470.998398,-0.040677,-0.027067,-0.458848,-0.001897,0.011868,0.027419,-0.040651,0.027063,-0.998807,0.047898,-0.111322,-0.044650,1.213760,-19.906399,43.991943,,,,,,,
1522139471.028366,-0.040873,-0.027301,-0.458008,-0.039369,-0.005078,0.032736,-0.040846,0.027298,-0.998792,0.072996,-0.061798,-0.007265,5.310684,-20.603359,40.471741,,,,,,,
1522139471.058335,-0.041123,-0.028007,-0.457163,-0.009444,-0.009335,0.023173,-0.041096,0.028003,-0.998763,0.069507,-0.047016,-0.031572,13.075912,-19.670650,33.121887,,,,,,,
1522139471.088303,-0.041184,-0.027840,-0.456335,-0.017880,0.017242,0.025267,-0.041156,0.027836,-0.998765,0.037433,-0.039509,-0.060500,15.158966,-18.934078,29.070007,,,,,,,
1522139471.118271,-0.041220,-0.028125,-0.455463,-0.003015,0.003374,0.028485,-0.041192,0.028122,-0.998755,-0.004294,-0.026001,-0.058053,19.030167,-16.635128,20.437805,,,,,,,
1522139471.148239,-0.041067,-0.027800,-0.454656,0.004333,-0.029590,0.026406,-0.041039,0.027796,-0.998771,0.059976,-0.077174,0.116096,19.843033,-14.918667,15.556335,,,,,,,
1522139471.178208,-0.040729,-0.027760,-0.453856,-0.000901,-0.003020,0.028501,-0.040702,0.027757,-0.998786,0.059455,-0.044511,0.013312,17.374527,-9.889858,8.259949,,,,,,,
1522139471.208176,-0.040395,-0.027633,-0.453186,0.007703,0.001272,0.019977,-0.040369,0.027630,-0.998803,0.075144,-0.045620,0.012826,16.342178,-6.138531,4.944458,,,,,,,
1522139471.238114,-0.039837,-0.027313,-0.452602,-0.011362,0.034269,0.018863,-0.039811,0.027310,-0.998834,0.046342,-0.031948,-0.091117,15.089142,-2.310604,2.228516,,,,,,,
1522139471.268082,-0.039147,-0.027320,-0.452011,0.004549,0.012957,0.021032,-0.039122,0.027316,-0.998861,0.070784,-0.046375,-0.004328,12.503784,4.596119,-2.675415,,,,,,,
1522139471.298050,-0.038591,-0.027127,-0.451440,-0.001853,0.008752,0.016769,-0.038567,0.027124,-0.998888,0.047158,-0.036325,0.025606,11.100784,7.975483,-4.639648,,,,,,,
1522139471.328018,-0.037923,-0.027044,-0.450891,-0.001861,0.010872,0.018891,-0.037900,0.027041,-0.998916,0.079221,-0.004275,-0.013154,8.293945,14.060154,-7.590393,,,,,,,
1522139471.357987,-0.036962,-0.026902,-0.450393,0.008784,0.002351,0.017843,-0.036940,0.026899,-0.998955,0.043791,-0.029081,-0.056129,5.765427,16.620853,-8.276855,,,,,,,
1522139471.387955,-0.036425,-0.026610,-0.449836,-0.006012,0.035325,0.017802,-0.036404,0.026607,-0.998983,0.068661,-0.017040,-0.048869,3.619797,21.053013,-10.770691,,,,,,,
1522139471.417923,-0.035580,-0.026305,-0.449293,0.018433,0.009771,0.016778,-0.035560,0.026302,-0.999021,0.067390,-0.048870,0.028974,3.561234,23.377140,-11.905029,,,,,,,
1522139471.447891,-0.034997,-0.025902,-0.448749,0.001309,-0.000806,0.015712,-0.034978,0.025899,-0.999052,0.033284,0.014888,0.040892,1.114548,27.436100,-13.947449,,,,,,,
1522139471.477836,-0.034130,-0.025498,-0.448231,0.024834,0.011854,0.019980,-0.034113,0.025495,-0.999093,0.054575,-0.067777,0.010415,0.975143,29.310383,-15.305054,,,,,,,
1522139471.507804,-0.033554,-0.025283,-0.447555,-0.007250,0.010819,0.028477,-0.033537,0.025280,-0.999118,0.050154,0.051289,0.026248,0.089813,31.862553,-17.115723,,,,,,,
1522139471.537772,-0.033167,-0.024880,-0.446960,0.024801,0.001236,0.017865,-0.033151,0.024877,-0.999141,0.045083,-0.053762,0.022807,-2.684189,32.324436,-17.718933,,,,,,,
1522139471.567740,-0.032977,-0.024367,-0.446272,-0.005184,-0.006184,0.027432,-0.032962,0.024364,-0.999160,0.048678,-0.001552,-0.008531,-3.738663,32.328419,-18.469482,,,,,,,
1522139471.597709,-0.032877,-0.023919,-0.445620,0.033256,-0.011573,0.023211,-0.032862,0.023917,-0.999174,0.050867,-0.034277,-0.009951,-7.198990,31.518620,-18.842957,,,,,,,
1522139471.627677,-0.032695,-0.023011,-0.444896,0.005551,0.008647,0.029559,-0.032680,0.023009,-0.999201,0.037380,-0.037398,-0.056509,-10.732651,30.559681,-18.690918,,,,,,,
1522139471.657645,-0.032204,-0.022649,-0.444200,0.025847,0.001219,0.021056,-0.032190,0.022647,-0.999225,0.057306,-0.008060,0.010074,-15.625992,27.957981,-17.407959,,,,,,,
1522139471.687614,-0.032114,-0.021649,-0.443558,0.012916,-0.026369,0.020009,-0.032101,0.021647,-0.999250,0.076413,-0.097194,0.030958,-18.103851,26.995258,-16.280334,,,,,,,
1522139471.717551,-0.032241,-0.021790,-0.442773,0.003305,-0.022126,0.024261,-0.032227,0.021788,-0.999243,0.069337,0.012758,-0.047693,-25.003159,24.630360,-12.224304,,,,,,,
1522139471.747520,-0.032476,-0.021118,-0.442093,0.012916,-0.022154,0.024271,-0.032463,0.021117,-0.999250,0.048165,-0.042937,-0.012362,-27.769470,24.194981,-10.049011,,,,,,,
1522139471.777488,-0.032855,-0.021318,-0.441475,-0.010488,-0.008251,0.019976,-0.032842,0.021316,-0.999233,0.054448,-0.032699,-0.125797,-32.177261,22.944767,-5.096191,,,,,,,
1522139471.807456,-0.032769,-0.021010,-0.440820,0.005498,-0.014684,0.021067,-0.032756,0.021008,-0.999243,0.075435,-0.041806,0.020727,-34.637848,22.359226,-1.720032,,,,,,,
1522139471.837424,-0.033377,-0.021312,-0.440138,-0.010600,-0.027402,0.024254,-0.033363,0.021311,-0.999216,0.059288,-0.007624,-0.015692,-39.409622,20.363728,6.310547,,,,,,,
1522139471.867393,-0.033768,-0.021456,-0.439500,-0.012701,-0.022067,0.022115,-0.033754,0.021455,-0.999200,0.069139,-0.080567,-0.017264,-40.208542,19.323399,12.389343,,,,,,,
1522139471.897361,-0.034311,-0.022008,-0.438821,-0.016962,-0.016770,0.025306,-0.034296,0.022006,-0.999169,0.066385,-0.044788,0.021981,-42.351120,18.739414,18.765625,,,,,,,
1522139471.927329,-0.034848,-0.022173,-0.438195,-0.012767,-0.040125,0.020008,-0.034833,0.022171,-0.999147,0.020230,-0.074814,-0.003462,-37.716034,17.680332,30.547119,,,,,,,
1522139471.957297,-0.035000,-0.022565,-0.437463,-0.017005,-0.029512,0.023191,-0.034984,0.022563,-0.999133,0.076931,-0.014247,0.005939,-31.691803,17.807056,34.374634,,,,,,,
1522139471.987266,-0.034692,-0.022557,-0.436750,0.007687,0.004425,0.025300,-0.034677,0.022556,-0.999144,0.034616,-0.111560,-0.030748,-19.209610,18.954334,37.826294,,,,,,,
1522139472.017234,-0.034783,-0.022357,-0.435959,-0.009475,-0.016794,0.024254,-0.034767,0.022355,-0.999145,0.084618,-0.058198,0.065292,-12.900330,20.200413,37.299438,,,,,,,
1522139472.047202,-0.034136,-0.022468,-0.435111,0.002478,0.035238,0.027397,-0.034121,0.022467,-0.999165,0.100420,-0.079626,-0.012248,-2.986588,23.153172,34.667542,,,,,,,
1522139472.077170,-0.033603,-0.022639,-0.434074,-0.023164,0.040533,0.036972,-0.033588,0.022637,-0.999179,0.019214,-0.051521,-0.090725,0.385544,24.036045,32.715759,,,,,,,
1522139472.107139,-0.032850,-0.022522,-0.432939,0.019374,0.004307,0.037034,-0.032836,0.022520,-0.999207,0.092757,-0.062407,-0.000564,4.732864,26.112583,28.809631,,,,,,,
1522139472.137107,-0.031989,-0.022165,-0.431741,-0.012608,0.022406,0.043385,-0.031975,0.022163,-0.999243,0.074166,-0.110145,-0.062845,4.054733,26.564350,27.532410,,,,,,,
1522139472.167075,-0.030849,-0.022065,-0.430409,0.011958,0.030827,0.047650,-0.030837,0.022064,-0.999281,0.065123,-0.077911,0.074385,3.312836,27.467548,27.378479,,,,,,,
1522139472.197043,-0.029798,-0.021372,-0.428881,0.011899,0.021256,0.049785,-0.029787,0.021370,-0.999328,0.036272,-0.068291,0.018813,3.622101,28.216450,27.675659,,,,,,,
1522139472.226981,-0.028889,-0.020825,-0.427277,0.018322,0.024408,0.050861,-0.028879,0.020823,-0.999366,0.044534,-0.120891,-0.083886,4.164444,29.639530,28.195251,,,,,,,
1522139472.256949,-0.028165,-0.020038,-0.425557,0.011786,0.003127,0.057271,-0.028155,0.020037,-0.999403,0.050982,-0.101839,0.001234,5.529495,31.507771,27.588440,,,,,,,
1522139472.286918,-0.027934,-0.019347,-0.423737,0.022341,-0.022407,0.058368,-0.027925,0.019346,-0.999423,0.074175,-0.097074,0.063235,7.032242,32.325108,26.685913,,,,,,,
1522139472.316886,-0.028035,-0.018572,-0.421804,0.021222,-0.034113,0.059453,-0.028026,0.018571,-0.999435,0.120785,-0.083314,0.055907,9.889420,34.035587,25.030579,,,,,,,
1522139472.346854,-0.027984,-0.017790,-0.419743,0.024564,0.006213,0.066869,-0.027976,0.017789,-0.999450,0.032127,-0.116422,-0.081330,11.464325,34.477741,24.279541,,,,,,,
1522139472.376823,-0.028285,-0.016721,-0.417594,0.023377,-0.011920,0.075418,-0.028277,0.016721,-0.999460,0.039203,-0.139996,-0.018621,14.150696,34.463413,22.030945,,,,,,,
1522139472.406791,-0.028325,-0.015726,-0.415245,0.026647,0.008234,0.079661,-0.028318,0.015725,-0.999475,0.043241,-0.086022,-0.020682,15.115768,33.783543,21.509155,,,,,,,
1522139472.436759,-0.028403,-0.013946,-0.412864,0.052270,0.005027,0.075411,-0.028396,0.013946,-0.999499,0.035339,-0.129272,-0.000272,17.722839,32.346241,20.916199,,,,,,,
1522139472.466733,-0.028303,-0.012390,-0.410404,0.028688,-0.009831,0.080738,-0.028297,0.012390,-0.999523,0.025642,-0.131271,-0.077809,20.188309,31.435062,20.846069,,,,,,,
1522139472.496702,-0.028327,-0.011148,-0.407753,0.042600,0.007076,0.089256,-0.028322,0.011148,-0.999537,0.062303,-0.136285,-0.017202,24.952789,27.738865,21.088318,,,,,,,
1522139472.526670,-0.028314,-0.009823,-0.404986,0.027516,-0.016313,0.095664,-0.028309,0.009823,-0.999551,0.076130,-0.165188,-0.027900,28.232742,25.998676,20.646851,,,,,,,
1522139472.556638,-0.028126,-0.009063,-0.401970,0.014818,0.015564,0.100947,-0.028121,0.009062,-0.999563,0.044509,-0.093520,-0.052225,32.854218,24.400776,18.555542,,,,,,,
1522139472.586606,-0.028069,-0.008107,-0.398896,0.030761,0.001709,0.102035,-0.028064,0.008107,-0.999573,0.097126,-0.188130,-0.045944,37.285233,20.550755,13.473206,,,,,,,
1522139472.616575,-0.027867,-0.007239,-0.395570,-0.004414,0.031425,0.117970,-0.027862,0.007239,-0.999586,0.051956,-0.139288,-0.074420,38.000122,18.744694,10.630798,,,,,,,
1522139472.646543,-0.027632,-0.006732,-0.392131,0.020074,0.018597,0.120133,-0.027627,0.006732,-0.999596,0.000039,-0.107394,-0.050636,37.641800,16.190845,5.165771,,,,,,,
1522139472.676511,-0.027128,-0.005543,-0.388610,0.028486,-0.016454,0.114847,-0.027124,0.005543,-0.999617,0.073557,-0.153599,0.115095,35.368057,14.624729,3.820923,,,,,,,
1522139472.706449,-0.026214,-0.004802,-0.384993,0.022213,0.022835,0.122256,-0.026210,0.004802,-0.999645,0.103450,-0.186290,-0.010792,31.368683,12.317509,3.603149,,,,,,,
1522139472.736417,-0.025353,-0.004033,-0.381204,0.019963,0.000499,0.125476,-0.025350,0.004033,-0.999671,0.040960,-0.159413,0.018439,31.283356,11.417667,3.381714,,,,,,,
1522139472.766385,-0.024518,-0.003161,-0.377447,0.012522,0.007973,0.124391,-0.024516,0.003161,-0.999694,0.053828,-0.207689,0.064132,30.501190,8.645451,2.642395,,,,,,,
1522139472.796354,-0.023527,-0.002140,-0.373654,0.024458,0.044092,0.120108,-0.023525,0.002140,-0.999721,0.035778,-0.183537,-0.041493,31.313568,7.965824,1.670532,,,,,,,
1522139472.826322,-0.022805,-0.000406,-0.369788,0.028563,0.016387,0.128668,-0.022803,0.000406,-0.999740,0.031882,-0.201272,-0.050584,33.985703,6.975803,-1.324158,,,,,,,
1522139472.856290,-0.021974,0.000819,-0.365871,0.018810,-0.009110,0.132941,-0.021972,-0.000819,-0.999758,0.099868,-0.165792,0.073214,35.996201,6.739735,-3.347229,,,,,,,
1522139472.886258,-0.020984,0.002024,-0.361742,0.024280,0.028011,0.140369,-0.020982,-0.002024,-0.999778,0.103746,-0.120154,0.064094,38.456497,7.250370,-6.648010,,,,,,,
1522139472.916227,-0.019921,0.003649,-0.357468,0.026277,0.007761,0.148912,-0.019920,-0.003649,-0.999795,0.089637,-0.174284,0.066338,42.766769,8.048023,-14.599121,,,,,,,
1522139472.946195,-0.019195,0.004727,-0.353039,0.016685,0.014146,0.151030,-0.019193,-0.004727,-0.999805,0.129896,-0.191990,0.056415,41.392776,8.125080,-18.725098,,,,,,,
1522139472.976163,-0.018875,0.005624,-0.348462,0.012443,0.021570,0.153157,-0.018873,-0.005624,-0.999806,0.067412,-0.201103,-0.069118,38.358627,8.582279,-25.178467,,,,,,,
1522139473.006132,-0.018491,0.006391,-0.343580,0.003795,0.019342,0.171265,-0.018489,-0.006390,-0.999809,0.067714,-0.159640,0.014289,36.169754,8.589802,-27.504578,,,,,,,
1522139473.036100,-0.018495,0.007439,-0.338557,0.017530,-0.012569,0.171306,-0.018494,-0.007439,-0.999801,0.127106,-0.183952,0.015060,29.261917,8.619526,-28.858154,,,,,,,
1522139473.066068,-0.018551,0.008274,-0.333424,0.011083,-0.020012,0.173444,-0.018549,-0.008274,-0.999794,0.085673,-0.273479,0.015648,26.258133,8.557514,-29.384399,,,,,,,
1522139473.096036,-0.018920,0.008484,-0.328178,-0.001753,-0.024223,0.173434,-0.018918,-0.008484,-0.999785,0.038678,-0.205841,0.014815,20.562286,8.658680,-28.862671,,,,,,,
1522139473.126005,-0.018956,0.009236,-0.322716,0.008967,-0.009417,0.178758,-0.018954,-0.009236,-0.999778,0.115633,-0.168040,-0.041497,17.646866,8.673374,-27.289185,,,,,,,
1522139473.155973,-0.019551,0.009962,-0.317343,0.027990,-0.048803,0.182009,-0.019548,-0.009962,-0.999759,0.078539,-0.248827,0.071552,12.941315,8.772617,-24.216980,,,,,,,
1522139473.185911,-0.020233,0.010575,-0.311880,-0.000713,-0.027424,0.175566,-0.020231,-0.010575,-0.999739,0.025419,-0.244201,0.004775,10.098969,8.187656,-21.966003,,,,,,,
1522139473.215879,-0.020768,0.011179,-0.306388,0.021590,-0.032922,0.193703,-0.020765,-0.011179,-0.999722,0.030500,-0.235494,0.045376,8.461197,8.197056,-19.941833,,,,,,,
1522139473.245847,-0.021408,0.011375,-0.300849,-0.015681,-0.022151,0.185146,-0.021405,-0.011375,-0.999706,0.073514,-0.212273,0.027386,5.627533,8.437122,-17.619202,,,,,,,
