timestamp(unix),attitude_roll(radians),attitude_pitch(radians),attitude_yaw(radians),rotation_rate_x(radians/s),rotation_rate_y(radians/s),rotation_rate_z(radians/s),gravity_x(G),gravity_y(G),gravity_z(G),user_acc_x(G),user_acc_y(G),user_acc_z(G),magnetic_field_x(microteslas),magnetic_field_y(microteslas),magnetic_field_z(microteslas),latitude(degree),longitude(degree),altitude(meter),speed(m/s),course(degree),timestamp(unix),User Mark
1523697036.776478,-0.664577,-0.084074,0.505911,0.241396,-0.690064,-0.002968,-0.614548,0.083975,-0.784397,0.083237,0.003550,0.447071,14.551468,-5.713246,-7.884521,,,,,,,
,,,,,,,,,,,,,,,,25.310354,51.453038,10.104920,6.930000,318.515625,1523697035.997741,
1523697036.806446,-0.664022,-0.077332,0.507523,0.175568,0.427807,-0.132008,-0.614447,0.077255,-0.785166,0.049902,-0.100418,0.310236,14.932129,-5.189885,-7.811401,,,,,,,
1523697036.836415,-0.647480,-0.073133,0.506116,0.015596,0.501340,-0.104503,-0.601566,0.073068,-0.795474,-0.062832,-0.177667,0.074282,14.332916,-5.336812,-7.436157,,,,,,,
1523697036.866383,-0.643197,-0.075235,0.503277,-0.158694,-0.117585,0.025990,-0.598059,0.075164,-0.797919,-0.117852,-0.013640,0.128760,14.554306,-5.563039,-7.660156,,,,,,,
1523697036.896351,-0.649735,-0.078077,0.502398,-0.102532,-0.204907,0.032515,-0.603132,0.077998,-0.793818,-0.006853,-0.102305,0.128214,14.932129,-5.189885,-7.811401,,,,,,,
1523697036.926319,-0.654003,-0.082751,0.500576,-0.197539,-0.166636,0.063309,-0.606286,0.082656,-0.790938,0.005655,-0.006149,0.119613,13.954025,-5.410634,-7.961060,,,,,,,
1523697036.956288,-0.663783,-0.088263,0.498868,-0.122581,-0.353855,0.064621,-0.613703,0.088148,-0.784600,0.092447,0.000994,0.231942,14.396042,-5.488820,-9.160522,,,,,,,
1523697036.986256,-0.671761,-0.088953,0.500915,0.125738,-0.205763,0.073178,-0.619904,0.088835,-0.779632,0.109467,-0.058470,0.314407,14.394684,-5.489049,-9.385498,,,,,,,
1523697037.016224,-0.673832,-0.084877,0.506897,0.284729,0.000045,0.064567,-0.621738,0.084775,-0.778623,0.071872,-0.094830,0.338392,14.314758,-5.938756,-9.458740,,,,,,,
1523697037.046193,-0.669604,-0.079219,0.514431,0.301331,0.169809,0.096366,-0.618729,0.079136,-0.781608,0.001328,-0.126347,0.319862,14.386749,-6.239079,-9.457520,,,,,,,
,,,,,,,,,,,,,,,,25.310381,51.453008,9.658220,4.970000,319.921875,1523697036.997730,
1523697037.076161,-0.660079,-0.076588,0.521209,0.106869,0.431317,0.148179,-0.611381,0.076513,-0.787628,-0.068215,-0.132436,0.267898,15.138809,-5.942616,-9.608337,,,,,,,
1523697037.106129,-0.640615,-0.083250,0.523362,-0.320254,0.737924,0.217875,-0.595618,0.083153,-0.798951,-0.144784,-0.148507,0.041108,14.384369,-6.613851,-9.231079,,,,,,,
1523697037.136097,-0.620270,-0.099035,0.520074,-0.543047,0.574857,0.214679,-0.578406,0.098873,-0.809734,-0.187264,-0.191875,-0.094334,15.282700,-6.693044,-9.380249,,,,,,,
1523697037.166066,-0.610060,-0.112879,0.515634,-0.350496,0.258709,0.074486,-0.569270,0.112639,-0.814397,-0.179723,-0.156020,-0.045603,16.028625,-6.921697,-9.678955,,,,,,,
1523697037.196064,-0.604905,-0.114561,0.511876,0.032814,0.205338,-0.178769,-0.564956,0.114310,-0.817164,-0.157380,-0.045310,0.093531,16.324265,-7.447865,-9.526733,,,,,,,
1523697037.226033,-0.594107,-0.106123,0.506720,0.167401,0.479414,-0.365422,-0.556620,0.105924,-0.823986,-0.135855,0.026782,0.125790,17.677490,-7.303655,-9.226624,,,,,,,
1523697037.256001,-0.576764,-0.096604,0.499020,0.066945,0.684756,-0.369948,-0.542771,0.096454,-0.834323,-0.081267,0.070416,0.028583,17.904449,-7.154607,-9.152100,,,,,,,
1523697037.285969,-0.558391,-0.093962,0.492370,-0.128919,0.617702,-0.132418,-0.527485,0.093824,-0.844367,-0.062603,0.145129,-0.067147,17.905060,-7.454015,-8.550903,,,,,,,
1523697037.315937,-0.541966,-0.098750,0.489432,-0.202745,0.563442,0.055114,-0.513308,0.098589,-0.852522,-0.084333,0.136915,-0.086717,18.504272,-7.531713,-8.550293,,,,,,,
1523697037.345906,-0.524297,-0.103546,0.488041,-0.116803,0.614626,-0.001345,-0.497923,0.103361,-0.861039,-0.130067,0.039614,-0.110839,19.031372,-7.683476,-7.949402,,,,,,,
1523697037.375874,-0.508906,-0.103022,0.484460,0.016618,0.409355,-0.172594,-0.484639,0.102840,-0.868647,-0.154292,-0.025264,-0.132100,18.504883,-7.831105,-7.949097,,,,,,,
1523697037.405842,-0.501346,-0.098889,0.479568,0.043474,0.191569,-0.188340,-0.478258,0.098728,-0.872652,-0.168532,-0.009601,-0.103987,18.584839,-7.381398,-7.875854,,,,,,,
1523697037.435810,-0.495416,-0.097507,0.477074,-0.042372,0.294731,-0.018030,-0.473139,0.097353,-0.875592,-0.192510,0.010725,-0.157077,18.430038,-7.680989,-8.174744,,,,,,,
1523697037.465779,-0.486400,-0.101179,0.476897,-0.148854,0.231603,0.079993,-0.465055,0.101006,-0.879500,-0.176501,-0.002984,-0.336168,18.281555,-7.754949,-7.799500,,,,,,,
1523697037.495747,-0.486862,-0.104864,0.476459,-0.054397,-0.223925,-0.000460,-0.465285,0.104672,-0.878950,-0.078462,-0.014050,-0.190569,19.177155,-7.834584,-8.398743,,,,,,,
1523697037.525715,-0.500358,-0.102699,0.475673,0.118732,-0.514960,-0.078887,-0.477212,0.102519,-0.872787,0.001565,-0.064814,0.068344,18.196365,-8.280385,-8.622437,,,,,,,
1523697037.555683,-0.513958,-0.097004,0.475968,0.196167,-0.396114,-0.083208,-0.489316,0.096852,-0.866711,-0.014300,-0.059819,0.166013,18.420746,-8.431249,-8.471741,,,,,,,
1523697037.585682,-0.522323,-0.089625,0.476945,0.246275,-0.195324,-0.097211,-0.496892,0.089505,-0.863184,-0.026790,-0.086392,0.175760,18.795288,-8.433003,-8.546509,,,,,,,
1523697037.615651,-0.526452,-0.082938,0.477599,0.159860,-0.168595,-0.088785,-0.500741,0.082843,-0.861623,-0.043799,-0.131229,0.158681,18.502335,-7.906392,-8.248779,,,,,,,
1523697037.645619,-0.533628,-0.078284,0.476602,0.103007,-0.271254,-0.127086,-0.507102,0.078204,-0.858330,-0.020257,-0.131945,0.182045,17.974075,-8.278935,-8.172546,,,,,,,
1523697037.675587,-0.543294,-0.073786,0.474461,0.085647,-0.348684,-0.140873,-0.515551,0.073719,-0.853681,-0.018400,-0.132069,0.189710,17.977814,-7.903966,-8.174072,,,,,,,
1523697037.705555,-0.554223,-0.069261,0.472350,0.098438,-0.345572,-0.134475,-0.525021,0.069206,-0.848270,-0.023411,-0.136619,0.196629,17.077866,-7.899907,-8.174500,,,,,,,
1523697037.735524,-0.563025,-0.066141,0.470614,0.005620,-0.254409,-0.069640,-0.532580,0.066092,-0.843795,-0.004850,-0.075827,0.170928,17.004349,-7.749578,-8.175171,,,,,,,
1523697037.765490,-0.570250,-0.067718,0.469023,-0.121726,-0.223860,0.013347,-0.538605,0.067666,-0.839836,0.014740,-0.050576,0.155266,17.682007,-7.527547,-8.100769,,,,,,,
1523697037.795458,-0.577995,-0.071938,0.467458,-0.134886,-0.281328,0.030443,-0.544932,0.071876,-0.835393,0.013102,-0.020286,0.166905,16.930542,-7.674169,-8.100525,,,,,,,
1523697037.825426,-0.586560,-0.072895,0.466534,0.028904,-0.265339,-0.036569,-0.552029,0.072830,-0.830637,0.008755,-0.024918,0.228480,16.032089,-7.520131,-8.101624,,,,,,,
1523697037.855395,-0.591976,-0.069575,0.466365,0.112051,-0.100567,-0.075036,-0.556651,0.069519,-0.827832,-0.049153,-0.053421,0.223294,16.710953,-7.223042,-7.952454,,,,,,,
1523697037.885363,-0.591516,-0.066881,0.466122,0.007015,0.103400,-0.028446,-0.556373,0.066832,-0.828240,-0.083093,-0.058317,0.142037,15.507706,-7.592549,-7.876526,,,,,,,
1523697037.915331,-0.585786,-0.070104,0.465123,-0.187248,0.231761,0.071438,-0.551496,0.070047,-0.831230,-0.156008,-0.069726,0.023079,15.504410,-7.742833,-8.175903,,,,,,,
1523697037.945299,-0.581383,-0.077839,0.463816,-0.240525,0.073212,0.120579,-0.547517,0.077760,-0.833173,-0.208770,-0.036058,-0.028430,16.181625,-7.520879,-8.176453,,,,,,,
1523697037.975298,-0.580692,-0.082596,0.463323,-0.056680,-0.001973,0.017439,-0.546732,0.082502,-0.833232,-0.226309,0.011446,-0.026784,14.976898,-8.040380,-8.100037,,,,,,,
1523697038.005266,-0.581453,-0.081328,0.462098,0.024899,-0.022695,-0.085842,-0.547423,0.081238,-0.832903,-0.160402,0.055908,0.015795,15.722214,-8.194264,-8.624023,,,,,,,
1523697038.035235,-0.582638,-0.081590,0.460225,-0.104785,-0.034673,0.000387,-0.548398,0.081499,-0.832235,-0.118457,0.041792,0.030783,16.256775,-7.596059,-8.026184,,,,,,,
,,,,,,,,,,,,,,,,25.310415,51.452971,9.897264,4.950000,321.679688,1523697037.997720,
1523697038.065203,-0.582702,-0.087094,0.459554,-0.176679,0.033693,0.127057,-0.548196,0.086984,-0.831813,-0.161292,-0.033014,-0.011937,16.026550,-7.895406,-8.400085,,,,,,,
1523697038.095171,-0.579042,-0.092484,0.461427,-0.056487,0.188424,0.142973,-0.544884,0.092352,-0.833409,-0.193367,-0.060842,-0.105952,15.877899,-7.894506,-8.175110,,,,,,,
1523697038.125139,-0.571917,-0.093246,0.464207,0.077499,0.189857,0.042910,-0.538893,0.093111,-0.837211,-0.252534,-0.061724,-0.187615,16.325653,-8.121526,-8.174011,,,,,,,
1523697038.155108,-0.571605,-0.090543,0.464610,0.065097,-0.114128,-0.093179,-0.538766,0.090420,-0.837588,-0.262839,-0.116527,-0.013105,16.027908,-7.895192,-8.175049,,,,,,,
1523697038.185076,-0.575368,-0.088673,0.462114,-0.031993,-0.100063,-0.094332,-0.542005,0.088557,-0.835695,-0.318377,-0.117671,0.087801,15.500671,-8.117818,-8.174438,,,,,,,
1523697038.215044,-0.578092,-0.087760,0.459593,0.030081,-0.056734,-0.083667,-0.544324,0.087647,-0.834283,-0.338809,-0.087983,0.217950,16.409485,-7.596303,-7.576111,,,,,,,
1523697038.245013,-0.575229,-0.082583,0.459218,0.144814,0.236572,-0.128627,-0.542172,0.082489,-0.836207,-0.343341,-0.097916,0.116954,15.581512,-7.667958,-7.951233,,,,,,,
1523697038.274981,-0.569379,-0.077890,0.458527,0.116211,0.085550,-0.098666,-0.537474,0.077812,-0.839681,-0.330980,-0.045066,0.107305,15.735107,-7.443425,-7.727051,,,,,,,
