timestamp(unix),attitude_roll(radians),attitude_pitch(radians),attitude_yaw(radians),rotation_rate_x(radians/s),rotation_rate_y(radians/s),rotation_rate_z(radians/s),gravity_x(G),gravity_y(G),gravity_z(G),user_acc_x(G),user_acc_y(G),user_acc_z(G),magnetic_field_x(microteslas),magnetic_field_y(microteslas),magnetic_field_z(microteslas),latitude(degree),longitude(degree),altitude(meter),speed(m/s),course(degree),timestamp(unix),User Mark
1523522884.092524,-0.699060,-0.102930,-1.350643,0.311269,0.157365,0.050588,-0.640092,0.102749,-0.761395,0.114809,0.042607,-0.073062,-2.725494,26.477104,-7.844543,,,,,,,
1523522884.122492,-0.689919,-0.094428,-1.342424,0.350370,0.301796,0.048342,-0.633639,0.094288,-0.767861,0.084140,-0.032078,-0.222496,-2.124771,26.549400,-7.844543,,,,,,,
1523522884.152460,-0.682374,-0.095065,-1.336740,-0.094283,0.202571,0.263348,-0.627790,0.094922,-0.772573,0.090558,-0.079266,-0.296565,-2.048416,26.549278,-7.619446,,,,,,,
,,,,,,,,,,,,,,,,25.318937,51.454588,16.210781,7.970000,88.242188,1523522882.996342,
1523522884.182428,-0.678007,-0.105763,-1.333886,-0.227919,-0.011065,0.317807,-0.623737,0.105566,-0.774472,0.098682,-0.089849,-0.272571,-1.895752,26.773674,-7.545288,,,,,,,
1523522884.212397,-0.682890,-0.115468,-1.328296,-0.066767,-0.237953,0.339466,-0.626835,0.115212,-0.770586,0.122288,-0.115410,-0.183790,-1.148331,26.695000,-7.844604,,,,,,,
,,,,,,,,,,,,,,,,25.318937,51.454647,16.022305,6.660000,87.539062,1523522883.996329,
1523522884.242365,-0.688104,-0.120943,-1.321582,0.032254,-0.164222,0.247819,-0.630434,0.120649,-0.766809,0.101656,-0.124479,-0.136405,-0.915085,27.294334,-7.471863,,,,,,,
1523522884.272333,-0.691214,-0.122830,-1.316173,0.087752,-0.073189,0.126300,-0.632670,0.122521,-0.764667,0.150859,-0.133309,-0.083874,-1.892014,27.148643,-7.546814,,,,,,,
1523522884.302301,-0.691705,-0.120793,-1.311797,0.188749,-0.054664,0.023011,-0.633203,0.120499,-0.764547,0.172891,-0.131425,-0.062937,-1.216888,27.295387,-7.772034,,,,,,,
1523522884.332270,-0.692076,-0.113350,-1.308756,0.195741,-0.076076,-0.108023,-0.634042,0.113107,-0.764981,0.172234,-0.077234,-0.025134,-0.839951,27.443764,-7.697449,,,,,,,
1523522884.362238,-0.690437,-0.107441,-1.311026,-0.066148,0.009047,-0.181833,-0.633201,0.107235,-0.766522,0.132270,-0.010143,-0.059131,-1.216721,26.995918,-7.245789,,,,,,,
1523522884.392206,-0.689058,-0.109630,-1.321572,-0.452199,0.042258,-0.236486,-0.631993,0.109411,-0.767211,0.125752,0.083110,-0.086899,-1.361160,27.596489,-7.323303,,,,,,,
1523522884.422174,-0.690017,-0.113847,-1.336055,-0.308212,-0.063887,-0.302345,-0.632429,0.113601,-0.766242,0.134199,0.128235,-0.065438,-0.607758,27.893166,-7.249084,,,,,,,
1523522884.452143,-0.693077,-0.106204,-1.343641,0.277070,-0.130592,-0.394532,-0.635307,0.106004,-0.764948,0.103005,0.130888,0.000636,-1.133652,27.895378,-7.399414,,,,,,,
1523522884.482111,-0.692829,-0.086069,-1.343801,0.669204,0.079387,-0.474364,-0.636352,0.085963,-0.766593,0.127761,0.108159,0.036079,-1.514648,27.521721,-7.773071,,,,,,,
1523522884.512079,-0.687283,-0.064528,-1.339434,0.590235,0.094089,-0.267738,-0.633119,0.064483,-0.771363,0.123704,0.092851,-0.038848,-0.458511,28.042122,-7.624634,,,,,,,
1523522884.542048,-0.685936,-0.058481,-1.336196,0.000842,-0.014028,0.054786,-0.632314,0.058448,-0.772503,0.073781,0.015954,-0.015552,-1.138748,27.744804,-7.998779,,,,,,,
1523522884.572016,-0.684834,-0.070623,-1.337999,-0.525004,0.092151,0.252478,-0.630967,0.070564,-0.772593,0.029893,-0.069481,-0.024801,-1.509399,28.271324,-8.151062,,,,,,,
1523522884.601984,-0.677721,-0.091227,-1.343780,-0.640664,0.259203,0.260754,-0.624411,0.091100,-0.775764,0.020957,-0.071340,-0.162224,-0.751053,29.018059,-8.003662,,,,,,,
1523522884.631952,-0.673603,-0.106840,-1.347503,-0.377741,0.044139,0.227069,-0.620249,0.106636,-0.777122,0.078486,-0.040856,-0.208581,-1.341583,29.696159,-7.556702,,,,,,,
1523522884.661921,-0.673259,-0.116594,-1.345565,-0.144381,0.021843,0.294386,-0.619303,0.116330,-0.776485,0.105311,-0.056424,-0.198658,-1.415695,29.921272,-7.782654,,,,,,,
1523522884.691889,-0.664582,-0.122904,-1.345031,-0.160396,0.428575,0.031846,-0.612078,0.122595,-0.781236,-0.068815,0.017268,-0.265944,-1.336319,29.996513,-7.182922,,,,,,,
1523522884.721857,-0.662656,-0.121487,-1.353755,-0.033067,-0.239298,-0.390390,-0.610678,0.121188,-0.782550,0.074087,0.025815,-0.223096,-2.308746,30.300804,-7.259583,,,,,,,
1523522884.751825,-0.678383,-0.111153,-1.366333,0.051661,-0.579477,-0.551942,-0.623662,0.110925,-0.773783,0.075185,0.034202,0.064921,-2.529388,30.377403,-6.660034,,,,,,,
1523522884.781787,-0.693544,-0.097798,-1.379252,0.145198,-0.286887,-0.634237,-0.636211,0.097643,-0.765310,0.074490,0.129591,0.243581,-2.299316,30.976219,-6.812317,,,,,,,
1523522884.811755,-0.693125,-0.074781,-1.385101,0.759026,0.184300,-0.616124,-0.637158,0.074711,-0.767102,0.139081,0.115139,0.256772,-3.203766,30.530281,-6.810974,,,,,,,
1523522884.841723,-0.690075,-0.037968,-1.378900,1.208036,0.001912,-0.679530,-0.636135,0.037959,-0.770642,0.044979,0.076207,0.358487,-2.985367,30.228706,-7.409668,,,,,,,
1523522884.871691,-0.692272,0.002805,-1.372108,1.149852,-0.009160,-0.592207,-0.638285,-0.002805,-0.769794,0.114054,-0.130817,0.358951,-2.462326,30.076271,-7.483765,,,,,,,
1523522884.901660,-0.681544,0.024187,-1.364748,0.220336,0.587939,0.050096,-0.629808,-0.024185,-0.776373,0.037645,-0.269028,0.118155,-2.615799,29.776894,-7.557678,,,,,,,
1523522884.931628,-0.662195,0.000919,-1.367186,-1.233868,0.537609,0.623371,-0.614849,-0.000919,-0.788643,-0.062214,-0.203488,-0.204933,-1.942749,29.399162,-7.255798,,,,,,,
1523522884.961596,-0.662316,-0.048850,-1.376264,-1.484048,-0.249513,0.826420,-0.614210,0.048830,-0.787629,0.043043,-0.078524,-0.087615,-0.659271,30.293312,-7.333740,,,,,,,
1523522884.991564,-0.664425,-0.087928,-1.380174,-0.738939,0.126633,0.563418,-0.614224,0.087815,-0.784229,-0.043536,0.062973,-0.116192,-1.411499,29.847069,-6.957336,,,,,,,
1523522885.021533,-0.653402,-0.101938,-1.376597,-0.079913,0.539449,0.254491,-0.604735,0.101762,-0.789898,-0.059084,0.060363,-0.366108,-0.886490,29.620094,-6.581177,,,,,,,
1523522885.051501,-0.638400,-0.103483,-1.374581,-0.019650,0.284289,-0.053131,-0.592723,0.103298,-0.798754,-0.084874,-0.001659,-0.600004,0.161514,29.689919,-7.030945,,,,,,,
,,,,,,,,,,,,,,,,25.318942,51.454695,16.222591,5.130000,85.078125,1523522884.996317,
1523522885.081469,-0.642368,-0.101039,-1.383770,-0.106697,-0.297129,-0.450066,-0.596037,0.100868,-0.796595,-0.027651,0.076455,-0.336568,-0.524384,28.642937,-7.102112,,,,,,,
1523522885.111437,-0.655039,-0.088142,-1.395727,0.264449,-0.373199,-0.643642,-0.606825,0.088028,-0.789945,0.010725,0.097427,0.022413,-0.975266,28.869438,-7.628174,,,,,,,
1523522885.141406,-0.664332,-0.066587,-1.404293,0.437002,-0.255532,-0.666000,-0.615167,0.066538,-0.785583,-0.028586,0.097204,0.086334,-0.980804,28.269539,-7.550842,,,,,,,
1523522885.171374,-0.670467,-0.048495,-1.411032,0.215334,-0.095273,-0.405289,-0.620621,0.048476,-0.782610,-0.018661,0.001497,0.082628,-1.583466,28.047188,-7.625183,,,,,,,
1523522885.201342,-0.669704,-0.047090,-1.414856,-0.241114,0.071592,0.052394,-0.620065,0.047073,-0.783136,-0.108496,0.001953,0.028787,-0.831696,28.044106,-7.324829,,,,,,,
1523522885.231341,-0.668047,-0.061137,-1.416989,-0.425282,0.035042,0.328272,-0.618296,0.061099,-0.783566,-0.078374,-0.016193,0.019573,-0.304947,28.266655,-7.400452,,,,,,,
1523522885.261309,-0.670124,-0.074160,-1.413218,-0.106847,-0.084040,0.377639,-0.619376,0.074092,-0.781590,0.020483,-0.031779,0.014729,-1.433792,27.971581,-7.549866,,,,,,,
1523522885.291278,-0.673789,-0.076757,-1.403434,0.259988,-0.085161,0.256439,-0.622114,0.076682,-0.779162,0.027631,-0.018607,0.045260,-1.510895,27.896706,-7.774597,,,,,,,
1523522885.321246,-0.675598,-0.071341,-1.393550,0.348487,-0.051387,0.105172,-0.623773,0.071280,-0.778347,0.065424,-0.058219,0.045514,-0.761063,27.743553,-7.548645,,,,,,,
1523522885.351214,-0.673732,-0.067196,-1.388761,0.036167,0.166968,-0.009295,-0.622499,0.067146,-0.779734,-0.067092,-0.043433,0.122294,-1.366882,27.296059,-7.772095,,,,,,,
1523522885.381182,-0.667525,-0.071265,-1.396297,-0.436970,0.212653,-0.143947,-0.617472,0.071204,-0.783363,-0.098043,-0.024711,0.043784,-1.217636,27.220390,-7.771729,,,,,,,
1523522885.411151,-0.664782,-0.079980,-1.406459,-0.339157,0.064692,0.010770,-0.614915,0.079895,-0.784535,0.004579,0.000488,-0.016246,-1.363876,27.371422,-7.397400,,,,,,,
1523522885.441119,-0.662898,-0.080099,-1.405334,0.286494,0.106449,0.047419,-0.613431,0.080013,-0.785684,0.013836,0.080036,0.003778,-1.293686,27.295433,-8.072083,,,,,,,
1523522885.471087,-0.663492,-0.064477,-1.392176,0.946535,-0.110739,0.023625,-0.614592,0.064432,-0.786209,0.136106,0.131338,0.107269,-0.770508,27.068153,-7.995850,,,,,,,
1523522885.501055,-0.665606,-0.033890,-1.366502,1.584805,-0.102028,0.069911,-0.617181,0.033883,-0.786090,0.312341,0.071967,0.154163,-1.904892,26.397804,-8.443787,,,,,,,
1523522885.531024,-0.666533,0.005858,-1.332977,1.801331,0.048551,0.036893,-0.618254,-0.005858,-0.785956,0.252791,-0.018953,0.240530,-1.839340,25.722069,-8.891052,,,,,,,
1523522885.560992,-0.664553,0.049566,-1.301007,1.709365,0.010914,-0.170909,-0.615950,-0.049546,-0.786225,0.032759,-0.075454,0.121430,-1.322586,24.894753,-8.887512,,,,,,,
1523522885.590960,-0.676984,0.079829,-1.288689,0.326219,-0.794002,-0.361868,-0.624449,-0.079744,-0.776983,-0.060091,-0.097731,-0.171076,-1.625870,24.970436,-9.562927,,,,,,,
1523522885.620928,-0.710217,0.063809,-1.310519,-1.564331,-1.057263,-0.032693,-0.650671,-0.063766,-0.756677,-0.039972,0.035263,-0.023932,-2.751862,24.600945,-9.112000,,,,,,,
1523522885.650897,-0.719948,0.018661,-1.343784,-1.888752,0.204241,0.207665,-0.659231,-0.018660,-0.751708,-0.151942,0.012465,0.009292,-2.067307,25.198463,-8.514099,,,,,,,
1523522885.680865,-0.700777,-0.016298,-1.366278,-0.962401,0.800357,0.183246,-0.644725,0.016297,-0.764240,-0.182392,0.004668,-0.077847,-2.580765,26.176079,-8.218262,,,,,,,
1523522885.710833,-0.675939,-0.026615,-1.373101,-0.077991,0.877179,-0.025009,-0.625408,0.026612,-0.779843,-0.213749,0.114593,-0.190051,-1.760727,25.946938,-8.666931,,,,,,,
1523522885.740801,-0.651911,-0.027583,-1.370823,-0.066821,0.755589,0.186103,-0.606475,0.027580,-0.794623,-0.233536,0.025536,-0.355325,-1.228561,26.394997,-8.218445,,,,,,,
1523522885.770769,-0.636574,-0.041504,-1.368185,-0.439049,0.209543,0.453804,-0.593932,0.041492,-0.803444,-0.145326,-0.154087,-0.306709,-1.455215,26.320854,-8.368225,,,,,,,
1523522885.800737,-0.638955,-0.056136,-1.362533,-0.083911,-0.218962,0.366067,-0.595417,0.056107,-0.801455,-0.071026,-0.218491,-0.133054,-0.927841,26.693260,-8.594482,,,,,,,
1523522885.830705,-0.648345,-0.054674,-1.353448,0.403594,-0.384067,0.099146,-0.602966,0.054647,-0.795893,-0.018754,-0.165517,-0.018698,-0.699997,26.617836,-7.994019,,,,,,,
1523522885.860674,-0.657460,-0.042670,-1.345974,0.456625,-0.257180,-0.133229,-0.610551,0.042657,-0.790826,0.011293,-0.039850,0.081170,-1.309555,26.019981,-8.591980,,,,,,,
1523522885.890642,-0.661188,-0.031032,-1.341958,0.327231,0.009378,-0.066458,-0.613759,0.031027,-0.788883,0.023350,-0.000861,0.155079,-1.982574,26.173088,-8.517944,,,,,,,
1523522885.920610,-0.654264,-0.027394,-1.336088,0.138361,0.289889,0.154748,-0.608347,0.027390,-0.793198,0.009012,-0.040711,0.082749,-1.382004,26.320229,-8.668213,,,,,,,
1523522885.950578,-0.648995,-0.028063,-1.330325,0.102153,0.074258,0.156007,-0.604148,0.028059,-0.796378,0.058860,-0.076963,0.035620,-1.684082,26.021736,-8.517151,,,,,,,
1523522885.980547,-0.652532,-0.026281,-1.324518,0.182387,-0.218646,0.075373,-0.606990,0.026278,-0.794274,0.062526,-0.059847,0.091988,-1.385437,25.795555,-8.366089,,,,,,,
1523522886.010515,-0.656309,-0.024162,-1.321709,0.059546,-0.065950,0.013325,-0.610018,0.024159,-0.792018,0.053591,-0.001653,0.090175,-0.783386,26.092690,-8.517029,,,,,,,
1523522886.040483,-0.656975,-0.024588,-1.322850,-0.113693,0.035854,-0.048699,-0.610539,0.024585,-0.791604,0.050633,0.063427,0.032189,-1.833633,25.797859,-8.066345,,,,,,,
1523522886.070451,-0.650831,-0.023104,-1.324399,0.061476,0.455579,-0.109729,-0.605686,0.023102,-0.795368,0.034901,0.067062,0.077472,-1.460892,25.795815,-8.441162,,,,,,,
,,,,,,,,,,,,,,,,25.318945,51.454753,16.189266,5.260000,85.078125,1523522885.996305,
1523522886.100420,-0.637673,-0.024800,-1.331978,-0.376277,0.146812,-0.170479,-0.595144,0.024798,-0.803236,-0.089670,0.166151,-0.242556,-0.855209,26.093544,-7.992004,,,,,,,
1523522886.130388,-0.655178,-0.029641,-1.347118,-0.350378,-1.039430,-0.429256,-0.609033,0.029637,-0.792591,-0.129828,0.106991,-0.088177,-2.579269,26.326073,-8.218872,,,,,,,
