timestamp(unix),attitude_roll(radians),attitude_pitch(radians),attitude_yaw(radians),rotation_rate_x(radians/s),rotation_rate_y(radians/s),rotation_rate_z(radians/s),gravity_x(G),gravity_y(G),gravity_z(G),user_acc_x(G),user_acc_y(G),user_acc_z(G),magnetic_field_x(microteslas),magnetic_field_y(microteslas),magnetic_field_z(microteslas),latitude(degree),longitude(degree),altitude(meter),speed(m/s),course(degree),timestamp(unix),User Mark
,,,,,,,,,,,,,,,,25.299933,51.440965,12.847244,6.420000,286.171875,1522315462.998279,1
1522315463.559999,-0.412174,-0.053495,1.363484,0.146677,-0.755277,-0.004067,-0.400029,0.053470,-0.914941,0.008229,0.180188,-0.118277,8.749222,-47.776249,-1.800354,,,,,,,1
1522315463.589967,-0.425738,-0.060811,1.370110,-0.255610,0.027985,0.424253,-0.412230,0.060774,-0.909051,0.030028,-0.020323,0.006158,8.222137,-47.849110,-2.025330,,,,,,,1
1522315463.619936,-0.411860,-0.067841,1.382955,0.189809,0.538036,0.417679,-0.399394,0.067789,-0.914270,-0.086217,-0.093699,-0.192603,8.303131,-47.474094,-1.651794,,,,,,,1
1522315463.649910,-0.407204,-0.057906,1.392739,0.492839,-0.120303,0.090386,-0.395380,0.057873,-0.916693,0.083261,-0.319958,-0.227793,7.925461,-47.922092,-1.350220,,,,,,,1
1522315463.679878,-0.407119,-0.050241,1.400391,0.173365,0.091783,0.114441,-0.395466,0.050220,-0.917107,0.015171,-0.373462,-0.250969,7.926804,-47.921864,-1.125183,,,,,,,1
1522315463.709846,-0.410222,-0.052649,1.397967,-0.275435,-0.331122,-0.180629,-0.398260,0.052624,-0.915762,0.068472,-0.194104,0.144094,8.150452,-47.923100,-1.350098,,,,,,,1
1522315463.739815,-0.422483,-0.058441,1.391911,-0.151507,-0.286318,0.050652,-0.409326,0.058408,-0.910517,0.303567,0.005893,0.428354,7.170074,-47.919590,-2.250549,,,,,,,1
1522315463.769783,-0.423230,-0.057652,1.396843,0.285048,-0.015707,0.100770,-0.410025,0.057620,-0.910252,0.134116,0.225797,0.362370,7.020554,-48.143467,-1.799744,,,,,,,1
1522315463.799751,-0.438881,-0.047115,1.394214,-0.011019,-0.753725,-0.473017,-0.424455,0.047098,-0.904223,-0.121611,0.123114,0.127185,8.066467,-48.598103,-1.722412,,,,,,,1
1522315463.829720,-0.449452,-0.059979,1.379375,-0.868618,0.148679,-0.053677,-0.433691,0.059943,-0.899066,0.214300,-0.030676,0.034121,7.617371,-48.146671,-2.324463,,,,,,,1
1522315463.859688,-0.423733,-0.079016,1.368851,-0.366223,1.151024,-0.121453,-0.409883,0.078934,-0.908716,0.134340,-0.004166,-0.320013,7.834259,-48.373615,-3.298401,,,,,,,1
1522315463.889656,-0.415233,-0.073577,1.362107,0.203114,-0.382362,-0.471097,-0.402312,0.073511,-0.912546,-0.135240,0.221853,-0.120062,8.815048,-47.927814,-3.074707,,,,,,,1
1522315463.919624,-0.432322,-0.064270,1.345692,-0.142956,-0.380279,-0.646100,-0.418115,0.064226,-0.906121,-0.097617,0.144941,-0.144920,9.190491,-47.929432,-2.999512,,,,,,,1
1522315463.949593,-0.439847,-0.068066,1.328042,-0.391280,-0.169247,-0.344956,-0.424815,0.068014,-0.902722,0.073588,-0.071966,-0.243809,10.164246,-47.784260,-3.449585,,,,,,,1
1522315463.979561,-0.444607,-0.068262,1.320880,0.150990,-0.194356,-0.139940,-0.429101,0.068209,-0.900677,0.025308,0.029051,0.004498,10.464676,-47.785542,-3.374451,,,,,,,1
1522315464.009529,-0.454628,-0.058170,1.323225,0.421981,-0.490694,0.050216,-0.438385,0.058137,-0.896905,0.173310,0.158080,0.104180,9.864105,-47.932682,-3.224182,,,,,,,1
1522315464.039497,-0.476353,-0.050302,1.339429,0.473397,-0.850143,0.526910,-0.457961,0.050281,-0.887549,0.108901,0.146131,0.222281,9.714111,-47.932011,-3.224243,,,,,,,1
,,,,,,,,,,,,,,,,25.299919,51.440901,12.828735,6.420000,291.796875,1522315463.998265,1
1522315464.069466,-0.493258,-0.048535,1.356383,0.177755,-0.302086,0.365238,-0.472941,0.048516,-0.879758,-0.032171,-0.001977,0.223767,8.371674,-47.849857,-2.100281,,,,,,,1
1522315464.099434,-0.486582,-0.051094,1.360604,-0.160145,0.716695,-0.086744,-0.466997,0.051072,-0.882783,-0.199293,-0.119324,0.121369,8.295486,-47.924580,-2.174988,,,,,,,1
1522315464.129402,-0.449912,-0.047621,1.342258,-0.090372,1.392085,-0.805552,-0.434393,0.047603,-0.899464,0.049643,-0.370418,-0.183589,9.801407,-47.331364,-2.176575,,,,,,,1
1522315464.159370,-0.427147,-0.033600,1.328341,0.486864,0.300016,-0.447063,-0.414042,0.033594,-0.909638,0.262110,-0.404062,-0.222168,11.681122,-47.039524,-1.876831,,,,,,,1
1522315464.189339,-0.423632,-0.013027,1.330103,0.612218,0.056248,-0.127065,-0.411039,0.013026,-0.911525,0.028943,-0.139522,-0.086751,10.932388,-47.634953,-0.674805,,,,,,,1
1522315464.219307,-0.432911,-0.002703,1.332156,0.072924,-0.554169,-0.018172,-0.419514,0.002703,-0.907745,-0.100002,0.140302,-0.044312,11.311584,-47.710835,0.150635,,,,,,,1
1522315464.249275,-0.441742,-0.013163,1.327673,-0.620533,0.041530,-0.015025,-0.427478,0.013163,-0.903930,-0.070127,0.334112,-0.080079,10.630295,-47.708820,-0.899719,,,,,,,1
1522315464.279243,-0.440486,-0.028687,1.319310,-0.473945,-0.076009,0.026754,-0.426204,0.028683,-0.904172,0.146739,0.149159,-0.044863,11.229813,-47.486958,-1.350281,,,,,,,1
1522315464.309212,-0.447748,-0.039254,1.316743,-0.315203,-0.350779,0.059112,-0.432603,0.039244,-0.900730,0.146562,-0.003187,0.128956,11.075134,-47.412159,-2.250610,,,,,,,1
1522315464.339180,-0.459112,-0.045085,1.312189,-0.132713,-0.349925,-0.128282,-0.442702,0.045070,-0.895535,0.192397,0.034612,0.330991,10.165756,-48.083515,-2.698425,,,,,,,1
1522315464.369148,-0.461607,-0.036663,1.302738,0.271005,0.292229,-0.623032,-0.445088,0.036655,-0.894736,-0.055491,0.123974,0.021033,10.767075,-47.861378,-2.848999,,,,,,,1
1522315464.399116,-0.432022,-0.014808,1.288236,0.555117,1.309571,-0.786859,-0.418662,0.014807,-0.908021,-0.068917,0.031931,-0.653761,13.328812,-47.721180,-1.123291,,,,,,,1
1522315464.429085,-0.410036,0.007445,1.277347,0.409495,0.190734,-0.444872,-0.398631,-0.007445,-0.917081,-0.015111,-0.182604,-0.716799,12.512253,-47.416599,-0.224915,,,,,,,1
1522315464.459053,-0.424765,0.009222,1.280560,-0.140373,-0.911814,0.446604,-0.412089,-0.009222,-0.911097,0.082240,-0.140558,-0.336050,12.883499,-47.793278,-0.223267,,,,,,,1
1522315464.489021,-0.461810,-0.008611,1.292940,-0.423387,-1.388670,0.663171,-0.445553,0.008611,-0.895214,0.167980,0.168345,0.148129,11.824234,-48.089558,-1.272583,,,,,,,1
1522315464.518990,-0.500434,-0.027971,1.301684,-0.471869,-1.028922,0.444343,-0.479619,0.027968,-0.877031,0.112172,0.229204,0.388903,9.950195,-47.631733,-1.875305,,,,,,,1
1522315464.548958,-0.508225,-0.044868,1.296879,-0.640564,0.309894,-0.242272,-0.486138,0.044853,-0.872730,-0.135505,0.109490,0.281971,10.021896,-47.557728,-2.550537,,,,,,,1
1522315464.578926,-0.491803,-0.048065,1.268507,-0.338651,0.574705,-0.989238,-0.471671,0.048046,-0.880465,0.134726,-0.194027,0.086596,12.425964,-46.744221,-3.227661,,,,,,,1
1522315464.608894,-0.473610,-0.029223,1.244960,0.601530,0.609820,-0.874565,-0.455907,0.029219,-0.889548,0.189489,-0.296446,-0.223337,13.551392,-46.973835,-2.776184,,,,,,,1
1522315464.638847,-0.463563,0.006295,1.240491,1.099871,0.158248,-0.600969,-0.447129,-0.006295,-0.894447,-0.151641,-0.003120,-0.274498,14.320877,-46.599674,-0.152283,,,,,,,1
1522315464.668815,-0.470818,0.037022,1.233076,0.495994,-0.482984,-0.622080,-0.453304,-0.037013,-0.890587,-0.270634,0.192424,-0.207390,15.597305,-46.680042,0.223694,,,,,,,1
1522315464.698783,-0.483624,0.040430,1.230706,-0.178896,-0.450217,0.247923,-0.464611,-0.040419,-0.884592,0.011165,0.104399,-0.200049,14.769501,-47.051167,0.374756,,,,,,,1
1522315464.728751,-0.494503,0.021423,1.238447,-0.580384,-0.303882,0.586310,-0.474485,-0.021422,-0.880003,0.030439,0.048079,0.121351,13.339142,-46.821003,-0.901917,,,,,,,1
1522315464.758720,-0.508627,-0.004857,1.242852,-0.763830,-0.492615,0.591697,-0.486972,0.004857,-0.873404,0.310703,-0.038945,0.388541,13.557846,-47.047657,-1.575867,,,,,,,1
1522315464.788688,-0.522013,-0.033888,1.250303,-0.626459,-0.441668,0.703623,-0.498340,0.033881,-0.866320,0.290271,0.014092,0.474718,11.449493,-46.665195,-3.603455,,,,,,,1
1522315464.818656,-0.527167,-0.050600,1.254615,-0.235110,0.081755,0.021451,-0.502443,0.050579,-0.863130,0.082322,0.008000,0.341859,10.845779,-46.812855,-3.978210,,,,,,,1
1522315464.848624,-0.506146,-0.041892,1.242668,0.304566,1.276523,-0.680471,-0.484384,0.041880,-0.873852,-0.090231,-0.143244,-0.091815,13.032700,-46.296574,-2.854126,,,,,,,1
1522315464.878593,-0.447567,-0.001588,1.231624,1.586725,2.267556,-1.233520,-0.432773,0.001588,-0.901502,-0.287442,-0.275819,-1.423022,14.543320,-46.451359,-0.827759,,,,,,,1
1522315464.908561,-0.423881,0.050720,1.217448,0.937368,-0.719045,-0.907074,-0.410772,-0.050698,-0.910328,0.023336,-0.421791,-1.045620,16.284592,-46.082081,1.271606,,,,,,,1
1522315464.938529,-0.480807,0.060893,1.210798,-0.165559,-2.428669,0.075173,-0.461637,-0.060855,-0.884979,0.087278,-0.139020,-0.047455,16.736954,-45.709354,1.045349,,,,,,,1
1522315464.968497,-0.554315,0.035610,1.215121,-0.977056,-2.292670,0.819239,-0.526028,-0.035602,-0.849722,0.232006,0.251590,0.524893,13.935516,-46.375034,-2.253357,,,,,,,1
1522315464.998466,-0.603813,-0.009247,1.212915,-1.531553,-0.950993,0.617159,-0.567761,0.009247,-0.823141,0.143796,0.375382,0.757864,12.133606,-45.843128,-3.456421,,,,,,,1
1522315465.028434,-0.575110,-0.059028,1.190783,-1.836710,2.296412,0.108600,-0.542980,0.058994,-0.837671,0.025676,0.134472,0.513239,13.103882,-44.874897,-5.859802,,,,,,,1
,,,,,,,,,,,,,,,,25.299958,51.440839,12.744289,6.650000,292.500000,1522315464.998252,1
1522315465.058402,-0.485940,-0.092196,1.167802,-0.805687,3.185627,-0.079060,-0.465056,0.092066,-0.880481,-0.036607,-0.191934,-0.138409,14.153534,-44.954548,-5.783936,,,,,,,1
1522315465.088371,-0.438492,-0.079448,1.165561,1.172413,0.081549,-0.449524,-0.423235,0.079365,-0.902537,0.156359,-0.285908,-0.386220,15.434311,-44.734715,-5.184143,,,,,,,1
1522315465.118339,-0.464026,-0.026036,1.172338,1.759560,-0.869599,-0.642052,-0.447400,0.026033,-0.893955,0.170865,-0.187151,-0.071392,16.044846,-45.259846,-2.556763,,,,,,,1
1522315465.148307,-0.477080,0.013843,1.174006,0.755500,-0.288177,-0.463307,-0.459143,-0.013842,-0.888255,-0.243875,0.096759,-0.271963,16.124359,-45.484058,-1.430786,,,,,,,1
1522315465.178275,-0.483571,0.023399,1.162152,-0.382407,-0.194204,-0.428025,-0.464816,-0.023397,-0.885098,-0.159527,0.047353,-0.324848,16.802780,-45.187046,-1.356689,,,,,,,1
1522315465.208244,-0.508414,0.001534,1.147187,-1.128873,-1.269324,0.106329,-0.486792,-0.001534,-0.873517,0.197958,0.051857,0.249219,17.244339,-45.040684,-3.007019,,,,,,,1
1522315465.238212,-0.540718,-0.035494,1.134338,-1.344920,-0.634801,0.315429,-0.514427,0.035486,-0.856799,0.326912,0.036108,0.559970,15.428162,-44.810581,-6.083862,,,,,,,1
1522315465.268180,-0.540301,-0.073852,1.127298,-1.090657,0.299561,0.479841,-0.512992,0.073785,-0.855216,0.237571,0.113837,0.526130,14.971725,-44.734730,-7.284424,,,,,,,1
1522315465.298179,-0.514053,-0.095574,1.126911,-0.276210,1.562049,0.174439,-0.489466,0.095428,-0.866785,-0.026098,0.048066,0.260584,15.802673,-44.363087,-6.910522,,,,,,,1
1522315465.328147,-0.446826,-0.080289,1.129607,1.258064,2.348448,-0.379287,-0.430713,0.080203,-0.898918,-0.208325,-0.264483,-0.987938,16.264374,-44.363224,-4.960266,,,,,,,1
1522315465.358115,-0.409523,-0.026656,1.129186,1.337635,0.076595,-1.015185,-0.398031,0.026653,-0.916985,-0.102870,-0.380550,-1.367256,18.984100,-44.147541,-2.034790,,,,,,,1
1522315465.388084,-0.452760,0.002040,1.115646,0.305269,-1.968572,-0.546135,-0.437448,-0.002040,-0.899242,0.126901,-0.054616,-0.276082,19.732712,-44.151127,-2.259338,,,,,,,1
1522315465.418052,-0.513988,0.001840,1.112980,-0.271285,-1.963366,0.279218,-0.491653,-0.001840,-0.870789,0.254608,0.263681,0.375672,18.602966,-44.221714,-2.934631,,,,,,,1
1522315465.448020,-0.563645,-0.023799,1.118304,-0.956875,-1.278090,0.691430,-0.534119,0.023797,-0.845074,0.176362,0.400351,0.667157,15.966644,-44.136890,-4.961304,,,,,,,1
1522315465.477988,-0.557855,-0.063880,1.100362,-1.824582,1.694463,-0.278630,-0.528287,0.063837,-0.846662,-0.189867,-0.061273,0.483885,16.264206,-43.614506,-6.238281,,,,,,,1
1522315465.507957,-0.447936,-0.103010,1.059184,-1.546833,4.359026,-0.463313,-0.430810,0.102827,-0.896565,-0.038443,-0.487471,-0.823665,19.197891,-42.428226,-6.766541,,,,,,,1
1522315465.537925,-0.390525,-0.111010,1.042733,0.571447,0.139192,-0.425521,-0.378330,0.110782,-0.919018,0.153584,-0.406070,-0.423222,19.803574,-42.130512,-6.317383,,,,,,,1
1522315465.567893,-0.421899,-0.072392,1.040455,1.263012,-1.233248,-0.735819,-0.408422,0.072329,-0.909923,-0.010020,-0.131212,0.231716,19.958817,-42.280079,-5.191711,,,,,,,1
1522315465.597861,-0.457163,-0.038428,1.034182,0.573161,-1.108145,-0.602201,-0.441079,0.038418,-0.896646,-0.005485,0.168918,0.364236,20.256561,-42.506413,-5.190674,,,,,,,1
1522315465.627830,-0.472772,-0.027538,1.016252,-0.290017,0.171835,-0.835357,-0.455184,0.027534,-0.889972,-0.348695,0.335732,0.062640,21.907394,-42.289082,-5.415710,,,,,,,1
1522315465.657807,-0.446035,-0.039985,0.987217,-1.029335,0.925769,-0.499957,-0.431047,0.039974,-0.901443,0.086138,0.156681,-0.302353,22.364716,-41.466282,-5.568787,,,,,,,1
1522315465.687775,-0.450538,-0.065139,0.972874,-0.865357,-0.727646,0.201869,-0.434526,0.065093,-0.898304,0.124666,0.145524,0.156879,21.675018,-41.540516,-7.893799,,,,,,,1
1522315465.717744,-0.469157,-0.088734,0.971987,-0.640077,-0.332824,0.339098,-0.450355,0.088617,-0.888441,-0.020287,0.221990,0.391630,22.190994,-41.993580,-8.641785,,,,,,,1
1522315465.747712,-0.462942,-0.101048,0.968167,-0.238262,0.638483,-0.119751,-0.444304,0.100876,-0.890178,-0.193284,0.196899,0.308879,21.973648,-41.317448,-8.494629,,,,,,,1
1522315465.777680,-0.429125,-0.092432,0.962965,0.530125,1.436473,-0.388495,-0.414299,0.092300,-0.905449,0.023247,-0.010681,-0.241890,23.034698,-41.020878,-7.145203,,,,,,,1
1522315465.807648,-0.393214,-0.061470,0.958312,1.040470,0.948975,-0.603925,-0.382435,0.061431,-0.921938,0.011891,-0.182586,-0.379942,23.715988,-41.022892,-6.094910,,,,,,,1
1522315465.837617,-0.384519,-0.033741,0.956991,0.598132,-0.121454,-0.239836,-0.374900,0.033735,-0.926451,-0.076242,-0.068006,-0.204927,24.173950,-41.397999,-4.143127,,,,,,,1
1522315465.867585,-0.391764,-0.026475,0.960319,0.032208,-0.217373,0.303265,-0.381686,0.026472,-0.923913,-0.075315,-0.058256,0.032281,24.480820,-40.799229,-3.995422,,,,,,,1
1522315465.897553,-0.385414,-0.045516,0.977632,-0.664924,0.537512,0.943433,-0.375553,0.045501,-0.925683,-0.237713,-0.070891,0.051797,23.647751,-41.021458,-4.969910,,,,,,,1
1522315465.927521,-0.353850,-0.081083,0.983693,-1.240978,1.498054,0.246248,-0.345373,0.080994,-0.934964,-0.305567,-0.190933,0.088345,22.444061,-41.391041,-4.969055,,,,,,,1
1522315465.957490,-0.298415,-0.116776,0.972656,-1.160019,1.990926,0.092371,-0.292003,0.116511,-0.949294,-0.030476,-0.315974,0.014785,23.724686,-40.647114,-5.271362,,,,,,,1
1522315465.987458,-0.248579,-0.135529,0.981805,0.028400,1.014858,0.664298,-0.243770,0.135115,-0.960375,0.142391,-0.268888,-0.123762,24.177216,-40.573841,-4.971436,,,,,,,1
1522315466.017426,-0.252025,-0.130261,0.997679,0.230506,-0.842137,0.227317,-0.247253,0.129892,-0.960205,0.054519,0.043035,0.034866,22.895401,-41.392841,-4.743835,,,,,,,1
1522315466.047394,-0.269232,-0.133865,0.999298,-0.322380,-0.281764,0.065451,-0.263612,0.133465,-0.955351,-0.234237,0.216007,0.208784,22.364716,-41.466282,-5.568787,,,,,,,1
,,,,,,,,,,,,,,,,25.300007,51.440753,12.599660,5.920000,304.804688,1522315465.998239,1
1522315466.077363,-0.271276,-0.149397,0.998884,-0.503242,0.061757,0.238651,-0.264977,0.148842,-0.952698,-0.154442,0.127372,0.168793,22.893875,-40.868961,-5.870911,,,,,,,1
1522315466.107331,-0.268065,-0.158649,1.011678,0.068885,-0.102207,0.535463,-0.261540,0.157984,-0.952175,0.097172,0.008230,-0.043583,21.687332,-41.388752,-6.094421,,,,,,,1
1522315466.137299,-0.276457,-0.149729,1.022571,0.531146,-0.250523,0.005318,-0.269895,0.149170,-0.951265,0.066129,-0.013199,-0.007826,20.934372,-41.685368,-6.093628,,,,,,,1
1522315466.167267,-0.273098,-0.134011,1.021885,0.408432,0.230469,-0.204088,-0.267297,0.133610,-0.954306,-0.045584,-0.062000,-0.105783,22.069672,-41.239506,-5.119873,,,,,,,1
1522315466.197236,-0.272930,-0.124470,1.018913,0.218564,-0.165599,-0.174013,-0.267469,0.124149,-0.955535,-0.025530,-0.095355,-0.143189,21.246826,-41.609821,-4.143738,,,,,,,1
1522315466.227204,-0.281585,-0.121993,1.016717,-0.111254,-0.267501,-0.073988,-0.275813,0.121691,-0.953477,-0.095739,0.008543,-0.009871,21.315216,-41.910740,-4.742554,,,,,,,1
1522315466.257172,-0.279586,-0.131526,1.011240,-0.524842,0.372045,-0.058954,-0.273574,0.131147,-0.952868,-0.015748,-0.105543,-0.005506,22.063675,-41.614857,-5.493347,,,,,,,1
1522315466.287140,-0.265244,-0.144966,1.008535,-0.364977,0.400853,0.019980,-0.259395,0.144459,-0.954906,-0.150761,-0.006397,0.001186,21.837631,-41.539143,-5.793762,,,,,,,1
1522315466.317109,-0.260667,-0.152273,1.001957,-0.273344,0.208134,-0.109747,-0.254743,0.151685,-0.955038,-0.099124,-0.098447,0.151785,21.839432,-41.314213,-5.869690,,,,,,,1
1522315466.347077,-0.257249,-0.155844,1.004226,0.011532,-0.004795,0.151727,-0.251338,0.155213,-0.955373,0.023814,0.025191,0.110540,22.440598,-41.241856,-5.794678,,,,,,,1
1522315466.377045,-0.261673,-0.149387,1.004786,0.276848,-0.124784,-0.258180,-0.255816,0.148832,-0.955200,-0.082227,0.025133,-0.035553,22.142868,-41.240131,-5.419800,,,,,,,1
1522315466.407014,-0.265813,-0.137649,0.997198,0.292720,-0.118682,-0.225141,-0.260209,0.137215,-0.955753,-0.118407,-0.078469,-0.248105,22.295700,-41.090595,-5.195312,,,,,,,1
1522315466.436982,-0.281673,-0.129502,0.997779,0.188366,-0.783882,-0.034888,-0.275635,0.129140,-0.952548,-0.144943,0.027263,-0.069150,22.820984,-41.018040,-5.270325,,,,,,,1
1522315466.466950,-0.296346,-0.131712,0.999504,-0.212633,-0.151396,0.223111,-0.289498,0.131331,-0.948126,-0.013663,-0.042403,0.115744,22.066376,-41.389790,-5.419250,,,,,,,1
1522315466.496918,-0.291113,-0.143788,1.006434,-0.361526,0.285305,0.282221,-0.284057,0.143293,-0.948040,-0.041886,-0.049207,0.102245,21.463699,-41.387531,-5.869568,,,,,,,1
1522315466.526887,-0.281295,-0.153940,1.010009,-0.234532,0.290544,0.094784,-0.274317,0.153333,-0.949336,0.042032,-0.067197,0.031810,22.664536,-41.168156,-6.094849,,,,,,,1
1522315466.556855,-0.274138,-0.156106,1.008185,0.022191,0.187049,-0.087128,-0.267425,0.155473,-0.950953,-0.083466,-0.112382,-0.012182,21.240204,-41.236515,-5.870300,,,,,,,1
1522315466.586823,-0.272235,-0.150982,1.005693,0.176803,0.062841,-0.157221,-0.265826,0.150409,-0.952215,-0.101880,-0.095416,0.021795,21.466537,-41.237324,-5.645142,,,,,,,1
1522315466.616791,-0.272105,-0.145650,1.003056,0.068178,0.006045,-0.052811,-0.265914,0.145136,-0.953008,-0.029526,-0.080622,-0.076472,21.692276,-41.163334,-5.645325,,,,,,,1
1522315466.646764,-0.273956,-0.140097,1.001326,0.162420,-0.022317,-0.132629,-0.267891,0.139640,-0.953276,-0.105476,-0.145804,-0.224321,22.294205,-41.015965,-5.570618,,,,,,,1
1522315466.676732,-0.277932,-0.133050,1.000110,0.173393,-0.162767,-0.107983,-0.271942,0.132657,-0.953126,-0.112106,-0.120908,-0.168197,23.120193,-40.869770,-5.645813,,,,,,,1
1522315466.706700,-0.283407,-0.133991,1.001514,-0.199693,-0.212496,0.144326,-0.277122,0.133591,-0.951502,-0.081887,-0.013321,-0.004476,22.896576,-40.868534,-5.420898,,,,,,,1
1522315466.736668,-0.283080,-0.151892,1.004944,-0.769937,0.260227,0.367181,-0.276098,0.151309,-0.949145,-0.080637,-0.095522,0.260729,21.236435,-41.162266,-6.620605,,,,,,,1
1522315466.766637,-0.262077,-0.178525,1.017414,-0.636758,0.676715,0.781355,-0.254969,0.177579,-0.950503,-0.124029,-0.058743,0.200168,21.311584,-41.012821,-6.846130,,,,,,,1
1522315466.796605,-0.241993,-0.191541,1.036031,0.020398,0.570182,0.586961,-0.235256,0.190372,-0.953107,-0.057148,-0.102695,0.128415,20.934784,-41.011433,-7.146301,,,,,,,1
1522315466.826573,-0.225194,-0.183540,1.049201,0.548170,0.376401,0.150688,-0.219545,0.182511,-0.958379,0.034456,-0.192567,-0.015239,20.185608,-41.831562,-5.643433,,,,,,,1
1522315466.856541,-0.222346,-0.164753,1.046461,0.539889,-0.047455,-0.470095,-0.217532,0.164009,-0.962175,-0.072583,-0.214744,-0.094069,20.642181,-41.533009,-5.044373,,,,,,,1
1522315466.886510,-0.232369,-0.150943,1.036755,0.256381,-0.469690,-0.315379,-0.227665,0.150371,-0.962059,-0.117107,-0.138606,-0.155983,20.944733,-41.683689,-4.368652,,,,,,,1
1522315466.916478,-0.253266,-0.149029,1.032011,-0.174261,-0.762393,-0.090593,-0.247790,0.148478,-0.957369,-0.110563,-0.044520,-0.087889,21.318359,-41.460972,-4.969360,,,,,,,1
1522315466.946477,-0.268406,-0.159463,1.029682,-0.466345,-0.195639,0.107883,-0.261830,0.158788,-0.951962,-0.072734,-0.020071,0.026638,21.161896,-41.386478,-6.169739,,,,,,,1
1522315466.976445,-0.269569,-0.172832,1.030899,-0.380903,0.054881,0.114087,-0.262348,0.171973,-0.949525,0.010441,-0.027686,0.186632,20.632874,-41.609394,-6.469055,,,,,,,1
1522315467.006413,-0.262313,-0.178433,1.030709,-0.002356,0.303315,0.010761,-0.255198,0.177488,-0.950459,0.037760,-0.049818,0.119755,20.632874,-41.609394,-6.469055,,,,,,,1
1522315467.036382,-0.258347,-0.165807,1.031780,0.717041,-0.008244,-0.215338,-0.251979,0.165048,-0.953554,-0.113270,-0.022943,-0.097288,21.534485,-41.538303,-6.318909,,,,,,,1
,,,,,,,,,,,,,,,,25.300025,51.440732,12.932707,5.920000,306.210938,1522315466.998225,1
1522315467.066350,-0.263187,-0.136782,1.027763,0.898483,-0.225283,-0.391869,-0.257729,0.136356,-0.956547,-0.078697,-0.148807,-0.258022,21.319412,-41.535679,-4.669067,,,,,,,1
1522315467.096318,-0.275226,-0.118824,1.023706,0.253862,-0.451168,-0.226967,-0.269848,0.118544,-0.955578,-0.055759,-0.160750,-0.139240,21.770447,-41.612415,-4.368530,,,,,,,1
1522315467.126286,-0.285767,-0.118869,1.017860,-0.230052,-0.203861,-0.167901,-0.279904,0.118589,-0.952675,-0.103931,-0.145109,0.072350,21.469116,-41.611286,-4.593628,,,,,,,1
1522315467.156255,-0.288390,-0.129046,1.015668,-0.398386,-0.006873,0.137579,-0.282045,0.128688,-0.950731,-0.114303,-0.069896,0.160052,21.844086,-41.388340,-4.969360,,,,,,,1
1522315467.186223,-0.283833,-0.140312,1.016517,-0.260472,0.258529,0.125686,-0.277285,0.139852,-0.950555,-0.085783,-0.156225,0.114053,21.840332,-41.314075,-5.719666,,,,,,,1
1522315467.216191,-0.277557,-0.139842,1.019391,0.285829,0.071843,0.033592,-0.271332,0.139387,-0.952339,0.032150,-0.203489,0.019966,22.593597,-41.167164,-5.419861,,,,,,,1
1522315467.246159,-0.282138,-0.123838,1.021607,0.589725,-0.265296,-0.183214,-0.276278,0.123522,-0.953107,-0.034071,-0.152315,-0.069903,21.470459,-41.386433,-4.744568,,,,,,,1
1522315467.276128,-0.292718,-0.110397,1.018816,0.142208,-0.282354,-0.167550,-0.286799,0.110173,-0.951634,-0.080815,-0.125005,-0.103435,21.774033,-41.162586,-4.520264,,,,,,,1
1522315467.306096,-0.299559,-0.110615,1.013645,-0.234239,-0.162539,-0.148769,-0.293295,0.110389,-0.949627,-0.133203,-0.024421,-0.033069,21.771622,-41.088093,-5.045593,,,,,,,1
1522315467.336064,-0.299886,-0.118901,1.008201,-0.456704,0.158948,-0.001149,-0.293326,0.118621,-0.948625,-0.032892,-0.088012,0.092286,21.768768,-41.013691,-5.645874,,,,,,,1
1522315467.366032,-0.296485,-0.129719,1.006155,-0.348436,0.105011,0.074642,-0.289706,0.129356,-0.948334,-0.045408,-0.085471,0.075272,22.291809,-41.166111,-5.720032,,,,,,,1
1522315467.396001,-0.293168,-0.130263,1.006571,0.192720,0.185158,-0.030521,-0.286539,0.129895,-0.949222,-0.063971,-0.134503,-0.088864,22.749557,-40.567875,-5.422180,,,,,,,1
1522315467.425969,-0.291123,-0.119922,1.007520,0.265735,-0.035579,-0.096311,-0.284966,0.119635,-0.951042,-0.030646,-0.122519,-0.081413,22.223694,-40.790272,-5.196533,,,,,,,1
1522315467.455937,-0.295479,-0.115768,1.004151,-0.019417,-0.089908,-0.127369,-0.289249,0.115510,-0.950259,-0.042538,-0.078446,0.055469,22.595398,-41.166874,-5.119873,,,,,,,1
1522315467.485905,-0.299647,-0.114390,1.001563,-0.017711,-0.131704,-0.079367,-0.293254,0.114141,-0.949197,-0.059407,-0.013204,0.103249,23.123047,-40.719547,-5.421387,,,,,,,1
1522315467.515874,-0.301734,-0.113654,1.000031,-0.031171,0.009381,-0.039035,-0.295260,0.113410,-0.948662,-0.026289,-0.042700,0.068963,22.523087,-40.941471,-5.045837,,,,,,,1
1522315467.545842,-0.298592,-0.111112,1.000175,0.134201,0.177124,-0.076375,-0.292361,0.110883,-0.949858,-0.110349,0.007479,-0.042375,22.969925,-41.168629,-5.194641,,,,,,,1
1522315467.575810,-0.289901,-0.103632,1.001455,0.332721,0.346602,0.082363,-0.284323,0.103447,-0.953131,-0.027551,-0.061424,-0.193628,23.498047,-41.170490,-4.669434,,,,,,,1
1522315467.605779,-0.291801,-0.095998,1.006959,0.173618,-0.269920,0.168110,-0.286353,0.095850,-0.953318,-0.004449,-0.113306,-0.042807,22.371613,-41.315403,-4.669373,,,,,,,1
1522315467.635747,-0.295362,-0.100269,1.012976,-0.216240,-0.005772,0.219755,-0.289625,0.100101,-0.951891,-0.061251,-0.140995,0.086428,22.596298,-41.166737,-4.969849,,,,,,,1
1522315467.665689,-0.292174,-0.107324,1.016981,-0.123449,0.110415,0.134468,-0.286377,0.107118,-0.952110,-0.085037,-0.123567,0.091957,23.120377,-41.393864,-4.743713,,,,,,,1
1522315467.695657,-0.285756,-0.107547,1.020597,0.119901,0.270592,0.085485,-0.280255,0.107340,-0.953905,-0.031604,-0.160211,0.018771,22.297516,-41.314930,-4.519409,,,,,,,1
1522315467.725626,-0.279917,-0.101558,1.023135,0.237071,0.125256,0.011123,-0.274852,0.101384,-0.956126,0.008724,-0.164082,-0.150838,22.599899,-41.166142,-4.369873,,,,,,,1
1522315467.755594,-0.281158,-0.092783,1.024194,0.281290,-0.149254,-0.105772,-0.276275,0.092650,-0.956602,-0.101289,-0.129531,-0.198442,23.125473,-41.243275,-4.144287,,,,,,,1
1522315467.785562,-0.286400,-0.088812,1.019252,-0.117706,-0.142565,-0.160418,-0.281387,0.088696,-0.955486,-0.043991,-0.133328,-0.011646,22.675217,-41.540806,-3.693298,,,,,,,1
1522315467.815530,-0.293540,-0.097216,1.013566,-0.454493,-0.232122,-0.148864,-0.287976,0.097063,-0.952706,-0.091892,-0.074633,0.167046,22.748230,-41.241962,-4.519470,,,,,,,1
1522315467.845499,-0.297979,-0.110186,1.007133,-0.433044,-0.032427,0.005454,-0.291808,0.109964,-0.950135,-0.012544,-0.045541,0.161454,23.799850,-40.946918,-4.745178,,,,,,,1
1522315467.875467,-0.295540,-0.117015,1.007530,-0.029982,0.153183,0.062048,-0.289265,0.116748,-0.950103,-0.085735,-0.059421,0.025313,22.594635,-41.017246,-5.495483,,,,,,,1
1522315467.905435,-0.289898,-0.111904,1.011799,0.337749,0.094415,0.129508,-0.284067,0.111670,-0.952279,0.016977,-0.090308,-0.056082,22.743423,-41.317616,-5.194153,,,,,,,1
1522315467.935403,-0.296173,-0.101114,1.017583,0.407692,-0.337754,0.060733,-0.290371,0.100942,-0.951575,-0.007648,-0.072453,0.057212,22.820099,-41.467426,-4.668579,,,,,,,1
1522315467.965372,-0.301957,-0.089822,1.022754,0.365232,-0.065511,0.044447,-0.296190,0.089701,-0.950907,-0.059965,-0.117075,-0.078634,23.048111,-41.617710,-3.917847,,,,,,,1
1522315467.995340,-0.304927,-0.084839,1.025789,-0.018680,-0.229076,0.019811,-0.299143,0.084738,-0.950438,-0.050649,-0.139135,-0.117143,23.046143,-41.543156,-4.368164,,,,,,,1
1522315468.025308,-0.313663,-0.090506,1.022422,-0.328854,-0.220239,-0.070992,-0.307283,0.090382,-0.947316,-0.045745,-0.092549,0.050054,23.046143,-41.543156,-4.368164,,,,,,,1
1522315468.055276,-0.314690,-0.095672,1.018763,-0.112078,0.109189,0.001292,-0.308106,0.095526,-0.946544,0.004853,-0.046256,0.074214,22.594650,-41.241871,-5.119568,,,,,,,1
,,,,,,,,,,,,,,,,25.300080,51.440703,13.078627,5.720000,312.890625,1522315467.998213,1
1522315468.085245,-0.311152,-0.090047,1.018220,0.217205,0.139598,-0.057100,-0.304915,0.089925,-0.948125,-0.059953,-0.043554,-0.066554,22.523117,-41.390720,-4.294006,,,,,,,1
1522315468.115213,-0.311066,-0.084822,1.019067,0.062419,-0.082183,-0.047393,-0.304973,0.084721,-0.948585,-0.083027,-0.070347,-0.103417,22.597809,-41.465977,-4.218689,,,,,,,1
1522315468.145181,-0.314154,-0.085273,1.017200,-0.102129,-0.058694,-0.003858,-0.307889,0.085170,-0.947602,-0.034137,-0.068736,0.022462,22.599152,-41.241138,-4.369568,,,,,,,1
1522315468.175149,-0.313575,-0.089049,1.017449,-0.129227,0.139753,0.041746,-0.307239,0.088931,-0.947468,-0.076092,-0.142795,0.050983,22.295273,-41.539921,-4.518494,,,,,,,1
1522315468.205118,-0.305262,-0.092438,1.021890,-0.036303,0.174092,0.266593,-0.299260,0.092306,-0.949696,0.025761,-0.121282,-0.080638,22.442429,-41.690815,-4.742859,,,,,,,1
1522315468.235086,-0.309574,-0.093203,1.028013,-0.003451,-0.310461,0.101959,-0.303330,0.093068,-0.948330,-0.079299,-0.129002,-0.018971,22.144836,-41.539326,-4.593628,,,,,,,1
1522315468.265054,-0.316084,-0.098304,1.026628,-0.377613,-0.068601,-0.008317,-0.309346,0.098146,-0.945871,0.063558,-0.100572,0.111231,22.591049,-41.242451,-5.719543,,,,,,,1
1522315468.295023,-0.316757,-0.105921,1.020603,-0.259278,-0.037069,-0.152109,-0.309741,0.105723,-0.944925,-0.001386,-0.004649,0.139032,21.990189,-41.689152,-5.118103,,,,,,,1
1522315468.324991,-0.318460,-0.105823,1.014220,0.002174,0.118792,-0.196819,-0.311353,0.105626,-0.944406,-0.100894,0.020091,0.040704,22.367249,-41.166370,-5.644958,,,,,,,1
1522315468.354959,-0.313235,-0.100716,1.009008,0.100637,0.165340,-0.202121,-0.306576,0.100546,-0.946521,-0.044483,-0.044699,-0.054364,22.441360,-41.391483,-5.419067,,,,,,,1
1522315468.384927,-0.311330,-0.094343,1.006749,0.255550,0.078113,-0.092169,-0.304962,0.094203,-0.947694,-0.030762,-0.108149,-0.113677,23.048233,-41.243305,-4.519348,,,,,,,1
1522315468.414896,-0.310525,-0.083964,1.011600,0.422447,-0.083143,0.113769,-0.304482,0.083866,-0.948819,-0.057854,-0.113803,-0.171268,22.523560,-41.390644,-4.218994,,,,,,,1
1522315468.444864,-0.317450,-0.079874,1.021884,0.035653,-0.397004,0.307718,-0.311150,0.079789,-0.947005,-0.021446,-0.074998,-0.052430,22.891663,-41.767826,-4.742371,,,,,,,1
1522315468.474832,-0.328619,-0.089280,1.028980,-0.364543,-0.302841,0.355281,-0.321450,0.089161,-0.942719,0.002603,-0.049244,0.131776,21.766098,-41.912617,-4.592285,,,,,,,1
1522315468.504800,-0.329835,-0.100744,1.032428,-0.203404,0.132949,0.131191,-0.322245,0.100573,-0.941299,-0.028372,-0.113131,0.084136,21.912033,-41.913944,-5.267212,,,,,,,1
1522315468.534769,-0.321088,-0.098157,1.033027,0.283435,0.298258,-0.129658,-0.314080,0.097999,-0.944325,0.008370,-0.171196,-0.131099,22.891342,-41.618122,-5.042908,,,,,,,1
1522315468.564737,-0.318004,-0.086208,1.032540,0.353370,-0.094822,-0.164383,-0.311510,0.086102,-0.946334,-0.016585,-0.162899,-0.168687,22.374176,-41.464741,-3.993835,,,,,,,1
1522315468.594736,-0.326910,-0.080953,1.028666,-0.086668,-0.337246,-0.138892,-0.320067,0.080865,-0.943938,-0.079637,-0.100198,0.012831,22.221786,-41.614216,-4.143250,,,,,,,1
1522315468.624704,-0.337703,-0.091047,1.023410,-0.545367,-0.278920,0.039721,-0.329948,0.090921,-0.939610,-0.083214,-0.069895,0.163823,20.946365,-41.159306,-4.970703,,,,,,,1
1522315468.654690,-0.337870,-0.108628,1.021790,-0.526868,0.222516,0.201189,-0.329524,0.108414,-0.937902,-0.073933,-0.067459,0.025854,21.916519,-41.239338,-5.644897,,,,,,,1
1522315468.684658,-0.329695,-0.121664,1.026497,-0.207163,0.179761,0.277113,-0.321361,0.121364,-0.939147,-0.010960,-0.089046,-0.076447,21.390045,-41.386982,-5.644592,,,,,,,1
1522315468.714627,-0.328810,-0.122223,1.031749,0.202393,-0.085932,0.133859,-0.320508,0.121919,-0.939367,0.079618,-0.100465,0.008062,22.212921,-41.465900,-5.868896,,,,,,,1
1522315468.744595,-0.335343,-0.111333,1.033783,0.346575,-0.200965,-0.180257,-0.327056,0.111103,-0.938451,-0.028382,-0.045490,0.089818,21.161163,-41.910725,-5.417603,,,,,,,1
1522315468.774563,-0.335951,-0.104259,1.028557,-0.005022,0.124472,-0.245848,-0.327877,0.104071,-0.938971,0.031795,-0.019140,0.045538,21.911575,-41.914021,-5.342224,,,,,,,1
1522315468.804532,-0.334689,-0.103061,1.022848,-0.044748,-0.047223,-0.145538,-0.326733,0.102878,-0.939501,-0.041141,0.033184,-0.069349,22.814697,-41.468311,-5.568542,,,,,,,1
1522315468.834500,-0.332906,-0.103138,1.022788,0.001931,0.155069,0.085507,-0.325054,0.102955,-0.940074,-0.079822,-0.069538,-0.179524,21.991074,-41.464375,-5.343994,,,,,,,1
1522315468.864468,-0.331402,-0.103581,1.028326,0.046233,-0.079557,0.191264,-0.323625,0.103396,-0.940519,0.008424,-0.158114,-0.111407,22.139282,-41.689976,-5.268005,,,,,,,1
1522315468.894436,-0.334234,-0.106397,1.036364,-0.036966,-0.151431,0.318071,-0.326191,0.106197,-0.939320,0.047367,-0.140285,0.001621,22.365005,-41.391361,-5.644104,,,,,,,1
1522315468.924405,-0.337973,-0.111873,1.043340,-0.155228,-0.157150,0.265780,-0.329502,0.111640,-0.937531,0.026524,-0.103675,0.077241,21.237808,-41.611286,-5.643738,,,,,,,1
1522315468.954373,-0.339834,-0.119506,1.047625,-0.182734,0.025316,0.168605,-0.330953,0.119221,-0.936086,-0.008311,-0.104359,0.134648,21.234970,-41.761494,-5.868225,,,,,,,1
1522315468.984341,-0.334672,-0.120545,1.050756,0.165725,0.234470,0.069566,-0.326076,0.120253,-0.937664,-0.032017,-0.123259,0.060756,21.686600,-41.688374,-5.718262,,,,,,,1
1522315469.014309,-0.326406,-0.108465,1.053058,0.525518,0.184266,-0.174113,-0.318757,0.108252,-0.941634,-0.058044,-0.196829,-0.115372,21.163269,-41.835499,-5.192871,,,,,,,1
1522315469.044278,-0.329219,-0.090523,1.051591,0.445223,-0.181621,-0.245204,-0.321981,0.090400,-0.942420,0.041234,-0.204154,0.017066,21.542618,-41.761616,-4.593018,,,,,,,1
,,,,,,,,,,,,,,,,25.300123,51.440664,13.055430,5.720000,315.351562,1522315468.998200,1
1522315469.074246,-0.337416,-0.081146,1.046624,0.078635,-0.236148,-0.219846,-0.329961,0.081057,-0.940508,0.005025,-0.122531,0.113909,22.590179,-41.916477,-4.741882,,,,,,,1
1522315469.104214,-0.340731,-0.078523,1.042413,-0.029306,0.093900,-0.120105,-0.333147,0.078443,-0.939606,-0.097395,-0.010571,0.054017,22.441528,-41.915577,-4.516968,,,,,,,1
1522315469.134182,-0.329785,-0.078859,1.045523,-0.007962,0.248718,0.220728,-0.322834,0.078778,-0.943172,0.005634,0.036151,-0.230733,22.140778,-41.989231,-4.516785,,,,,,,1
1522315469.164151,-0.334733,-0.082228,1.052407,-0.040597,-0.327336,0.248989,-0.327407,0.082135,-0.941307,-0.015489,-0.007337,-0.028237,21.768799,-41.687550,-4.518188,,,,,,,1
1522315469.194119,-0.335910,-0.083509,1.056746,0.051937,0.140964,0.107942,-0.328480,0.083412,-0.940821,0.034840,-0.112388,-0.012060,21.687958,-42.362034,-4.365540,,,,,,,1
1522315469.224087,-0.332176,-0.080647,1.059312,0.173981,0.057679,-0.028278,-0.325041,0.080560,-0.942262,-0.024065,-0.104989,-0.070631,21.991394,-42.063328,-4.291626,,,,,,,1
1522315469.254055,-0.333371,-0.076452,1.058817,0.022760,-0.072762,-0.011213,-0.326274,0.076378,-0.942184,0.042018,-0.168663,-0.113419,21.775116,-41.686527,-3.468201,,,,,,,1
1522315469.284024,-0.340173,-0.081137,1.059502,-0.227722,-0.332148,0.093284,-0.332552,0.081048,-0.939596,-0.114301,-0.087991,0.052648,21.767899,-41.912327,-4.292297,,,,,,,1
1522315469.313992,-0.344363,-0.087014,1.057249,-0.234807,0.095826,-0.020094,-0.336320,0.086904,-0.937729,-0.052901,-0.150076,0.140030,21.162521,-42.135136,-4.816711,,,,,,,1
1522315469.343960,-0.335096,-0.089473,1.057365,-0.012001,0.361393,0.067165,-0.327544,0.089353,-0.940601,-0.009370,-0.189222,0.021351,22.288834,-41.915348,-4.967041,,,,,,,1
1522315469.373928,-0.331569,-0.084084,1.060415,0.256369,-0.075742,0.027325,-0.324377,0.083985,-0.942192,0.030234,-0.166581,-0.004204,21.839600,-42.062946,-4.591675,,,,,,,1
1522315469.403897,-0.338192,-0.077845,1.064327,0.123292,-0.134408,0.107196,-0.330777,0.077767,-0.940499,0.035321,-0.130348,-0.042625,21.536469,-42.286732,-4.740967,,,,,,,1
1522315469.433865,-0.337416,-0.074140,1.069098,0.157503,0.051814,0.055894,-0.330140,0.074072,-0.941021,-0.118468,-0.078162,-0.217960,21.018845,-42.133427,-3.766785,,,,,,,1
1522315469.463833,-0.340417,-0.074302,1.069647,-0.157753,-0.277715,0.032554,-0.332959,0.074234,-0.940015,0.045453,-0.015014,-0.009754,21.243378,-42.134510,-3.841675,,,,,,,1
1522315469.493802,-0.352086,-0.083765,1.064464,-0.472462,-0.332578,-0.063521,-0.343647,0.083667,-0.935364,0.040699,-0.014377,0.228684,21.985229,-42.139194,-5.191284,,,,,,,1
1522315469.523770,-0.353822,-0.095414,1.056709,-0.335158,0.199977,-0.137486,-0.344910,0.095269,-0.933788,-0.015655,-0.003640,0.124188,21.462814,-41.836933,-5.267761,,,,,,,1
1522315469.553738,-0.343466,-0.091367,1.051347,0.348208,0.331794,-0.237262,-0.335348,0.091240,-0.937666,-0.030664,-0.051338,-0.107958,21.538406,-41.912037,-5.042419,,,,,,,1
1522315469.583706,-0.341432,-0.076113,1.052904,0.487271,-0.066423,-0.019397,-0.333867,0.076040,-0.939548,0.020711,-0.106939,-0.175137,21.768951,-41.762409,-4.367920,,,,,,,1
1522315469.613675,-0.346275,-0.069371,1.056764,0.026656,-0.223639,0.135990,-0.338580,0.069315,-0.938381,-0.031354,-0.055979,-0.065739,22.438232,-42.515110,-4.064514,,,,,,,1
1522315469.643625,-0.353258,-0.077711,1.059738,-0.364987,-0.173830,0.142043,-0.344912,0.077633,-0.935419,-0.069425,-0.082409,0.042642,21.685852,-42.212620,-4.966125,,,,,,,1
1522315469.673593,-0.352514,-0.090949,1.060599,-0.392029,0.077500,0.222757,-0.343832,0.090824,-0.934629,0.065572,-0.085178,0.042050,21.686905,-41.838078,-5.417664,,,,,,,1
1522315469.703561,-0.351268,-0.098404,1.063458,-0.087209,0.048954,0.095144,-0.342424,0.098245,-0.934395,-0.013655,-0.157709,0.042595,21.462357,-41.837009,-5.342773,,,,,,,1
1522315469.733530,-0.348897,-0.096547,1.064715,0.121784,0.135047,0.017432,-0.340269,0.096397,-0.935374,0.016310,-0.126091,0.051615,21.759796,-42.138264,-5.266418,,,,,,,1
1522315469.763498,-0.344783,-0.089337,1.068496,0.309389,0.040185,-0.006845,-0.336645,0.089218,-0.937395,-0.078821,-0.066421,0.067446,22.214279,-41.914936,-4.892029,,,,,,,1
1522315469.793466,-0.341773,-0.081238,1.070399,0.133906,0.195745,-0.003939,-0.334052,0.081149,-0.939055,0.047828,-0.186679,0.052550,21.767303,-41.837543,-4.517578,,,,,,,1
1522315469.823434,-0.336921,-0.079244,1.073137,0.143747,0.123822,0.095242,-0.329546,0.079161,-0.940815,-0.049757,-0.143797,-0.022808,21.318817,-41.910145,-4.142517,,,,,,,1
1522315469.853403,-0.328018,-0.068302,1.078254,0.558836,0.418953,-0.013428,-0.321417,0.068249,-0.944475,-0.050867,-0.209103,-0.372541,22.366531,-42.139866,-4.141052,,,,,,,1
1522315469.883371,-0.327091,-0.057898,1.082301,0.081617,-0.435743,0.058453,-0.320752,0.057865,-0.945394,0.079068,-0.163075,-0.246745,21.771057,-42.136448,-3.391418,,,,,,,1
1522315469.913339,-0.347460,-0.067925,1.079880,-0.565154,-0.657058,0.026231,-0.339725,0.067873,-0.938072,0.048557,0.039702,0.215065,21.614319,-42.361469,-4.140564,,,,,,,1
1522315469.943307,-0.360573,-0.084823,1.071709,-0.602709,-0.157594,-0.119204,-0.351542,0.084721,-0.932330,-0.038488,0.108455,0.228382,21.912476,-41.913868,-5.192200,,,,,,,1
1522315469.973276,-0.350945,-0.096941,1.063243,-0.334451,0.633270,-0.102755,-0.342171,0.096789,-0.934639,0.053444,-0.040072,-0.147071,21.164169,-41.610737,-5.418823,,,,,,,1
1522315470.003244,-0.343800,-0.094307,1.064459,0.403793,-0.217906,0.093645,-0.335570,0.094167,-0.937297,0.031187,-0.059713,-0.064900,21.767746,-41.612858,-4.818481,,,,,,,1
1522315470.033212,-0.356298,-0.078215,1.071748,0.571321,-0.383230,-0.029661,-0.347741,0.078136,-0.934329,-0.031761,-0.193462,0.072742,21.691711,-41.762424,-4.742981,,,,,,,1
1522315470.063180,-0.360330,-0.069389,1.076743,0.177904,-0.101606,0.106145,-0.351734,0.069333,-0.933529,0.029835,-0.108914,0.128109,21.092026,-42.134068,-4.066711,,,,,,,1
,,,,,,,,,,,,,,,,25.300220,51.440587,13.087859,5.820000,318.515625,1522315469.998186,1
1522315470.093149,-0.363702,-0.069970,1.078443,-0.158712,-0.006804,0.040804,-0.354866,0.069913,-0.932299,-0.081688,-0.117337,0.036486,20.865829,-41.983494,-4.517456,,,,,,,1
1522315470.123117,-0.359166,-0.076029,1.074765,-0.289517,0.230116,-0.058625,-0.350479,0.075956,-0.933486,-0.025803,-0.160184,-0.058687,21.538864,-42.136600,-4.591492,,,,,,,1
1522315470.153085,-0.354617,-0.079236,1.070909,-0.066463,0.100587,-0.153161,-0.346142,0.079153,-0.934837,-0.148700,-0.092047,-0.207573,21.392471,-41.910709,-4.367493,,,,,,,1
1522315470.183054,-0.348368,-0.078658,1.066125,-0.058498,0.251187,-0.116007,-0.340309,0.078577,-0.937025,-0.049736,-0.165598,-0.295595,21.763702,-42.062748,-4.741699,,,,,,,1
1522315470.213022,-0.353972,-0.085452,1.066216,-0.343659,-0.488343,0.284088,-0.345362,0.085348,-0.934581,0.073877,-0.127782,0.061579,21.235260,-42.135822,-5.191650,,,,,,,1
1522315470.243021,-0.367703,-0.103097,1.072810,-0.525708,-0.390400,0.473520,-0.357564,0.102915,-0.928201,0.022191,0.024771,0.327340,21.159363,-41.686390,-6.093506,,,,,,,1
1522315470.272989,-0.365047,-0.118634,1.081767,-0.179903,0.490935,0.439862,-0.354484,0.118356,-0.927541,-0.068810,-0.020807,0.229742,20.632278,-41.983860,-5.942566,,,,,,,1
1522315470.302957,-0.343365,-0.117248,1.092106,0.386539,0.596307,0.215346,-0.334346,0.116979,-0.935162,0.070643,-0.197744,0.069821,21.233017,-42.136189,-5.566650,,,,,,,1
1522315470.332925,-0.335439,-0.097671,1.100343,0.891579,-0.033747,-0.127799,-0.327615,0.097516,-0.939765,0.076272,-0.212353,-0.051415,20.035629,-42.504749,-4.515808,,,,,,,1
1522315470.362894,-0.336812,-0.070198,1.102221,0.763799,0.058234,-0.318718,-0.329666,0.070141,-0.941488,-0.026397,-0.309383,-0.192438,21.091461,-42.733158,-3.164368,,,,,,,1
1522315470.392862,-0.336083,-0.055476,1.096364,0.109709,-0.070953,-0.302029,-0.329285,0.055448,-0.942601,-0.019287,-0.148206,-0.122233,22.217758,-42.513371,-3.314636,,,,,,,1
1522315470.422830,-0.341658,-0.059330,1.087283,-0.423964,-0.193368,-0.234106,-0.334460,0.059295,-0.940542,-0.086972,-0.053772,-0.113580,21.845154,-42.136921,-3.541382,,,,,,,1
1522315470.452798,-0.344040,-0.077976,1.080443,-0.776827,-0.042504,0.200202,-0.336268,0.077897,-0.938539,0.095667,0.055404,-0.094450,22.064301,-42.363499,-4.140320,,,,,,,1
1522315470.482767,-0.348198,-0.098894,1.079093,-0.493935,-0.151019,0.116355,-0.339537,0.098733,-0.935396,-0.019090,0.126273,0.059389,21.304718,-42.511433,-5.490173,,,,,,,1
1522315470.512735,-0.348205,-0.102969,1.081783,0.152547,0.033992,0.173124,-0.339404,0.102787,-0.935008,0.116244,0.060376,-0.044957,20.855194,-42.509342,-5.415405,,,,,,,1
1522315470.542703,-0.352959,-0.094430,1.090220,0.480981,-0.342678,0.130056,-0.344136,0.094290,-0.934173,0.077718,-0.023215,0.024292,21.230179,-42.735645,-5.039307,,,,,,,1
1522315470.572671,-0.361728,-0.082133,1.097629,0.532347,-0.214479,0.013824,-0.352698,0.082041,-0.932134,0.006262,-0.088251,0.098958,20.708664,-42.882481,-4.213928,,,,,,,1
1522315470.602640,-0.361412,-0.069184,1.103384,0.458619,-0.008044,-0.001356,-0.352749,0.069129,-0.933161,-0.040943,-0.135383,0.126016,20.412582,-42.805622,-3.689392,,,,,,,1
1522315470.632608,-0.362385,-0.058834,1.106681,0.275975,0.025037,0.042167,-0.353892,0.058800,-0.933436,-0.030569,-0.221519,0.179408,20.114700,-42.729053,-3.464844,,,,,,,1
1522315470.662579,-0.356210,-0.050879,1.110523,0.397617,0.363389,-0.062513,-0.348273,0.050857,-0.936012,-0.158166,-0.184554,-0.092186,21.691132,-42.810764,-3.088745,,,,,,,1
1522315470.692548,-0.345276,-0.033197,1.111608,0.575912,0.276338,-0.136883,-0.338270,0.033191,-0.940463,-0.063311,-0.402469,-0.364941,21.024887,-42.881199,-1.513794,,,,,,,1
1522315470.722516,-0.348814,-0.027696,1.114451,-0.137807,-0.509885,0.100991,-0.341652,0.027692,-0.939418,-0.072609,-0.311643,-0.339314,21.697021,-43.259068,-1.362000,,,,,,,1
1522315470.752484,-0.368010,-0.046142,1.110632,-0.933415,-0.496547,0.148332,-0.359376,0.046126,-0.932052,0.038576,-0.118712,0.146346,20.637146,-43.255955,-3.012451,,,,,,,1
1522315470.782452,-0.374722,-0.081016,1.104138,-1.200879,-0.083969,0.201001,-0.364813,0.080927,-0.927557,-0.031656,0.105154,0.241690,20.632614,-42.807423,-4.514282,,,,,,,1
1522315470.812421,-0.370615,-0.109780,1.095073,-0.732295,0.489327,0.107010,-0.360009,0.109560,-0.926493,0.053841,0.070952,0.125224,21.522507,-42.738239,-6.314087,,,,,,,1
1522315470.842389,-0.352711,-0.111932,1.098904,0.504810,0.461536,0.146317,-0.343281,0.111698,-0.932567,0.141758,-0.013172,-0.132679,21.075394,-43.035267,-5.338135,,,,,,,1
1522315470.872357,-0.349261,-0.087385,1.110813,0.984548,-0.096565,0.007660,-0.340898,0.087274,-0.936040,0.072496,-0.165247,-0.076746,20.779327,-43.407658,-4.061768,,,,,,,1
1522315470.902325,-0.352097,-0.067212,1.119475,0.512951,-0.232635,0.033011,-0.344088,0.067161,-0.936532,0.090624,-0.071220,0.094445,21.603546,-43.486347,-4.061035,,,,,,,1
1522315470.932294,-0.360086,-0.061518,1.120282,-0.024389,-0.127841,-0.022897,-0.351688,0.061479,-0.934096,0.011356,-0.101304,0.151656,21.682007,-43.635883,-3.235474,,,,,,,1
1522315470.962262,-0.359484,-0.065592,1.118281,-0.169685,0.069213,-0.039184,-0.351035,0.065545,-0.934065,-0.044946,-0.108728,-0.017732,21.233963,-43.259159,-3.537170,,,,,,,1
1522315470.992230,-0.352850,-0.063913,1.114690,0.205244,0.359731,-0.232062,-0.344868,0.063870,-0.936476,-0.125972,-0.161831,-0.226809,21.907440,-43.187565,-3.912170,,,,,,,1
1522315471.022198,-0.347636,-0.054466,1.112023,0.162059,-0.031269,-0.069746,-0.340171,0.054439,-0.938786,-0.010903,-0.287120,-0.210765,22.139313,-42.813084,-3.388489,,,,,,,1
1522315471.052167,-0.357514,-0.058941,1.112068,-0.281784,-0.405858,0.163665,-0.349339,0.058907,-0.935143,0.066746,-0.162605,0.069100,21.909836,-43.262058,-3.386841,,,,,,,1
1522315471.082135,-0.366753,-0.067886,1.116251,-0.149065,-0.232519,0.249892,-0.357760,0.067834,-0.931346,0.044330,-0.032083,0.201305,21.981674,-43.038288,-4.287720,,,,,,,1
,,,,,,,,,,,,,,,,25.300297,51.440471,13.251521,9.060000,313.593750,1522315470.998173,1
1522315471.112103,-0.362116,-0.070032,1.123435,0.139829,0.294352,0.174982,-0.353385,0.069975,-0.932857,-0.035134,-0.045317,-0.004414,21.003738,-43.558506,-3.911133,,,,,,,1
1522315471.142071,-0.352586,-0.063072,1.127499,0.341098,0.263937,0.045174,-0.344640,0.063030,-0.936617,0.102055,-0.092800,-0.119856,21.455368,-43.485386,-3.761169,,,,,,,1
1522315471.172040,-0.352770,-0.052541,1.129740,0.296421,-0.144845,-0.135591,-0.345022,0.052516,-0.937124,0.030889,-0.108226,0.040091,22.060287,-43.262653,-3.311707,,,,,,,1
1522315471.202008,-0.350750,-0.046709,1.127699,0.087230,0.153950,-0.093410,-0.343228,0.046692,-0.938091,0.060528,-0.064377,-0.073933,21.762848,-43.186024,-3.012207,,,,,,,1
1522315471.231976,-0.348893,-0.044892,1.126295,-0.017305,-0.000199,-0.043268,-0.341513,0.044877,-0.938805,-0.047571,-0.073411,-0.147102,21.464355,-43.034687,-3.012939,,,,,,,1
1522315471.261944,-0.351727,-0.049085,1.126805,-0.200543,-0.147800,0.160253,-0.344104,0.049065,-0.937648,0.064624,-0.074410,-0.093983,22.286774,-43.113667,-3.312195,,,,,,,1
1522315471.291913,-0.359908,-0.055648,1.130341,-0.197150,-0.270471,0.224320,-0.351643,0.055619,-0.934480,0.023777,-0.104783,0.056215,21.382614,-43.484684,-3.386169,,,,,,,1
1522315471.321881,-0.361304,-0.062868,1.133405,-0.186629,0.035295,0.107872,-0.352796,0.062827,-0.933589,0.060529,-0.137381,0.071223,20.856140,-43.407703,-3.761780,,,,,,,1
1522315471.351849,-0.359052,-0.063500,1.134315,0.106403,0.065848,0.040933,-0.350678,0.063458,-0.934343,0.125428,-0.150952,0.047335,21.531097,-43.186100,-4.137329,,,,,,,1
1522315471.381818,-0.354048,-0.052249,1.136217,0.471946,0.160894,-0.157075,-0.346225,0.052225,-0.936697,-0.037335,-0.108393,-0.095530,20.858536,-43.257557,-3.612427,,,,,,,1
1522315471.411786,-0.348743,-0.036626,1.137983,0.401702,0.105012,-0.043057,-0.341488,0.036618,-0.939173,0.033932,-0.091885,-0.185354,21.159897,-43.707935,-2.635437,,,,,,,1
1522315471.441754,-0.351248,-0.029546,1.141374,0.117402,-0.223906,0.139267,-0.343920,0.029542,-0.938534,0.054583,-0.089356,0.002285,21.539368,-43.259632,-2.637024,,,,,,,1
1522315471.471722,-0.356994,-0.030159,1.144139,-0.112592,-0.141158,0.089992,-0.349300,0.030155,-0.936525,0.024105,-0.116779,0.075365,20.712448,-43.405994,-2.711853,,,,,,,1
1522315471.501691,-0.353925,-0.034451,1.146156,-0.072742,0.193308,0.109942,-0.346376,0.034444,-0.937463,0.011553,-0.131169,-0.107077,20.336716,-43.479298,-2.711731,,,,,,,1
1522315471.531659,-0.352039,-0.030770,1.148492,0.203395,-0.041308,-0.018550,-0.344649,0.030765,-0.938227,0.068282,-0.149600,-0.028936,20.711716,-43.705616,-2.335632,,,,,,,1
1522315471.561627,-0.354876,-0.025235,1.149104,0.063390,-0.115062,-0.056947,-0.347363,0.025233,-0.937391,0.074536,-0.135142,0.073270,20.412460,-43.404652,-2.712036,,,,,,,1
1522315471.591595,-0.352332,-0.023414,1.147328,-0.013178,0.168964,-0.074336,-0.344993,0.023412,-0.938313,0.030235,-0.054830,-0.042674,21.238190,-43.557987,-2.335999,,,,,,,1
1522315471.621564,-0.347144,-0.017730,1.146198,0.179979,0.104984,-0.111420,-0.340160,0.017730,-0.940200,-0.001729,-0.071059,-0.012955,21.237732,-43.333424,-2.786865,,,,,,,1
1522315471.651519,-0.342960,-0.009874,1.148269,0.231119,0.057873,0.073001,-0.336259,0.009874,-0.941718,0.029726,-0.034990,-0.067880,20.863800,-43.631077,-2.110901,,,,,,,1
1522315471.681487,-0.344273,-0.004603,1.152337,0.142121,-0.012128,0.085793,-0.337509,0.004603,-0.941311,-0.030350,-0.085978,-0.050663,20.941360,-43.556126,-1.811096,,,,,,,1
1522315471.711455,-0.343911,-0.004092,1.155481,-0.021603,-0.006956,0.162391,-0.337169,0.004092,-0.941435,0.064067,-0.121356,-0.051515,21.764374,-43.709904,-1.885071,,,,,,,1
1522315471.741424,-0.345074,-0.007612,1.159463,-0.119400,-0.121624,0.184805,-0.338256,0.007612,-0.941023,0.003021,-0.166242,-0.042345,20.490784,-43.703953,-1.660767,,,,,,,1
1522315471.771392,-0.349229,-0.012999,1.163807,-0.108675,-0.122633,0.174155,-0.342145,0.012999,-0.939557,0.062955,-0.168883,0.035367,20.339737,-43.628559,-1.961121,,,,,,,1
1522315471.801360,-0.351748,-0.013567,1.166204,-0.006184,-0.043304,0.038827,-0.344508,0.013566,-0.938685,0.035044,-0.155153,0.084544,19.664322,-43.850224,-1.660583,,,,,,,1
1522315471.831359,-0.349195,-0.011623,1.166813,-0.009737,0.050611,-0.017743,-0.342119,0.011623,-0.939585,0.053407,-0.143810,-0.009497,19.662521,-43.850513,-1.960571,,,,,,,1
1522315471.861327,-0.348374,-0.010408,1.164756,-0.128398,0.009521,-0.025252,-0.341352,0.010408,-0.939878,0.009870,-0.119569,-0.067523,20.637604,-43.480503,-2.561584,,,,,,,1
1522315471.891295,-0.346244,-0.013365,1.160915,-0.269613,0.083768,-0.109597,-0.339337,0.013365,-0.940570,-0.024280,-0.131620,-0.068891,20.184341,-43.853397,-2.485352,,,,,,,1
1522315471.921264,-0.346206,-0.023132,1.157742,-0.480146,-0.109989,0.169604,-0.339240,0.023130,-0.940415,0.071784,0.019885,0.105973,19.431519,-43.775608,-3.085999,,,,,,,1
1522315471.951232,-0.352075,-0.035189,1.159298,-0.321736,-0.214788,0.208185,-0.344633,0.035181,-0.938078,-0.014559,-0.037043,0.147352,20.632492,-43.181828,-3.912781,,,,,,,1
1522315471.981200,-0.351961,-0.042589,1.164385,-0.100658,0.100943,0.262370,-0.344426,0.042576,-0.937847,0.065587,-0.155796,0.046337,20.180099,-43.329945,-4.062378,,,,,,,1
1522315472.011169,-0.346139,-0.041315,1.170909,0.261299,0.177528,0.121919,-0.338978,0.041303,-0.939887,0.056340,-0.191358,-0.028421,19.210251,-43.399616,-3.087646,,,,,,,1
1522315472.041137,-0.343382,-0.032658,1.174255,0.278873,0.135890,-0.008020,-0.336494,0.032652,-0.941119,0.141472,-0.194609,-0.009397,19.285858,-43.474720,-2.862305,,,,,,,1
,,,,,,,,,,,,,,,,25.300365,51.440456,13.174504,9.060000,319.570312,1522315471.998160,1
1522315472.071105,-0.337901,-0.025267,1.173230,0.114635,0.172806,-0.214885,-0.331402,0.025264,-0.943151,-0.055470,-0.125789,-0.155100,19.663559,-43.700596,-2.036194,,,,,,,1
1522315472.101073,-0.331540,-0.025497,1.162595,-0.315132,0.165038,-0.318553,-0.325393,0.025494,-0.945235,0.024414,-0.064618,-0.166215,20.111588,-43.628071,-2.486267,,,,,,,1
1522315472.131042,-0.330687,-0.033850,1.149953,-0.453864,-0.015500,-0.283317,-0.324506,0.033843,-0.945278,0.019498,0.012315,-0.077229,21.158524,-43.258900,-3.612244,,,,,,,1
1522315472.161010,-0.332465,-0.043927,1.143891,-0.345762,-0.018267,0.072653,-0.326059,0.043913,-0.944329,0.060892,0.056627,0.022957,20.408096,-43.255604,-3.687561,,,,,,,1
1522315472.190978,-0.330638,-0.052250,1.144574,-0.202869,-0.031519,0.094080,-0.324203,0.052226,-0.944545,-0.017975,0.093144,-0.085271,20.857620,-43.033070,-4.138245,,,,,,,1
1522315472.220946,-0.335001,-0.061858,1.148897,-0.282985,-0.192663,0.372287,-0.328141,0.061819,-0.942604,0.127762,0.069056,0.027672,21.078552,-43.034748,-4.813110,,,,,,,1
1522315472.250915,-0.342114,-0.070576,1.151243,-0.172794,-0.290485,0.040017,-0.334645,0.070518,-0.939702,0.063771,-0.032996,0.114919,20.103149,-43.030430,-4.888672,,,,,,,1
1522315472.280883,-0.340633,-0.073879,1.148136,-0.067225,0.299914,-0.242859,-0.333172,0.073812,-0.939972,-0.039722,-0.097906,-0.064544,19.953445,-42.954823,-4.964050,,,,,,,1
1522315472.310851,-0.332109,-0.068575,1.139555,0.191796,0.121281,-0.317080,-0.325271,0.068521,-0.943135,-0.016648,-0.051126,-0.074367,19.960785,-42.354633,-4.741455,,,,,,,1
1522315472.340819,-0.331380,-0.059229,1.130168,0.105985,0.024820,-0.322364,-0.324778,0.059195,-0.943936,0.077173,-0.152975,0.021557,21.237228,-42.435001,-4.365479,,,,,,,1
1522315472.370788,-0.327992,-0.057944,1.124182,-0.140701,0.134155,-0.218238,-0.321602,0.057912,-0.945102,-0.089820,0.014003,-0.049359,21.012848,-42.508762,-4.140259,,,,,,,1
1522315472.400756,-0.326655,-0.062647,1.121001,-0.248031,0.077307,0.045995,-0.320247,0.062606,-0.945263,-0.021062,0.070756,0.017712,21.908737,-42.288853,-5.190674,,,,,,,1
1522315472.430724,-0.325899,-0.068913,1.119903,-0.227787,-0.081607,0.121825,-0.319401,0.068859,-0.945115,0.057300,0.029713,0.095627,21.459213,-42.286762,-5.115967,,,,,,,1
1522315472.460692,-0.324611,-0.073057,1.122340,0.071746,0.251510,0.092943,-0.318090,0.072992,-0.945247,0.031362,0.035010,0.065455,21.904999,-42.663837,-5.189209,,,,,,,1
1522315472.490661,-0.311839,-0.061076,1.124525,0.662151,0.498987,-0.099732,-0.306237,0.061038,-0.949996,0.044717,-0.001895,-0.133149,22.654541,-42.891911,-4.887939,,,,,,,1
1522315472.520629,-0.299924,-0.033635,1.130602,1.077171,0.223629,-0.074641,-0.295281,0.033628,-0.954818,0.094551,-0.000914,-0.275788,22.067032,-43.036945,-2.562622,,,,,,,1
1522315472.550597,-0.299953,-0.006292,1.140013,0.755310,-0.008954,0.022311,-0.295470,0.006292,-0.955331,0.077193,-0.003621,-0.118796,22.291443,-43.412434,-2.036072,,,,,,,1
1522315472.580566,-0.305122,0.003526,1.144969,0.086654,-0.437262,0.118147,-0.300408,-0.003526,-0.953804,0.081810,0.125764,0.027169,21.991760,-43.560764,-1.735596,,,,,,,1
1522315472.610534,-0.324034,-0.001654,1.147035,-0.246618,-0.664110,0.157554,-0.318393,0.001654,-0.947957,-0.072553,0.109460,0.092061,21.163498,-43.707355,-2.035461,,,,,,,1
1522315472.640502,-0.332187,-0.015816,1.145767,-0.607759,-0.006548,0.161948,-0.326070,0.015815,-0.945213,-0.028056,-0.113197,-0.155022,21.461502,-42.960270,-3.613281,,,,,,,1
1522315472.670485,-0.329081,-0.039740,1.147659,-0.722430,0.161122,0.387577,-0.322918,0.039729,-0.945593,0.110791,-0.194957,-0.006205,21.680344,-43.261768,-4.136963,,,,,,,1
1522315472.700454,-0.323729,-0.053898,1.151407,-0.153812,0.074987,0.195225,-0.317643,0.053872,-0.946679,0.040314,-0.220406,0.089547,20.557175,-43.031803,-4.213440,,,,,,,1
1522315472.730422,-0.326419,-0.051905,1.155774,0.231561,-0.158430,0.006091,-0.320222,0.051882,-0.945921,0.048051,-0.202898,0.209013,20.780380,-43.257725,-4.137390,,,,,,,1
1522315472.760390,-0.326547,-0.045095,1.157081,0.183674,0.035540,-0.060197,-0.320448,0.045080,-0.946193,0.035841,-0.050695,0.093257,21.083221,-43.108860,-3.912842,,,,,,,1
1522315472.790358,-0.325728,-0.038675,1.152038,0.135123,0.219523,-0.214926,-0.319760,0.038665,-0.946709,-0.034702,-0.043045,-0.058479,21.311813,-43.109287,-3.312744,,,,,,,1
1522315472.820327,-0.313149,-0.032146,1.142301,0.048551,0.409406,-0.442134,-0.307897,0.032140,-0.950877,-0.098643,-0.104497,-0.268591,21.688004,-43.260532,-2.862000,,,,,,,1
1522315472.850295,-0.303745,-0.034647,1.136309,-0.230942,0.178007,-0.074507,-0.298917,0.034640,-0.953650,0.025220,0.006085,-0.227410,21.610748,-43.260563,-3.237000,,,,,,,1
1522315472.880263,-0.310073,-0.041223,1.135026,-0.204201,-0.261434,0.150782,-0.304869,0.041212,-0.951502,0.058790,0.024691,0.146922,21.604462,-43.486210,-3.911072,,,,,,,1
1522315472.910230,-0.311612,-0.047160,1.145693,0.014393,-0.134935,0.519497,-0.306253,0.047142,-0.950782,0.128106,0.051216,0.036491,21.602493,-43.411655,-4.361389,,,,,,,1
1522315472.940200,-0.318077,-0.051363,1.162434,0.057776,-0.207345,0.529176,-0.312328,0.051340,-0.948586,0.033306,0.043676,0.090249,20.474274,-44.006123,-3.909607,,,,,,,1
1522315472.970167,-0.315053,-0.049413,1.171543,0.254694,0.348750,0.103630,-0.309489,0.049393,-0.949619,0.075816,-0.085800,-0.056225,20.025787,-44.078724,-3.534546,,,,,,,1
1522315473.000135,-0.307779,-0.035321,1.169864,0.531205,0.073795,-0.334884,-0.302754,0.035313,-0.952414,0.089436,-0.169423,-0.142572,20.402435,-44.229893,-3.008728,,,,,,,1
1522315473.030103,-0.306261,-0.021066,1.162382,0.236745,0.032573,-0.412848,-0.301429,0.021064,-0.953256,0.014045,-0.097556,-0.249625,21.384735,-43.634098,-2.785645,,,,,,,1
1522315473.060072,-0.314943,-0.018700,1.153149,-0.244779,-0.443678,-0.211351,-0.309708,0.018699,-0.950648,0.057420,-0.038475,-0.080618,21.235641,-43.633274,-2.635681,,,,,,,1
,,,,,,,,,,,,,,,,25.300450,51.440325,13.315248,9.970000,314.648438,1522315472.998147,1
1522315473.090040,-0.330434,-0.031255,1.146829,-0.580225,-0.522705,-0.036771,-0.324295,0.031250,-0.945440,0.000198,-0.002960,0.128805,21.308060,-43.259647,-3.687134,,,,,,,1
1522315473.120008,-0.339001,-0.049401,1.143624,-0.559335,-0.131137,0.184474,-0.332139,0.049381,-0.941937,0.009477,0.123303,0.161023,20.775879,-43.483082,-4.511475,,,,,,,1
1522315473.149976,-0.338727,-0.059870,1.138989,-0.222541,0.120760,-0.096818,-0.331691,0.059835,-0.941489,-0.050404,0.025309,0.132178,21.296204,-43.411320,-5.411560,,,,,,,1
1522315473.179945,-0.330694,-0.059086,1.135967,0.135674,0.366010,-0.193761,-0.324133,0.059051,-0.944167,0.027472,-0.104934,0.061995,22.501694,-43.041447,-5.112427,,,,,,,1
1522315473.209913,-0.321300,-0.046223,1.132928,0.573182,0.200892,-0.290230,-0.315463,0.046206,-0.947812,0.009326,-0.198413,-0.144076,22.203217,-43.339344,-4.361389,,,,,,,1
1522315473.239882,-0.322145,-0.024561,1.130269,0.543745,-0.022026,-0.161098,-0.316507,0.024559,-0.948272,-0.001578,-0.157234,-0.181870,22.433777,-43.414341,-3.310913,,,,,,,1
1522315473.269850,-0.323612,-0.018083,1.131534,0.013877,-0.250020,0.110454,-0.317941,0.018082,-0.947938,0.010568,-0.002747,-0.127105,23.261276,-42.893513,-3.762634,,,,,,,1
1522315473.299819,-0.335007,-0.026026,1.137556,-0.268645,-0.351926,0.350076,-0.328665,0.026023,-0.944088,-0.014261,0.125741,0.010082,21.980026,-43.338047,-4.061462,,,,,,,1
1522315473.329787,-0.342386,-0.038337,1.144916,-0.331804,-0.131939,0.367924,-0.335489,0.038327,-0.941264,0.054606,0.086764,0.166667,21.599197,-43.561924,-4.660828,,,,,,,1
1522315473.359786,-0.340165,-0.046349,1.149315,-0.040871,0.153963,0.104668,-0.333284,0.046332,-0.941687,0.088777,-0.064185,0.030021,21.301453,-43.335590,-4.661865,,,,,,,1
1522315473.389754,-0.335761,-0.041103,1.152456,0.352692,0.130638,-0.042061,-0.329209,0.041091,-0.943363,0.030274,-0.097137,-0.067258,21.224380,-43.859715,-4.134766,,,,,,,1
1522315473.419722,-0.334415,-0.024316,1.148553,0.507433,-0.020522,-0.362513,-0.328119,0.024313,-0.944323,0.047464,-0.175208,-0.187040,21.451172,-43.860447,-3.834656,,,,,,,1
1522315473.449691,-0.337714,-0.014808,1.145450,0.081929,-0.184316,-0.190048,-0.331295,0.014808,-0.943411,-0.034840,-0.099738,-0.076410,22.501434,-43.790241,-3.909424,,,,,,,1
1522315473.479659,-0.346251,-0.016987,1.142542,-0.215823,-0.363694,0.038996,-0.339324,0.016986,-0.940516,0.021148,0.042996,0.116374,21.749054,-43.937000,-4.059204,,,,,,,1
1522315473.509626,-0.359558,-0.027656,1.142158,-0.414194,-0.384387,0.182707,-0.351726,0.027652,-0.935695,0.002666,0.019360,0.246150,21.223175,-43.710163,-4.585388,,,,,,,1
1522315473.539594,-0.357639,-0.041085,1.143811,-0.330986,0.321950,0.193788,-0.349768,0.041073,-0.935936,-0.031183,-0.093564,0.027641,21.974625,-43.338917,-4.961487,,,,,,,1
1522315473.569563,-0.344172,-0.045246,1.149008,0.170071,0.394015,0.195153,-0.337072,0.045230,-0.940392,0.004690,-0.133838,-0.279503,21.230362,-43.259739,-4.137146,,,,,,,1
1522315473.599531,-0.343802,-0.036893,1.156850,0.369199,-0.241647,0.156516,-0.336840,0.036885,-0.940839,0.055544,-0.175587,-0.193240,21.378555,-43.485340,-4.061157,,,,,,,1
1522315473.629499,-0.358088,-0.034943,1.156853,-0.215530,-0.445693,-0.087717,-0.350271,0.034936,-0.935997,0.064138,-0.201745,0.185875,21.523911,-43.636524,-4.585510,,,,,,,1
1522315473.659455,-0.363451,-0.046478,1.152886,-0.342107,-0.015562,-0.011522,-0.355118,0.046462,-0.933666,0.044342,0.016344,0.223217,20.770477,-43.708576,-5.035645,,,,,,,1
