timestamp(unix),attitude_roll(radians),attitude_pitch(radians),attitude_yaw(radians),rotation_rate_x(radians/s),rotation_rate_y(radians/s),rotation_rate_z(radians/s),gravity_x(G),gravity_y(G),gravity_z(G),user_acc_x(G),user_acc_y(G),user_acc_z(G),magnetic_field_x(microteslas),magnetic_field_y(microteslas),magnetic_field_z(microteslas),latitude(degree),longitude(degree),altitude(meter),speed(m/s),course(degree),timestamp(unix),User Mark
1523694841.526807,-0.707797,-0.065811,2.464310,0.197187,0.218942,0.241392,-0.648753,0.065763,-0.758149,-0.112417,-0.178846,0.082902,-10.441986,-23.802471,21.470764,,,,,,,
,,,,,,,,,,,,,,,,25.300481,51.430937,20.797638,0.880000,285.468750,1523694840.998166,
1523694841.556776,-0.700159,-0.068220,2.472541,0.049790,0.240314,0.274305,-0.642839,0.068167,-0.762959,-0.121336,-0.184118,0.005864,-9.688889,-23.356075,21.244385,,,,,,,
1523694841.586744,-0.695801,-0.072660,2.478218,-0.005077,0.070930,0.205166,-0.639308,0.072596,-0.765513,-0.115086,-0.175822,-0.005025,-8.640274,-23.361019,21.019897,,,,,,,
1523694841.616712,-0.698671,-0.073364,2.482329,0.109635,-0.193122,0.089366,-0.641469,0.073299,-0.763636,-0.105540,-0.141597,0.130747,-6.839050,-22.470409,19.742310,,,,,,,
1523694841.646680,-0.703457,-0.070574,2.487134,0.189123,-0.102902,0.075484,-0.645246,0.070516,-0.760711,-0.088091,-0.097722,0.200972,-6.085068,-21.799252,19.289978,,,,,,,
1523694841.676649,-0.703451,-0.067497,2.493224,0.193920,0.068867,0.125403,-0.645379,0.067446,-0.760876,-0.104179,-0.072130,0.201199,-4.655350,-20.606884,18.085876,,,,,,,
1523694841.706617,-0.698503,-0.065979,2.500510,0.190017,0.208767,0.177478,-0.641671,0.065931,-0.764138,-0.137794,-0.053587,0.085259,-4.733200,-20.532146,17.485596,,,,,,,
1523694841.736585,-0.692687,-0.064582,2.508683,0.214287,0.162949,0.189248,-0.637274,0.064537,-0.767927,-0.162332,-0.075295,-0.007692,-5.183075,-19.481838,15.756104,,,,,,,
1523694841.766554,-0.690962,-0.063509,2.516802,0.173817,-0.050545,0.190501,-0.635993,0.063466,-0.769078,-0.192529,-0.105626,-0.035137,-5.481293,-18.581707,14.552429,,,,,,,
1523694841.796522,-0.695432,-0.064027,2.523547,0.099436,-0.212920,0.187415,-0.639403,0.063983,-0.766202,-0.174547,-0.132358,0.062024,-7.212997,-18.350414,13.050598,,,,,,,
1523694841.826490,-0.701483,-0.066178,2.529952,0.081242,-0.180212,0.225734,-0.643937,0.066130,-0.762212,-0.125762,-0.137709,0.131551,-8.489899,-18.045498,12.223755,,,,,,,
1523694841.856467,-0.705154,-0.067813,2.537980,0.179676,-0.110441,0.243843,-0.646660,0.067761,-0.759760,-0.076836,-0.138699,0.146814,-9.534637,-17.291164,11.845215,,,,,,,
1523694841.886436,-0.705400,-0.067007,2.547893,0.254071,0.031876,0.227772,-0.646882,0.066956,-0.759642,-0.063750,-0.151658,0.087111,-11.408356,-17.207668,11.918945,,,,,,,
1523694841.916404,-0.702436,-0.065737,2.557096,0.182938,0.090674,0.202089,-0.644682,0.065689,-0.761620,-0.078554,-0.189026,-0.005576,-13.732803,-17.421749,12.368591,,,,,,,
1523694841.946372,-0.703311,-0.067044,2.562788,-0.002494,-0.105228,0.171246,-0.645292,0.066994,-0.760990,-0.106096,-0.219719,0.056476,-14.177368,-17.194225,12.892517,,,,,,,
1523694841.976340,-0.705614,-0.071895,2.565205,-0.144138,-0.007250,0.189162,-0.646825,0.071833,-0.759245,-0.124217,-0.254603,0.106123,-15.453827,-17.563107,13.268311,,,,,,,
1523694842.006309,-0.704818,-0.079042,2.566987,-0.153705,0.065742,0.241282,-0.645871,0.078960,-0.759349,-0.156863,-0.252590,0.105770,-17.622711,-17.851849,14.768433,,,,,,,
1523694842.036277,-0.702905,-0.085808,2.571022,-0.050437,0.030217,0.269104,-0.644057,0.085703,-0.760159,-0.161195,-0.241572,0.086315,-17.765945,-17.850079,15.893311,,,,,,,
1523694842.066245,-0.702837,-0.088281,2.578276,0.184585,0.009761,0.224543,-0.643866,0.088167,-0.760038,-0.133020,-0.171434,0.117643,-19.184250,-18.441601,17.994934,,,,,,,
,,,,,,,,,,,,,,,,25.300491,51.430909,20.719671,1.870000,275.273438,1523694841.998151,
1523694842.096213,-0.700064,-0.085028,2.588398,0.342087,0.085082,0.185166,-0.641937,0.084925,-0.762037,-0.111023,-0.136042,0.088224,-19.851105,-18.437252,19.344666,,,,,,,
1523694842.126182,-0.697267,-0.080102,2.598614,0.288741,0.072591,0.167025,-0.640065,0.080016,-0.764140,-0.089809,-0.128387,0.056285,-18.491669,-18.891033,21.672180,,,,,,,
1523694842.156150,-0.696075,-0.078624,2.606330,0.140053,0.029285,0.182938,-0.639229,0.078543,-0.764992,-0.103569,-0.123465,0.055398,-18.637436,-19.189175,22.873230,,,,,,,
1523694842.186118,-0.694371,-0.079411,2.613126,0.097350,0.061058,0.211652,-0.637884,0.079327,-0.766033,-0.163599,-0.162808,0.008175,-17.349594,-18.893322,24.522705,,,,,,,
1523694842.216086,-0.693513,-0.081475,2.619453,0.072508,-0.003679,0.209563,-0.637121,0.081385,-0.766452,-0.171504,-0.202616,0.035480,-15.834366,-18.223721,25.945801,,,,,,,
1523694842.246055,-0.694269,-0.083159,2.626192,0.106310,-0.077130,0.216057,-0.637611,0.083063,-0.765864,-0.136238,-0.229975,0.057292,-13.644318,-17.257687,26.843018,,,,,,,
1523694842.276023,-0.697210,-0.085097,2.633886,0.127246,-0.123122,0.253401,-0.639756,0.084994,-0.763861,-0.076705,-0.181460,0.120962,-11.833145,-16.365459,27.215393,,,,,,,
1523694842.305991,-0.697649,-0.086402,2.642917,0.166273,0.025430,0.269267,-0.640019,0.086295,-0.763494,-0.055858,-0.185324,0.094717,-9.873978,-15.174726,26.761597,,,,,,,
1523694842.335959,-0.695229,-0.086556,2.652195,0.200807,0.066998,0.237295,-0.638161,0.086448,-0.765031,-0.061149,-0.198478,0.042023,-7.015289,-13.538877,25.481445,,,,,,,
1523694842.365928,-0.693717,-0.085091,2.660913,0.200838,0.014236,0.185135,-0.637084,0.084988,-0.766091,-0.068223,-0.222775,0.061913,-5.283508,-12.272641,24.502258,,,,,,,
1523694842.395896,-0.694597,-0.083420,2.668401,0.168601,-0.049337,0.170258,-0.637848,0.083323,-0.765638,-0.083648,-0.238428,0.115629,-3.335938,-10.260159,20.745178,,,,,,,
1523694842.425864,-0.695080,-0.082561,2.675617,0.154851,0.017421,0.202144,-0.638264,0.082467,-0.765384,-0.109966,-0.252969,0.129291,-1.924225,-9.744596,17.668823,,,,,,,
1523694842.455833,-0.691120,-0.082898,2.684246,0.145603,0.182685,0.276561,-0.635210,0.082803,-0.767885,-0.160643,-0.239480,0.028215,-0.738632,-7.805570,12.036621,,,,,,,
1523694842.485801,-0.686830,-0.084903,2.694020,0.136194,0.059038,0.335279,-0.631804,0.084801,-0.770472,-0.171922,-0.232552,-0.052785,-1.209793,-7.582349,8.135559,,,,,,,
1523694842.515769,-0.686471,-0.088234,2.705627,0.170495,-0.069028,0.402559,-0.631344,0.088120,-0.770477,-0.129733,-0.233902,-0.056580,-3.856842,-6.226361,2.203735,,,,,,,
1523694842.545737,-0.688292,-0.090448,2.719365,0.285659,-0.122332,0.385655,-0.632621,0.090325,-0.769173,-0.057305,-0.219246,-0.004569,-6.116669,-5.768598,-0.199158,,,,,,,
1523694842.575706,-0.689726,-0.089110,2.733752,0.364579,0.007654,0.308860,-0.633800,0.088992,-0.768358,0.008632,-0.200213,0.006364,-10.643097,-5.078778,-5.754150,,,,,,,
1523694842.605674,-0.684378,-0.085899,2.747397,0.351674,0.169532,0.261804,-0.629858,0.085793,-0.771954,-0.013055,-0.209619,-0.113040,-14.255127,-5.289182,-7.405151,,,,,,,
1523694842.635642,-0.680000,-0.084979,2.757229,0.123981,0.044014,0.208491,-0.626523,0.084877,-0.774765,-0.034275,-0.229286,-0.071793,-17.111755,-5.052823,-8.907471,,,,,,,
1523694842.665610,-0.681921,-0.087319,2.761522,-0.021664,-0.130455,0.139288,-0.627883,0.087208,-0.773403,-0.055573,-0.264088,0.051113,-24.697861,-5.170346,-10.560852,,,,,,,
1523694842.695579,-0.684806,-0.089481,2.764382,0.013820,-0.084816,0.132883,-0.629991,0.089361,-0.771441,-0.088362,-0.283422,0.096133,-28.673904,-5.227521,-10.637573,,,,,,,
1523694842.725547,-0.683519,-0.090950,2.769176,0.074249,0.136657,0.199827,-0.628914,0.090825,-0.772149,-0.099327,-0.270742,0.056252,-35.277191,-6.321530,-9.361511,,,,,,,
1523694842.755515,-0.678021,-0.092657,2.776806,0.116585,0.140264,0.275513,-0.624561,0.092524,-0.775473,-0.121822,-0.251414,-0.055399,-37.746658,-6.534146,-8.086853,,,,,,,
1523694842.785483,-0.676390,-0.094245,2.786471,0.176331,-0.071540,0.304535,-0.623203,0.094106,-0.776375,-0.101849,-0.240956,-0.051170,-41.642975,-8.238156,-4.632019,,,,,,,
1523694842.815452,-0.680957,-0.094200,2.798008,0.282348,-0.240748,0.302655,-0.626744,0.094060,-0.773524,-0.070903,-0.227758,0.027980,-42.012070,-8.909406,-2.529541,,,,,,,
1523694842.845412,-0.686575,-0.092248,2.811028,0.310383,-0.182385,0.302626,-0.631195,0.092117,-0.770131,-0.057937,-0.231171,0.044805,-44.184647,-10.471616,0.475586,,,,,,,
1523694842.875381,-0.689772,-0.091376,2.823289,0.243469,-0.101445,0.302483,-0.633705,0.091249,-0.768171,-0.034736,-0.189089,0.076078,-44.189865,-11.445844,1.229492,,,,,,,
1523694842.905349,-0.691111,-0.091234,2.834617,0.235134,-0.067368,0.293924,-0.634741,0.091107,-0.767332,-0.027750,-0.194653,0.076964,-45.095963,-12.640790,2.208801,,,,,,,
1523694842.935318,-0.690993,-0.089594,2.846690,0.302759,0.020617,0.300278,-0.634745,0.089474,-0.767521,-0.043859,-0.236263,0.044484,-46.456650,-13.759580,2.287598,,,,,,,
1523694842.965286,-0.689248,-0.086759,2.859673,0.328458,0.029121,0.291759,-0.633564,0.086650,-0.768820,-0.064327,-0.258296,-0.022516,-49.484238,-16.071697,1.545349,,,,,,,
1523694842.995254,-0.688925,-0.083842,2.872165,0.304621,-0.082209,0.264156,-0.633473,0.083744,-0.769217,-0.061702,-0.286152,0.013327,-50.996613,-16.815716,0.722534,,,,,,,
1523694843.025223,-0.692202,-0.080959,2.883773,0.286314,-0.123556,0.257788,-0.636142,0.080870,-0.767319,-0.075253,-0.311339,0.041596,-53.638718,-18.528820,0.728088,,,,,,,
,,,,,,,,,,,,,,,,25.300494,51.430897,20.789783,1.390000,261.914062,1523694842.998137,
1523694843.055191,-0.693276,-0.079480,2.895153,0.255666,-0.029057,0.278981,-0.637042,0.079397,-0.766727,-0.074811,-0.315755,0.031314,-59.513901,-21.052380,0.735229,,,,,,,
1523694843.085159,-0.692007,-0.078766,2.906926,0.248269,0.029149,0.315147,-0.636104,0.078685,-0.767578,-0.086338,-0.330043,-0.018448,-62.213181,-21.564251,1.710938,,,,,,,
1523694843.115127,-0.690362,-0.080510,2.919120,0.185964,0.006628,0.367330,-0.634752,0.080423,-0.768517,-0.101622,-0.303339,-0.072792,-71.132050,-22.796047,4.786438,,,,,,,
1523694843.145096,-0.688961,-0.083876,2.931136,0.158117,-0.006088,0.372647,-0.633500,0.083778,-0.769192,-0.090575,-0.275703,-0.088642,-75.473557,-23.523876,7.412170,,,,,,,
1523694843.175064,-0.688833,-0.086414,2.943067,0.216780,-0.057007,0.339710,-0.633264,0.086306,-0.769106,-0.056296,-0.252810,-0.034360,-82.485703,-23.785580,14.159729,,,,,,,
1523694843.205031,-0.688424,-0.085652,2.956125,0.347569,0.015199,0.300311,-0.632991,0.085547,-0.769416,-0.016728,-0.248068,0.007667,-86.061493,-24.064983,18.659058,,,,,,,
1523694843.234999,-0.686736,-0.082497,2.969901,0.370112,0.014241,0.276891,-0.631859,0.082404,-0.770689,-0.000785,-0.230399,0.006498,-92.522385,-23.725796,28.779480,,,,,,,
1523694843.264968,-0.684316,-0.079581,2.982607,0.322360,0.056999,0.257632,-0.630141,0.079497,-0.772399,-0.007295,-0.239882,-0.011384,-93.309509,-23.266705,34.327271,,,,,,,
1523694843.294936,-0.682309,-0.076390,2.993995,0.308496,0.021132,0.224631,-0.628747,0.076316,-0.773854,-0.007270,-0.278250,0.000920,-96.166306,-23.691769,46.402527,,,,,,,
1523694843.324904,-0.681379,-0.073203,3.004568,0.265719,0.003189,0.222486,-0.628177,0.073137,-0.774624,-0.023297,-0.298784,-0.000446,-95.599869,-23.462795,52.926880,,,,,,,
1523694843.354872,-0.681165,-0.071941,3.014074,0.166026,-0.046710,0.253352,-0.628069,0.071879,-0.774829,-0.051313,-0.321162,-0.026608,-93.452057,-22.640865,59.524719,,,,,,,
1523694843.384841,-0.683545,-0.072967,3.023275,0.153801,-0.113863,0.287507,-0.629864,0.072903,-0.773275,-0.040790,-0.326656,0.016149,-89.547012,-22.420467,72.500732,,,,,,,
1523694843.414809,-0.686396,-0.073783,3.034297,0.226131,-0.129225,0.329143,-0.632028,0.073717,-0.771429,-0.032279,-0.320894,0.048575,-85.530121,-22.057156,78.876282,,,,,,,
1523694843.444777,-0.689034,-0.073739,3.046925,0.254979,-0.105993,0.341915,-0.634063,0.073672,-0.769762,-0.009492,-0.298785,0.057879,-75.037491,-22.093044,90.206665,,,,,,,
1523694843.474746,-0.689402,-0.073936,3.059387,0.229841,-0.000716,0.339659,-0.634337,0.073868,-0.769518,-0.001741,-0.271744,0.023638,-69.686569,-22.337399,94.935303,,,,,,,
1523694843.504714,-0.687565,-0.074052,3.071207,0.210991,0.055784,0.319349,-0.632917,0.073985,-0.770675,-0.003970,-0.232645,-0.028504,-55.635818,-23.369610,100.946472,,,,,,,
1523694843.534683,-0.686314,-0.073741,3.082388,0.223608,-0.015281,0.295990,-0.631967,0.073674,-0.771483,-0.020361,-0.235280,-0.041383,-47.762177,-24.004208,101.777954,,,,,,,
1523694843.564651,-0.687509,-0.072420,3.093662,0.257560,-0.083245,0.277969,-0.632950,0.072357,-0.770802,-0.053192,-0.251251,-0.010524,-32.714600,-26.397503,101.195068,,,,,,,
1523694843.594619,-0.688697,-0.071383,3.104670,0.226717,-0.059765,0.274724,-0.633912,0.071323,-0.770107,-0.072188,-0.281757,-0.000599,-25.539474,-27.856518,99.479492,,,,,,,
1523694843.624588,-0.688793,-0.071664,3.115108,0.190580,-0.007730,0.290637,-0.633973,0.071603,-0.770031,-0.080733,-0.283548,-0.005756,-13.837250,-31.140835,92.823486,,,,,,,
1523694843.654556,-0.687733,-0.072201,3.126107,0.235350,-0.008970,0.301318,-0.633132,0.072139,-0.770673,-0.071122,-0.276469,-0.036273,-9.524185,-32.588985,89.081421,,,,,,,
1523694843.684524,-0.687945,-0.071810,3.138295,0.275783,-0.028301,0.314165,-0.633314,0.071749,-0.770560,-0.052492,-0.263323,-0.042047,-6.346573,-34.632778,84.591187,,,,,,,
1523694843.714493,-0.687994,-0.072382,-3.132805,0.211577,-0.047339,0.324789,-0.633325,0.072318,-0.770498,-0.029257,-0.257377,-0.009028,-2.683136,-38.033016,75.831543,,,,,,,
1523694843.744461,-0.688497,-0.073621,-3.121544,0.211735,-0.027047,0.310913,-0.633655,0.073555,-0.770109,-0.022900,-0.261558,0.028486,-2.351639,-39.913631,71.714233,,,,,,,
1523694843.774429,-0.686924,-0.074043,-3.110273,0.215337,0.057976,0.307632,-0.632423,0.073975,-0.771080,-0.035408,-0.266495,-0.009590,-4.070267,-42.463085,64.523621,,,,,,,
1523694843.804397,-0.684098,-0.074463,-3.099015,0.223785,0.036713,0.306593,-0.630222,0.074395,-0.772840,-0.040875,-0.284844,-0.040301,-6.055603,-43.882671,61.003357,,,,,,,
1523694843.834349,-0.683658,-0.074103,-3.087451,0.248098,-0.032354,0.296034,-0.629899,0.074035,-0.773139,-0.047042,-0.307738,-0.014993,-10.600998,-46.041180,57.034729,,,,,,,
1523694843.864317,-0.684580,-0.073279,-3.076009,0.245882,-0.059890,0.285396,-0.630649,0.073213,-0.772605,-0.035534,-0.320741,0.022620,-13.164383,-46.705776,55.911133,,,,,,,
1523694843.894285,-0.684739,-0.072608,-3.064869,0.226903,0.001724,0.293848,-0.630803,0.072544,-0.772542,-0.024745,-0.322147,0.029103,-16.918106,-47.213650,56.136230,,,,,,,
1523694843.924253,-0.682887,-0.073003,-3.053727,0.202441,0.051571,0.317215,-0.629353,0.072938,-0.773686,-0.041240,-0.321428,-0.026790,-19.238663,-47.127605,56.734741,,,,,,,
1523694843.954222,-0.680634,-0.073750,-3.042353,0.207631,0.025996,0.324708,-0.627574,0.073684,-0.775060,-0.052068,-0.309295,-0.064891,-21.469223,-46.440487,58.830872,,,,,,,
1523694843.984190,-0.680823,-0.074825,-3.030929,0.217912,-0.071730,0.316290,-0.627670,0.074756,-0.774879,-0.040680,-0.267047,-0.029702,-22.576172,-45.534008,60.326721,,,,,,,
1523694844.014158,-0.682469,-0.074488,-3.019125,0.253204,-0.074922,0.303538,-0.628960,0.074419,-0.773865,-0.032188,-0.232272,0.020340,-22.614441,-43.431225,62.943237,,,,,,,
,,,,,,,,,,,,,,,,25.300492,51.430872,20.763344,2.010000,236.953125,1523694843.998122,
1523694844.044126,-0.682831,-0.073414,-3.007101,0.271639,-0.009075,0.303477,-0.629291,0.073348,-0.773699,-0.010099,-0.220977,0.042070,-21.098312,-42.536846,64.140442,,,,,,,
1523694844.074095,-0.681103,-0.073123,-2.994878,0.233254,0.034407,0.330038,-0.627966,0.073058,-0.774801,-0.010065,-0.237395,0.015799,-20.929306,-41.261562,65.185364,,,,,,,
1523694844.104063,-0.679664,-0.073146,-2.982924,0.225710,0.010025,0.323668,-0.626849,0.073080,-0.775703,-0.041577,-0.289816,-0.037850,-18.643311,-38.195950,66.074219,,,,,,,
1523694844.134062,-0.679581,-0.073307,-2.971317,0.219123,-0.046180,0.309868,-0.626778,0.073242,-0.775745,-0.059791,-0.316619,-0.046597,-17.497711,-36.176052,66.141724,,,,,,,
1523694844.164030,-0.680959,-0.073367,-2.960362,0.212643,-0.087470,0.289665,-0.627844,0.073301,-0.774877,-0.061884,-0.326964,-0.011530,-14.684052,-32.663113,66.729126,,,,,,,
1523694844.193998,-0.682497,-0.072815,-2.949588,0.236342,-0.058724,0.273669,-0.629060,0.072751,-0.773942,-0.056121,-0.320004,-0.017440,-13.835144,-30.266949,66.719971,,,,,,,
1523694844.223966,-0.682118,-0.073033,-2.938826,0.201344,0.015611,0.292747,-0.628757,0.072968,-0.774168,-0.060452,-0.307450,-0.061495,-13.109909,-25.095455,66.474609,,,,,,,
1523694844.253935,-0.681448,-0.074774,-2.928253,0.158263,-0.034402,0.319397,-0.628157,0.074705,-0.774489,-0.047655,-0.256879,-0.086580,-14.062561,-22.990948,66.690735,,,,,,,
1523694844.283903,-0.683625,-0.076654,-2.917778,0.197422,-0.128959,0.303537,-0.629751,0.076579,-0.773010,-0.021357,-0.211909,0.025161,-14.090714,-18.565395,67.122986,,,,,,,
1523694844.313871,-0.686067,-0.076195,-2.906404,0.283142,-0.090739,0.277990,-0.631659,0.076121,-0.771497,0.010352,-0.197688,0.104123,-12.791214,-16.246029,67.339417,,,,,,,
1523694844.343840,-0.686387,-0.073225,-2.893809,0.347609,-0.002712,0.277956,-0.632047,0.073160,-0.771466,0.023435,-0.204339,0.122387,-12.290924,-12.421262,69.349304,,,,,,,
1523694844.373808,-0.684092,-0.069564,-2.880458,0.334050,0.082250,0.289581,-0.630440,0.069508,-0.773117,0.010902,-0.236744,0.070160,-11.511292,-10.173581,70.540710,,,,,,,
1523694844.403776,-0.678969,-0.068721,-2.868579,0.195490,0.166345,0.317098,-0.626507,0.068667,-0.776382,-0.042468,-0.275912,-0.049241,-9.833344,-8.005094,71.582886,,,,,,,
1523694844.433744,-0.675956,-0.070261,-2.858476,0.134007,0.007224,0.300166,-0.624098,0.070203,-0.778183,-0.086229,-0.330716,-0.121857,-8.145950,-5.610440,73.824158,,,,,,,
1523694844.463713,-0.678175,-0.071650,-2.849343,0.152687,-0.155129,0.261980,-0.625762,0.071588,-0.776719,-0.092027,-0.341089,-0.085845,-7.004364,-4.489682,74.720276,,,,,,,
1523694844.493681,-0.682534,-0.071605,-2.839921,0.210528,-0.125443,0.251336,-0.629144,0.071544,-0.773986,-0.045737,-0.305736,0.022720,-3.377121,-2.255200,75.538147,,,,,,,
1523694844.523649,-0.682375,-0.071826,-2.829315,0.212254,0.080319,0.304413,-0.629010,0.071764,-0.774074,-0.009814,-0.245852,-0.014957,-2.995529,-1.956326,76.137146,,,,,,,
1523694844.553617,-0.675988,-0.073912,-2.818061,0.153905,0.217213,0.351115,-0.623959,0.073844,-0.777958,-0.016407,-0.205162,-0.120114,-0.439941,-1.667371,76.587280,,,,,,,
1523694844.583586,-0.669744,-0.076812,-2.806812,0.175975,0.134316,0.345883,-0.618953,0.076737,-0.781667,-0.011357,-0.178650,-0.148417,1.435730,-1.600812,76.587952,,,,,,,
1523694844.613554,-0.669300,-0.077687,-2.795345,0.250932,-0.126848,0.284407,-0.618565,0.077609,-0.781889,0.005375,-0.168811,-0.051958,5.107864,-1.617780,76.139832,,,,,,,
1523694844.643522,-0.673851,-0.075410,-2.784459,0.287265,-0.193409,0.218430,-0.622225,0.075339,-0.779202,0.036623,-0.218909,0.092968,8.551880,-1.634259,75.166626,,,,,,,
1523694844.673490,-0.676430,-0.072504,-2.774044,0.286862,-0.049946,0.216159,-0.624367,0.072441,-0.777762,0.038536,-0.262092,0.147773,13.932709,-1.661618,72.019409,,,,,,,
1523694844.703459,-0.673370,-0.070405,-2.763514,0.257823,0.164614,0.238301,-0.622077,0.070347,-0.779787,0.032218,-0.309132,0.067445,16.093658,-1.898282,70.071411,,,,,,,
1523694844.733427,-0.667219,-0.069911,-2.753283,0.195725,0.170889,0.275536,-0.617291,0.069854,-0.783625,-0.005604,-0.324615,-0.066091,18.700226,-1.987943,67.148071,,,,,,,
1523694844.763395,-0.663716,-0.071361,-2.743768,0.111716,0.027509,0.293740,-0.614479,0.071300,-0.785702,-0.035149,-0.330150,-0.148227,22.861435,-2.087964,60.850647,,,,,,,
1523694844.793363,-0.665441,-0.074568,-2.735236,0.083235,-0.136015,0.288548,-0.615689,0.074499,-0.784457,-0.048861,-0.293646,-0.124952,23.359253,-2.469098,56.952393,,,,,,,
1523694844.823332,-0.670055,-0.077620,-2.726663,0.118290,-0.172243,0.290738,-0.619158,0.077542,-0.781426,-0.034025,-0.245419,-0.023429,25.688568,-3.913938,47.584290,,,,,,,
1523694844.853287,-0.673286,-0.079318,-2.716666,0.197638,-0.091711,0.294977,-0.621596,0.079235,-0.779317,-0.014146,-0.193630,0.046896,26.854721,-4.149426,42.335815,,,,,,,
1523694844.883255,-0.671510,-0.078913,-2.705438,0.269051,0.096329,0.275661,-0.620232,0.078831,-0.780445,0.004982,-0.149967,0.019184,25.004929,-3.999661,33.784302,,,,,,,
1523694844.913224,-0.666531,-0.077054,-2.694138,0.260881,0.155963,0.258557,-0.616428,0.076978,-0.783638,0.036670,-0.130506,-0.051598,22.654312,-3.768735,29.132263,,,,,,,
1523694844.943192,-0.663087,-0.075400,-2.684382,0.208163,0.024621,0.219214,-0.613803,0.075329,-0.785855,0.022708,-0.161541,-0.037143,17.971283,-2.929563,22.226501,,,,,,,
1523694844.973160,-0.664576,-0.073913,-2.675865,0.185258,-0.106973,0.201226,-0.615040,0.073846,-0.785028,-0.001247,-0.231408,0.003946,16.235214,-2.324628,19.373230,,,,,,,
1523694845.003128,-0.666318,-0.072868,-2.667502,0.174738,-0.041225,0.225650,-0.616454,0.072803,-0.784015,-0.039018,-0.281635,0.000812,12.238846,-1.037351,13.666077,,,,,,,
1523694845.033097,-0.665263,-0.073446,-2.658903,0.114028,0.038326,0.267085,-0.615601,0.073380,-0.784632,-0.071487,-0.312760,-0.075445,9.986664,-0.353711,12.162231,,,,,,,
,,,,,,,,,,,,,,,,25.300470,51.430830,20.901435,3.910000,216.562500,1523694844.998107,
1523694845.063065,-0.663679,-0.076777,-2.650932,0.040011,-0.005232,0.293702,-0.614203,0.076702,-0.785409,-0.076593,-0.319301,-0.109885,8.550446,-0.124509,9.910583,,,,,,,
1523694845.093033,-0.664908,-0.081194,-2.642804,0.065202,-0.082979,0.309783,-0.614953,0.081105,-0.784379,-0.050513,-0.315937,-0.083037,7.104263,0.776980,4.881226,,,,,,,
1523694845.123001,-0.667101,-0.083988,-2.633690,0.154831,-0.137167,0.275816,-0.616529,0.083889,-0.782848,-0.012453,-0.252255,-0.025380,6.490768,0.777484,2.630920,,,,,,,
1523694845.152970,-0.668766,-0.084266,-2.623636,0.221514,-0.052206,0.257673,-0.617817,0.084166,-0.781802,0.040669,-0.212111,0.055453,3.306946,0.861041,-3.145935,,,,,,,
1523694845.182938,-0.667580,-0.083432,-2.612990,0.241140,0.056055,0.270355,-0.616932,0.083336,-0.782589,0.047215,-0.175987,0.050778,1.182281,0.417224,-6.520203,,,,,,,
1523694845.212906,-0.663495,-0.082418,-2.602341,0.205184,0.130532,0.269190,-0.613783,0.082325,-0.785169,0.007169,-0.177524,-0.034625,-4.418655,-1.437970,-11.915588,,,,,,,
1523694845.242874,-0.659420,-0.081527,-2.593075,0.162450,0.086227,0.237242,-0.610623,0.081437,-0.787721,-0.047413,-0.193436,-0.099410,-7.439102,-1.951932,-14.465027,,,,,,,
1523694845.272843,-0.659325,-0.080762,-2.584959,0.176666,-0.121780,0.195898,-0.610586,0.080674,-0.787828,-0.051051,-0.235169,-0.034132,-14.546692,-4.475324,-19.858521,,,,,,,
1523694845.302811,-0.663418,-0.079009,-2.576767,0.200003,-0.154815,0.199156,-0.613892,0.078927,-0.785432,-0.037949,-0.219690,0.017137,-19.218704,-5.730863,-21.430847,,,,,,,
1523694845.332779,-0.665264,-0.078182,-2.567864,0.185356,-0.030768,0.245893,-0.615380,0.078102,-0.784349,-0.012366,-0.209297,0.010576,-27.142517,-8.773282,-24.497620,,,,,,,
1523694845.362747,-0.663318,-0.078363,-2.558129,0.187802,0.073131,0.277762,-0.613844,0.078283,-0.785534,0.001143,-0.177068,-0.054416,-30.453903,-9.284421,-25.547302,,,,,,,
1523694845.392716,-0.661281,-0.078155,-2.548042,0.208936,0.007326,0.260787,-0.612253,0.078075,-0.786796,0.004007,-0.181850,-0.065606,-39.249222,-11.045300,-25.994568,,,,,,,
1523694845.422684,-0.661594,-0.077283,-2.538371,0.191773,-0.036041,0.238441,-0.612541,0.077206,-0.786658,-0.000832,-0.166134,-0.055399,-43.008789,-12.003369,-25.992615,,,,,,,
1523694845.452652,-0.661770,-0.077222,-2.530316,0.137476,-0.044192,0.205391,-0.612682,0.077145,-0.786554,-0.017400,-0.181806,-0.040961,-46.304443,-11.838101,-25.544983,,,,,,,
1523694845.482620,-0.663495,-0.076500,-2.522859,0.177901,-0.103621,0.180969,-0.614072,0.076426,-0.785539,-0.007617,-0.189310,0.012437,-53.956772,-13.376493,-23.367615,,,,,,,
1523694845.512589,-0.665520,-0.074840,-2.514793,0.201494,-0.064473,0.195869,-0.615739,0.074770,-0.784392,-0.004317,-0.198534,0.039001,-57.102112,-13.586209,-22.243347,,,,,,,
1523694845.542557,-0.664613,-0.073784,-2.506072,0.180387,0.029915,0.229854,-0.615075,0.073717,-0.785013,-0.028220,-0.209169,-0.034918,-61.973404,-15.061200,-19.164917,,,,,,,
1523694845.572525,-0.664822,-0.073419,-2.497386,0.168232,-0.057198,0.232059,-0.615256,0.073353,-0.784905,-0.029428,-0.232548,-0.047950,-64.514099,-15.796994,-16.388245,,,,,,,
1523694845.602494,-0.667639,-0.073046,-2.488769,0.171090,-0.133713,0.232138,-0.617481,0.072981,-0.783190,-0.025570,-0.239973,-0.008115,-69.152420,-17.646099,-11.358093,,,,,,,
1523694845.632462,-0.670353,-0.072581,-2.480044,0.164810,-0.090218,0.244874,-0.619626,0.072517,-0.781538,-0.019306,-0.210213,0.012633,-69.437042,-18.091518,-8.056519,,,,,,,
1523694845.662430,-0.670309,-0.073397,-2.471139,0.128835,0.014868,0.273511,-0.619555,0.073331,-0.781519,-0.014006,-0.203199,-0.042593,-71.523346,-20.775372,-1.296875,,,,,,,
1523694845.692398,-0.669846,-0.075054,-2.462269,0.131857,-0.029751,0.270365,-0.619117,0.074984,-0.781709,-0.014184,-0.203463,-0.061843,-70.992126,-22.498852,2.610291,,,,,,,
1523694845.722367,-0.671007,-0.075113,-2.453355,0.200233,-0.078453,0.220387,-0.620021,0.075042,-0.780987,-0.002431,-0.195647,-0.044804,-69.328842,-25.499126,9.823120,,,,,,,
1523694845.752335,-0.672731,-0.073043,-2.444531,0.218613,-0.063419,0.190556,-0.621462,0.072978,-0.780036,-0.012602,-0.198634,-0.030404,-68.806198,-27.448620,12.681213,,,,,,,
1523694845.782303,-0.673018,-0.072328,-2.436587,0.131118,-0.020858,0.214947,-0.621718,0.072265,-0.779898,-0.029130,-0.216018,-0.035608,-67.610367,-29.626064,15.615540,,,,,,,
1523694845.812271,-0.673794,-0.073626,-2.429248,0.107337,-0.061317,0.235212,-0.622264,0.073559,-0.779342,-0.035832,-0.244198,-0.015947,-62.449982,-33.844692,20.209961,,,,,,,
1523694845.842242,-0.675717,-0.075015,-2.421284,0.131687,-0.096526,0.245927,-0.623697,0.074945,-0.778063,-0.027853,-0.248651,0.005892,-60.881744,-35.649868,22.093018,,,,,,,
1523694845.872211,-0.677850,-0.075232,-2.412065,0.203178,-0.089373,0.260892,-0.625345,0.075161,-0.776718,-0.009115,-0.242016,0.029907,-56.173187,-38.743633,24.507690,,,,,,,
1523694845.902178,-0.678377,-0.074725,-2.401782,0.194971,0.010388,0.282093,-0.625778,0.074656,-0.776418,0.003860,-0.240641,0.022543,-53.264771,-40.631344,24.891724,,,,,,,
1523694845.932146,-0.676606,-0.075307,-2.391794,0.155606,0.047641,0.287353,-0.624375,0.075236,-0.777492,0.002869,-0.241099,-0.016164,-50.219040,-44.243908,26.032654,,,,,,,
1523694845.962115,-0.674933,-0.076245,-2.382389,0.145890,0.015817,0.282056,-0.623029,0.076171,-0.778480,-0.019519,-0.235564,-0.063394,-48.209717,-45.453548,25.438538,,,,,,,
1523694845.992083,-0.674437,-0.077244,-2.372893,0.154252,-0.018235,0.286357,-0.622595,0.077167,-0.778729,-0.048181,-0.243259,-0.100086,-45.545883,-48.541409,24.552185,,,,,,,
1523694846.022051,-0.675477,-0.077850,-2.363398,0.178607,-0.093541,0.258742,-0.623375,0.077772,-0.778044,-0.053581,-0.260877,-0.062105,-45.107727,-49.593609,24.331665,,,,,,,
1523694846.052019,-0.678160,-0.077266,-2.353359,0.256528,-0.113815,0.243899,-0.625489,0.077190,-0.776404,-0.022475,-0.261546,0.016409,-42.576996,-51.255444,23.889526,,,,,,,
,,,,,,,,,,,,,,,,25.300446,51.430805,20.850991,3.200000,200.039062,1523694845.998094,
1523694846.081988,-0.679206,-0.075736,-2.342394,0.264263,-0.038518,0.260886,-0.626374,0.075663,-0.775840,0.004426,-0.249125,0.023307,-41.906082,-51.483761,23.590820,,,,,,,
1523694846.111956,-0.678724,-0.074797,-2.331221,0.241933,0.012344,0.288526,-0.626044,0.074727,-0.776198,0.022544,-0.221974,0.020781,-42.353073,-51.406368,23.965271,,,,,,,
1523694846.141924,-0.675892,-0.075183,-2.319574,0.205671,0.091693,0.350222,-0.623825,0.075112,-0.777945,0.004044,-0.212304,-0.059107,-41.815796,-50.583111,24.637268,,,,,,,
1523694846.171893,-0.673969,-0.076544,-2.307017,0.218831,-0.032835,0.376982,-0.622264,0.076470,-0.779063,-0.021337,-0.218453,-0.072561,-41.282288,-49.685589,24.558899,,,,,,,
1523694846.201861,-0.676544,-0.076398,-2.293179,0.301577,-0.171089,0.362275,-0.624275,0.076324,-0.777466,-0.023430,-0.231505,-0.018539,-41.927307,-47.581203,26.050171,,,,,,,
1523694846.231829,-0.680507,-0.075156,-2.278934,0.310409,-0.110482,0.355815,-0.627411,0.075086,-0.775059,-0.026016,-0.247937,0.010990,-43.117218,-46.750546,26.346252,,,,,,,
1523694846.261797,-0.680899,-0.074512,-2.265712,0.247789,-0.058069,0.329076,-0.627745,0.074444,-0.774850,-0.019564,-0.267208,-0.044516,-45.419067,-44.564983,26.561401,,,,,,,
1523694846.291766,-0.681670,-0.075228,-2.254753,0.173325,-0.050172,0.287472,-0.628308,0.075157,-0.774324,-0.016696,-0.263420,-0.048841,-46.832932,-43.583401,26.781738,,,,,,,
1523694846.321734,-0.684063,-0.076447,-2.245360,0.142033,-0.131875,0.281142,-0.630101,0.076373,-0.772747,-0.033397,-0.262210,-0.041355,-49.577103,-41.394558,28.271606,,,,,,,
1523694846.351702,-0.687868,-0.078633,-2.236611,0.093826,-0.156249,0.289649,-0.632929,0.078552,-0.770214,-0.007925,-0.241180,-0.016896,-52.253006,-40.105648,30.140076,,,,,,,
1523694846.381670,-0.690175,-0.082205,-2.227794,0.068543,-0.026827,0.332106,-0.634522,0.082112,-0.768530,-0.013183,-0.198826,0.014669,-55.588150,-38.137280,33.505554,,,,,,,
1523694846.411639,-0.690235,-0.085211,-2.217913,0.159173,-0.067388,0.323703,-0.634408,0.085108,-0.768298,0.006387,-0.203028,0.011294,-56.391968,-37.007015,35.150696,,,,,,,
1523694846.441607,-0.692518,-0.085100,-2.206454,0.275422,-0.132296,0.294027,-0.636166,0.084997,-0.766855,0.019803,-0.205663,0.018121,-59.712830,-34.736828,40.389954,,,,,,,
1523694846.471575,-0.694757,-0.082219,-2.193642,0.322606,-0.080359,0.297198,-0.638036,0.082127,-0.765613,0.007466,-0.216328,-0.028378,-61.036209,-33.827953,43.310608,,,,,,,
1523694846.501543,-0.696485,-0.080023,-2.181269,0.277824,-0.073849,0.292902,-0.639472,0.079938,-0.764646,0.002082,-0.247129,-0.052752,-61.911255,-32.996243,46.081909,,,,,,,
1523694846.531512,-0.696827,-0.078310,-2.169227,0.280014,-0.065319,0.288629,-0.639820,0.078230,-0.764532,-0.046612,-0.287611,-0.078623,-62.373077,-30.587643,52.596985,,,,,,,
1523694846.561480,-0.698912,-0.076351,-2.156989,0.306490,-0.123771,0.280185,-0.641510,0.076277,-0.763311,-0.072784,-0.307402,-0.076349,-61.956543,-29.085110,57.016174,,,,,,,
1523694846.591448,-0.702502,-0.075008,-2.144552,0.265567,-0.174803,0.300440,-0.644312,0.074938,-0.761081,-0.084600,-0.346560,-0.069744,-58.047867,-25.794231,65.479980,,,,,,,
1523694846.621416,-0.707068,-0.076535,-2.133723,0.167358,-0.163990,0.307820,-0.647705,0.076460,-0.758044,-0.078979,-0.361678,-0.009382,-56.210403,-24.747997,69.976685,,,,,,,
1523694846.651385,-0.709722,-0.077745,-2.122429,0.258445,-0.080307,0.314190,-0.649654,0.077667,-0.756251,-0.065663,-0.364044,0.019328,-50.658264,-21.166088,76.865112,,,,,,,
1523694846.681353,-0.709505,-0.076578,-2.109099,0.345332,-0.000808,0.308861,-0.649549,0.076503,-0.756460,-0.022479,-0.323573,0.005789,-47.548462,-19.077770,79.183350,,,,,,,
1523694846.711321,-0.706939,-0.074910,-2.095353,0.320031,0.079964,0.316218,-0.647688,0.074840,-0.758220,0.000242,-0.268642,-0.036915,-43.067001,-15.943753,83.373047,,,,,,,
1523694846.741289,-0.704107,-0.075153,-2.082805,0.230101,0.041863,0.327901,-0.645526,0.075082,-0.760038,-0.003522,-0.237725,-0.059634,-40.493866,-14.753461,85.244568,,,,,,,
1523694846.771258,-0.703696,-0.076248,-2.071293,0.213656,-0.069611,0.317358,-0.645159,0.076174,-0.760240,-0.014508,-0.265352,-0.037901,-33.247238,-12.157620,88.687805,,,,,,,
1523694846.801226,-0.706213,-0.075674,-2.059170,0.290332,-0.117563,0.311060,-0.647100,0.075602,-0.758647,-0.034175,-0.310831,0.022730,-30.218445,-10.668927,91.008423,,,,,,,
1523694846.831194,-0.706719,-0.074498,-2.045986,0.285427,0.003439,0.332245,-0.647540,0.074429,-0.758387,-0.042157,-0.317273,-0.003180,-25.472778,-9.638562,92.731628,,,,,,,
1523694846.861146,-0.705263,-0.076121,-2.034023,0.135889,0.023780,0.363017,-0.646357,0.076048,-0.759235,-0.050405,-0.322889,-0.039227,-14.648529,-7.886151,93.855042,,,,,,,
1523694846.891114,-0.704743,-0.080873,-2.024049,0.069389,-0.046198,0.363047,-0.645720,0.080784,-0.759288,-0.034929,-0.322255,-0.048268,-9.994217,-7.457089,93.855652,,,,,,,
1523694846.921082,-0.706541,-0.084370,-2.013739,0.200718,-0.097193,0.316306,-0.646897,0.084270,-0.757906,-0.008835,-0.315929,-0.046705,-0.707581,-6.452786,89.956238,,,,,,,
1523694846.951050,-0.706968,-0.083900,-2.001767,0.300566,-0.015363,0.280067,-0.647246,0.083802,-0.757660,0.000182,-0.292344,-0.065659,4.377594,-5.504712,85.905029,,,,,,,
1523694846.981019,-0.705849,-0.082629,-1.989671,0.277130,-0.003629,0.281107,-0.646466,0.082535,-0.758464,0.001798,-0.272873,-0.070698,9.086502,-2.608411,78.395752,,,,,,,
1523694847.010987,-0.705706,-0.082368,-1.978315,0.241762,-0.034360,0.281115,-0.646372,0.082275,-0.758573,-0.016226,-0.275344,-0.060092,10.355377,-0.967893,74.639832,,,,,,,
1523694847.040955,-0.705588,-0.082440,-1.967209,0.236476,-0.022632,0.278959,-0.646279,0.082347,-0.758645,-0.039955,-0.281169,-0.092338,13.136368,3.737750,67.797363,,,,,,,
,,,,,,,,,,,,,,,,25.300412,51.430786,20.658728,3.960000,179.296875,1523694846.998080,
1523694847.070923,-0.705418,-0.082463,-1.956617,0.230122,-0.036296,0.258729,-0.646149,0.082369,-0.758753,-0.044113,-0.269458,-0.074789,12.616852,6.361621,64.336670,,,,,,,
1523694847.100892,-0.706998,-0.081785,-1.945902,0.251185,-0.097981,0.259867,-0.647383,0.081694,-0.757774,-0.014818,-0.268797,-0.034966,13.751053,11.524447,57.266602,,,,,,,
1523694847.130860,-0.709440,-0.080868,-1.934424,0.293749,-0.110963,0.276965,-0.649279,0.080780,-0.756247,0.018817,-0.261200,0.033530,14.655716,14.291537,53.431030,,,,,,,
1523694847.160828,-0.710185,-0.079250,-1.921711,0.313247,-0.018778,0.305666,-0.649927,0.079168,-0.755861,0.035212,-0.260778,0.041948,14.581512,16.762897,49.446045,,,,,,,
1523694847.190796,-0.707621,-0.077606,-1.908787,0.268855,0.097085,0.317229,-0.648071,0.077528,-0.757622,0.024292,-0.275862,-0.026328,14.930954,20.201328,39.457520,,,,,,,
1523694847.220765,-0.704077,-0.077142,-1.897457,0.205863,0.064518,0.287374,-0.645405,0.077065,-0.759942,-0.001338,-0.297738,-0.072425,15.589798,21.693195,34.276855,,,,,,,
1523694847.250733,-0.702507,-0.076261,-1.887613,0.215490,0.008505,0.238434,-0.644255,0.076187,-0.761006,-0.024431,-0.322815,-0.086406,13.973312,24.164433,23.241150,,,,,,,
1523694847.280701,-0.702087,-0.074571,-1.878185,0.231473,-0.028523,0.210772,-0.644018,0.074502,-0.761373,-0.048899,-0.350579,-0.097666,11.471924,24.994907,17.461548,,,,,,,
1523694847.310669,-0.702834,-0.073850,-1.868993,0.190573,-0.072156,0.235290,-0.644620,0.073783,-0.760933,-0.051837,-0.347678,-0.069755,6.083435,25.532673,5.981689,,,,,,,
1523694847.340638,-0.704841,-0.075621,-1.859783,0.143160,-0.099032,0.296019,-0.646060,0.075549,-0.759537,-0.036526,-0.327960,-0.017791,1.627808,25.847095,0.353210,,,,,,,
1523694847.370606,-0.706878,-0.076958,-1.848931,0.248905,-0.081275,0.302472,-0.647541,0.076882,-0.758142,0.001483,-0.302574,0.017862,-9.680756,25.663532,-9.101685,,,,,,,
1523694847.400574,-0.707228,-0.076117,-1.836517,0.302765,0.007908,0.291781,-0.647847,0.076043,-0.757964,0.033529,-0.270562,0.024795,-15.715027,24.486927,-12.849976,,,,,,,
1523694847.430542,-0.703571,-0.075206,-1.824193,0.249810,0.129047,0.311856,-0.645115,0.075135,-0.760381,0.040043,-0.240129,-0.011759,-29.872314,21.545994,-17.495239,,,,,,,
1523694847.460511,-0.700170,-0.075298,-1.812816,0.224955,0.061145,0.307632,-0.642522,0.075227,-0.762565,0.033040,-0.240876,-0.007455,-36.276703,19.548252,-19.065491,,,,,,,
1523694847.490479,-0.697924,-0.073800,-1.801286,0.268771,0.032553,0.276801,-0.640879,0.073733,-0.764092,-0.003225,-0.281146,-0.032936,-42.597092,17.551609,-19.135681,,,,,,,
1523694847.520447,-0.694833,-0.071722,-1.789992,0.247721,0.071031,0.252240,-0.638611,0.071661,-0.766185,-0.050171,-0.317297,-0.118001,-55.604843,12.288470,-15.821106,,,,,,,
1523694847.550416,-0.694270,-0.071211,-1.780674,0.151195,-0.044444,0.236303,-0.638203,0.071151,-0.766572,-0.075802,-0.349334,-0.158110,-60.272995,9.161654,-13.635986,,,,,,,
1523694847.580384,-0.697010,-0.073074,-1.772804,0.120738,-0.161299,0.242790,-0.640214,0.073009,-0.764718,-0.053374,-0.376812,-0.064109,-69.510284,3.510592,-6.267944,,,,,,,
1523694847.610352,-0.702724,-0.073584,-1.763048,0.267630,-0.230927,0.269612,-0.644549,0.073517,-0.761019,-0.009259,-0.351456,0.034091,-72.358292,1.052844,-1.834534,,,,,,,
1523694847.640320,-0.706180,-0.071208,-1.749383,0.385598,-0.067850,0.308956,-0.647287,0.071147,-0.758918,0.034143,-0.329082,0.050880,-75.809433,-3.798718,6.058105,,,,,,,
1523694847.670289,-0.703794,-0.069487,-1.734801,0.316876,0.115954,0.337488,-0.645553,0.069431,-0.760552,0.050262,-0.290775,-0.014152,-77.228287,-6.112454,10.941650,,,,,,,
1523694847.700257,-0.698690,-0.070417,-1.722378,0.182317,0.116232,0.344850,-0.641621,0.070359,-0.763787,0.048573,-0.280213,-0.068335,-76.305817,-9.182736,19.804382,,,,,,,
1523694847.730225,-0.697414,-0.070988,-1.710984,0.238473,-0.018608,0.309861,-0.640620,0.070928,-0.764575,0.026575,-0.295919,-0.045819,-75.543625,-10.307263,23.709290,,,,,,,
1523694847.760224,-0.698438,-0.067817,-1.698324,0.373839,-0.123817,0.263185,-0.641544,0.067765,-0.764087,-0.005460,-0.309236,-0.019742,-68.073349,-11.681043,33.543518,,,,,,,
1523694847.790192,-0.700797,-0.062474,-1.685012,0.387948,-0.101353,0.237597,-0.643569,0.062433,-0.762837,-0.023149,-0.334604,-0.030727,-63.252502,-11.624372,36.920715,,,,,,,
1523694847.820160,-0.703143,-0.058524,-1.672759,0.308951,-0.083190,0.251372,-0.645511,0.058490,-0.761507,-0.040921,-0.355319,-0.047361,-51.140518,-10.399747,41.046875,,,,,,,
1523694847.850149,-0.703939,-0.058055,-1.661443,0.217024,-0.047200,0.303480,-0.646135,0.058022,-0.761014,-0.047911,-0.368431,-0.053073,-45.879639,-9.672818,41.646545,,,,,,,
1523694847.880117,-0.705032,-0.060134,-1.649939,0.200648,-0.069840,0.354642,-0.646887,0.060098,-0.760214,-0.038050,-0.376031,-0.050699,-39.276947,-8.953275,40.896973,,,,,,,
1523694847.910085,-0.706754,-0.061550,-1.636700,0.292347,-0.092391,0.356858,-0.648139,0.061511,-0.759034,-0.002069,-0.353503,-0.030700,-28.252380,-5.932996,35.790466,,,,,,,
1523694847.940053,-0.707990,-0.059374,-1.621967,0.427287,-0.061535,0.303649,-0.649162,0.059339,-0.758332,0.038322,-0.326520,-0.013198,-24.654694,-4.452039,32.936279,,,,,,,
1523694847.970022,-0.707931,-0.055192,-1.606999,0.404212,0.015119,0.290769,-0.649273,0.055164,-0.758552,0.029614,-0.316212,-0.067361,-19.337738,-0.883267,25.649719,,,,,,,
1523694847.999990,-0.705812,-0.054026,-1.594297,0.221745,0.037862,0.292751,-0.647705,0.054000,-0.759975,-0.011841,-0.352599,-0.148641,-17.475952,0.678546,20.844360,,,,,,,
1523694848.029958,-0.703668,-0.055993,-1.584245,0.163966,0.004040,0.287414,-0.646005,0.055964,-0.761279,-0.055426,-0.360773,-0.210126,-18.987579,3.753284,13.781250,,,,,,,
1523694848.059927,-0.708559,-0.055990,-1.573825,0.279238,-0.280779,0.252622,-0.649720,0.055961,-0.758110,-0.036055,-0.364219,-0.082481,-20.716019,5.482608,10.323547,,,,,,,
,,,,,,,,,,,,,,,,25.300306,51.430741,20.424970,4.960000,158.554688,1523694847.998064,
1523694848.089895,-0.717057,-0.053109,-1.561035,0.390042,-0.307782,0.275111,-0.656243,0.053084,-0.752680,0.000649,-0.354109,0.049753,-25.600693,8.123584,4.310547,,,,,,,
1523694848.119864,-0.723240,-0.050238,-1.546426,0.383019,-0.146584,0.325013,-0.660982,0.050217,-0.748720,0.046907,-0.342866,0.126451,-28.679504,8.735782,2.656494,,,,,,,
1523694848.149832,-0.721866,-0.049239,-1.531879,0.312653,0.144528,0.354510,-0.659985,0.049219,-0.749664,0.062131,-0.326593,0.069778,-34.516739,11.235003,0.618591,,,,,,,
1523694848.179801,-0.715191,-0.050718,-1.518924,0.205105,0.209610,0.355429,-0.654918,0.050696,-0.753997,0.048809,-0.316275,-0.043671,-37.209595,12.221667,0.163330,,,,,,,
1523694848.209769,-0.709133,-0.051987,-1.507416,0.186789,0.138695,0.323512,-0.650296,0.051963,-0.757902,0.025311,-0.322502,-0.158770,-40.945953,13.363849,0.531921,,,,,,,
1523694848.239736,-0.708721,-0.052915,-1.496730,0.245765,-0.105488,0.270532,-0.649953,0.052890,-0.758132,0.004765,-0.346210,-0.122361,-46.090652,15.862887,1.419312,,,,,,,
1523694848.269704,-0.713589,-0.050408,-1.484389,0.382041,-0.206678,0.256883,-0.653720,0.050386,-0.755057,-0.002683,-0.382830,-0.016076,-48.327057,16.773701,2.164551,,,,,,,
1523694848.299673,-0.716282,-0.047291,-1.470873,0.329205,-0.038926,0.296096,-0.655851,0.047273,-0.753409,-0.027713,-0.406847,-0.030862,-54.974060,18.230854,4.405396,,,,,,,
1523694848.329641,-0.715494,-0.049241,-1.458727,0.139016,0.031059,0.384325,-0.655195,0.049221,-0.753854,-0.046724,-0.409359,-0.075125,-57.058807,18.766880,6.052246,,,,,,,
1523694848.359609,-0.714606,-0.054226,-1.446926,0.173836,-0.028718,0.411046,-0.654356,0.054200,-0.754241,-0.014299,-0.374726,-0.060044,-59.511337,19.305759,8.898804,,,,,,,
1523694848.389577,-0.714397,-0.055969,-1.432882,0.309812,0.012609,0.377021,-0.654136,0.055939,-0.754305,0.025474,-0.343857,-0.074125,-60.247498,19.610874,10.697205,,,,,,,
1523694848.419546,-0.712753,-0.055428,-1.418638,0.316542,0.034165,0.332247,-0.652915,0.055400,-0.755402,0.051627,-0.315211,-0.065704,-59.030716,19.533329,13.623169,,,,,,,
1523694848.449514,-0.712119,-0.054779,-1.405521,0.298227,-0.029382,0.308856,-0.652459,0.054751,-0.755843,0.053704,-0.302661,-0.039094,-57.448746,19.826878,14.297791,,,,,,,
1523694848.479482,-0.712343,-0.053614,-1.392668,0.318662,-0.015523,0.293947,-0.652670,0.053588,-0.755745,0.031332,-0.319839,-0.049248,-56.236221,20.722019,14.894775,,,,,,,
1523694848.509450,-0.711314,-0.052627,-1.379672,0.293028,0.014137,0.318393,-0.651926,0.052603,-0.756456,-0.012015,-0.345633,-0.089003,-56.009583,20.796162,15.044617,,,,,,,
1523694848.539419,-0.711169,-0.053131,-1.366867,0.248801,-0.057142,0.345076,-0.651799,0.053106,-0.756530,-0.027324,-0.334234,-0.098573,-55.332367,21.467350,14.292297,,,,,,,
1523694848.569387,-0.714496,-0.054366,-1.353957,0.266397,-0.169869,0.352656,-0.654269,0.054339,-0.754307,0.001833,-0.326175,-0.027385,-55.397644,22.667271,13.912476,,,,,,,
1523694848.599355,-0.718721,-0.054366,-1.340089,0.333764,-0.156173,0.345236,-0.657450,0.054340,-0.751536,0.043482,-0.327594,0.066371,-55.536865,23.792820,13.832886,,,,,,,
1523694848.629323,-0.719655,-0.052589,-1.324846,0.357058,0.058265,0.365290,-0.658214,0.052565,-0.750993,0.048519,-0.321364,0.078813,-56.332184,26.272205,14.647583,,,,,,,
1523694848.659292,-0.712927,-0.054436,-1.311461,0.100315,0.247673,0.419247,-0.653082,0.054409,-0.755330,-0.022852,-0.347042,-0.164592,-56.093719,27.396503,15.018188,,,,,,,
1523694848.689260,-0.706727,-0.063090,-1.302231,-0.062582,0.097303,0.404352,-0.648056,0.063048,-0.758978,-0.052063,-0.342223,-0.246103,-56.429581,29.875401,17.408081,,,,,,,
1523694848.719229,-0.708538,-0.069972,-1.293772,0.107277,-0.209668,0.325942,-0.649132,0.069915,-0.757456,-0.040321,-0.359558,-0.084509,-55.058792,30.696339,19.505493,,,,,,,
1523694848.749197,-0.716909,-0.068768,-1.281635,0.414607,-0.333195,0.252784,-0.655505,0.068714,-0.752058,0.011309,-0.362034,0.051191,-54.424637,32.046925,22.950439,,,,,,,
1523694848.779166,-0.722939,-0.063207,-1.266427,0.461318,-0.129445,0.274989,-0.660270,0.063165,-0.748367,0.045082,-0.349725,0.072357,-52.761200,32.490940,24.449524,,,,,,,
1523694848.809134,-0.721023,-0.061123,-1.252140,0.301000,0.140433,0.335333,-0.658921,0.061085,-0.749728,0.021226,-0.320271,-0.020505,-49.290192,33.152729,26.848572,,,,,,,
1523694848.839086,-0.714056,-0.063788,-1.239874,0.132431,0.220238,0.379877,-0.653572,0.063745,-0.754175,-0.020652,-0.298273,-0.154883,-46.807465,33.292606,27.899231,,,,,,,
1523694848.869055,-0.711184,-0.069015,-1.229513,0.094797,-0.082480,0.374829,-0.651178,0.068960,-0.755786,-0.042639,-0.272909,-0.141919,-44.030930,33.130634,28.426270,,,,,,,
1523694848.899023,-0.717556,-0.070937,-1.217502,0.274413,-0.299482,0.344279,-0.655892,0.070877,-0.751520,-0.015846,-0.269699,0.004404,-38.843857,33.932972,29.100647,,,,,,,
1523694848.928991,-0.724190,-0.068115,-1.202561,0.462920,-0.209351,0.305962,-0.660993,0.068062,-0.747299,0.016782,-0.285241,0.107834,-36.516586,34.297260,28.875366,,,,,,,
1523694848.958959,-0.726853,-0.061896,-1.185541,0.550350,-0.026650,0.283473,-0.663249,0.061856,-0.745838,0.041728,-0.262311,0.126393,-31.650528,34.798038,26.550781,,,,,,,
1523694848.988928,-0.722021,-0.056522,-1.169566,0.415871,0.212817,0.276740,-0.659848,0.056492,-0.749273,-0.005954,-0.271549,-0.017024,-30.680389,35.391880,24.748901,,,,,,,
1523694849.018896,-0.714553,-0.055793,-1.158329,0.155401,0.199798,0.256311,-0.654260,0.055764,-0.754211,-0.055121,-0.309365,-0.161652,-28.140137,36.127598,21.897217,,,,,,,
1523694849.048864,-0.713206,-0.058507,-1.150785,0.100711,-0.107043,0.240592,-0.653142,0.058474,-0.754974,-0.073329,-0.304903,-0.143051,-27.173462,36.645985,19.645630,,,,,,,
,,,,,,,,,,,,,,,,25.300254,51.430711,20.286754,4.550000,135.703125,1523694848.998050,
1523694849.078832,-0.719668,-0.058723,-1.141933,0.261244,-0.281579,0.221708,-0.657999,0.058690,-0.750728,-0.045645,-0.275807,0.076137,-25.443344,38.510944,17.389038,,,,,,,
1523694849.108801,-0.725185,-0.055610,-1.129730,0.386629,-0.140800,0.254695,-0.662249,0.055582,-0.747219,-0.020735,-0.280664,0.144925,-25.744583,39.560352,15.434692,,,,,,,
1523694849.138769,-0.723717,-0.053327,-1.115512,0.332005,0.157300,0.342802,-0.661233,0.053302,-0.748284,-0.021750,-0.291293,0.073312,-25.293045,41.655094,12.201538,,,,,,,
1523694849.168737,-0.714945,-0.055638,-1.102679,0.147779,0.301013,0.372347,-0.654561,0.055610,-0.753961,-0.029872,-0.295798,-0.062659,-26.715881,42.410587,11.297852,,,,,,,
1523694849.198705,-0.706754,-0.060051,-1.093557,0.041970,0.199727,0.306309,-0.648198,0.060015,-0.759103,-0.041316,-0.312777,-0.133460,-27.995392,43.314091,9.043579,,,,,,,
1523694849.228674,-0.704642,-0.063260,-1.086587,0.106545,-0.041958,0.201103,-0.646465,0.063218,-0.760320,-0.042973,-0.344682,-0.094829,-27.921036,44.062397,7.690552,,,,,,,
1523694849.258642,-0.708611,-0.061997,-1.079408,0.242886,-0.195878,0.129970,-0.649529,0.061958,-0.757808,-0.018332,-0.370948,0.037471,-28.968735,44.292118,7.689148,,,,,,,
1523694849.288610,-0.713478,-0.057821,-1.070388,0.327388,-0.134635,0.154484,-0.653374,0.057789,-0.754827,-0.007866,-0.363590,0.097478,-31.364777,45.276920,6.709045,,,,,,,
1523694849.318579,-0.712709,-0.054440,-1.060041,0.289784,0.111599,0.208554,-0.652917,0.054413,-0.755473,-0.012839,-0.340363,0.062601,-31.511032,45.877201,6.331543,,,,,,,
1523694849.348547,-0.706552,-0.052949,-1.049842,0.209867,0.199661,0.255293,-0.648305,0.052924,-0.759539,-0.035166,-0.295814,-0.035398,-34.053574,46.264240,6.928711,,,,,,,
1523694849.378515,-0.702346,-0.052760,-1.040773,0.171977,0.059654,0.233024,-0.645111,0.052736,-0.762267,-0.021347,-0.252809,-0.033617,-35.468628,46.721500,7.826172,,,,,,,
1523694849.408483,-0.702644,-0.050353,-1.031981,0.264557,-0.064532,0.182063,-0.645419,0.050331,-0.762169,-0.014173,-0.201729,0.037636,-37.560715,46.881962,8.874512,,,,,,,
1523694849.438452,-0.705260,-0.044696,-1.022087,0.340386,-0.102753,0.148075,-0.647584,0.044681,-0.760683,0.012056,-0.136539,0.072969,-38.387177,46.286442,9.626465,,,,,,,
1523694849.468420,-0.704228,-0.037674,-1.013185,0.306410,0.120805,0.100945,-0.646986,0.037666,-0.761571,-0.018709,-0.109931,0.015919,-40.330154,45.547581,12.028503,,,,,,,
1523694849.498388,-0.698909,-0.035007,-1.007299,0.039630,0.188229,0.129435,-0.642989,0.035000,-0.765075,-0.035066,-0.115643,-0.091385,-39.573425,45.545307,13.153870,,,,,,,
1523694849.528356,-0.695084,-0.039895,-1.005505,-0.165168,0.068189,0.195476,-0.639940,0.039885,-0.767389,-0.095228,-0.171537,-0.138632,-40.230194,45.251789,16.679688,,,,,,,
1523694849.558325,-0.697106,-0.047742,-1.003057,-0.105572,-0.141723,0.256469,-0.641270,0.047724,-0.765830,-0.118206,-0.240717,-0.107446,-40.143463,45.253345,18.629700,,,,,,,
1523694849.588293,-0.702629,-0.052534,-0.997385,0.069215,-0.233386,0.235374,-0.645335,0.052510,-0.762093,-0.093893,-0.244725,-0.030586,-38.624939,45.848606,20.728088,,,,,,,
1523694849.618261,-0.707546,-0.053020,-0.989837,0.205742,-0.096221,0.174600,-0.649057,0.052995,-0.758891,-0.022223,-0.209642,0.070720,-37.858292,45.847935,23.503479,,,,,,,
1523694849.648229,-0.708403,-0.049279,-0.981736,0.307917,-0.039501,0.080854,-0.649832,0.049259,-0.758480,0.045095,-0.181568,0.111996,-37.107864,45.620014,23.954773,,,,,,,
1523694849.678198,-0.709889,-0.041790,-0.974235,0.383990,-0.071015,0.002093,-0.651180,0.041778,-0.757772,0.066692,-0.151076,0.143331,-34.037018,44.931644,24.409119,,,,,,,
1523694849.708166,-0.710143,-0.032931,-0.966318,0.361911,0.048845,0.040316,-0.651589,0.032925,-0.757858,0.029000,-0.143597,0.090896,-33.813828,44.481083,24.860962,,,,,,,
1523694849.738134,-0.705442,-0.028798,-0.959446,0.138967,0.209155,0.140147,-0.648102,0.028794,-0.761009,-0.039048,-0.142182,-0.026253,-32.242325,44.173939,24.788025,,,,,,,
1523694849.768102,-0.701565,-0.031648,-0.954477,-0.048074,0.037861,0.236083,-0.645091,0.031642,-0.763450,-0.112508,-0.167736,-0.107674,-31.344452,43.645435,25.315552,,,,,,,
1523694849.798071,-0.703087,-0.038677,-0.950392,-0.115026,-0.099211,0.260670,-0.646092,0.038667,-0.762279,-0.145107,-0.164674,-0.088124,-31.052948,42.294956,26.146118,,,,,,,
1523694849.828039,-0.708356,-0.044929,-0.946682,-0.073633,-0.208450,0.214999,-0.649929,0.044914,-0.758666,-0.127674,-0.118888,-0.058243,-30.835754,41.244434,26.600464,,,,,,,
1523694849.858010,-0.715574,-0.051090,-0.943948,-0.099514,-0.292166,0.191621,-0.655195,0.051067,-0.753732,-0.058230,-0.055721,-0.007498,-31.076279,39.371052,27.132751,,,,,,,
