timestamp(unix),attitude_roll(radians),attitude_pitch(radians),attitude_yaw(radians),rotation_rate_x(radians/s),rotation_rate_y(radians/s),rotation_rate_z(radians/s),gravity_x(G),gravity_y(G),gravity_z(G),user_acc_x(G),user_acc_y(G),user_acc_z(G),magnetic_field_x(microteslas),magnetic_field_y(microteslas),magnetic_field_z(microteslas),latitude(degree),longitude(degree),altitude(meter),speed(m/s),course(degree),timestamp(unix),User Mark
1523695829.202267,-0.628768,0.071592,1.596052,0.931242,0.045664,-0.357517,-0.586639,-0.071531,-0.806677,-0.009736,0.002180,-0.097421,3.107285,-18.062252,12.811890,,,,,,,
,,,,,,,,,,,,,,,,25.313786,51.440123,11.742367,7.920000,274.921875,1523695828.996744,
1523695829.232235,-0.634129,0.086522,1.602904,0.101098,-0.355489,0.016264,-0.590257,-0.086414,-0.802570,0.021608,0.096515,-0.050472,2.277496,-17.909557,11.760925,,,,,,,
1523695829.262204,-0.640248,0.080170,1.598096,-0.374257,-0.163096,0.024243,-0.595472,-0.080084,-0.799368,0.029799,0.043966,0.092779,0.994003,-17.455959,9.583435,,,,,,,
1523695829.292172,-0.640506,0.072710,1.594960,-0.212126,0.069058,0.047563,-0.596019,-0.072646,-0.799671,0.029674,0.100890,0.005252,-0.419403,-16.698940,10.254700,,,,,,,
1523695829.322140,-0.636840,0.070761,1.593777,0.039520,0.129600,-0.039673,-0.593167,-0.070702,-0.801963,-0.044285,0.015618,-0.033807,-1.159042,-16.020016,10.851685,,,,,,,
1523695829.352108,-0.636739,0.072650,1.593753,0.030986,-0.081993,-0.018152,-0.593006,-0.072586,-0.801914,-0.021618,-0.069794,-0.095227,-1.807053,-14.215603,12.344116,,,,,,,
1523695829.382077,-0.645420,0.075691,1.596275,0.326169,-0.421803,-0.001617,-0.599809,-0.075619,-0.796556,-0.036040,-0.062229,0.033754,-2.315536,-13.461819,13.840820,,,,,,,
1523695829.412045,-0.657495,0.086275,1.607888,0.586873,-0.234203,0.125191,-0.608860,-0.086168,-0.788577,0.037906,-0.009764,0.079120,-3.559006,-11.653973,16.083008,,,,,,,
1523695829.442013,-0.658461,0.091884,1.615626,-0.022394,0.048082,0.091418,-0.609316,-0.091754,-0.787594,0.013186,0.039997,-0.054249,-2.868744,-10.531414,16.753845,,,,,,,
1523695829.471982,-0.653131,0.078958,1.613250,-0.573370,0.243727,0.269815,-0.605780,-0.078876,-0.791706,-0.020654,-0.050793,-0.026622,-3.609238,-10.526501,18.328491,,,,,,,
1523695829.501950,-0.642326,0.064742,1.611414,-0.199678,0.416395,0.213448,-0.597802,-0.064697,-0.799023,-0.061683,-0.070282,-0.194385,-2.846985,-10.153515,19.752319,,,,,,,
1523695829.531918,-0.627996,0.064915,1.618225,0.282668,0.505029,0.131671,-0.586284,-0.064869,-0.807498,-0.008794,0.020298,-0.419583,-1.699539,-9.256435,21.999329,,,,,,,
1523695829.561886,-0.617646,0.069562,1.622325,0.050760,0.245460,-0.048309,-0.577715,-0.069506,-0.813268,-0.111311,0.053225,-0.420725,-1.389938,-8.657223,22.597046,,,,,,,
1523695829.591855,-0.607809,0.067307,1.616220,-0.284454,0.384028,-0.141403,-0.569774,-0.067257,-0.819039,-0.106724,0.016796,-0.410377,1.024200,-7.916958,23.720337,,,,,,,
1523695829.621823,-0.602279,0.063425,1.611045,-0.141007,-0.086959,-0.005495,-0.565381,-0.063382,-0.822386,-0.033329,0.044629,-0.395555,4.031708,-7.479977,24.245117,,,,,,,
1523695829.651822,-0.610457,0.059692,1.608564,-0.180563,-0.298534,0.025585,-0.572218,-0.059657,-0.817923,-0.022661,0.051737,-0.261545,5.012802,-6.734615,24.017578,,,,,,,
1523695829.681796,-0.622371,0.054373,1.607571,-0.130328,-0.448935,0.089705,-0.582099,-0.054346,-0.811294,0.020926,0.103953,-0.083329,10.405197,-6.235973,21.918274,,,,,,,
1523695829.711764,-0.634022,0.049300,1.607533,-0.171651,-0.355476,0.110895,-0.591667,-0.049280,-0.804669,0.069618,0.082941,0.038968,12.802826,-5.573269,20.416809,,,,,,,
1523695829.741732,-0.644917,0.041552,1.607152,-0.236155,-0.388627,0.165214,-0.600610,-0.041540,-0.798456,0.150567,0.089133,0.164804,13.975555,-5.283581,15.391235,,,,,,,
1523695829.771701,-0.657422,0.033253,1.606126,-0.225110,-0.391349,0.093840,-0.610737,-0.033247,-0.791129,0.098545,0.050718,0.312125,14.416504,-4.837811,13.139648,,,,,,,
1523695829.801669,-0.662867,0.031799,1.601928,-0.012724,-0.041263,-0.202572,-0.615065,-0.031794,-0.787829,0.030501,-0.093252,0.315569,11.174332,-4.077343,9.010010,,,,,,,
1523695829.831637,-0.660139,0.043642,1.598978,0.431237,0.186261,-0.378281,-0.612640,-0.043628,-0.789151,0.027236,-0.088940,0.230938,9.220047,-3.694912,7.657532,,,,,,,
1523695829.861605,-0.649802,0.060907,1.598984,0.341104,0.446076,-0.272055,-0.603904,-0.060869,-0.794723,-0.081628,-0.078550,-0.009186,5.684830,-3.905346,6.306641,,,,,,,
1523695829.891574,-0.635436,0.063350,1.597945,-0.133505,0.473587,0.064272,-0.592335,-0.063308,-0.803195,-0.029369,-0.055894,0.011645,3.873688,-5.022198,6.310181,,,,,,,
1523695829.921542,-0.622791,0.053779,1.600107,-0.219749,0.396296,0.359430,-0.582459,-0.053753,-0.811075,0.072998,-0.090031,0.074000,1.304184,-7.110409,6.542236,,,,,,,
1523695829.951510,-0.613256,0.043800,1.607425,-0.066604,0.257802,0.355423,-0.574979,-0.043786,-0.816990,0.159879,-0.071814,0.160252,1.522018,-8.235699,7.221802,,,,,,,
1523695829.981478,-0.606443,0.040067,1.613560,0.069249,0.293023,0.132798,-0.569488,-0.040056,-0.821018,0.221039,0.005068,0.251239,2.051498,-8.461956,8.347961,,,,,,,
1523695830.011447,-0.594563,0.042811,1.614370,0.102285,0.447775,-0.128377,-0.559631,-0.042798,-0.827631,0.231613,0.073285,0.202372,1.507812,-10.109875,7.979309,,,,,,,
1523695830.041415,-0.583971,0.050572,1.612055,0.225759,0.228389,-0.250619,-0.550634,-0.050551,-0.833210,0.257116,0.121764,0.161365,1.578644,-10.709896,8.281738,,,,,,,
,,,,,,,,,,,,,,,,25.313792,51.440059,11.743679,6.910000,282.656250,1523695829.996733,
1523695830.071383,-0.583224,0.063249,1.609443,0.357070,-0.098719,-0.323705,-0.549615,-0.063207,-0.833019,0.227380,0.081594,0.209728,0.668793,-11.381329,7.758972,,,,,,,
1523695830.101352,-0.583603,0.074951,1.607252,0.196313,0.114608,-0.229212,-0.549485,-0.074880,-0.832137,0.158707,-0.023417,0.191252,-0.607513,-11.600430,7.909180,,,,,,,
1523695830.131320,-0.576223,0.080653,1.603776,0.042111,0.302753,-0.183698,-0.543087,-0.080565,-0.835798,0.110089,-0.099931,0.104535,-0.085648,-12.277172,8.512207,,,,,,,
1523695830.161288,-0.563800,0.082373,1.600816,-0.037888,0.475218,-0.049675,-0.532588,-0.082280,-0.842362,0.032878,-0.106777,-0.061233,-0.763306,-12.723827,8.813660,,,,,,,
1523695830.191256,-0.549853,0.077671,1.599857,-0.261068,0.428867,0.122824,-0.520984,-0.077593,-0.850028,-0.038525,-0.069776,-0.216866,-0.001068,-11.901592,9.485718,,,,,,,
1523695830.221225,-0.535584,0.063449,1.596575,-0.609081,0.471018,0.147019,-0.509315,-0.063406,-0.858237,-0.049920,-0.068979,-0.312325,0.603561,-11.304531,9.258667,,,,,,,
1523695830.251193,-0.525149,0.042921,1.589885,-0.692153,0.253518,0.126942,-0.500879,-0.042908,-0.864450,-0.091727,0.017823,-0.234565,-0.580704,-9.499584,8.875854,,,,,,,
1523695830.281161,-0.519905,0.027218,1.584561,-0.424791,0.096759,0.111316,-0.496612,-0.027214,-0.867542,-0.060089,0.044442,-0.246319,-0.643127,-8.598705,9.472168,,,,,,,
1523695830.311129,-0.521834,0.018232,1.582562,-0.187800,-0.209469,0.056388,-0.498387,-0.018231,-0.866759,0.079686,0.145611,-0.171037,0.724350,-6.804943,9.390686,,,,,,,
1523695830.341098,-0.535364,0.018912,1.582780,0.203683,-0.633799,-0.034518,-0.510061,-0.018911,-0.859926,0.091619,0.135717,0.065844,1.175507,-6.731899,9.465637,,,,,,,
1523695830.371066,-0.558990,0.034132,1.588393,0.780339,-0.764989,-0.169279,-0.530019,-0.034125,-0.847294,-0.021921,0.041617,0.325352,2.219635,-6.962200,8.867126,,,,,,,
1523695830.401034,-0.570887,0.053117,1.595176,0.501008,-0.136679,-0.113650,-0.539614,-0.053092,-0.840232,-0.008329,0.044639,0.304603,4.540298,-6.673840,7.667114,,,,,,,
1523695830.431002,-0.569910,0.063461,1.595763,0.168712,0.147622,-0.230328,-0.538468,-0.063419,-0.840251,-0.099120,0.033481,0.258281,3.703049,-7.271114,6.619080,,,,,,,
1523695830.460971,-0.561794,0.069047,1.588231,-0.067899,0.312827,-0.370250,-0.531434,-0.068992,-0.844281,-0.126449,-0.028771,0.135007,2.713531,-7.643459,4.820068,,,,,,,
1523695830.490939,-0.549641,0.068353,1.574201,-0.471374,0.365722,-0.345032,-0.521159,-0.068300,-0.850718,-0.159337,-0.196943,-0.075872,2.408722,-7.493145,3.769287,,,,,,,
1523695830.520907,-0.541842,0.057836,1.560083,-0.458695,0.106030,-0.136992,-0.514851,-0.057804,-0.855325,-0.037349,-0.191418,0.003656,-0.750870,-8.004681,3.019714,,,,,,,
1523695830.550875,-0.540350,0.053456,1.555814,-0.060501,0.052823,0.033853,-0.513699,-0.053430,-0.856301,-0.052097,-0.061331,0.073312,-1.802643,-8.224865,3.095093,,,,,,,
1523695830.580844,-0.540554,0.049780,1.558909,-0.055113,0.008169,0.188395,-0.513972,-0.049760,-0.856359,-0.013097,0.064607,0.236806,-3.683975,-9.265728,3.773315,,,,,,,
1523695830.610812,-0.533866,0.046487,1.560963,-0.013322,0.364940,0.059143,-0.508313,-0.046470,-0.859914,0.073819,-0.013497,0.215917,-5.262756,-10.457272,5.127319,,,,,,,
1523695830.640780,-0.525780,0.053377,1.563469,0.416990,0.160098,-0.126805,-0.501172,-0.053351,-0.863698,0.135525,0.013236,0.103139,-6.309647,-12.174175,8.508667,,,,,,,
1523695830.670770,-0.520968,0.067588,1.565167,0.372797,0.195908,-0.218502,-0.496582,-0.067537,-0.865355,0.080307,-0.024840,0.072585,-5.856476,-12.849560,10.161560,,,,,,,
1523695830.700738,-0.513625,0.076111,1.563180,0.105825,0.265137,-0.147375,-0.489914,-0.076037,-0.868445,-0.020508,-0.098234,-0.012857,-6.684692,-14.343884,12.117126,,,,,,,
1523695830.730707,-0.498703,0.076101,1.560118,-0.164821,0.716846,-0.065985,-0.476901,-0.076028,-0.875660,-0.111966,-0.152396,-0.220349,-7.580536,-16.136166,15.798889,,,,,,,
1523695830.760675,-0.472231,0.067308,1.553594,-0.539148,0.845095,-0.037626,-0.453843,-0.067257,-0.888537,-0.253371,-0.135288,-0.456709,-7.202667,-16.661510,17.151184,,,,,,,
1523695830.790643,-0.456419,0.046009,1.542734,-0.958642,0.227272,0.023420,-0.440269,-0.045993,-0.896684,-0.202477,0.014972,-0.494703,-8.184784,-18.006039,18.206055,,,,,,,
1523695830.820611,-0.464810,0.021365,1.531101,-0.778680,-0.634634,-0.019279,-0.448149,-0.021363,-0.893701,-0.098573,0.133805,-0.304206,-6.912064,-18.686016,18.959412,,,,,,,
1523695830.850580,-0.492531,0.010961,1.524334,-0.101512,-1.071848,-0.038583,-0.472828,-0.010961,-0.881084,0.001652,0.170049,-0.020177,-6.149353,-18.088329,20.082397,,,,,,,
1523695830.880548,-0.523165,0.020097,1.529522,0.616399,-0.894577,0.034240,-0.499522,-0.020096,-0.866065,-0.008672,0.055679,0.097800,-5.612366,-17.564617,21.205566,,,,,,,
1523695830.910516,-0.541530,0.038423,1.541109,0.716332,-0.338734,-0.016320,-0.515066,-0.038414,-0.856286,-0.147562,-0.037667,0.040429,-5.420578,-14.863018,23.669861,,,,,,,
1523695830.940484,-0.544671,0.054516,1.547446,0.393858,-0.034115,-0.155385,-0.517366,-0.054489,-0.854024,-0.237731,-0.174393,-0.141352,-4.421616,-13.590633,25.540283,,,,,,,
1523695830.970453,-0.549576,0.057118,1.543328,-0.296107,-0.308766,-0.141774,-0.521472,-0.057087,-0.851353,-0.215116,-0.184704,-0.215023,-1.853714,-13.149944,27.789795,,,,,,,
1523695831.000421,-0.560503,0.043502,1.528125,-0.875486,-0.388149,-0.282782,-0.531108,-0.043488,-0.846183,-0.285817,-0.092757,-0.079766,0.470749,-13.609722,28.467834,,,,,,,
1523695831.030389,-0.568454,0.025140,1.505260,-0.826852,-0.281871,-0.303095,-0.538158,-0.025137,-0.842465,-0.211293,-0.123804,0.005902,4.508011,-14.753109,28.249390,,,,,,,
,,,,,,,,,,,,,,,,25.313797,51.439971,11.677303,7.640000,286.523438,1523695830.996722,
1523695831.060357,-0.580511,0.020070,1.493302,-0.004699,-0.445820,-0.247975,-0.548339,-0.020069,-0.836011,-0.168244,-0.061550,0.117978,9.956116,-16.504192,26.684143,,,,,,,
1523695831.090326,-0.593915,0.033990,1.494133,0.633332,-0.490238,-0.201636,-0.559285,-0.033984,-0.828274,-0.065151,-0.080808,0.134472,11.818146,-17.263470,25.788147,,,,,,,
1523695831.120294,-0.607395,0.053836,1.501521,0.612190,-0.395907,-0.160189,-0.569901,-0.053810,-0.819945,0.040040,-0.042641,0.142866,15.547577,-17.658031,23.016541,,,,,,,
1523695831.150262,-0.615311,0.061695,1.502144,0.009049,-0.173171,-0.190696,-0.576112,-0.061656,-0.815037,0.127320,0.020365,0.223286,16.969025,-17.065990,21.439880,,,,,,,
1523695831.180230,-0.617911,0.064392,1.497117,-0.034435,-0.030064,-0.124817,-0.578131,-0.064348,-0.813398,0.064566,0.035936,0.253705,17.471771,-16.772457,17.239014,,,,,,,
1523695831.210199,-0.615443,0.064156,1.496271,-0.065333,0.149633,0.019898,-0.576130,-0.064112,-0.814834,0.017765,0.065103,0.194153,17.534119,-16.550213,14.763062,,,,,,,
1523695831.240167,-0.606946,0.059010,1.493081,-0.280040,0.347903,0.006753,-0.569367,-0.058976,-0.819961,-0.035400,0.063279,0.122451,14.880707,-16.917400,10.638245,,,,,,,
1523695831.270135,-0.597228,0.051763,1.489163,-0.234716,0.266742,0.048422,-0.561597,-0.051739,-0.825787,-0.018100,0.055096,0.071835,13.820663,-16.839428,8.837402,,,,,,,
1523695831.300104,-0.590926,0.048861,1.486727,-0.030696,0.133314,-0.087690,-0.556463,-0.048841,-0.829431,0.034994,0.049467,0.042169,10.737076,-16.302883,6.508667,,,,,,,
1523695831.330072,-0.590030,0.055634,1.482990,0.212179,-0.036680,-0.330269,-0.555523,-0.055605,-0.829635,0.036602,-0.012083,0.036758,9.535309,-16.073147,5.832214,,,,,,,
1523695831.360040,-0.594428,0.067699,1.479115,0.244168,-0.232577,-0.287429,-0.558750,-0.067647,-0.826568,0.003223,-0.126170,0.014632,8.183258,-15.917675,5.230896,,,,,,,
1523695831.390008,-0.598934,0.073878,1.475496,0.055309,-0.073549,-0.170512,-0.562223,-0.073810,-0.823681,-0.043796,-0.164822,0.082180,4.733841,-15.902081,5.304077,,,,,,,
1523695831.419977,-0.599628,0.076788,1.473976,0.039056,0.017011,-0.047015,-0.562670,-0.076712,-0.823109,-0.089155,-0.099099,0.107716,4.136124,-16.123638,6.054688,,,,,,,
1523695831.449945,-0.595381,0.079139,1.474064,0.030420,0.251773,-0.032346,-0.559067,-0.079056,-0.825340,-0.086334,-0.009597,0.085426,3.380493,-16.869930,6.357300,,,,,,,
1523695831.479913,-0.585370,0.083481,1.472813,0.063497,0.404106,-0.099596,-0.550581,-0.083384,-0.830602,-0.079332,0.000834,-0.005580,2.770355,-17.842251,6.285889,,,,,,,
1523695831.509881,-0.575572,0.086581,1.472809,0.028588,0.348283,-0.005801,-0.542274,-0.086473,-0.835736,-0.065591,0.029481,-0.070881,1.492844,-18.136425,6.361450,,,,,,,
1523695831.539850,-0.567181,0.087432,1.471015,-0.033980,0.286697,-0.141111,-0.535202,-0.087321,-0.840194,-0.073867,0.008143,-0.096879,0.822968,-17.758190,6.584595,,,,,,,
1523695831.569818,-0.561898,0.090461,1.466561,0.031493,0.085946,-0.176023,-0.530613,-0.090338,-0.842782,-0.107769,-0.046411,-0.131614,-1.257584,-16.847118,8.304871,,,,,,,
1523695831.599786,-0.562304,0.092997,1.462299,-0.023893,-0.091537,-0.151383,-0.530831,-0.092863,-0.842370,-0.120200,-0.085924,-0.101005,-0.872406,-16.323025,9.127991,,,,,,,
1523695831.629754,-0.568392,0.093944,1.459436,-0.035834,-0.285426,-0.076610,-0.535902,-0.093806,-0.839048,-0.089403,-0.019353,-0.046130,0.489059,-15.353848,9.424744,,,,,,,
1523695831.659723,-0.577413,0.095402,1.455194,-0.007653,-0.335625,-0.201208,-0.543374,-0.095258,-0.834064,-0.044272,0.030957,0.016407,0.261368,-15.353283,8.974670,,,,,,,
1523695831.689718,-0.585736,0.100913,1.448267,0.045985,-0.217812,-0.352590,-0.549998,-0.100741,-0.829063,-0.034292,0.045688,0.084022,1.162659,-15.132488,8.824219,,,,,,,
1523695831.719687,-0.584897,0.110241,1.439193,0.128396,0.155834,-0.477571,-0.548760,-0.110017,-0.828705,-0.070625,0.039888,0.079742,1.171783,-14.307384,8.970947,,,,,,,
1523695831.749655,-0.574548,0.122655,1.427661,0.132283,0.371518,-0.626959,-0.539370,-0.122348,-0.833128,-0.084089,0.016788,-0.025316,0.417023,-14.604275,8.671753,,,,,,,
1523695831.779623,-0.565562,0.135207,1.411548,0.032547,0.169432,-0.716332,-0.530998,-0.134796,-0.836579,-0.112404,-0.114975,-0.155899,-0.175903,-14.076321,8.969360,,,,,,,
1523695831.809591,-0.568886,0.139613,1.399201,-0.164665,-0.352221,-0.203439,-0.533450,-0.139160,-0.834301,-0.085187,-0.096954,-0.069477,-0.171555,-13.776104,9.193176,,,,,,,
1523695831.839560,-0.580990,0.136700,1.395492,-0.066470,-0.397260,-0.029632,-0.543730,-0.136274,-0.828118,-0.031557,0.010618,0.065499,-0.853531,-14.972210,10.022583,,,,,,,
1523695831.869528,-0.591472,0.141761,1.393294,0.189061,-0.351633,-0.262836,-0.551988,-0.141287,-0.821790,0.006731,0.039801,0.062910,-0.410583,-15.948757,10.476746,,,,,,,
1523695831.899496,-0.600401,0.153604,1.387036,0.190194,-0.309962,-0.446156,-0.558319,-0.153000,-0.815391,0.012787,0.034485,0.098884,1.142960,-18.505062,11.162720,,,,,,,
1523695831.929465,-0.607666,0.165187,1.379359,0.179405,-0.281577,-0.399307,-0.563178,-0.164437,-0.809804,0.081962,-0.050895,0.097478,0.839417,-19.627407,12.442017,,,,,,,
1523695831.959433,-0.613140,0.178119,1.370483,0.168822,-0.184946,-0.537928,-0.566332,-0.177178,-0.804902,0.013826,-0.025306,0.127290,0.672272,-22.474773,14.328369,,,,,,,
1523695831.989401,-0.612420,0.189608,1.355296,-0.128801,0.134782,-0.719607,-0.564544,-0.188474,-0.803591,-0.002015,-0.103457,0.056277,1.570618,-23.677090,16.058655,,,,,,,
1523695832.019369,-0.601590,0.193450,1.331954,-0.352917,0.277013,-0.616567,-0.555395,-0.192246,-0.809055,-0.067652,-0.144424,0.107273,2.092102,-25.926281,19.217896,,,,,,,
1523695832.049338,-0.589646,0.196921,1.317753,0.019652,0.358008,-0.329733,-0.545318,-0.195651,-0.815071,-0.094636,-0.114606,0.099693,3.214233,-26.980038,20.497681,,,,,,,
,,,,,,,,,,,,,,,,25.313805,51.439899,11.640347,7.360000,292.851562,1523695831.996710,
1523695832.079306,-0.579436,0.207164,1.318756,0.441867,0.335768,-0.034253,-0.535842,-0.205686,-0.818876,-0.107834,-0.012332,0.025068,4.342499,-27.284069,21.549438,,,,,,,
1523695832.109274,-0.574975,0.219483,1.325800,0.276860,0.164292,-0.070432,-0.530765,-0.217726,-0.819070,-0.001049,0.069380,-0.094245,6.081421,-27.738811,24.627136,,,,,,,
1523695832.139242,-0.574272,0.220473,1.319933,-0.296747,-0.032147,-0.190004,-0.530072,-0.218692,-0.819262,-0.024631,0.010455,0.002199,6.760895,-27.741131,25.377502,,,,,,,
1523695832.169211,-0.575910,0.213307,1.309385,-0.407291,-0.153071,-0.182498,-0.532253,-0.211693,-0.819686,0.000576,0.006569,0.067412,9.992813,-27.679623,26.428833,,,,,,,
1523695832.199179,-0.574488,0.207333,1.293844,-0.427520,0.017836,-0.454391,-0.531765,-0.205851,-0.821488,-0.015293,-0.022268,0.054002,12.474319,-27.165554,26.653076,,,,,,,
1523695832.229147,-0.566659,0.210095,1.270634,-0.229212,0.188134,-0.867840,-0.525010,-0.208553,-0.825144,-0.029525,-0.020070,0.092279,17.337112,-27.264309,24.780884,,,,,,,
1523695832.259115,-0.549711,0.226194,1.243453,0.088309,0.481244,-1.106584,-0.509130,-0.224270,-0.830952,-0.033106,-0.052662,-0.064235,18.525040,-28.020397,24.034485,,,,,,,
1523695832.289084,-0.534485,0.240973,1.217099,-0.139758,0.158057,-0.851769,-0.494678,-0.238647,-0.835664,-0.086560,-0.018921,-0.136794,20.592728,-29.682323,21.417175,,,,,,,
1523695832.319052,-0.533261,0.246096,1.194893,-0.219707,-0.294770,-0.651045,-0.493027,-0.243619,-0.835205,-0.097092,0.022184,-0.034821,21.482941,-30.212078,20.669739,,,,,,,
1523695832.349020,-0.538705,0.253503,1.173695,-0.090710,-0.327722,-0.846972,-0.496627,-0.250797,-0.830936,-0.009446,0.086002,0.031010,23.356491,-29.771481,19.693909,,,,,,,
1523695832.378988,-0.536030,0.270083,1.139274,-0.085368,-0.100200,-1.471603,-0.492210,-0.266812,-0.828573,0.028923,0.014355,0.056875,23.730423,-29.473843,19.017883,,,,,,,
1523695832.408957,-0.523285,0.291852,1.093595,-0.215568,0.088922,-1.726544,-0.478594,-0.287726,-0.829550,0.047732,-0.044763,0.015067,24.113174,-28.426022,18.563904,,,,,,,
1523695832.438925,-0.495393,0.307965,1.033184,-0.626836,0.545313,-2.110902,-0.453010,-0.303120,-0.838387,0.010765,-0.052730,0.064903,25.095581,-27.006573,17.433716,,,,,,,
1523695832.468893,-0.449485,0.324674,0.960549,-0.382902,0.819677,-2.379508,-0.411799,-0.319000,-0.853612,-0.052144,-0.111023,0.013692,25.627441,-25.959576,16.829773,,,,,,,
1523695832.498862,-0.405527,0.353783,0.887534,0.169706,0.517789,-2.557815,-0.370070,-0.346449,-0.861983,-0.066347,-0.007143,-0.003526,26.323792,-23.413387,16.144958,,,,,,,
1523695832.528830,-0.371423,0.390841,0.815633,-0.134298,0.053056,-2.397738,-0.335571,-0.380966,-0.861540,-0.076615,-0.254715,-0.384935,27.314301,-21.992626,16.364746,,,,,,,
1523695832.558798,-0.360765,0.386824,0.752974,-1.149243,-0.668576,-1.260858,-0.326907,-0.377249,-0.866492,-0.117978,-0.217539,-0.017449,27.472504,-20.045223,14.482056,,,,,,,
1523695832.588766,-0.368863,0.373809,0.715645,-0.361453,-0.663060,-0.813808,-0.335655,-0.365164,-0.868323,0.042427,-0.066248,0.317176,27.176071,-19.144787,13.578247,,,,,,,
1523695832.618735,-0.370047,0.395148,0.693910,0.924985,0.083932,-0.964903,-0.333789,-0.384944,-0.860463,0.012225,-0.010762,0.395818,26.963165,-17.344814,12.596008,,,,,,,
1523695832.648703,-0.339724,0.440498,0.678844,1.304008,1.298432,-0.939206,-0.301415,-0.426390,-0.852839,-0.014793,-0.020921,0.106638,26.671844,-16.293804,12.291626,,,,,,,
1523695832.678659,-0.276721,0.463701,0.658202,-0.090891,2.042376,-0.610692,-0.244353,-0.447261,-0.860374,-0.095811,-0.183720,-0.126855,26.608978,-15.168377,12.437073,,,,,,,
1523695832.708658,-0.206839,0.442648,0.639445,-1.229484,2.011474,-0.346192,-0.185574,-0.428334,-0.884357,-0.032642,-0.231364,-0.193341,25.331055,-15.462627,12.437622,,,,,,,
1523695832.738626,-0.176666,0.409683,0.616816,-0.874641,-0.334922,-0.601420,-0.161204,-0.398318,-0.902968,-0.087987,-0.219174,-0.176225,24.879425,-15.760372,12.663635,,,,,,,
1523695832.768594,-0.185167,0.412000,0.590709,0.363712,-0.767036,-0.943153,-0.168704,-0.400443,-0.900655,-0.018857,-0.070383,0.151678,27.742615,-14.348415,12.509399,,,,,,,
1523695832.798563,-0.200566,0.432371,0.555687,0.366715,-1.022524,-1.331818,-0.180890,-0.419024,-0.889771,0.050702,0.128436,0.246293,28.429871,-13.301205,12.805542,,,,,,,
1523695832.828531,-0.211860,0.443691,0.509940,0.304203,-1.471351,-1.402805,-0.189917,-0.429276,-0.882977,0.257971,0.116821,-0.057437,30.754135,-12.338390,11.077881,,,,,,,
1523695832.858499,-0.212632,0.464566,0.486182,0.481365,0.103663,-0.437824,-0.188667,-0.448034,-0.873879,0.108405,0.113058,0.002572,32.404205,-11.971416,10.477234,,,,,,,
1523695832.888467,-0.193177,0.471566,0.492658,0.095639,0.957284,0.559425,-0.171025,-0.454282,-0.874284,0.021214,-0.049472,-0.089079,30.964462,-13.764400,11.008667,,,,,,,
1523695832.918436,-0.185688,0.463811,0.518693,-0.148749,0.339722,0.824117,-0.165117,-0.447360,-0.878977,0.004610,-0.053937,0.083734,30.054169,-14.885159,11.162720,,,,,,,
1523695832.948404,-0.191157,0.464230,0.534901,0.341071,-0.024426,0.148243,-0.169887,-0.447735,-0.877876,-0.040471,-0.085255,0.102501,28.849289,-15.779064,11.840698,,,,,,,
1523695832.978372,-0.190175,0.481828,0.532965,0.602958,0.017261,-0.283140,-0.167509,-0.463400,-0.870170,0.009413,-0.100779,0.017570,28.021973,-16.599361,12.818542,,,,,,,
1523695833.008340,-0.189826,0.496115,0.530125,0.299201,-0.012654,-0.000969,-0.165938,-0.476013,-0.863638,0.041396,-0.079422,0.076833,27.048981,-17.118771,14.020142,,,,,,,
1523695833.038309,-0.183573,0.497711,0.542325,-0.039870,0.737666,0.558481,-0.160396,-0.477415,-0.863911,-0.013340,-0.103212,0.022007,28.162994,-17.949230,13.573975,,,,,,,
1523695833.068277,-0.172441,0.491512,0.563164,-0.096538,0.565136,0.632144,-0.151275,-0.471959,-0.868541,-0.035005,-0.121150,0.006054,25.982574,-18.988598,14.402039,,,,,,,
,,,,,,,,,,,,,,,,25.313807,51.439820,11.603054,7.560000,335.742188,1523695832.996699,
1523695833.098245,-0.163952,0.488884,0.578143,-0.006317,0.547009,0.307237,-0.144098,-0.469641,-0.871015,-0.055792,-0.024301,-0.002124,25.451324,-19.661129,14.479492,,,,,,,
1523695833.128214,-0.146915,0.491274,0.583407,0.158079,0.684604,0.022728,-0.129074,-0.471750,-0.872231,-0.007798,0.037866,0.007851,25.973755,-19.963406,14.555969,,,,,,,
1523695833.158182,-0.133941,0.504464,0.582997,0.605151,0.203232,-0.134153,-0.116906,-0.483338,-0.867589,-0.010062,0.064713,0.020833,25.084778,-20.481701,17.257629,,,,,,,
1523695833.188150,-0.136663,0.529626,0.577715,0.840599,-0.406772,-0.359258,-0.117572,-0.505211,-0.854946,0.003818,0.019035,-0.024693,25.920227,-19.884716,18.005676,,,,,,,
1523695833.218118,-0.145353,0.548470,0.566717,0.350652,-0.449797,-0.416042,-0.123596,-0.521382,-0.844321,-0.000504,-0.064402,-0.019601,30.141357,-18.851910,19.803650,,,,,,,
1523695833.248087,-0.147668,0.548943,0.555346,-0.184019,-0.156622,-0.210031,-0.125514,-0.521786,-0.843788,-0.020436,-0.119022,-0.007790,31.724960,-18.033962,19.876160,,,,,,,
1523695833.278055,-0.151486,0.546168,0.553671,0.074921,-0.187900,0.066171,-0.128953,-0.519417,-0.844731,0.008317,-0.059990,0.058705,34.283524,-16.771160,19.197327,,,,,,,
1523695833.308023,-0.158221,0.556686,0.557556,0.505877,-0.101431,0.008862,-0.133771,-0.528375,-0.838402,0.015393,-0.021857,0.058266,36.380264,-16.331860,17.921692,,,,,,,
1523695833.337991,-0.156776,0.572885,0.557221,0.439463,0.137889,-0.152324,-0.131205,-0.542059,-0.830030,-0.002843,-0.026804,0.052397,36.918213,-14.085873,16.337952,,,,,,,
1523695833.367960,-0.151971,0.583449,0.553819,0.222008,0.046611,-0.091651,-0.126342,-0.550905,-0.824945,-0.047303,-0.065306,0.034020,36.974609,-14.688229,14.240417,,,,,,,
1523695833.397928,-0.152732,0.583193,0.556145,-0.157548,-0.013698,0.159580,-0.126991,-0.550692,-0.824987,-0.009056,-0.046110,-0.004160,37.900208,-16.797100,9.524231,,,,,,,
1523695833.427896,-0.158368,0.576602,0.561836,-0.221067,-0.109339,0.180951,-0.132208,-0.545178,-0.827825,0.026159,-0.047030,-0.011622,36.970123,-18.370312,7.130127,,,,,,,
1523695833.457864,-0.162264,0.572564,0.564240,-0.066161,-0.031036,0.023279,-0.135787,-0.541789,-0.829469,0.009017,-0.048054,0.026628,36.651276,-19.944393,6.611206,,,,,,,
1523695833.487833,-0.162587,0.575735,0.563293,0.231093,-0.067089,-0.092608,-0.135776,-0.544451,-0.827726,0.014927,-0.032514,0.039045,36.715775,-20.994686,6.615479,,,,,,,
1523695833.517801,-0.160544,0.585450,0.557695,0.265057,-0.034333,-0.230068,-0.133232,-0.552575,-0.822741,0.030510,-0.047355,-0.043531,36.334229,-21.518185,6.392395,,,,,,,
1523695833.547769,-0.153560,0.587900,0.549679,-0.166279,0.189975,-0.242337,-0.127276,-0.554615,-0.822311,0.043368,-0.081753,-0.044953,36.767578,-23.095287,6.248901,,,,,,,
1523695833.577737,-0.143083,0.582355,0.540073,-0.162361,0.132444,-0.223091,-0.119091,-0.549993,-0.826630,0.031978,-0.069942,0.084748,36.081848,-24.217113,6.328064,,,,,,,
1523695833.607706,-0.142190,0.584405,0.537247,0.175646,-0.138010,0.038488,-0.118193,-0.551703,-0.825619,-0.055117,-0.066019,0.095593,34.664001,-25.033184,8.880615,,,,,,,
1523695833.637674,-0.148995,0.589088,0.542104,0.096251,-0.115078,0.131102,-0.123423,-0.555603,-0.822231,-0.005056,-0.040405,0.069683,34.516113,-25.406536,9.856995,,,,,,,
1523695833.667642,-0.153094,0.589406,0.543724,-0.128334,-0.124184,-0.007566,-0.126765,-0.555868,-0.821543,0.004268,-0.031947,-0.024526,33.339737,-24.798321,12.778992,,,,,,,
1523695833.697647,-0.154949,0.582669,0.540831,-0.378656,-0.063618,-0.068556,-0.128864,-0.550255,-0.824988,0.005726,-0.092247,-0.070916,32.983948,-23.820156,14.349854,,,,,,,
1523695833.727615,-0.152677,0.568355,0.537319,-0.515428,0.019997,0.026096,-0.128175,-0.538247,-0.832979,0.047852,-0.105751,-0.061583,34.063583,-22.023067,16.293274,,,,,,,
1523695833.757584,-0.155802,0.560741,0.535862,-0.068852,-0.230336,-0.042587,-0.131409,-0.531814,-0.836599,0.072571,-0.072419,-0.114374,34.297119,-21.573452,16.966553,,,,,,,
1523695833.787552,-0.159100,0.562857,0.532727,0.124508,-0.068694,-0.128914,-0.133988,-0.533605,-0.835048,0.049836,-0.035746,0.002483,34.611023,-20.449413,17.412231,,,,,,,
1523695833.817520,-0.158577,0.572785,0.528439,0.468640,-0.070156,-0.194715,-0.132709,-0.541974,-0.829846,0.037097,0.006666,0.110699,34.572266,-17.223583,18.074280,,,,,,,
1523695833.847488,-0.160379,0.592281,0.525470,0.695377,-0.175148,-0.153945,-0.132491,-0.558255,-0.819018,0.017348,0.014431,0.111651,33.310623,-16.017681,18.293884,,,,,,,
1523695833.877457,-0.165234,0.609938,0.523691,0.425028,-0.200097,-0.134954,-0.134823,-0.572817,-0.808514,0.023129,-0.000090,0.118130,31.157715,-13.982708,18.584656,,,,,,,
1523695833.907425,-0.168419,0.614822,0.520749,-0.056432,-0.144983,-0.097000,-0.136927,-0.576813,-0.805313,0.042353,-0.037643,0.089309,29.665573,-13.151058,18.505554,,,,,,,
1523695833.937393,-0.168709,0.607198,0.515856,-0.401219,-0.089103,-0.063219,-0.137895,-0.570568,-0.809585,0.052690,-0.143299,0.016464,30.354477,-12.253338,19.327332,,,,,,,
1523695833.967361,-0.173762,0.592832,0.514518,-0.521535,-0.262334,0.133993,-0.143386,-0.558712,-0.816868,0.040298,-0.151493,-0.046597,31.338120,-11.208080,19.023682,,,,,,,
1523695833.997330,-0.179794,0.579630,0.515439,-0.374139,-0.082679,0.072115,-0.149617,-0.547715,-0.823174,0.050237,-0.045776,-0.030357,34.416702,-10.173061,17.896057,,,,,,,
1523695834.027298,-0.177007,0.576188,0.514014,-0.024549,0.111755,-0.050346,-0.147654,-0.544832,-0.825439,0.046961,-0.000304,0.004516,35.164398,-9.952175,17.145569,,,,,,,
1523695834.057266,-0.171018,0.581148,0.511179,0.234285,0.133926,-0.120507,-0.142246,-0.548984,-0.823635,0.044437,0.015079,0.051663,36.498291,-10.260342,14.972473,,,,,,,
,,,,,,,,,,,,,,,,25.313809,51.439719,11.440304,4.870000,333.984375,1523695833.996687,
1523695834.087234,-0.167496,0.590777,0.508676,0.294458,-0.001270,-0.106477,-0.138456,-0.557007,-0.818881,0.063429,-0.041046,0.001238,37.688187,-10.641750,13.924500,,,,,,,
1523695834.117203,-0.168169,0.593383,0.507137,-0.114393,-0.093482,0.005192,-0.138764,-0.559169,-0.817353,0.046448,-0.080571,-0.027358,37.744583,-11.468731,12.202881,,,,,,,
1523695834.147171,-0.173898,0.584530,0.509071,-0.334661,-0.211001,0.172439,-0.144295,-0.551808,-0.821389,0.019738,-0.056530,0.019829,40.845551,-13.811947,7.938782,,,,,,,
1523695834.177139,-0.180407,0.577548,0.513732,-0.076867,-0.105353,0.169323,-0.150326,-0.545971,-0.824203,0.039044,0.007275,0.104476,41.116028,-15.465328,5.770508,,,,,,,
1523695834.207107,-0.183149,0.583541,0.516393,0.356081,-0.007113,-0.053146,-0.151987,-0.550982,-0.820555,0.041528,0.033328,0.100890,42.257660,-19.149044,2.185852,,,,,,,
1523695834.237076,-0.181936,0.594426,0.514468,0.238921,-0.032861,-0.128856,-0.149897,-0.560033,-0.814792,0.041057,0.010305,0.015140,42.301804,-21.250896,0.544250,,,,,,,
1523695834.267044,-0.183376,0.593658,0.510577,-0.301425,-0.197845,-0.048116,-0.151149,-0.559397,-0.814998,0.011745,-0.099569,-0.054906,41.420227,-25.748852,-1.388184,,,,,,,
1523695834.297012,-0.189237,0.576947,0.508831,-0.675318,-0.264124,0.140276,-0.157659,-0.545467,-0.823165,0.008276,-0.136097,-0.094895,39.734222,-28.817150,-2.276733,,,,,,,
1523695834.326981,-0.198806,0.558515,0.511062,-0.470727,-0.294761,0.192676,-0.167487,-0.529927,-0.831335,0.013754,-0.092220,-0.122858,38.340744,-33.535275,-1.658569,,,,,,,
1523695834.356949,-0.206345,0.552599,0.513175,0.026412,-0.121473,0.006393,-0.174389,-0.524901,-0.833102,-0.017079,-0.015443,-0.056226,38.638672,-34.734966,-0.003601,,,,,,,
1523695834.386917,-0.205122,0.561702,0.511439,0.444526,0.063577,-0.163967,-0.172389,-0.532628,-0.828603,-0.025808,0.023976,0.016698,37.906784,-35.627163,4.499573,,,,,,,
1523695834.416885,-0.201860,0.579952,0.508744,0.647684,0.053983,-0.230940,-0.167708,-0.547984,-0.819500,0.050414,0.057398,0.133541,38.370590,-35.776699,7.050415,,,,,,,
1523695834.446854,-0.197287,0.601208,0.503015,0.632147,0.033503,-0.337472,-0.161639,-0.565639,-0.808651,0.079180,0.009884,0.119641,38.331314,-34.946941,11.622070,,,,,,,
1523695834.476822,-0.190515,0.615543,0.492391,0.215861,0.020931,-0.367600,-0.154608,-0.577402,-0.801682,0.079626,-0.112844,0.032548,38.874283,-34.047894,13.118774,,,,,,,
1523695834.506790,-0.185887,0.612015,0.483537,-0.429834,-0.048617,-0.068607,-0.151271,-0.574518,-0.804386,0.063472,-0.218557,-0.097088,39.194366,-33.072613,14.840027,,,,,,,
1523695834.536758,-0.190727,0.591917,0.484884,-0.689534,-0.168433,0.288280,-0.157320,-0.557953,-0.814819,0.015184,-0.137329,-0.075638,38.994095,-31.270596,15.957703,,,,,,,
1523695834.566727,-0.196324,0.579111,0.492376,-0.107532,0.040868,0.239481,-0.163259,-0.547280,-0.820867,-0.009883,-0.028113,-0.010325,37.663315,-29.838787,16.776306,,,,,,,
1523695834.596695,-0.193308,0.586502,0.496905,0.473396,0.226185,-0.028776,-0.160001,-0.553451,-0.817364,0.004575,0.026671,0.046536,35.604324,-27.127209,19.089478,,,,,,,
1523695834.626663,-0.185842,0.607094,0.494868,0.676137,0.168879,-0.261924,-0.151756,-0.570483,-0.807162,0.029487,0.013019,0.005511,35.405533,-25.175198,20.206543,,,,,,,
1523695834.656631,-0.181378,0.618942,0.489816,0.101265,-0.016566,-0.130045,-0.146921,-0.580174,-0.801127,0.047724,-0.055675,-0.004553,34.906769,-23.221828,21.323486,,,,,,,
1523695834.686604,-0.182343,0.612347,0.488528,-0.407156,-0.052933,0.083787,-0.148385,-0.574790,-0.804730,0.042733,-0.106820,-0.023441,35.060944,-22.847454,21.397095,,,,,,,
1523695834.716603,-0.183603,0.597243,0.491038,-0.423425,0.013315,0.189194,-0.150967,-0.562365,-0.812986,0.035961,-0.081083,-0.024126,35.820709,-23.223629,23.648987,,,,,,,
1523695834.746572,-0.184203,0.595705,0.494653,0.252315,0.068897,0.053260,-0.151613,-0.561092,-0.813745,0.026262,-0.031300,0.026468,35.457428,-22.995419,25.222839,,,,,,,
1523695834.776540,-0.180556,0.613779,0.495548,0.796482,0.151278,-0.219196,-0.146799,-0.575961,-0.804183,0.063592,-0.012067,0.070251,37.620117,-19.101192,29.183350,,,,,,,
1523695834.806508,-0.170894,0.634754,0.490902,0.474480,0.272018,-0.199315,-0.136937,-0.592979,-0.793483,0.036351,-0.040016,0.036891,37.570160,-17.224911,30.225830,,,,,,,
1523695834.836476,-0.164747,0.638749,0.488945,-0.109417,0.073227,0.017829,-0.131667,-0.596192,-0.791966,0.074187,-0.030655,0.057805,39.238190,-15.282650,29.993896,,,,,,,
1523695834.866445,-0.168519,0.629587,0.491307,-0.411404,-0.182105,0.171282,-0.135565,-0.588811,-0.796816,0.060369,-0.058833,0.033251,43.828506,-12.305721,27.584290,,,,,,,
1523695834.896413,-0.175791,0.610659,0.494340,-0.758657,-0.181578,0.220033,-0.143278,-0.573407,-0.806639,0.011290,-0.098468,-0.095292,44.209305,-11.183331,26.679932,,,,,,,
1523695834.926381,-0.182265,0.588754,0.497953,-0.609132,-0.132266,0.255267,-0.150739,-0.555325,-0.817853,-0.027819,-0.036014,-0.062976,44.476562,-11.714108,22.107239,,,,,,,
1523695834.956350,-0.184780,0.582852,0.501460,0.111423,0.059798,0.037181,-0.153395,-0.550407,-0.820679,-0.037905,0.009285,0.054413,44.621429,-11.640743,21.132019,,,,,,,
1523695834.986318,-0.179084,0.596713,0.501466,0.617067,0.231930,-0.140561,-0.147344,-0.561927,-0.813953,0.021047,0.014365,0.075138,43.183701,-11.336895,18.505066,,,,,,,
1523695835.016286,-0.176625,0.617494,0.500340,0.656300,-0.088913,-0.162591,-0.143260,-0.578994,-0.802642,0.060511,0.023849,0.087218,43.099228,-11.113476,16.554138,,,,,,,
1523695835.046254,-0.179462,0.625864,0.497652,-0.125800,-0.113117,-0.072566,-0.144666,-0.585798,-0.797436,0.055982,-0.038119,0.027782,42.790680,-10.888882,14.753052,,,,,,,
,,,,,,,,,,,,,,,,25.313860,51.439612,10.741421,6.730000,333.632812,1523695834.996676,
1523695835.076223,-0.181617,0.608157,0.497209,-0.751751,-0.085884,0.208226,-0.148234,-0.571356,-0.807199,0.051097,-0.051767,0.026605,41.797287,-12.010601,13.557068,,,,,,,
1523695835.106191,-0.185770,0.589562,0.503330,-0.395105,0.031579,0.302143,-0.153521,-0.555997,-0.816879,0.018023,-0.050662,0.006561,41.033661,-12.159191,11.532288,,,,,,,
1523695835.136159,-0.183622,0.585060,0.509215,0.019035,0.244475,0.100858,-0.152222,-0.552250,-0.819659,0.043656,-0.076214,-0.061292,42.078186,-11.940166,10.256897,,,,,,,
1523695835.166126,-0.177998,0.588957,0.509199,0.115357,0.111481,-0.059837,-0.147228,-0.555494,-0.818378,0.063457,-0.019961,-0.115338,41.606766,-13.139614,8.686462,,,,,,,
1523695835.196096,-0.176886,0.591896,0.508045,0.071725,-0.043862,-0.016024,-0.146030,-0.557935,-0.816930,0.010898,0.040800,0.001043,41.702652,-15.994320,4.422974,,,,,,,
1523695835.226063,-0.180663,0.595827,0.510352,0.227774,-0.123634,0.089668,-0.148719,-0.561194,-0.814209,-0.024575,0.086340,0.079910,41.678833,-17.570553,3.079224,,,,,,,
1523695835.256032,-0.189880,0.605772,0.518013,0.446853,-0.207703,0.181548,-0.155156,-0.569397,-0.807283,-0.065105,0.076935,0.100404,40.955490,-21.693478,1.895386,,,,,,,
1523695835.286000,-0.204114,0.616609,0.526716,0.364059,-0.400489,0.125201,-0.165370,-0.578272,-0.798903,-0.104329,0.054254,0.087126,39.880997,-24.013866,1.679077,,,,,,,
1523695835.315969,-0.213517,0.623833,0.527739,0.122147,-0.109180,-0.116070,-0.171985,-0.584151,-0.793209,-0.122982,-0.004564,-0.066822,38.200714,-27.904858,3.118835,,,,,,,
1523695835.345937,-0.212759,0.622885,0.522145,-0.183639,0.032915,-0.116445,-0.171501,-0.583381,-0.793880,-0.054070,-0.182321,-0.056965,36.846176,-29.172405,4.473267,,,,,,,
1523695835.375905,-0.206782,0.617575,0.513696,-0.200227,-0.029742,-0.266638,-0.167386,-0.579060,-0.797911,-0.010348,-0.159694,-0.082948,36.181290,-29.691875,7.024963,,,,,,,
1523695835.405873,-0.196178,0.618508,0.501271,0.095185,0.215908,-0.398787,-0.158810,-0.579821,-0.799111,0.033353,-0.031508,-0.060111,36.125931,-28.714977,8.671082,,,,,,,
1523695835.435842,-0.182901,0.630603,0.485875,0.431611,0.112788,-0.510320,-0.146901,-0.589632,-0.794195,0.064717,0.030977,-0.042094,34.054504,-27.652660,11.665771,,,,,,,
1523695835.465810,-0.170462,0.646451,0.474342,0.442704,0.225949,-0.286661,-0.135408,-0.602357,-0.786652,0.110384,0.054536,-0.002151,32.873901,-26.520992,13.010681,,,,,,,
1523695835.495778,-0.162951,0.656121,0.470012,0.177479,0.123184,-0.085368,-0.128545,-0.610048,-0.781862,0.083272,0.018876,-0.006712,31.184357,-24.411007,15.401367,,,,,,,
1523695835.525747,-0.160661,0.654388,0.469691,-0.215544,0.026458,0.058283,-0.126923,-0.608674,-0.783197,0.014710,-0.041488,-0.027106,30.235001,-22.605465,16.668640,,,,,,,
1523695835.555715,-0.160833,0.644680,0.471051,-0.257794,-0.047117,0.110531,-0.127998,-0.600943,-0.788971,-0.013283,0.049597,-0.038712,30.255356,-20.880032,17.186768,,,,,,,
1523695835.585683,-0.166373,0.647577,0.474776,0.397252,-0.189892,0.084525,-0.132078,-0.603256,-0.786529,-0.029360,0.054916,0.017990,30.600861,-16.456387,17.394226,,,,,,,
1523695835.615651,-0.178251,0.665941,0.480239,0.668089,-0.341006,0.020944,-0.139423,-0.617799,-0.773870,-0.031002,0.004655,0.072927,29.858063,-15.328716,16.714355,,,,,,,
1523695835.645620,-0.186257,0.676709,0.481360,0.114629,-0.072241,-0.076693,-0.144374,-0.626231,-0.766147,-0.032888,-0.042836,0.106097,27.922485,-13.520626,16.106201,,,,,,,
1523695835.675579,-0.176053,0.666811,0.474542,-0.640370,0.287179,-0.147947,-0.137628,-0.618483,-0.773645,0.003121,-0.015428,-0.015173,27.322952,-13.068600,15.429077,,,,,,,
1523695835.705578,-0.165733,0.647972,0.465755,-0.569319,0.028246,-0.071972,-0.131536,-0.603571,-0.786379,0.030706,-0.050726,-0.134123,26.132416,-11.938549,15.123962,,,,,,,
1523695835.735546,-0.170344,0.637968,0.463782,-0.240452,-0.321792,0.027707,-0.136177,-0.595564,-0.791675,-0.002220,-0.047212,-0.117748,26.890457,-11.042110,14.970764,,,,,,,
1523695835.765514,-0.178273,0.633951,0.464362,-0.046387,-0.133187,0.035124,-0.142873,-0.592333,-0.792919,0.006154,0.021456,-0.041523,29.672043,-9.930386,14.217712,,,,,,,
1523695835.795482,-0.176835,0.636224,0.462476,0.157385,0.104494,-0.139711,-0.141496,-0.594163,-0.791796,-0.012862,0.056580,0.059450,30.423798,-9.484219,13.766296,,,,,,,
1523695835.825451,-0.167057,0.643009,0.455622,0.192368,0.143519,-0.262258,-0.133073,-0.599606,-0.789148,0.004899,0.056942,0.011377,33.406143,-10.623684,12.722351,,,,,,,
1523695835.855419,-0.162261,0.647328,0.447109,0.031764,-0.129548,-0.207766,-0.128867,-0.603057,-0.787214,0.027747,-0.009004,-0.007036,35.195587,-11.457104,12.351562,,,,,,,
1523695835.885387,-0.168502,0.643109,0.443327,-0.281205,-0.374761,0.018146,-0.134203,-0.599687,-0.788896,-0.007017,-0.016402,0.041353,36.242249,-11.836742,12.428589,,,,,,,
1523695835.915355,-0.183124,0.629233,0.444979,-0.515295,-0.485807,0.177911,-0.147225,-0.588525,-0.794956,-0.107292,0.002160,0.026722,38.088409,-13.871456,11.012634,,,,,,,
1523695835.945324,-0.196069,0.615768,0.447178,-0.332542,-0.274407,0.121361,-0.159033,-0.577586,-0.800684,-0.127283,0.058772,0.024775,39.730087,-14.479229,10.640930,,,,,,,
1523695835.975292,-0.196097,0.608789,0.445579,-0.247282,0.127668,-0.117665,-0.159837,-0.571874,-0.804614,-0.021956,0.000173,-0.052121,39.933105,-16.730053,10.725037,,,,,,,
1523695836.005260,-0.182884,0.602566,0.434469,-0.246383,0.287656,-0.355434,-0.149836,-0.566759,-0.810139,0.056925,-0.055953,-0.063106,40.147903,-17.706081,10.653992,,,,,,,
1523695836.035228,-0.169490,0.599490,0.420671,-0.110236,0.151425,-0.373306,-0.139265,-0.564221,-0.813788,0.051649,-0.048053,-0.013223,42.248276,-17.715466,10.730103,,,,,,,
,,,,,,,,,,,,,,,,25.313912,51.439499,10.538662,8.290000,333.281250,1523695835.996665,
1523695836.065197,-0.165055,0.599325,0.410715,-0.002652,-0.168876,-0.193900,-0.135670,-0.564085,-0.814490,0.006184,-0.023668,-0.059442,42.854706,-17.342739,11.178955,,,,,,,
1523695836.095165,-0.170752,0.598522,0.406060,-0.138178,-0.272355,-0.089466,-0.140385,-0.563422,-0.814150,-0.031749,0.028739,-0.042677,45.560394,-16.455441,10.651733,,,,,,,
1523695836.125133,-0.169024,0.593244,0.401068,-0.182159,0.125375,-0.117610,-0.139476,-0.559053,-0.817311,0.012508,0.080156,0.052938,45.183914,-16.379131,10.276245,,,,,,,
1523695836.155102,-0.158863,0.594436,0.395709,0.217056,0.233415,-0.210121,-0.131059,-0.560042,-0.818028,0.039750,0.077299,0.095890,44.952438,-16.079662,8.699890,,,,,,,
1523695836.185070,-0.150454,0.609882,0.386630,0.560943,0.043638,-0.392947,-0.122864,-0.572771,-0.810451,0.038514,-0.026091,0.024409,45.016953,-16.680706,7.952332,,,,,,,
1523695836.215038,-0.142195,0.620472,0.374432,0.093195,0.061539,-0.356015,-0.115301,-0.581419,-0.805388,0.017919,-0.022295,-0.023164,43.491989,-18.325253,6.533142,,,,,,,
1523695836.245006,-0.132395,0.620175,0.363677,-0.048022,0.133336,-0.240051,-0.107425,-0.581178,-0.806650,0.026141,-0.017104,0.007288,38.949554,-23.253674,7.675598,,,,,,,
1523695836.274975,-0.125462,0.623798,0.356512,0.194821,0.053790,-0.196104,-0.101566,-0.584122,-0.805281,0.029239,-0.014938,0.015211,36.548386,-24.815456,10.080688,,,,,,,
1523695836.304943,-0.120514,0.630397,0.350405,0.127347,0.039954,-0.168439,-0.097114,-0.589465,-0.801930,0.052467,-0.080106,-0.089992,33.209290,-24.869366,16.154236,,,,,,,
1523695836.334911,-0.116046,0.628593,0.346763,-0.184802,0.103576,-0.038740,-0.093653,-0.588007,-0.803410,0.060648,-0.009619,-0.029399,32.032730,-23.961666,18.549988,,,,,,,
1523695836.364879,-0.112337,0.624316,0.345469,-0.051588,0.088138,-0.005596,-0.090954,-0.584542,-0.806244,0.050136,0.067727,0.014374,32.907730,-20.438152,21.011353,,,,,,,
1523695836.394848,-0.112539,0.628943,0.346858,0.284799,-0.069283,0.049153,-0.090812,-0.588291,-0.803529,0.002967,0.023838,0.025895,34.279251,-18.868359,21.980774,,,,,,,
1523695836.424816,-0.117362,0.637674,0.349693,0.251578,-0.114792,0.034259,-0.094082,-0.595328,-0.797950,-0.034870,0.045462,0.042137,35.875854,-16.026669,20.845215,,,,,,,
1523695836.454784,-0.118884,0.642499,0.349999,0.144398,-0.047134,-0.030878,-0.094954,-0.599198,-0.794945,-0.007432,0.053589,0.061836,38.054337,-15.137371,19.942688,,,,,,,
1523695836.484752,-0.116704,0.647398,0.346564,0.152056,0.067558,-0.173776,-0.092878,-0.603113,-0.792224,0.010205,0.001947,0.052524,39.330292,-14.094692,18.364197,,,,,,,
1523695836.514721,-0.104815,0.650284,0.336815,0.001089,0.285675,-0.312624,-0.083270,-0.605413,-0.791538,0.067004,-0.061625,-0.021557,40.745483,-14.402187,17.241150,,,,,,,
1523695836.544689,-0.091595,0.648345,0.326454,-0.182720,0.141875,-0.198600,-0.072906,-0.603868,-0.793738,0.090866,-0.156599,-0.163019,42.310944,-14.635433,16.042847,,,,,,,
1523695836.574657,-0.092465,0.638872,0.325126,-0.358681,-0.183825,0.093547,-0.074122,-0.596290,-0.799334,0.050181,-0.066139,-0.092130,42.523819,-15.536907,15.521545,,,,,,,
1523695836.604625,-0.102119,0.632921,0.328143,-0.039899,-0.301416,0.080055,-0.082195,-0.591503,-0.802097,-0.004048,0.003704,0.001896,42.526962,-15.087154,15.294739,,,,,,,
1523695836.634594,-0.108524,0.638822,0.328757,0.354586,-0.121778,-0.067941,-0.086951,-0.596250,-0.798071,-0.001611,0.073591,0.098699,44.284363,-12.244396,15.959229,,,,,,,
1523695836.664562,-0.106545,0.652892,0.324732,0.465798,0.035932,-0.170310,-0.084471,-0.607486,-0.789820,0.012053,0.043766,0.093424,43.921188,-10.743298,15.428040,,,,,,,
1523695836.694559,-0.105773,0.659190,0.319707,-0.109719,-0.158431,-0.128999,-0.083456,-0.612477,-0.786065,0.002661,-0.106563,-0.030723,44.509552,-9.699627,11.749146,,,,,,,
1523695836.724527,-0.104414,0.641189,0.314541,-0.860689,0.069275,-0.059454,-0.083523,-0.598149,-0.797015,0.021816,-0.046108,-0.149793,44.343185,-10.075970,9.650635,,,,,,,
1523695836.754495,-0.099035,0.622208,0.308969,-0.321463,0.038443,-0.096319,-0.080343,-0.582830,-0.808607,0.065679,0.060812,-0.069719,41.438629,-13.740887,6.663818,,,,,,,
1523695836.784464,-0.098291,0.629569,0.307016,0.531111,-0.025603,-0.055125,-0.079319,-0.588796,-0.804375,0.012043,0.004583,0.002800,40.816940,-15.913082,6.672180,,,,,,,
1523695836.814432,-0.101184,0.647712,0.307525,0.512398,-0.112900,-0.024157,-0.080553,-0.603364,-0.793382,0.022081,-0.041519,0.001527,39.748795,-19.355556,9.385437,,,,,,,
1523695836.844400,-0.104908,0.649112,0.309099,-0.250364,-0.078892,0.092459,-0.083418,-0.604479,-0.792236,0.021376,-0.014952,-0.023301,38.021378,-20.770840,11.340210,,,,,,,
1523695836.874368,-0.110364,0.638872,0.313086,-0.257489,-0.149519,0.167103,-0.088416,-0.596290,-0.797880,0.003517,0.032722,-0.012133,38.850418,-21.223141,12.767456,,,,,,,
1523695836.904337,-0.120030,0.637244,0.319000,0.077391,-0.233246,0.167443,-0.096241,-0.594983,-0.797950,-0.021496,0.016888,-0.005074,42.034470,-19.659389,15.837769,,,,,,,
1523695836.934305,-0.129405,0.643170,0.324843,0.292692,-0.166323,0.092956,-0.103260,-0.599735,-0.793502,-0.041622,0.025776,-0.002152,41.901733,-18.607677,16.958496,,,,,,,
1523695836.964273,-0.131900,0.651804,0.325331,0.268777,-0.003427,-0.094762,-0.104555,-0.606622,-0.788079,-0.049757,-0.020683,-0.032630,42.063980,-17.333492,16.878540,,,,,,,
1523695836.994241,-0.128528,0.654865,0.321880,-0.062055,0.044077,-0.083341,-0.101658,-0.609052,-0.786582,-0.008312,-0.121584,-0.140771,41.689301,-17.256878,16.803040,,,,,,,
1523695837.024210,-0.127370,0.646770,0.320441,-0.378070,-0.029429,0.055018,-0.101370,-0.602612,-0.791564,0.025763,-0.103840,-0.195527,39.343887,-18.896984,16.133423,,,,,,,
,,,,,,,,,,,,,,,,25.313879,51.439375,10.046871,8.150000,285.820312,1523695836.996653,
1523695837.054178,-0.132053,0.636678,0.323297,-0.191001,-0.137700,0.123462,-0.105872,-0.594527,-0.797069,0.029196,0.002624,-0.063694,38.887924,-19.494930,16.135559,,,,,,,
1523695837.084146,-0.136010,0.641281,0.324609,0.412579,-0.063372,-0.082875,-0.108652,-0.598222,-0.793924,0.019022,0.085740,0.134851,37.013321,-20.085445,17.187012,,,,,,,
1523695837.114114,-0.133476,0.660532,0.320835,0.689405,0.057118,-0.240488,-0.105088,-0.613537,-0.782636,0.020936,0.083310,0.156415,36.120560,-19.855602,18.010620,,,,,,,
1523695837.144083,-0.124237,0.678110,0.313197,0.403018,0.201523,-0.273883,-0.096501,-0.627322,-0.772751,0.056020,0.025668,0.152984,34.709137,-19.847012,20.259888,,,,,,,
1523695837.174051,-0.115482,0.683023,0.306216,-0.053123,0.063533,-0.136612,-0.089376,-0.631141,-0.770495,0.106481,-0.027124,0.079150,33.525253,-19.314877,22.057190,,,,,,,
1523695837.204019,-0.116936,0.671893,0.305555,-0.574678,-0.175267,0.162634,-0.091310,-0.622469,-0.777293,0.070756,-0.072249,-0.046071,33.708359,-17.213696,24.073853,,,,,,,
1523695837.233987,-0.129307,0.649971,0.312919,-0.728732,-0.285536,0.333121,-0.102654,-0.605163,-0.789449,-0.019661,-0.067078,-0.161387,34.708603,-14.817974,24.289795,,,,,,,
1523695837.263956,-0.142648,0.631587,0.323462,-0.379376,-0.187829,0.370563,-0.114739,-0.590426,-0.798888,-0.078803,0.015567,-0.094316,36.914917,-11.677914,24.278320,,,,,,,
1523695837.293924,-0.149879,0.632523,0.332168,0.380207,0.011243,0.047020,-0.120431,-0.591181,-0.797491,-0.040077,0.109416,0.042516,38.670044,-7.263149,21.936523,,,,,,,
1523695837.323892,-0.142543,0.650440,0.327404,0.585144,0.263152,-0.338804,-0.113054,-0.605537,-0.787740,0.021028,0.056175,0.046483,38.745438,-5.915676,19.756165,,,,,,,
1523695837.353861,-0.128828,0.659424,0.317360,0.023014,0.243744,-0.251823,-0.101537,-0.612662,-0.783790,0.063329,-0.012842,-0.009027,39.238739,-6.746792,15.859741,,,,,,,
1523695837.383829,-0.121222,0.650978,0.312229,-0.443493,0.082655,0.004781,-0.096195,-0.605964,-0.789648,0.105243,-0.028786,-0.106409,39.896606,-7.651104,14.513672,,,,,,,
1523695837.413797,-0.123408,0.638161,0.315443,-0.298892,-0.064611,0.195758,-0.098868,-0.595719,-0.797079,0.048957,0.057358,-0.094309,42.127655,-9.236660,13.996155,,,,,,,
1523695837.443765,-0.129136,0.637858,0.321685,0.238417,-0.089927,0.126942,-0.103456,-0.595476,-0.796678,0.006730,0.095476,0.088716,42.059692,-8.935680,14.669861,,,,,,,
1523695837.473734,-0.129884,0.651590,0.322905,0.559436,0.051123,-0.096735,-0.102982,-0.606451,-0.788417,0.017594,0.037863,0.146724,42.759201,-6.388988,14.510071,,,,,,,
1523695837.503702,-0.124352,0.664110,0.319741,0.205613,0.147941,-0.138659,-0.097670,-0.616359,-0.781378,0.029143,-0.052037,0.010321,44.181290,-5.647106,12.782776,,,,,,,
1523695837.533670,-0.123911,0.655317,0.320467,-0.615230,-0.107550,0.217945,-0.097991,-0.609410,-0.786770,0.047423,-0.084254,-0.141376,43.759521,-7.899258,8.741577,,,,,,,
1523695837.563638,-0.134154,0.631215,0.329492,-0.762632,-0.164686,0.386250,-0.107979,-0.590126,-0.800052,-0.004799,0.014900,-0.233762,43.653198,-10.000484,7.024963,,,,,,,
1523695837.593607,-0.142114,0.621724,0.341137,0.246878,0.018768,0.233381,-0.115132,-0.582437,-0.804675,-0.023601,0.104852,-0.097409,43.556030,-11.725872,6.206787,,,,,,,
1523695837.623575,-0.146181,0.640483,0.347577,0.780753,-0.004298,0.000446,-0.116791,-0.597582,-0.793250,-0.058807,0.042163,0.023963,41.379822,-12.614803,7.484314,,,,,,,
1523695837.653543,-0.146764,0.661341,0.348405,0.624614,0.026726,-0.126494,-0.115406,-0.614176,-0.780679,0.001209,0.015482,0.140313,40.494370,-11.560146,8.154602,,,,,,,
1523695837.683525,-0.141199,0.683968,0.345398,0.684191,0.090019,-0.234125,-0.109075,-0.631874,-0.767351,0.012090,0.037696,0.041536,39.541382,-8.407452,6.566528,,,,,,,
1523695837.713493,-0.139637,0.684683,0.343663,-0.500796,0.078679,0.137931,-0.107813,-0.632428,-0.767073,0.015666,-0.095432,-0.076814,38.483597,-7.879864,4.388916,,,,,,,
1523695837.743461,-0.140982,0.661222,0.348954,-0.747208,0.032755,0.259259,-0.110900,-0.614082,-0.781406,0.029509,0.024665,-0.091305,36.940445,-9.452496,-0.180603,,,,,,,
1523695837.773430,-0.145918,0.651965,0.354947,0.098472,-0.094926,0.134288,-0.115577,-0.606750,-0.786439,0.021018,0.039413,-0.054595,35.796463,-10.723385,-1.226074,,,,,,,
1523695837.803398,-0.149501,0.663751,0.356736,0.462075,-0.006968,-0.110611,-0.117321,-0.616076,-0.778894,0.011684,0.002032,-0.038733,33.429672,-14.912716,-1.210510,,,,,,,
1523695837.833366,-0.140604,0.674200,0.350353,0.195916,0.244320,-0.242115,-0.109478,-0.624272,-0.773491,0.052502,-0.002193,-0.015098,32.508301,-17.233273,-0.901672,,,,,,,
1523695837.863334,-0.128573,0.675009,0.343319,-0.081184,0.248446,-0.127242,-0.100100,-0.624904,-0.774251,0.086611,-0.033970,-0.035212,32.488007,-20.306438,0.835571,,,,,,,
1523695837.893303,-0.123311,0.668243,0.342145,-0.348064,0.042446,0.097596,-0.096542,-0.619608,-0.778945,0.058975,-0.048239,-0.120987,31.739868,-21.201275,2.638794,,,,,,,
1523695837.923271,-0.127560,0.654284,0.348119,-0.464781,-0.060532,0.277684,-0.100942,-0.608591,-0.787031,0.015386,0.020075,-0.119265,32.270126,-21.352520,3.764709,,,,,,,
1523695837.953238,-0.134342,0.646162,0.356117,-0.009473,-0.062095,0.186396,-0.106936,-0.602126,-0.791201,0.014193,0.082427,-0.005247,33.174011,-21.954937,5.417542,,,,,,,
1523695837.983208,-0.137347,0.654228,0.358726,0.423320,-0.037988,-0.071164,-0.108645,-0.608547,-0.786039,0.015230,0.077312,0.039549,33.855148,-22.331356,7.069397,,,,,,,
1523695838.013175,-0.132806,0.666525,0.354136,0.318925,0.099254,-0.206717,-0.104075,-0.618258,-0.779048,0.033259,0.023165,0.030360,35.359299,-22.187679,7.519592,,,,,,,
1523695838.043144,-0.126190,0.669008,0.349163,-0.039488,0.097035,-0.066332,-0.098725,-0.620208,-0.778194,0.052170,0.043701,0.029842,36.568375,-21.367962,7.666870,,,,,,,
,,,,,,,,,,,,,,,,25.313845,51.439216,9.688961,11.620000,268.593750,1523695837.996642,
1523695838.073112,-0.127023,0.666744,0.349997,-0.053993,-0.094285,0.095821,-0.099551,-0.618430,-0.779502,0.020175,0.048683,0.010108,37.551849,-20.472469,7.588745,,,,,,,
1523695838.103081,-0.135179,0.664620,0.355347,-0.068747,-0.192582,0.177953,-0.106082,-0.616760,-0.779964,-0.007413,0.014221,-0.023762,37.852722,-20.473675,7.738953,,,,,,,
1523695838.133049,-0.143143,0.661202,0.361413,-0.093898,-0.112663,0.155474,-0.112590,-0.614066,-0.781176,-0.025304,-0.002053,-0.056089,38.396423,-18.601131,7.731750,,,,,,,
1523695838.163017,-0.144980,0.659386,0.364134,0.011050,0.045223,0.028603,-0.114185,-0.612631,-0.782071,-0.002865,-0.000528,-0.059756,37.496872,-18.147762,7.054504,,,,,,,
1523695838.192985,-0.142289,0.661707,0.362542,0.115387,0.073494,-0.098157,-0.111879,-0.614465,-0.780965,0.021883,0.024896,-0.031306,38.086777,-17.178722,3.750916,,,,,,,
1523695838.222954,-0.137513,0.666434,0.359434,0.190132,0.082789,-0.088509,-0.107748,-0.618187,-0.778605,0.026983,0.018883,-0.001883,38.829834,-17.108334,2.475952,,,,,,,
1523695838.252922,-0.137233,0.670872,0.359403,0.083354,-0.026087,0.021259,-0.107154,-0.621669,-0.775909,-0.002435,-0.011326,-0.020492,37.654404,-21.079830,0.691284,,,,,,,
1523695838.282890,-0.139056,0.669102,0.361994,-0.084643,-0.017733,0.101045,-0.108720,-0.620282,-0.776801,0.012727,-0.020420,-0.110940,37.179733,-23.552685,0.700928,,,,,,,
1523695838.312858,-0.142059,0.667782,0.366220,0.083913,-0.000383,0.142711,-0.111168,-0.619246,-0.777281,0.013298,0.003981,-0.100114,36.642044,-25.723751,2.209351,,,,,,,
1523695838.342827,-0.146384,0.676156,0.373768,0.422433,0.017888,0.145073,-0.113769,-0.625799,-0.771636,0.030319,0.001257,-0.019578,34.300064,-30.133709,6.725830,,,,,,,
1523695838.372795,-0.147597,0.687756,0.379410,0.360461,0.118704,0.035171,-0.113630,-0.634805,-0.764265,0.050565,-0.025214,0.044203,34.603714,-31.482220,9.581360,,,,,,,
1523695838.402763,-0.141664,0.693472,0.376634,0.074442,0.146349,-0.168587,-0.108579,-0.639211,-0.761321,0.074262,0.000768,0.058623,35.628677,-30.804623,16.779175,,,,,,,
1523695838.432731,-0.133372,0.693722,0.370351,-0.023071,0.113349,-0.127063,-0.102241,-0.639404,-0.762036,0.042259,0.076553,0.042142,36.411194,-29.305233,19.698547,,,,,,,
1523695838.462700,-0.130384,0.695140,0.368293,0.054790,0.002817,-0.001155,-0.099846,-0.640493,-0.761438,0.015358,0.060232,0.034678,38.577057,-25.635113,24.559937,,,,,,,
1523695838.492668,-0.131593,0.693620,0.370358,-0.166679,0.020737,0.099877,-0.100894,-0.639325,-0.762282,-0.000058,-0.039706,-0.003038,39.799622,-24.139339,25.829590,,,,,,,
1523695838.522636,-0.132530,0.681333,0.372813,-0.541715,-0.000913,0.136919,-0.102638,-0.629829,-0.769916,-0.004372,-0.126000,-0.141812,41.769485,-22.872021,27.025513,,,,,,,
1523695838.552603,-0.134350,0.662787,0.375262,-0.577044,-0.022052,0.134775,-0.105586,-0.615316,-0.781171,0.002788,-0.053950,-0.185351,43.731079,-21.755764,27.096985,,,,,,,
1523695838.582573,-0.137675,0.654154,0.378164,0.001760,-0.068741,0.071323,-0.108908,-0.608489,-0.786048,-0.004435,0.066603,0.022956,45.555847,-19.139217,26.862488,,,,,,,
1523695838.612540,-0.137572,0.665543,0.378331,0.568270,0.088456,-0.120207,-0.107870,-0.617486,-0.779144,0.018392,0.074991,0.083373,45.639648,-17.940121,26.332703,,,,,,,
1523695838.642509,-0.130478,0.684221,0.375126,0.561652,0.206869,-0.183202,-0.100821,-0.632069,-0.768318,0.031409,0.081227,0.072975,46.020752,-17.192059,26.104919,,,,,,,
1523695838.672477,-0.119765,0.695253,0.369686,0.179664,0.264082,-0.177140,-0.091746,-0.640580,-0.762385,0.058833,0.026200,0.050516,44.732361,-18.985516,26.861450,,,,,,,
1523695838.702489,-0.110130,0.695075,0.364798,-0.136432,0.157738,-0.052604,-0.084409,-0.640443,-0.763346,0.084989,-0.043364,-0.056265,44.279266,-20.107113,28.215698,,,,,,,
1523695838.732458,-0.113290,0.687774,0.368394,-0.248339,-0.171293,0.237461,-0.087347,-0.634819,-0.767702,0.030340,-0.052819,-0.088820,45.295044,-18.906887,33.011475,,,,,,,
1523695838.762426,-0.128839,0.681752,0.380682,-0.088541,-0.296104,0.401796,-0.099762,-0.630155,-0.770028,-0.005279,-0.000583,-0.051841,45.701523,-17.331097,35.630371,,,,,,,
1523695838.792394,-0.143608,0.681454,0.395039,0.101531,-0.129319,0.338914,-0.111151,-0.629923,-0.768657,-0.047236,0.010538,-0.033467,47.584564,-10.586971,38.229309,,,,,,,
1523695838.822362,-0.147645,0.684307,0.401697,0.131750,0.059785,0.030809,-0.113987,-0.632136,-0.766420,-0.026790,0.040217,0.028032,47.772385,-6.613140,37.913452,,,,,,,
1523695838.852331,-0.142275,0.689807,0.400274,0.228089,0.201798,-0.100328,-0.109376,-0.636388,-0.763568,0.012239,0.073278,0.090702,50.512604,-0.329250,34.139709,,,,,,,
1523695838.882299,-0.134439,0.696675,0.397512,0.186525,0.210458,-0.107829,-0.102801,-0.641671,-0.760052,0.018435,0.013573,0.047528,52.241196,1.834949,31.131897,,,,,,,
1523695838.912267,-0.128104,0.694576,0.395040,-0.294940,0.108873,0.000608,-0.098156,-0.640060,-0.762023,0.028149,-0.069901,-0.112871,53.776947,1.147648,25.735474,,,,,,,
1523695838.942235,-0.128521,0.679556,0.397338,-0.553890,-0.023626,0.198729,-0.099695,-0.628447,-0.771430,0.002603,-0.021348,-0.166451,52.765869,-1.474422,24.095398,,,,,,,
1523695838.972204,-0.136991,0.665036,0.407291,-0.292754,-0.102352,0.421703,-0.107460,-0.617087,-0.779516,0.044029,0.102759,0.175009,52.136566,-3.872478,23.204712,,,,,,,
1523695839.002172,-0.146853,0.673230,0.418225,0.440934,-0.164774,0.123957,-0.114398,-0.623515,-0.773390,-0.094175,-0.003072,-0.036424,51.525406,-6.117855,25.088379,,,,,,,
1523695839.032140,-0.150140,0.674151,0.425477,-0.258326,0.194386,0.218982,-0.116854,-0.624234,-0.772442,-0.017073,-0.051974,-0.032566,51.530365,-6.341671,26.289246,,,,,,,
