timestamp(unix),attitude_roll(radians),attitude_pitch(radians),attitude_yaw(radians),rotation_rate_x(radians/s),rotation_rate_y(radians/s),rotation_rate_z(radians/s),gravity_x(G),gravity_y(G),gravity_z(G),user_acc_x(G),user_acc_y(G),user_acc_z(G),magnetic_field_x(microteslas),magnetic_field_y(microteslas),magnetic_field_z(microteslas),latitude(degree),longitude(degree),altitude(meter),speed(m/s),course(degree),timestamp(unix),User Mark
,,,,,,,,,,,,,,,,25.300384,51.438645,-21.036625,-1.000000,-1.000000,1522138000.107784,
1522138000.455935,-0.305330,-0.067165,-0.833684,-0.059761,0.091402,-0.010313,-0.299930,0.067114,-0.951597,0.010563,-0.070334,0.085569,-0.015335,0.851149,-1.239136,,,,,,,
1522138000.485903,-0.296193,-0.065215,-0.832343,0.096220,0.377738,0.014028,-0.291261,0.065169,-0.954421,-0.095717,-0.054304,-0.060563,-0.836563,1.229841,-1.241028,,,,,,,
1522138000.515871,-0.286024,-0.063943,-0.834576,-0.016614,0.284489,-0.133013,-0.281563,0.063899,-0.957413,-0.064400,-0.091105,-0.100922,-0.530884,1.528913,-0.792053,,,,,,,
1522138000.545839,-0.282043,-0.060424,-0.838997,0.108725,0.040391,-0.220049,-0.277811,0.060388,-0.958736,0.020090,-0.116143,-0.037144,-0.912460,1.005415,-1.015137,,,,,,,
1522138000.575808,-0.283295,-0.055376,-0.848017,0.040067,-0.008102,-0.403318,-0.279093,0.055348,-0.958668,-0.059118,-0.085041,-0.074871,-1.361099,1.232283,-1.166321,,,,,,,
1522138000.605776,-0.286445,-0.051362,-0.862179,-0.027210,-0.139989,-0.514047,-0.282171,0.051340,-0.957989,-0.025385,-0.033685,-0.148288,-0.535828,1.303495,-1.241211,,,,,,,
1522138000.635744,-0.289098,-0.048758,-0.874986,-0.059339,0.021574,-0.356541,-0.284749,0.048739,-0.957362,0.047124,0.003156,-0.032628,-1.587585,1.083296,-1.165833,,,,,,,
1522138000.665712,-0.289969,-0.048792,-0.882103,-0.057818,-0.103209,-0.141173,-0.285583,0.048773,-0.957112,0.017791,-0.006171,-0.011745,-1.740265,0.858915,-1.239990,,,,,,,
1522138000.695681,-0.297170,-0.050184,-0.884044,-0.088377,-0.307166,0.013504,-0.292447,0.050163,-0.954965,0.017407,0.003578,0.006128,-2.040710,0.860182,-1.315125,,,,,,,
1522138000.725649,-0.305782,-0.055373,-0.885406,-0.248113,-0.266067,-0.031413,-0.300578,0.055344,-0.952150,-0.009786,0.034042,0.006120,-2.035614,1.235395,-1.091614,,,,,,,
1522138000.755617,-0.310629,-0.062191,-0.889944,-0.256487,-0.047911,-0.077442,-0.305067,0.062151,-0.950301,0.036329,-0.011904,0.014388,-1.662125,1.083708,-1.090820,,,,,,,
1522138000.785586,-0.307756,-0.066301,-0.892438,-0.062677,0.154094,-0.010372,-0.302255,0.066253,-0.950922,0.082239,-0.061080,-0.016547,-2.861923,1.014265,-0.941162,,,,,,,
1522138000.815554,-0.305200,-0.063767,-0.891178,0.203282,-0.035827,0.008121,-0.299873,0.063724,-0.951848,0.003594,-0.064822,-0.025935,-2.262405,1.011488,-1.015869,,,,,,,
1522138000.845522,-0.310711,-0.056178,-0.888916,0.248381,-0.251451,-0.021456,-0.305254,0.056149,-0.950614,-0.024580,-0.042126,0.078132,-1.436234,1.082838,-0.940735,,,,,,,
1522138000.875490,-0.312188,-0.052626,-0.891265,-0.069275,0.166898,-0.167023,-0.306717,0.052602,-0.950346,0.000198,-0.012181,0.062468,-1.963470,1.084837,-1.315979,,,,,,,
1522138000.905459,-0.300987,-0.056857,-0.898278,-0.270036,0.425440,-0.141864,-0.295984,0.056827,-0.953501,0.011712,-0.030872,-0.116064,-2.636627,1.088163,-1.016357,,,,,,,
1522138000.935427,-0.290869,-0.061099,-0.904447,-0.134652,0.336091,-0.177897,-0.286250,0.061061,-0.956207,-0.054113,-0.006984,-0.124527,-2.933029,1.314726,-0.792419,,,,,,,
1522138000.965395,-0.283944,-0.059211,-0.909576,0.108888,0.154651,-0.150894,-0.279653,0.059177,-0.958276,-0.044642,-0.028339,-0.068397,-2.859375,1.089552,-0.641479,,,,,,,
1522138000.995363,-0.282391,-0.052710,-0.910203,0.225163,0.004946,-0.056896,-0.278265,0.052686,-0.959058,0.007834,-0.039807,0.043866,-2.336807,1.161665,-1.166504,,,,,,,
1522138001.025332,-0.280768,-0.046147,-0.910629,0.183049,0.095619,-0.092180,-0.276799,0.046131,-0.959820,-0.100521,-0.016559,0.028561,-1.886383,1.384336,-1.467163,,,,,,,
1522138001.055300,-0.278327,-0.041661,-0.912227,0.078287,0.103090,-0.060297,-0.274509,0.041649,-0.960682,-0.048108,-0.019249,0.000004,-1.962128,1.309675,-1.466919,,,,,,,
1522138001.085268,-0.269432,-0.040257,-0.912201,0.027083,0.441628,0.019241,-0.265969,0.040246,-0.963141,-0.020881,-0.051720,-0.060235,-2.711792,1.163359,-1.166687,,,,,,,
,,,,,,,,,,,,,,,,25.300393,51.438671,-21.000584,-1.000000,-1.000000,1522138001.096830,
1522138001.115236,-0.254461,-0.038225,-0.909581,0.147884,0.569351,0.099111,-0.251540,0.038215,-0.967092,-0.038041,-0.066627,-0.101313,-1.583389,1.458357,-1.092285,,,,,,,
1522138001.145205,-0.238179,-0.031028,-0.905305,0.356090,0.524485,0.058823,-0.235820,0.031023,-0.971301,-0.042668,-0.094134,-0.072507,-2.414490,0.936949,-1.240662,,,,,,,
1522138001.175173,-0.227608,-0.020619,-0.901966,0.304861,0.243323,0.016443,-0.225600,0.020618,-0.974002,0.011244,-0.095309,-0.031583,-2.413300,1.012007,-1.165955,,,,,,,
1522138001.205141,-0.222023,-0.013522,-0.899845,0.209222,0.123360,0.032485,-0.220183,0.013522,-0.975365,0.054854,-0.091845,-0.040077,-1.438782,1.007551,-1.240479,,,,,,,
1522138001.235109,-0.223975,-0.008487,-0.896630,0.154107,-0.195653,0.087097,-0.222099,0.008487,-0.974987,0.010536,-0.053851,-0.026600,-2.041595,0.635420,-1.089233,,,,,,,
1522138001.265078,-0.233824,-0.007119,-0.892981,-0.036939,-0.384510,0.114845,-0.231693,0.007119,-0.972763,-0.007244,-0.019433,0.106994,-1.818115,0.709028,-1.464417,,,,,,,
1522138001.295039,-0.239085,-0.012286,-0.892855,-0.273672,0.002701,-0.014642,-0.236796,0.012286,-0.971482,-0.032491,0.012968,0.143204,-1.737274,1.158903,-1.241211,,,,,,,
1522138001.324977,-0.232945,-0.020155,-0.896060,-0.306517,0.271749,-0.034110,-0.230797,0.020154,-0.972793,0.034356,-0.004315,0.040618,-2.336945,1.011900,-0.940857,,,,,,,
1522138001.354945,-0.224667,-0.030458,-0.898574,-0.406123,0.266326,0.019087,-0.222678,0.030454,-0.974416,0.016700,-0.044232,-0.030253,-2.188904,0.861158,-1.015198,,,,,,,
1522138001.384913,-0.217173,-0.043094,-0.899861,-0.422144,0.315974,0.064852,-0.215270,0.043080,-0.975604,0.007278,-0.049855,0.037539,-1.507187,1.308455,-0.641663,,,,,,,
1522138001.414882,-0.204972,-0.053981,-0.903829,-0.350816,0.489491,-0.155837,-0.203244,0.053955,-0.977640,-0.022648,0.019120,-0.075872,-2.633774,1.238386,-0.791992,,,,,,,
1522138001.444850,-0.191556,-0.058539,-0.912367,-0.099933,0.356816,-0.266332,-0.190060,0.058506,-0.980028,0.030011,-0.037220,-0.242201,-1.887558,0.860029,-0.790100,,,,,,,
1522138001.474818,-0.190840,-0.055897,-0.916883,0.137059,-0.158244,-0.090889,-0.189388,0.055868,-0.980312,0.091350,-0.049886,-0.146825,-1.960617,1.010435,-0.715698,,,,,,,
1522138001.504786,-0.199545,-0.049550,-0.917206,0.246875,-0.367177,-0.036251,-0.197980,0.049530,-0.978954,-0.015491,-0.055206,0.027202,-2.035461,0.935911,-0.565430,,,,,,,
1522138001.534755,-0.210587,-0.043805,-0.916035,0.130474,-0.301406,0.023253,-0.208833,0.043791,-0.976970,-0.061690,-0.030989,0.209682,-2.183060,1.086729,-0.416138,,,,,,,
1522138001.564723,-0.214279,-0.043737,-0.915753,-0.087036,-0.041333,-0.013397,-0.212439,0.043723,-0.976196,-0.067010,-0.016410,0.169143,-1.578583,1.309385,-0.041748,,,,,,,
1522138001.594691,-0.216469,-0.048143,-0.918226,-0.196000,-0.104540,-0.054962,-0.214533,0.048124,-0.975530,0.004145,-0.043531,0.046575,-2.258652,1.161848,-0.641418,,,,,,,
1522138001.624659,-0.220111,-0.055336,-0.920572,-0.291069,-0.069498,-0.016714,-0.218003,0.055307,-0.974380,0.050309,-0.009180,0.043273,-2.707443,1.238935,-0.566956,,,,,,,
1522138001.654628,-0.217023,-0.063637,-0.925927,-0.298168,0.264474,-0.209918,-0.214888,0.063594,-0.974566,-0.090776,0.064824,-0.012708,-1.877670,1.535505,-0.267761,,,,,,,
1522138001.684596,-0.203830,-0.066744,-0.935752,-0.036604,0.579282,-0.343226,-0.201971,0.066695,-0.977118,-0.120097,0.071550,-0.142404,-1.804916,1.310179,-0.266785,,,,,,,
1522138001.714564,-0.185144,-0.059420,-0.945342,0.335101,0.619761,-0.337663,-0.183763,0.059385,-0.981175,-0.037398,-0.008268,-0.303050,-2.704590,1.389143,-0.342590,,,,,,,
1522138001.744532,-0.173784,-0.043534,-0.948729,0.589193,0.177576,-0.103683,-0.172747,0.043520,-0.984004,-0.047163,-0.086718,-0.290562,-2.775696,1.689619,-0.193787,,,,,,,
1522138001.774501,-0.178264,-0.025777,-0.945232,0.564541,-0.368620,0.057748,-0.177263,0.025774,-0.983826,-0.134505,-0.085818,-0.041351,-2.406708,1.537199,-0.942993,,,,,,,
1522138001.804469,-0.192747,-0.011820,-0.943040,0.401490,-0.483995,-0.099955,-0.191542,0.011820,-0.981413,-0.188524,-0.043528,0.051207,-1.723953,2.134428,-0.645081,,,,,,,
1522138001.834437,-0.202602,0.000286,-0.948170,0.360920,-0.253934,-0.312265,-0.201219,-0.000286,-0.979546,-0.096694,-0.095341,-0.030143,-2.179932,1.761106,-1.018799,,,,,,,
1522138001.864405,-0.211780,0.012440,-0.957186,0.289815,-0.332431,-0.460335,-0.210184,-0.012440,-0.977583,-0.119497,-0.077205,-0.045077,-2.479019,1.762602,-0.869019,,,,,,,
1522138001.894374,-0.220659,0.023472,-0.972793,0.240664,-0.323540,-0.650045,-0.218812,-0.023470,-0.975485,-0.147734,-0.065504,-0.034769,-2.182480,1.685820,-1.318481,,,,,,,
1522138001.924342,-0.234061,0.033563,-0.989623,0.154321,-0.462913,-0.593503,-0.231799,-0.033556,-0.972185,-0.170682,-0.000028,0.098543,-2.477524,2.137220,-1.245483,,,,,,,
1522138001.954310,-0.244960,0.038012,-1.003561,-0.077784,-0.315021,-0.386050,-0.242342,-0.038003,-0.969446,-0.165907,0.021401,0.122324,-3.232727,1.615614,-1.243774,,,,,,,
1522138001.984278,-0.252254,0.034469,-1.012529,-0.240516,-0.175791,-0.180665,-0.249439,-0.034462,-0.967777,-0.163631,0.026024,0.063144,-3.226883,1.841200,-0.644653,,,,,,,
1522138002.014247,-0.259396,0.029707,-1.018737,-0.178728,-0.199389,-0.173127,-0.256384,-0.029703,-0.966119,-0.152232,-0.003317,0.088525,-3.232727,1.615614,-1.243774,,,,,,,
1522138002.044215,-0.266633,0.024689,-1.025500,-0.288307,-0.145782,-0.202033,-0.263405,-0.024686,-0.964369,-0.144631,0.054273,0.231032,-2.929306,1.914335,-1.169800,,,,,,,
1522138002.074183,-0.264507,0.015127,-1.035374,-0.454008,0.257490,-0.221737,-0.261403,-0.015126,-0.965111,-0.140498,0.056508,0.230294,-2.623459,2.363173,-0.946411,,,,,,,
,,,,,,,,,,,,,,,,25.300406,51.438705,-20.921696,-1.000000,-1.000000,1522138002.092722,
1522138002.104152,-0.253173,0.002168,-1.042797,-0.481054,0.379617,-0.049269,-0.250476,-0.002168,-0.968120,-0.173703,0.031801,0.114010,-2.846222,2.364561,-0.571533,,,,,,,
1522138002.134120,-0.242471,-0.011428,-1.044367,-0.429838,0.343188,0.128740,-0.240086,0.011428,-0.970684,-0.182888,-0.016234,0.051235,-2.849365,2.139418,-0.720642,,,,,,,
1522138002.164088,-0.233261,-0.023544,-1.041496,-0.329131,0.273288,0.208813,-0.231087,0.023542,-0.972648,-0.121193,-0.048078,0.106636,-4.269073,2.670805,-0.723511,,,,,,,
1522138002.194056,-0.224817,-0.034261,-1.039278,-0.354066,0.292233,0.092629,-0.222797,0.034254,-0.974263,-0.103161,-0.065123,0.099629,-2.548172,2.213133,-0.645813,,,,,,,
1522138002.224025,-0.220220,-0.044218,-1.039981,-0.301589,0.051158,0.056673,-0.218231,0.044204,-0.974896,-0.074418,-0.084365,0.055798,-3.071060,2.515348,-0.797302,,,,,,,
1522138002.253993,-0.222435,-0.051904,-1.039439,-0.234989,-0.055535,0.093066,-0.220308,0.051881,-0.974050,-0.081892,-0.058702,0.018636,-3.517303,2.892347,-0.799011,,,,,,,
1522138002.283961,-0.222279,-0.057635,-1.038600,-0.170896,0.109504,0.023683,-0.220087,0.057603,-0.973778,-0.152608,-0.002885,0.039711,-2.693985,2.588865,-0.572388,,,,,,,
1522138002.313915,-0.216965,-0.060534,-1.040906,-0.115509,0.227853,-0.053112,-0.214873,0.060497,-0.974766,-0.092882,-0.038051,0.048375,-2.470490,2.437864,-0.571655,,,,,,,
1522138002.343884,-0.211075,-0.063387,-1.042176,-0.107407,0.207165,0.014048,-0.209090,0.063344,-0.975843,-0.041292,-0.060353,0.005307,-2.392502,2.737516,-0.572815,,,,,,,
1522138002.373852,-0.209193,-0.065548,-1.040384,-0.023258,0.039449,0.111240,-0.207225,0.065501,-0.976098,-0.075963,-0.053172,-0.004676,-2.467484,2.513227,-0.196960,,,,,,,
1522138002.403820,-0.211421,-0.064375,-1.037656,0.097185,-0.076236,0.049640,-0.209414,0.064331,-0.975709,-0.142758,-0.027282,0.030579,-2.995453,2.440229,-0.571899,,,,,,,
1522138002.433788,-0.213848,-0.058784,-1.037335,0.197271,-0.034225,-0.066473,-0.211856,0.058750,-0.975533,-0.094816,-0.024433,0.055810,-1.946854,2.435286,-0.796387,,,,,,,
1522138002.463757,-0.215417,-0.053696,-1.038411,0.078606,-0.046820,-0.047365,-0.213446,0.053670,-0.975479,-0.056497,-0.034825,0.035065,-2.473785,2.287580,-0.871094,,,,,,,
1522138002.493725,-0.218865,-0.054171,-1.039815,-0.096556,-0.057047,-0.043219,-0.216804,0.054145,-0.974712,-0.087029,0.009530,0.014263,-2.621811,2.438322,-0.796753,,,,,,,
1522138002.523693,-0.221995,-0.058967,-1.040650,-0.216914,-0.097909,0.069673,-0.219794,0.058933,-0.973765,-0.064096,-0.013218,-0.008566,-1.942368,2.885267,-0.798218,,,,,,,
1522138002.553661,-0.223817,-0.066490,-1.039131,-0.250592,0.045423,0.099335,-0.221463,0.066441,-0.972903,-0.134937,-0.008427,0.038165,-2.692490,2.738859,-0.572937,,,,,,,
1522138002.583630,-0.218077,-0.071335,-1.038042,-0.050608,0.337227,0.085348,-0.215803,0.071274,-0.973832,-0.109469,-0.067048,-0.071669,-2.618225,2.663527,-0.572632,,,,,,,
1522138002.613567,-0.205717,-0.071991,-1.034232,-0.014029,0.458967,0.137466,-0.203740,0.071929,-0.976379,-0.032618,-0.080596,-0.246414,-1.865860,3.034925,-0.798767,,,,,,,
1522138002.643536,-0.192881,-0.075802,-1.031841,-0.158683,0.287530,0.088515,-0.191136,0.075730,-0.978638,-0.108775,-0.086853,-0.327118,-2.916260,2.590315,-0.122498,,,,,,,
1522138002.673504,-0.194894,-0.079571,-1.030801,-0.052195,-0.314805,0.029521,-0.193050,0.079487,-0.977964,-0.135335,-0.112660,-0.152544,-2.692337,2.664015,-0.422668,,,,,,,
1522138002.703472,-0.214291,-0.079639,-1.031633,-0.021940,-0.834822,-0.077541,-0.211981,0.079555,-0.974030,-0.134867,-0.073833,0.057099,-2.617325,2.888304,-0.798584,,,,,,,
1522138002.733441,-0.237239,-0.081786,-1.036965,-0.184696,-0.619865,-0.213212,-0.234234,0.081695,-0.968742,-0.123844,-0.071258,0.126456,-3.215073,2.891371,-0.423889,,,,,,,
1522138002.763409,-0.250276,-0.088015,-1.046465,-0.328953,-0.236586,-0.268045,-0.246712,0.087902,-0.965094,-0.070777,0.003834,0.132498,-3.440811,2.817381,-0.423706,,,,,,,
1522138002.793377,-0.249540,-0.096410,-1.056297,-0.348254,0.248871,-0.240837,-0.245812,0.096260,-0.964526,-0.107719,0.091652,0.124835,-3.288254,2.667372,0.251953,,,,,,,
1522138002.823345,-0.240960,-0.101060,-1.065304,-0.101285,0.304682,-0.256689,-0.237418,0.100888,-0.966154,-0.161035,0.089038,0.059279,-3.286011,2.892363,0.251099,,,,,,,
1522138002.853314,-0.235787,-0.096398,-1.072490,0.239513,0.113651,-0.258382,-0.232524,0.096249,-0.967817,-0.052373,0.051304,0.011075,-3.660995,2.894041,0.250916,,,,,,,
1522138002.883282,-0.238924,-0.083956,-1.077657,0.444319,-0.200130,-0.287743,-0.235823,0.083857,-0.968171,-0.050874,0.082143,0.079469,-3.214600,2.666807,0.027039,,,,,,,
1522138002.913250,-0.247864,-0.067423,-1.082908,0.557150,-0.272677,-0.285459,-0.244777,0.067372,-0.967236,-0.107473,0.016307,0.222821,-3.665924,2.443998,0.177734,,,,,,,
1522138002.943218,-0.252718,-0.047455,-1.086710,0.635281,-0.037763,-0.323998,-0.249756,0.047437,-0.967146,-0.161682,0.057742,0.177245,-3.523132,2.217527,-0.646301,,,,,,,
1522138002.973187,-0.253733,-0.028531,-1.092691,0.458083,-0.035169,-0.328393,-0.250917,0.028527,-0.967588,-0.194137,0.053229,-0.002489,-3.222549,2.366026,-0.796753,,,,,,,
1522138003.003155,-0.255292,-0.021802,-1.098048,-0.047868,-0.062650,-0.171038,-0.252468,0.021800,-0.967360,-0.141774,0.044087,-0.033708,-4.344513,2.446440,-0.422668,,,,,,,
1522138003.033123,-0.256709,-0.029382,-1.102165,-0.402931,0.037769,0.029983,-0.253789,0.029377,-0.966813,-0.130962,0.026149,0.092348,-4.047073,2.369810,-0.722168,,,,,,,
1522138003.063091,-0.254790,-0.044164,-1.100962,-0.478605,0.067345,0.234474,-0.251797,0.044150,-0.966773,-0.134480,-0.019797,0.138236,-3.818039,2.594084,-0.422974,,,,,,,
,,,,,,,,,,,,,,,,25.300416,51.438739,-20.948795,-1.000000,-1.000000,1522138003.079494,
1522138003.093060,-0.251358,-0.058976,-1.096795,-0.406450,0.209538,0.237578,-0.248287,0.058942,-0.966892,-0.126621,-0.024686,0.041446,-4.041824,2.670164,-0.348389,,,,,,,
1522138003.123028,-0.246212,-0.069407,-1.094778,-0.267028,0.200510,0.110897,-0.243145,0.069352,-0.967507,-0.100498,-0.095047,-0.093833,-3.591690,3.042540,-0.949646,,,,,,,
1522138003.152996,-0.242781,-0.079208,-1.093301,-0.398936,0.133511,0.165210,-0.239650,0.079125,-0.967630,-0.026281,-0.139397,-0.079154,-4.042877,2.744856,-0.648682,,,,,,,
1522138003.182964,-0.237634,-0.097349,-1.090657,-0.705328,0.257895,0.266078,-0.234289,0.097196,-0.967296,-0.127985,-0.095792,-0.056477,-4.265030,2.896086,-0.424438,,,,,,,
1522138003.212933,-0.228180,-0.124075,-1.087523,-0.962551,0.379071,0.353132,-0.224466,0.123757,-0.966591,-0.216619,-0.087090,-0.031989,-3.663544,3.043379,-0.424683,,,,,,,
1522138003.242901,-0.212386,-0.155931,-1.083890,-0.966797,0.563263,0.302865,-0.208235,0.155300,-0.965671,-0.062684,-0.135708,-0.102246,-3.509796,3.193068,-0.050232,,,,,,,
1522138003.272869,-0.193581,-0.176554,-1.083389,-0.427921,0.672114,0.045299,-0.189384,0.175638,-0.966067,0.000846,-0.146082,-0.122221,-4.033569,3.270491,0.024231,,,,,,,
1522138003.302812,-0.177890,-0.180819,-1.086653,-0.005494,0.353716,-0.158650,-0.174069,0.179835,-0.968173,-0.014911,-0.142939,-0.095914,-3.580902,3.493528,0.098572,,,,,,,
1522138003.332781,-0.180352,-0.172757,-1.093123,0.434356,-0.303027,-0.308959,-0.176706,0.171898,-0.969137,-0.062719,-0.095986,0.030721,-3.658142,3.268888,0.099426,,,,,,,
1522138003.362749,-0.195070,-0.148049,-1.099726,0.946242,-0.536421,-0.394643,-0.191715,0.147509,-0.970302,-0.039273,0.018461,-0.008763,-3.737473,2.969007,-0.124451,,,,,,,
1522138003.392717,-0.214385,-0.119388,-1.105822,0.684107,-0.638954,-0.377691,-0.211232,0.119104,-0.970152,-0.077327,0.131002,0.011885,-4.040924,2.670301,-0.198364,,,,,,,
1522138003.422686,-0.229583,-0.105667,-1.114282,0.279670,-0.328876,-0.355933,-0.226302,0.105470,-0.968330,-0.010347,0.063582,0.061272,-4.487595,2.822615,0.100769,,,,,,,
1522138003.452654,-0.238149,-0.096180,-1.120616,0.242162,-0.206441,-0.223961,-0.234814,0.096032,-0.967285,0.042630,0.072242,0.076721,-4.869019,2.448881,-0.347900,,,,,,,
1522138003.482622,-0.240348,-0.090112,-1.124461,0.187030,-0.047348,-0.161299,-0.237074,0.089990,-0.967315,-0.122011,0.105628,-0.003801,-4.270416,2.445967,-0.572571,,,,,,,
1522138003.512590,-0.246292,-0.084769,-1.127786,0.166704,-0.270597,-0.140839,-0.242934,0.084667,-0.966341,-0.131059,0.096485,0.052217,-4.796570,2.148634,-0.271667,,,,,,,
1522138003.542559,-0.254410,-0.079912,-1.129862,0.180632,-0.219877,-0.105714,-0.250871,0.079827,-0.964723,-0.076704,0.065772,0.025408,-4.870361,2.224043,-0.196960,,,,,,,
1522138003.572527,-0.260233,-0.074696,-1.129308,0.218589,-0.158292,0.039163,-0.256588,0.074627,-0.963636,0.008602,0.006474,-0.143695,-4.276993,1.920774,-0.795532,,,,,,,
1522138003.602495,-0.265484,-0.070992,-1.125219,0.136427,-0.074580,0.101883,-0.261716,0.070932,-0.962535,-0.065265,-0.007272,-0.135716,-5.246994,2.150587,-0.346924,,,,,,,
1522138003.632463,-0.263240,-0.066118,-1.120978,0.272472,0.037644,0.112526,-0.259641,0.066069,-0.963442,-0.193072,-0.109206,-0.126325,-5.174240,1.925261,-0.345947,,,,,,,
1522138003.662432,-0.267586,-0.059153,-1.112250,0.267303,-0.197319,0.285368,-0.263942,0.059118,-0.962725,-0.224614,-0.152822,-0.004545,-4.797943,2.373030,-0.872620,,,,,,,
1522138003.692400,-0.271375,-0.057710,-1.102289,0.027002,-0.176771,0.318205,-0.267610,0.057678,-0.961799,-0.092543,-0.142654,-0.082451,-5.023071,2.224272,-0.647095,,,,,,,
1522138003.722368,-0.275903,-0.065954,-1.095337,-0.396193,-0.087159,0.266654,-0.271823,0.065906,-0.960088,0.072162,0.003216,-0.091609,-5.103455,1.774488,-0.795349,,,,,,,
1522138003.752336,-0.271347,-0.085890,-1.095176,-0.748174,0.308889,0.131737,-0.267041,0.085785,-0.959859,-0.072940,-0.007904,0.020589,-4.044830,2.594801,-0.723083,,,,,,,
1522138003.782305,-0.263385,-0.106682,-1.100566,-0.646537,0.125144,-0.067260,-0.258870,0.106480,-0.960025,-0.126658,-0.071568,0.139651,-4.712906,2.973326,-0.199890,,,,,,,
1522138003.812273,-0.268364,-0.118540,-1.107250,-0.292564,-0.314060,-0.145394,-0.263293,0.118263,-0.957440,-0.012754,-0.076820,0.183376,-5.016174,2.599775,-0.123596,,,,,,,
1522138003.842241,-0.281666,-0.120399,-1.115152,-0.050898,-0.383864,-0.277272,-0.275944,0.120108,-0.953640,-0.060802,-0.024085,0.124828,-5.163010,2.825575,0.025452,,,,,,,
1522138003.872179,-0.288137,-0.118083,-1.123975,-0.001323,-0.074590,-0.303118,-0.282188,0.117809,-0.952098,-0.103463,0.029500,0.026408,-5.537552,2.827345,0.100281,,,,,,,
1522138003.902147,-0.288544,-0.117009,-1.130995,-0.060814,0.133002,-0.182977,-0.282611,0.116742,-0.952104,-0.098019,0.063388,0.143693,-5.685913,2.903151,0.249817,,,,,,,
1522138003.932115,-0.281803,-0.117746,-1.133700,-0.034734,0.214474,0.006636,-0.276162,0.117474,-0.953905,-0.049186,0.026202,0.105653,-4.712753,2.898481,-0.049622,,,,,,,
1522138003.962084,-0.275264,-0.119284,-1.132324,-0.018612,0.286419,0.047058,-0.269869,0.119001,-0.955515,-0.136152,0.063387,0.014262,-5.461517,2.976927,0.024658,,,,,,,
1522138003.992052,-0.267597,-0.116258,-1.131781,0.242538,0.149997,0.012230,-0.262630,0.115997,-0.957899,0.024745,-0.016952,-0.188982,-5.090881,2.675032,-0.198914,,,,,,,
1522138004.022020,-0.267250,-0.106592,-1.126239,0.399099,-0.014995,0.148902,-0.262581,0.106390,-0.959027,0.011879,-0.024924,-0.151386,-4.865280,2.823866,-0.349426,,,,,,,
1522138004.051989,-0.267196,-0.096345,-1.118578,0.400844,-0.105283,0.144726,-0.262804,0.096196,-0.960042,-0.137679,-0.063710,-0.037272,-5.392654,2.451460,-0.123230,,,,,,,
1522138004.081957,-0.272027,-0.085911,-1.111497,0.373189,-0.155786,0.081895,-0.267694,0.085805,-0.959676,-0.061606,-0.040487,0.048238,-5.542938,2.377211,-0.047974,,,,,,,
1522138004.111925,-0.274764,-0.077652,-1.108279,0.200889,-0.078416,0.020950,-0.270502,0.077574,-0.959589,0.038370,-0.029356,-0.010611,-4.871552,2.148970,-0.271729,,,,,,,
,,,,,,,,,,,,,,,,25.300425,51.438781,-20.576756,-1.000000,-1.000000,1522138004.092962,
1522138004.141893,-0.274374,-0.079310,-1.106962,-0.204475,0.076178,0.088697,-0.270093,0.079227,-0.959569,-0.117328,-0.035266,-0.044505,-5.168991,2.225615,0.027832,,,,,,,
1522138004.171862,-0.274355,-0.089533,-1.106168,-0.394105,-0.024537,0.124875,-0.269841,0.089414,-0.958744,-0.182963,-0.030515,0.047139,-4.722641,2.223005,-0.571899,,,,,,,
1522138004.201830,-0.271873,-0.103439,-1.106741,-0.507266,0.179972,0.094753,-0.267101,0.103255,-0.958121,0.020137,-0.020766,-0.047372,-5.236511,2.975904,0.024780,,,,,,,
1522138004.231798,-0.261326,-0.118458,-1.107869,-0.476915,0.551598,0.124240,-0.256551,0.118181,-0.959278,-0.014689,-0.008470,-0.189342,-5.310471,2.901548,0.325073,,,,,,,
1522138004.261766,-0.246409,-0.130553,-1.105775,-0.290610,0.289178,0.204552,-0.241847,0.130182,-0.961542,-0.078755,-0.082361,-0.198828,-4.481293,3.272886,0.398987,,,,,,,
1522138004.291749,-0.247599,-0.139898,-1.099212,-0.282738,-0.202566,0.318002,-0.242683,0.139442,-0.960032,-0.100106,-0.069923,0.028712,-4.480240,3.422804,0.323364,,,,,,,
1522138004.321717,-0.252987,-0.151523,-1.096136,-0.346685,-0.203993,0.089931,-0.247429,0.150944,-0.957076,0.005928,-0.087437,0.027465,-4.781891,3.349012,0.173584,,,,,,,
1522138004.351685,-0.260071,-0.158887,-1.098267,-0.205774,-0.158572,-0.071975,-0.253910,0.158219,-0.954199,0.004886,-0.047028,0.145255,-4.628601,3.498625,0.473022,,,,,,,
1522138004.381653,-0.261455,-0.163255,-1.103944,-0.185445,-0.012441,-0.158413,-0.255050,0.162531,-0.953170,-0.093247,-0.072717,0.127838,-5.153549,3.276365,0.848633,,,,,,,
1522138004.411622,-0.267058,-0.167421,-1.110453,-0.194526,-0.186377,-0.204055,-0.260205,0.166640,-0.951065,-0.222263,-0.071242,0.231720,-5.071548,4.025908,0.770691,,,,,,,
1522138004.441590,-0.275159,-0.167416,-1.116769,0.091745,-0.358361,-0.174908,-0.267901,0.166635,-0.948927,-0.094998,-0.073129,0.197584,-4.253174,3.497007,0.548218,,,,,,,
1522138004.471558,-0.280640,-0.156919,-1.119529,0.450426,0.147314,-0.134651,-0.273568,0.156275,-0.949072,0.011819,0.038686,0.113013,-5.076782,3.500929,0.772766,,,,,,,
1522138004.501526,-0.265090,-0.142238,-1.116557,0.484848,0.617968,0.017267,-0.259350,0.141758,-0.955323,0.016644,0.087612,-0.054519,-5.306122,2.977125,0.924805,,,,,,,
1522138004.531495,-0.243493,-0.130739,-1.112484,0.374412,0.741565,0.008537,-0.239037,0.130367,-0.962219,-0.144768,0.022923,-0.067291,-4.260223,2.971739,0.250305,,,,,,,
1522138004.561463,-0.230420,-0.116411,-1.108609,0.560621,0.132190,0.013553,-0.226840,0.116149,-0.966981,-0.060345,-0.062728,0.027574,-4.935043,2.899931,0.400269,,,,,,,
1522138004.591431,-0.227710,-0.100038,-1.105720,0.565140,0.114555,-0.049292,-0.224618,0.099871,-0.969315,-0.037345,-0.098879,-0.063811,-5.017075,2.374998,0.102295,,,,,,,
1522138004.621399,-0.229153,-0.083233,-1.102499,0.548854,-0.133295,-0.006432,-0.226366,0.083137,-0.970488,-0.062055,-0.018043,-0.029497,-4.265305,2.596540,0.026794,,,,,,,
1522138004.651368,-0.229028,-0.071163,-1.101420,0.289298,0.156283,-0.144369,-0.226456,0.071103,-0.971423,-0.114883,0.066943,-0.099576,-5.241150,2.376158,0.252197,,,,,,,
1522138004.681336,-0.220685,-0.063920,-1.104781,0.133105,0.344646,-0.127633,-0.218451,0.063876,-0.973755,0.034216,0.049390,-0.051757,-5.092072,2.375334,0.102295,,,,,,,
1522138004.711304,-0.205355,-0.063329,-1.106691,-0.026611,0.570564,-0.013956,-0.203506,0.063286,-0.977026,-0.024521,0.007576,-0.108255,-4.194519,2.445768,-0.422546,,,,,,,
1522138004.741273,-0.196513,-0.063321,-1.104236,0.027811,0.038045,0.143238,-0.194860,0.063279,-0.978788,-0.019267,-0.022873,0.009260,-4.791031,2.523909,0.026855,,,,,,,
1522138004.771241,-0.198788,-0.064355,-1.099383,0.008849,-0.126717,0.157246,-0.197072,0.064310,-0.978277,-0.072352,-0.049418,0.055807,-5.170639,2.150465,-0.121887,,,,,,,
1522138004.801209,-0.205224,-0.063865,-1.095216,0.049522,-0.183726,0.089143,-0.203371,0.063822,-0.977019,0.006075,-0.031351,0.132735,-4.493439,2.597044,-0.498352,,,,,,,
1522138004.831177,-0.204428,-0.061815,-1.094098,0.083111,0.071762,0.011129,-0.202620,0.061776,-0.977307,-0.045641,-0.023293,0.030133,-4.716492,2.523497,-0.048157,,,,,,,
1522138004.861146,-0.205033,-0.060454,-1.091526,0.005037,-0.039481,0.144368,-0.203228,0.060417,-0.977266,-0.082814,-0.064064,0.023118,-4.344955,2.446379,-0.497681,,,,,,,
1522138004.891114,-0.208689,-0.064517,-1.084512,-0.157850,-0.177556,0.344704,-0.206747,0.064472,-0.976268,-0.057520,-0.056888,0.041545,-4.418152,2.447004,-0.197632,,,,,,,
1522138004.921082,-0.208626,-0.074457,-1.073279,-0.307676,0.136410,0.478533,-0.206542,0.074388,-0.975606,0.020599,-0.046663,-0.124889,-4.491776,2.447554,0.027283,,,,,,,
1522138004.951050,-0.200084,-0.086647,-1.060262,-0.302755,0.330545,0.522031,-0.198006,0.086539,-0.976373,-0.055885,-0.104926,-0.268591,-4.193161,2.445997,-0.197510,,,,,,,
1522138004.981019,-0.191823,-0.096112,-1.045066,-0.147292,0.083125,0.593790,-0.189768,0.095965,-0.977128,-0.057180,-0.148516,-0.219390,-3.366837,2.667128,-0.348022,,,,,,,
1522138005.010987,-0.194333,-0.101681,-1.029506,-0.031834,-0.231005,0.497221,-0.192115,0.101506,-0.976109,-0.121377,-0.184330,-0.115230,-4.262466,2.971373,-0.124695,,,,,,,
1522138005.040955,-0.201052,-0.103422,-1.016494,0.048762,-0.306555,0.332200,-0.198633,0.103238,-0.974621,0.023768,-0.143277,-0.049533,-3.664597,2.893461,-0.349060,,,,,,,
1522138005.070923,-0.210953,-0.101319,-1.013438,0.136344,-0.269031,-0.050293,-0.208318,0.101145,-0.972817,-0.017847,-0.138224,0.074273,-3.359802,3.417006,-0.426025,,,,,,,
1522138005.100861,-0.213105,-0.096421,-1.017635,0.117489,0.024795,-0.274358,-0.210514,0.096271,-0.972839,-0.105542,-0.084537,0.080383,-3.733566,3.269148,0.024353,,,,,,,
1522138005.130829,-0.215287,-0.089974,-1.027950,0.145427,-0.100709,-0.418063,-0.212764,0.089852,-0.972963,-0.015050,-0.054284,0.171267,-3.732819,3.344145,0.024048,,,,,,,
,,,,,,,,,,,,,,,,25.300478,51.438884,-20.535954,-1.000000,-1.000000,1522138005.099583,
1522138005.160798,-0.217625,-0.081573,-1.039150,0.267709,0.007476,-0.432997,-0.215193,0.081483,-0.973166,0.009978,-0.006883,0.174674,-4.262024,2.971449,-0.049683,,,,,,,
1522138005.190766,-0.221973,-0.066646,-1.050021,0.485571,-0.270092,-0.478370,-0.219666,0.066597,-0.973299,0.023316,0.071251,0.100588,-4.638657,2.897993,-0.199585,,,,,,,
1522138005.220734,-0.231969,-0.051106,-1.061426,0.316322,-0.170750,-0.491387,-0.229594,0.051084,-0.971945,-0.087484,0.150118,0.106924,-3.665939,2.668623,-0.198181,,,,,,,
1522138005.250702,-0.230835,-0.042219,-1.071320,0.174222,0.060774,-0.272225,-0.228587,0.042207,-0.972608,-0.026189,0.044311,0.061231,-4.491486,2.522490,-0.048035,,,,,,,
1522138005.280671,-0.229796,-0.038169,-1.074134,0.067413,0.110252,-0.016627,-0.227613,0.038159,-0.973004,-0.096804,0.042193,-0.004596,-4.568283,2.297911,0.027832,,,,,,,
1522138005.310629,-0.225705,-0.039102,-1.072839,-0.095079,0.170582,0.074827,-0.223622,0.039092,-0.973892,-0.030940,-0.003264,-0.021226,-3.821625,2.368864,-0.647034,,,,,,,
1522138005.340597,-0.213147,-0.047340,-1.070427,-0.323305,0.600681,0.192498,-0.211300,0.047322,-0.976275,0.015545,-0.065617,-0.184034,-4.113663,2.895628,-0.199280,,,,,,,
1522138005.370566,-0.197633,-0.059554,-1.064112,-0.324955,0.394641,0.330154,-0.196001,0.059518,-0.978796,-0.001158,-0.096490,-0.249171,-4.040161,2.520674,0.177246,,,,,,,
1522138005.400534,-0.191532,-0.066863,-1.055249,-0.088613,0.010408,0.334986,-0.189938,0.066813,-0.979520,-0.024921,-0.141917,-0.113147,-4.343597,2.446592,-0.272644,,,,,,,
1522138005.430502,-0.193967,-0.068661,-1.046817,0.043664,-0.107294,0.254216,-0.192299,0.068607,-0.978935,-0.039208,-0.136676,-0.007240,-4.114548,2.670866,0.026550,,,,,,,
1522138005.460470,-0.199264,-0.067907,-1.042787,0.034671,-0.220548,0.040163,-0.197492,0.067855,-0.977953,0.040952,-0.106978,0.047320,-3.590195,2.743269,-0.198425,,,,,,,
1522138005.490439,-0.199588,-0.066827,-1.042808,0.044862,0.058367,-0.035767,-0.197823,0.066778,-0.977960,-0.050864,-0.108434,-0.024420,-3.509491,3.267988,-0.125549,,,,,,,
1522138005.520407,-0.204496,-0.066254,-1.044034,-0.036573,-0.271717,-0.061072,-0.202628,0.066206,-0.977015,-0.008585,-0.066343,0.108927,-3.815186,2.744291,-0.198547,,,,,,,
1522138005.550375,-0.212177,-0.067596,-1.047851,-0.136318,-0.253735,-0.164525,-0.210108,0.067544,-0.975342,-0.089102,-0.038934,0.138459,-3.737778,2.894087,-0.049133,,,,,,,
1522138005.580343,-0.223020,-0.073075,-1.055993,-0.358547,-0.355846,-0.223190,-0.220585,0.073010,-0.972631,0.044926,0.027225,0.183554,-4.561401,3.122648,-0.200439,,,,,,,
1522138005.610312,-0.220856,-0.086027,-1.066779,-0.508165,0.489720,-0.283820,-0.218255,0.085921,-0.972102,-0.051353,0.073274,0.075145,-4.113953,2.596083,0.251831,,,,,,,
1522138005.640280,-0.206196,-0.094520,-1.075462,-0.244343,0.413853,-0.165275,-0.203824,0.094380,-0.974448,0.077573,0.027706,-0.027338,-4.184616,2.896620,0.475647,,,,,,,
1522138005.670248,-0.193023,-0.097172,-1.079676,0.016845,0.447534,-0.060692,-0.190921,0.097019,-0.976799,0.021503,-0.052525,-0.133858,-3.734009,3.044447,0.325256,,,,,,,
1522138005.700216,-0.189878,-0.091195,-1.078657,0.298404,-0.051804,-0.022680,-0.187954,0.091068,-0.977947,-0.082630,-0.019306,-0.002995,-4.561249,2.823179,0.325745,,,,,,,
1522138005.730185,-0.187857,-0.077320,-1.079924,0.584078,0.120849,-0.195264,-0.186196,0.077243,-0.979472,0.014642,-0.072757,-0.080740,-4.186874,2.896269,0.100647,,,,,,,
1522138005.760153,-0.186938,-0.055293,-1.083093,0.731213,0.006117,-0.253634,-0.185567,0.055265,-0.981076,0.066563,-0.047056,-0.058902,-3.670288,2.368406,-0.421997,,,,,,,
1522138005.790121,-0.184315,-0.035680,-1.086659,0.538656,0.187081,-0.230520,-0.183157,0.035673,-0.982436,-0.008662,0.065905,-0.098054,-4.343140,2.222044,0.178284,,,,,,,
1522138005.820089,-0.178724,-0.019248,-1.089758,0.525215,0.109152,-0.176103,-0.177741,0.019247,-0.983889,0.042624,0.057749,-0.144346,-4.045547,2.070555,0.028992,,,,,,,
1522138005.850058,-0.180323,-0.003972,-1.088780,0.440318,-0.199457,0.071341,-0.179346,0.003972,-0.983778,0.064600,0.001735,-0.111299,-3.970428,2.444609,-0.572449,,,,,,,
1522138005.880026,-0.189932,0.001736,-1.081932,0.071428,-0.330603,0.266188,-0.188792,-0.001736,-0.982016,0.037806,-0.124775,-0.031061,-4.423401,2.146650,-0.571472,,,,,,,
1522138005.909994,-0.204410,-0.006841,-1.074309,-0.437979,-0.582321,0.277785,-0.202985,0.006841,-0.979158,0.007810,-0.052663,0.128496,-4.121582,2.145597,-0.271301,,,,,,,
1522138005.939962,-0.220405,-0.024028,-1.073237,-0.534394,-0.450805,0.044230,-0.218562,0.024025,-0.975527,-0.013875,-0.037026,0.231219,-3.898102,1.994596,-0.270569,,,,,,,
1522138005.969931,-0.226522,-0.034316,-1.081818,-0.271416,0.060619,-0.396153,-0.224457,0.034309,-0.973880,-0.035156,-0.044410,0.138431,-4.496567,2.147276,-0.271484,,,,,,,
1522138005.999899,-0.222701,-0.033248,-1.092973,0.036295,0.045005,-0.247803,-0.220743,0.033242,-0.974765,-0.041998,-0.138909,0.010776,-4.646881,2.073042,-0.196289,,,,,,,
1522138006.029867,-0.222950,-0.036110,-1.092733,-0.207367,0.020263,0.184645,-0.220963,0.036102,-0.974614,-0.097091,0.016037,-0.042842,-3.974152,1.845015,-0.195007,,,,,,,
1522138006.059836,-0.219645,-0.044225,-1.091480,-0.234459,0.215929,0.021404,-0.217670,0.044210,-0.975021,0.015949,-0.025900,-0.112626,-4.642532,2.373243,0.027527,,,,,,,
1522138006.089804,-0.205178,-0.049488,-1.093405,-0.131944,0.627328,-0.037546,-0.203492,0.049468,-0.977826,0.065583,-0.102385,-0.212817,-3.819366,2.369230,-0.272034,,,,,,,
1522138006.119772,-0.192300,-0.051911,-1.092999,-0.072213,0.222881,0.034299,-0.190859,0.051888,-0.980245,-0.055692,-0.008828,-0.113352,-3.593491,2.592985,-0.497864,,,,,,,
,,,,,,,,,,,,,,,,25.300480,51.438963,-20.497196,-1.000000,-1.000000,1522138006.111419,
1522138006.149740,-0.190130,-0.048755,-1.097256,0.242936,-0.078690,-0.260307,-0.188762,0.048735,-0.980813,0.004878,-0.088790,0.004342,-4.266663,2.596327,-0.198181,,,,,,,
1522138006.179709,-0.196393,-0.034964,-1.103475,0.495092,-0.086456,-0.302734,-0.195014,0.034957,-0.980177,0.062232,-0.022124,0.074644,-4.643890,2.373014,-0.197449,,,,,,,
1522138006.209677,-0.190399,-0.014853,-1.107653,0.746425,0.302540,-0.252855,-0.189230,0.014853,-0.981820,0.140585,0.029535,-0.069937,-4.798981,1.998487,-0.421082,,,,,,,
1522138006.239645,-0.182005,0.012111,-1.113381,0.857015,0.260857,-0.408302,-0.180989,-0.012111,-0.983411,0.063328,0.071574,-0.130420,-4.653320,1.697615,-0.644775,,,,,,,
1522138006.269613,-0.177263,0.036356,-1.120302,0.698377,-0.005091,-0.312243,-0.176220,-0.036348,-0.983679,-0.008717,0.021791,-0.060159,-4.581467,1.472136,-0.793884,,,,,,,
1522138006.299587,-0.185054,0.052369,-1.122964,0.385600,-0.450006,-0.093601,-0.183747,-0.052346,-0.981579,-0.014663,0.013558,0.068066,-3.838684,1.018354,-1.241699,,,,,,,
1522138006.329524,-0.194333,0.060048,-1.126356,0.234666,-0.261401,-0.265457,-0.192764,-0.060012,-0.979408,-0.100113,-0.049668,-0.023537,-4.590454,0.796812,-1.166199,,,,,,,
1522138006.359493,-0.207439,0.067531,-1.130780,0.147205,-0.548029,-0.121392,-0.205485,-0.067480,-0.976331,-0.015874,-0.107218,0.070859,-5.567657,0.800825,-1.541687,,,,,,,
1522138006.389461,-0.221762,0.063839,-1.135335,-0.338472,-0.510784,-0.110062,-0.219501,-0.063796,-0.973524,0.134540,0.040282,0.034452,-4.889236,1.097853,-1.467529,,,,,,,
1522138006.419429,-0.243006,0.049533,-1.138273,-0.658131,-0.616522,0.082656,-0.240326,-0.049512,-0.969429,-0.104568,0.138853,0.110252,-5.780823,1.627394,-0.945068,,,,,,,
1522138006.449397,-0.238745,0.022269,-1.137245,-0.920513,0.459749,0.347763,-0.236425,-0.022267,-0.971395,-0.099284,0.035420,-0.020472,-5.254791,1.774946,-1.020386,,,,,,,
1522138006.479366,-0.228828,-0.003019,-1.133887,-0.678741,0.022844,0.287644,-0.226835,0.003019,-0.973928,0.014525,-0.118543,-0.020411,-5.248795,2.150297,-0.646912,,,,,,,
1522138006.509334,-0.232044,-0.025765,-1.129933,-0.773946,-0.018350,0.286547,-0.229891,0.025762,-0.972875,0.042345,-0.103658,0.083380,-5.173355,2.150023,-0.571838,,,,,,,
1522138006.539302,-0.226380,-0.049247,-1.132085,-0.700338,0.297229,-0.041892,-0.224180,0.049227,-0.973304,-0.220339,-0.134951,-0.049157,-4.572495,2.372099,-0.797485,,,,,,,
1522138006.569270,-0.222683,-0.058352,-1.137886,-0.078832,0.014510,-0.102938,-0.220472,0.058319,-0.973648,-0.194049,-0.184143,-0.044815,-4.720840,2.447920,-0.647827,,,,,,,
1522138006.599239,-0.224333,-0.052934,-1.137920,0.298378,-0.055005,-0.020547,-0.222145,0.052909,-0.973577,0.152489,-0.041496,-0.039698,-4.722488,2.148146,-0.421631,,,,,,,
1522138006.629207,-0.214560,-0.044432,-1.137830,0.226309,0.690550,-0.091669,-0.212707,0.044417,-0.976106,0.098373,0.110505,-0.092650,-4.050217,2.144682,-0.871338,,,,,,,
1522138006.659175,-0.190908,-0.036414,-1.138424,0.333369,0.642788,0.015007,-0.189625,0.036406,-0.981182,0.073887,-0.013289,-0.130025,-3.673431,2.143278,-0.571045,,,,,,,
1522138006.689144,-0.185513,-0.025816,-1.130979,0.393757,-0.132625,0.254514,-0.184389,0.025813,-0.982514,0.012850,-0.046656,0.031907,-4.496140,2.596601,-0.948303,,,,,,,
1522138006.719112,-0.199413,-0.019562,-1.119200,0.197543,-0.673706,0.355071,-0.198056,0.019561,-0.979996,0.044278,-0.099791,0.185577,-3.977463,2.143980,-1.246277,,,,,,,
1522138006.749080,-0.219041,-0.018640,-1.109108,0.030661,-0.547671,0.321789,-0.217256,0.018639,-0.975937,0.010164,-0.115837,0.281372,-4.045883,2.669508,-1.023376,,,,,,,
1522138006.779048,-0.225980,-0.023401,-1.103404,-0.209072,-0.011926,0.076002,-0.224001,0.023399,-0.974308,-0.042906,0.013329,0.128834,-4.344223,2.745985,-0.873840,,,,,,,
1522138006.809017,-0.219714,-0.029059,-1.108939,-0.203585,0.364313,-0.240830,-0.217858,0.029054,-0.975548,-0.004218,-0.054247,0.034462,-3.597244,2.667265,-1.248169,,,,,,,
1522138006.838985,-0.203177,-0.032822,-1.116569,-0.152547,0.620952,-0.184584,-0.201673,0.032816,-0.978903,0.037595,-0.081873,-0.191217,-4.347214,2.446012,-0.872681,,,,,,,
1522138006.868953,-0.191154,-0.034798,-1.120490,-0.037751,0.171402,-0.064704,-0.189877,0.034791,-0.981191,0.108730,-0.068925,-0.216044,-4.274155,2.295607,-0.946960,,,,,,,
1522138006.898921,-0.191012,-0.030792,-1.123162,0.269216,-0.070865,-0.173984,-0.189762,0.030788,-0.981347,-0.022457,-0.125865,-0.119620,-3.452057,2.366301,-1.546875,,,,,,,
1522138006.928890,-0.199614,-0.018559,-1.125949,0.377560,-0.415537,-0.158632,-0.198257,0.018558,-0.979974,-0.003037,-0.101810,0.055750,-4.201706,1.995359,-0.870789,,,,,,,
1522138006.958858,-0.211890,-0.012700,-1.128414,-0.023483,-0.330555,-0.163283,-0.210291,0.012699,-0.977556,-0.022695,0.045925,0.126803,-4.351547,2.145811,-1.096436,,,,,,,
1522138006.988826,-0.218614,-0.018714,-1.137081,-0.397785,-0.107898,-0.262883,-0.216838,0.018713,-0.976028,0.008556,0.051005,0.125900,-3.972382,2.519178,-1.022705,,,,,,,
1522138007.018794,-0.213516,-0.034498,-1.148116,-0.716562,0.316355,-0.188960,-0.211771,0.034491,-0.976711,-0.086264,0.026300,-0.039540,-4.873962,2.223463,-0.796997,,,,,,,
1522138007.048763,-0.205154,-0.054570,-1.158107,-0.644284,0.240750,-0.192025,-0.203415,0.054543,-0.977572,-0.068466,-0.049950,-0.061033,-4.868576,2.673582,-0.648804,,,,,,,
1522138007.078731,-0.204619,-0.070980,-1.159434,-0.538765,-0.150977,0.323098,-0.202683,0.070920,-0.976673,0.028840,-0.104077,-0.005795,-3.665039,3.118010,-0.799988,,,,,,,
1522138007.108699,-0.210715,-0.091434,-1.148041,-0.609786,-0.222683,0.572453,-0.208286,0.091306,-0.973797,0.000644,0.052615,-0.011097,-4.483383,3.197676,0.174316,,,,,,,
,,,,,,,,,,,,,,,,25.300468,51.439028,-20.578434,-1.000000,-1.000000,1522138007.096843,
1522138007.138667,-0.210428,-0.106274,-1.139137,-0.297711,0.222750,0.282409,-0.207700,0.106074,-0.972424,0.069852,-0.019740,0.054898,-4.332657,3.271986,0.174072,,,,,,,
1522138007.168636,-0.193949,-0.108658,-1.133735,0.054060,0.650011,0.144786,-0.191599,0.108444,-0.975464,-0.011526,-0.140839,-0.167572,-3.055771,3.640944,-0.126770,,,,,,,
1522138007.198604,-0.181343,-0.105439,-1.131301,0.149912,0.190677,-0.000653,-0.179349,0.105244,-0.978140,0.053617,-0.190235,-0.097284,-4.035065,3.120497,0.024841,,,,,,,
1522138007.228572,-0.183623,-0.102512,-1.129869,0.004670,-0.218490,0.061444,-0.181634,0.102332,-0.978027,0.043283,-0.146430,0.027954,-3.959625,3.344862,-0.276001,,,,,,,
1522138007.258540,-0.192250,-0.106877,-1.130402,-0.262971,-0.277570,-0.055904,-0.189978,0.106673,-0.975976,-0.030481,0.055131,0.031335,-3.734314,3.194151,0.024658,,,,,,,
1522138007.288509,-0.197541,-0.109080,-1.138827,-0.062257,-0.140066,-0.342506,-0.195092,0.108864,-0.974724,0.058145,-0.035164,0.067299,-3.811722,3.044355,-0.124817,,,,,,,
1522138007.318445,-0.202859,-0.107955,-1.147259,-0.087193,-0.088740,-0.226441,-0.200298,0.107746,-0.973792,0.114467,0.028943,0.215766,-3.581039,3.343763,0.324158,,,,,,,
1522138007.348413,-0.199730,-0.110563,-1.153483,-0.056088,0.227548,-0.185179,-0.197193,0.110338,-0.974136,-0.031963,0.066084,0.068694,-3.435104,3.342421,-0.350769,,,,,,,
1522138007.378382,-0.195765,-0.104194,-1.156204,0.328395,0.134528,-0.085717,-0.193462,0.104005,-0.975579,0.020931,0.071349,-0.028174,-4.034027,3.270430,-0.050781,,,,,,,
1522138007.408350,-0.186314,-0.089250,-1.155706,0.619952,0.315552,0.057110,-0.184500,0.089132,-0.978782,-0.033288,-0.109319,-0.194817,-3.889297,2.969404,-0.424500,,,,,,,
1522138007.438318,-0.182549,-0.072904,-1.145833,0.545010,0.021098,0.251277,-0.181054,0.072839,-0.980772,0.096200,-0.033914,-0.038424,-3.061325,3.265669,-0.425293,,,,,,,
1522138007.468286,-0.180339,-0.063588,-1.132411,0.200620,0.106708,0.439531,-0.179001,0.063545,-0.981795,0.067291,0.015648,0.003859,-3.516403,2.892500,-0.648987,,,,,,,
1522138007.498255,-0.173079,-0.065820,-1.123264,-0.102590,0.224392,0.130185,-0.171844,0.065772,-0.982926,0.028167,0.048730,-0.160598,-3.974762,2.144407,-0.796265,,,,,,,
1522138007.528223,-0.173380,-0.063733,-1.125252,0.174961,-0.131238,-0.168665,-0.172162,0.063690,-0.983007,-0.018359,-0.134460,-0.093042,-3.745728,2.593306,-0.872925,,,,,,,
1522138007.558191,-0.181879,-0.058735,-1.127296,0.065027,-0.421069,-0.016081,-0.180566,0.058701,-0.981809,0.155634,-0.079102,0.005216,-4.047668,2.444593,-0.947449,,,,,,,
1522138007.588159,-0.194044,-0.061553,-1.125731,-0.195440,-0.272468,0.101839,-0.192463,0.061514,-0.979374,0.025135,0.091028,0.000981,-2.993210,2.889845,-0.948730,,,,,,,
1522138007.618097,-0.196519,-0.064838,-1.127217,-0.044330,-0.093245,-0.054849,-0.194847,0.064792,-0.978691,0.005638,-0.011097,-0.005394,-3.743332,2.743437,-0.723511,,,,,,,
1522138007.648065,-0.198894,-0.064517,-1.128057,-0.009751,-0.149105,0.020876,-0.197174,0.064472,-0.978246,-0.092606,-0.116398,0.026250,-4.268616,2.670881,-0.648499,,,,,,,
1522138007.678034,-0.208768,-0.069847,-1.126498,-0.294039,-0.417432,0.048639,-0.206750,0.069791,-0.975901,-0.121009,-0.017697,0.133418,-3.888840,3.194090,-0.725403,,,,,,,
1522138007.708002,-0.219286,-0.081283,-1.129001,-0.429994,-0.287286,0.024962,-0.216814,0.081194,-0.972830,0.046618,-0.022127,0.051627,-3.062820,3.340300,-0.800598,,,,,,,
1522138007.737970,-0.220717,-0.093220,-1.132479,-0.417934,0.233496,0.005270,-0.217979,0.093085,-0.971504,0.179802,-0.031318,-0.125725,-3.739731,2.968657,-0.499451,,,,,,,
1522138007.767938,-0.206820,-0.104379,-1.132116,-0.300431,0.526223,0.042356,-0.204231,0.104189,-0.973362,0.055778,0.076017,-0.175136,-3.585693,3.193251,-0.200195,,,,,,,
1522138007.797907,-0.197016,-0.105612,-1.131723,0.114729,0.129204,0.141097,-0.194653,0.105415,-0.975191,-0.031345,-0.081383,-0.003340,-3.436905,3.342131,-0.650757,,,,,,,
1522138007.827875,-0.198151,-0.103728,-1.121506,0.116491,-0.173042,0.359828,-0.195798,0.103542,-0.975163,0.056531,-0.058727,0.081333,-3.510712,3.417540,-0.576111,,,,,,,
1522138007.857843,-0.203227,-0.098462,-1.114569,0.327098,-0.200300,0.079784,-0.200853,0.098303,-0.974677,-0.017256,-0.092032,0.074042,-2.842026,3.188856,-1.249878,,,,,,,
1522138007.887811,-0.206731,-0.086216,-1.111802,0.442699,-0.008671,-0.014082,-0.204500,0.086109,-0.975072,0.040666,-0.088154,0.033650,-3.590042,3.117674,-0.799988,,,,,,,
1522138007.917780,-0.203184,-0.074926,-1.108737,0.324091,0.093957,0.092275,-0.201223,0.074856,-0.976681,0.076635,-0.037167,-0.111789,-3.517303,2.892347,-0.799011,,,,,,,
1522138007.947748,-0.201493,-0.069902,-1.105770,0.074996,0.117745,-0.029405,-0.199644,0.069845,-0.977376,-0.004626,0.061472,-0.169444,-4.193329,2.970091,-1.099670,,,,,,,
1522138007.977716,-0.200678,-0.064653,-1.107101,0.230204,-0.225049,0.007278,-0.198918,0.064608,-0.977884,0.082203,-0.128817,-0.044287,-2.991699,3.039839,-0.949341,,,,,,,
1522138008.007685,-0.212242,-0.064290,-1.100629,-0.184284,-0.404627,0.305498,-0.210217,0.064246,-0.975542,0.009182,-0.029929,0.125658,-3.143219,2.890516,-0.948792,,,,,,,
1522138008.037653,-0.224688,-0.077092,-1.095334,-0.448195,-0.497180,0.262773,-0.222141,0.077015,-0.971968,0.030124,-0.065037,0.251418,-2.762085,3.413954,-0.800720,,,,,,,
1522138008.067621,-0.232288,-0.094016,-1.090833,-0.557749,-0.006601,0.198271,-0.229188,0.093877,-0.968845,-0.080413,0.026682,0.093143,-2.835434,3.489424,-0.651062,,,,,,,
1522138008.097589,-0.229725,-0.107312,-1.093239,-0.338991,0.152931,-0.051060,-0.226400,0.107106,-0.968128,0.005483,-0.047063,0.001957,-2.907135,3.640043,-0.351685,,,,,,,
,,,,,,,,,,,,,,,,25.300451,51.439103,-20.566257,-1.000000,-1.000000,1522138008.092612,
1522138008.127558,-0.217758,-0.113498,-1.093572,-0.163711,0.474876,0.192756,-0.214651,0.113254,-0.970102,-0.058451,-0.127781,-0.181356,-2.228577,4.086851,-0.503174,,,,,,,
1522138008.157526,-0.207713,-0.125068,-1.084636,-0.445091,0.159318,0.440061,-0.204611,0.124742,-0.970862,0.039252,-0.045656,-0.226251,-2.906235,3.640196,-0.201660,,,,,,,
1522138008.187494,-0.206641,-0.139135,-1.081626,-0.312127,-0.051099,-0.057237,-0.203191,0.138686,-0.969268,0.038808,-0.031600,-0.140168,-2.379761,3.787825,-0.202026,,,,,,,
1522138008.217462,-0.215860,-0.137199,-1.087974,0.201855,-0.411293,-0.245084,-0.212174,0.136768,-0.967614,0.082826,-0.123524,0.007088,-1.552551,4.009108,-0.202454,,,,,,,
1522138008.247431,-0.224516,-0.127689,-1.093950,0.313335,-0.138122,-0.297481,-0.220822,0.127342,-0.966965,0.036526,-0.056450,0.067811,-2.606094,3.788618,-0.427124,,,,,,,
1522138008.277399,-0.230754,-0.113565,-1.099532,0.452862,-0.182222,-0.270695,-0.227238,0.113321,-0.967223,0.102848,-0.015574,0.188079,-2.305817,3.862196,-0.502319,,,,,,,
1522138008.307388,-0.228620,-0.098637,-1.104074,0.448298,0.232153,-0.264715,-0.225532,0.098477,-0.969246,-0.021874,0.003757,0.040932,-2.377533,4.237440,-0.578796,,,,,,,
1522138008.337356,-0.225138,-0.086567,-1.108706,0.292717,0.100566,-0.232742,-0.222405,0.086459,-0.971113,-0.035667,0.024915,0.091551,-2.982574,3.864943,-0.802673,,,,,,,
1522138008.367325,-0.221763,-0.080009,-1.111695,0.104810,0.108070,-0.022985,-0.219247,0.079924,-0.972390,-0.003135,-0.005812,0.083413,-3.360397,3.491789,-0.651306,,,,,,,
1522138008.397293,-0.217224,-0.080137,-1.108446,-0.025120,0.170777,0.172912,-0.214828,0.080051,-0.973366,0.048034,0.021938,-0.080757,-2.611938,3.563047,-1.026245,,,,,,,
1522138008.427261,-0.209088,-0.085181,-1.104774,-0.225618,0.367312,0.096923,-0.206815,0.085078,-0.974674,0.046308,-0.005397,-0.210614,-3.289612,3.116392,-0.724792,,,,,,,
1522138008.457229,-0.198666,-0.094504,-1.103004,-0.335183,0.280095,0.148073,-0.196481,0.094364,-0.975956,0.029184,-0.042728,-0.205990,-2.537247,3.263166,-0.574951,,,,,,,
1522138008.487198,-0.196069,-0.105166,-1.098619,-0.288411,-0.102348,0.267839,-0.193739,0.104972,-0.975421,0.113966,-0.067176,-0.008863,-2.010925,3.485640,-0.725647,,,,,,,
1522138008.517166,-0.199194,-0.115093,-1.091439,-0.259569,-0.066481,0.295525,-0.196570,0.114839,-0.973741,-0.025369,-0.042543,0.099550,-2.908630,3.490049,-0.351074,,,,,,,
1522138008.547134,-0.198136,-0.120359,-1.086279,-0.024304,0.014089,0.087839,-0.195418,0.120069,-0.973342,-0.025392,-0.085431,0.059020,-2.233063,3.636869,-0.501343,,,,,,,
1522138008.577102,-0.201057,-0.115628,-1.089442,0.223078,-0.175620,-0.220796,-0.198371,0.115370,-0.973313,-0.051018,-0.158598,0.000977,-2.980164,3.790449,-0.277344,,,,,,,
1522138008.607071,-0.207711,-0.111699,-1.095054,-0.079585,-0.084367,-0.247745,-0.204935,0.111467,-0.972408,-0.078894,-0.033022,0.043208,-2.833344,3.564650,-0.426392,,,,,,,
1522138008.637039,-0.208768,-0.116322,-1.106180,-0.321104,-0.026658,-0.359866,-0.205854,0.116060,-0.971676,0.093458,0.050978,-0.087925,-2.007172,3.636000,-0.351257,,,,,,,
1522138008.667007,-0.209186,-0.122271,-1.119707,-0.305856,0.232855,-0.398477,-0.206113,0.121966,-0.970897,0.099668,0.060529,-0.136692,-2.227066,3.787596,0.248047,,,,,,,
1522138008.696976,-0.204937,-0.124852,-1.130455,-0.037964,-0.034861,-0.200878,-0.201921,0.124527,-0.971453,0.010714,0.012786,-0.132612,-2.832428,3.340162,0.099548,,,,,,,
1522138008.726944,-0.213747,-0.124412,-1.130203,-0.005861,-0.323241,0.149995,-0.210484,0.124091,-0.969690,-0.036617,0.030358,0.049234,-3.509216,3.567533,-0.576660,,,,,,,
1522138008.756912,-0.219732,-0.125671,-1.121508,0.101324,-0.216635,0.366267,-0.216249,0.125341,-0.968259,0.049349,-0.025563,0.111143,-2.608032,3.638548,-0.501587,,,,,,,
1522138008.786880,-0.218431,-0.121467,-1.108300,0.308897,0.153495,0.395881,-0.215101,0.121169,-0.969046,0.014387,-0.048643,0.033072,-3.353958,3.867216,-0.202820,,,,,,,
1522138008.816849,-0.211552,-0.112621,-1.095071,0.440752,0.171821,0.310724,-0.208647,0.112383,-0.971512,0.049391,-0.033785,-0.005386,-3.059082,3.490660,-0.426208,,,,,,,
1522138008.846817,-0.205799,-0.098444,-1.082862,0.590896,0.128679,0.349234,-0.203360,0.098285,-0.974158,-0.128625,-0.161548,-0.033898,-2.535904,3.488005,-0.725891,,,,,,,
1522138008.876785,-0.204859,-0.085933,-1.065560,0.483056,-0.193942,0.480537,-0.202679,0.085827,-0.975477,0.038555,-0.094601,-0.031710,-2.232925,3.786634,-0.726929,,,,,,,
1522138008.906723,-0.210598,-0.073044,-1.051637,0.540386,-0.051187,0.256674,-0.208488,0.072979,-0.975298,0.078178,-0.044704,0.102984,-1.864990,3.484312,-1.400513,,,,,,,
1522138008.936691,-0.202795,-0.058886,-1.044645,0.390710,0.398920,0.069641,-0.201059,0.058852,-0.977810,0.074258,0.012681,-0.033817,-2.092361,2.885939,-0.798279,,,,,,,
1522138008.966659,-0.189009,-0.049066,-1.044855,0.273286,0.418608,-0.121192,-0.187660,0.049047,-0.981009,0.015220,-0.040639,-0.096323,-2.242355,2.886610,-0.798340,,,,,,,
1522138008.996628,-0.184928,-0.042638,-1.044513,0.125185,-0.072876,0.010257,-0.183709,0.042625,-0.982056,0.048028,-0.035744,-0.073104,-1.717987,2.959028,-1.023376,,,,,,,
1522138009.026596,-0.189365,-0.041616,-1.044533,-0.005231,-0.191062,-0.061112,-0.188073,0.041604,-0.981274,0.078270,0.007377,-0.041615,-1.641174,3.183607,-1.099243,,,,,,,
1522138009.056564,-0.190598,-0.040404,-1.049649,0.018819,0.015975,-0.195565,-0.189292,0.040393,-0.981090,0.027198,-0.066226,-0.016850,-2.394150,3.111616,-1.474304,,,,,,,
1522138009.086532,-0.195647,-0.042285,-1.053365,-0.224677,-0.295832,-0.043062,-0.194227,0.042272,-0.980045,-0.051149,0.034510,0.180561,-2.169006,2.811140,-0.947998,,,,,,,
1522138009.116501,-0.201445,-0.049556,-1.059809,-0.228735,-0.092004,-0.317112,-0.199840,0.049536,-0.978576,0.018077,0.021082,0.049346,-2.396088,2.512312,-0.796936,,,,,,,
,,,,,,,,,,,,,,,,25.300443,51.439204,-20.539249,-1.000000,-1.000000,1522138009.100606,
1522138009.146469,-0.203824,-0.049184,-1.069101,-0.026259,-0.063429,-0.220031,-0.202171,0.049165,-0.978115,0.093665,-0.053834,-0.039142,-2.692184,2.813780,-0.648254,,,,,,,
1522138009.176437,-0.199734,-0.052613,-1.073251,-0.184334,0.322755,-0.078817,-0.198134,0.052589,-0.978763,0.054061,0.126351,-0.135312,-2.243103,3.036238,-1.173950,,,,,,,
1522138009.206405,-0.188322,-0.051372,-1.080270,0.232804,0.421293,-0.339651,-0.186964,0.051350,-0.981024,0.078199,-0.021778,-0.135843,-2.838577,3.264296,-0.800171,,,,,,,
1522138009.236374,-0.179787,-0.035288,-1.087794,0.554352,0.056678,-0.280448,-0.178709,0.035280,-0.983269,-0.039294,-0.106737,-0.155189,-3.293808,2.741346,-0.798279,,,,,,,
1522138009.266342,-0.191688,-0.023766,-1.090284,0.222449,-0.513763,-0.187424,-0.190463,0.023764,-0.981407,0.030413,0.021478,0.075553,-2.473206,2.662046,-1.397583,,,,,,,
1522138009.296295,-0.206057,-0.016923,-1.098743,0.123067,-0.491081,-0.355875,-0.204572,0.016922,-0.978705,-0.019045,-0.070816,0.202185,-3.295914,2.666121,-1.023010,,,,,,,
1522138009.326264,-0.214321,-0.018291,-1.109912,-0.311995,-0.072756,-0.304409,-0.212648,0.018290,-0.976958,-0.094756,0.022908,0.131453,-3.074066,2.439985,-1.171997,,,,,,,
1522138009.356232,-0.213922,-0.029602,-1.117657,-0.445625,0.072035,-0.145886,-0.212201,0.029598,-0.976778,0.112912,0.151051,0.040285,-2.849960,2.214201,-0.945923,,,,,,,
1522138009.386200,-0.202207,-0.038355,-1.126130,-0.259247,0.579040,-0.232564,-0.200684,0.038345,-0.978905,0.121750,0.086517,-0.168601,-3.224045,2.216032,-0.796143,,,,,,,
1522138009.416168,-0.190863,-0.044559,-1.127813,-0.168186,0.170046,0.173884,-0.189518,0.044545,-0.980866,0.022739,0.019802,-0.201720,-3.072266,2.440275,-0.872009,,,,,,,
1522138009.446137,-0.192543,-0.047189,-1.121705,0.075305,-0.233640,0.223488,-0.191142,0.047171,-0.980428,-0.074269,-0.022437,0.007482,-2.469452,2.812407,-1.023132,,,,,,,
1522138009.476105,-0.197806,-0.047394,-1.108886,-0.004253,-0.008149,0.523681,-0.196298,0.047376,-0.979399,-0.080588,-0.066022,-0.024019,-3.292313,2.891340,-0.798889,,,,,,,
1522138009.506073,-0.192794,-0.050361,-1.095761,0.095263,0.085246,0.355297,-0.191359,0.050339,-0.980228,0.174254,-0.049363,-0.158505,-2.545044,2.662901,-0.872620,,,,,,,
1522138009.536041,-0.189992,-0.045496,-1.087124,0.243597,0.314704,0.159126,-0.188656,0.045480,-0.980990,0.073513,-0.006234,-0.147611,-2.169464,2.811064,-1.023010,,,,,,,
1522138009.566010,-0.173692,-0.040245,-1.081242,0.184400,0.486748,0.194071,-0.172680,0.040234,-0.984156,-0.007175,-0.098400,-0.244940,-2.923920,2.364454,-1.021606,,,,,,,
1522138009.595978,-0.171803,-0.033690,-1.075044,0.322448,-0.195529,0.157565,-0.170862,0.033684,-0.984719,0.080347,-0.094582,-0.028816,-2.701187,2.363081,-1.396484,,,,,,,
1522138009.625946,-0.182009,-0.023530,-1.064496,0.400074,-0.468323,0.391246,-0.180956,0.023528,-0.983210,0.067385,-0.074431,0.065241,-2.029037,1.985212,-1.244690,,,,,,,
1522138009.655914,-0.195141,-0.016643,-1.051519,0.230303,-0.308059,0.327026,-0.193878,0.016643,-0.980884,-0.109711,-0.000941,0.136845,-2.627060,2.137968,-1.170532,,,,,,,
1522138009.685883,-0.198188,-0.014341,-1.046465,0.037271,-0.067869,0.084775,-0.196872,0.014340,-0.980324,0.068638,-0.029935,-0.042945,-2.476776,1.987593,-0.869873,,,,,,,
1522138009.715851,-0.198122,-0.019125,-1.042446,-0.256974,0.156301,0.195144,-0.196792,0.019124,-0.980259,0.154861,-0.049718,-0.133984,-1.577286,2.432722,-1.696167,,,,,,,
1522138009.745819,-0.190540,-0.030107,-1.036583,-0.348207,0.205534,0.329280,-0.189303,0.030103,-0.981457,-0.034620,-0.085935,-0.131733,-2.174850,2.360929,-1.171204,,,,,,,
1522138009.775787,-0.187489,-0.041905,-1.030548,-0.292427,-0.042826,0.268833,-0.186229,0.041893,-0.981613,-0.121388,-0.116585,-0.064972,-2.246857,2.661253,-1.172485,,,,,,,
1522138009.805756,-0.198863,-0.050084,-1.021173,-0.202045,-0.487883,0.364176,-0.197307,0.050063,-0.979063,0.097362,-0.151976,0.122755,-0.971161,2.730513,-1.172119,,,,,,,
1522138009.835724,-0.206026,-0.054815,-1.020347,-0.007601,-0.126563,-0.165603,-0.204264,0.054788,-0.977381,0.090693,-0.039819,-0.022496,-2.167816,2.886198,-0.873352,,,,,,,
1522138009.865692,-0.212586,-0.044481,-1.026981,0.367609,-0.183931,-0.301649,-0.210780,0.044466,-0.976522,0.030436,-0.036974,0.026860,-1.718735,2.884031,-1.023071,,,,,,,
1522138009.895660,-0.212505,-0.029889,-1.032327,0.415784,0.064725,-0.317854,-0.210815,0.029885,-0.977069,-0.049164,-0.024880,0.019733,-1.722473,2.509047,-1.021545,,,,,,,
1522138009.925629,-0.211866,-0.014723,-1.041295,0.408146,-0.055906,-0.389120,-0.210262,0.014723,-0.977534,-0.051747,-0.004438,0.021647,-1.949554,2.434843,-1.246399,,,,,,,
1522138009.955597,-0.211364,-0.006202,-1.051548,0.061205,-0.000038,-0.352148,-0.209789,0.006202,-0.977727,0.090115,-0.040534,-0.093196,-3.377472,2.141279,-1.245972,,,,,,,
1522138009.985565,-0.219987,-0.009936,-1.058667,-0.367342,-0.310794,-0.132654,-0.218206,0.009936,-0.975852,0.055425,0.111753,0.101386,-2.621063,2.513319,-0.797058,,,,,,,
1522138010.015534,-0.218338,-0.024014,-1.066609,-0.547889,0.286322,-0.210108,-0.216545,0.024011,-0.975977,0.038215,0.137777,-0.027898,-2.548325,2.287992,-0.796143,,,,,,,
1522138010.045502,-0.211272,-0.037362,-1.071946,-0.505322,0.130018,0.091628,-0.209557,0.037353,-0.977083,0.146493,0.046036,-0.019560,-2.765686,2.964109,-0.648926,,,,,,,
1522138010.075470,-0.205430,-0.055450,-1.070585,-0.537588,0.151967,0.155512,-0.203674,0.055421,-0.977469,0.025772,0.056212,-0.015421,-1.566483,2.883726,-0.648010,,,,,,,
1522138010.105438,-0.204904,-0.065504,-1.068668,-0.094632,-0.117964,0.152922,-0.203036,0.065457,-0.976981,-0.109692,-0.123853,0.046698,-3.059509,3.265959,-0.125305,,,,,,,
,,,,,,,,,,,,,,,,25.300438,51.439230,-20.542139,0.219030,-1.000000,1522138010.093365,
1522138010.135407,-0.211565,-0.068145,-1.061492,-0.053314,-0.304737,0.256490,-0.209503,0.068092,-0.975434,0.043823,-0.088951,0.045640,-2.612076,2.964018,-0.048828,,,,,,,
1522138010.165375,-0.215426,-0.071497,-1.058639,-0.069239,0.076771,-0.045451,-0.213218,0.071436,-0.974390,0.037864,0.054464,-0.018515,-2.690247,2.963850,-0.573853,,,,,,,
1522138010.195313,-0.208476,-0.065358,-1.063495,0.263625,0.283378,-0.228685,-0.206527,0.065311,-0.976259,0.070388,-0.042637,-0.103392,-2.691132,2.739073,-0.347961,,,,,,,
1522138010.225281,-0.201515,-0.055403,-1.066701,0.215623,0.193360,-0.107142,-0.199847,0.055374,-0.978261,-0.050611,-0.009537,-0.073603,-1.343597,2.807493,-0.872620,,,,,,,
1522138010.255249,-0.199469,-0.049145,-1.071394,0.220190,-0.131908,-0.242145,-0.197910,0.049125,-0.978988,0.089924,-0.006233,-0.056961,-2.464493,2.813215,-0.198120,,,,,,,
1522138010.285217,-0.207186,-0.041135,-1.077681,0.174874,-0.231708,-0.237818,-0.205533,0.041124,-0.977786,0.077588,0.048827,0.016436,-2.693680,2.663786,-0.647644,,,,,,,
1522138010.315183,-0.208717,-0.039197,-1.083591,-0.076987,0.067280,-0.205274,-0.207045,0.039187,-0.977546,0.023207,0.083860,-0.005288,-2.089050,3.036222,-0.498901,,,,,,,
1522138010.345151,-0.208974,-0.040699,-1.089163,-0.101287,-0.068948,-0.166792,-0.207284,0.040688,-0.977434,-0.032752,0.062660,0.113253,-2.842331,2.889311,-0.798645,,,,,,,
1522138010.375119,-0.206488,-0.042274,-1.095016,-0.013174,0.090011,-0.137048,-0.204841,0.042261,-0.977883,-0.090188,-0.061853,-0.059135,-3.141418,2.890806,-0.648804,,,,,,,
1522138010.405087,-0.209976,-0.042926,-1.094134,-0.008553,-0.242283,0.122209,-0.208244,0.042913,-0.977135,0.087532,0.028788,-0.048378,-2.543091,2.812971,-0.798218,,,,,,,
1522138010.435056,-0.209713,-0.047345,-1.091942,-0.129128,0.317947,-0.021222,-0.207945,0.047327,-0.976995,-0.013460,0.032278,-0.128962,-2.689484,3.038847,-0.574158,,,,,,,
1522138010.465024,-0.203637,-0.047178,-1.091114,0.053446,0.018908,0.129454,-0.202008,0.047160,-0.978248,0.062649,-0.093288,-0.032357,-3.064163,2.890837,-0.273743,,,,,,,
1522138010.494992,-0.203289,-0.049255,-1.084351,-0.061830,-0.026562,0.289247,-0.201646,0.049235,-0.978220,0.058641,0.007024,-0.023992,-2.018860,2.735609,-0.797668,,,,,,,
1522138010.524960,-0.203027,-0.052349,-1.077651,-0.018104,0.069765,0.176231,-0.201359,0.052325,-0.978119,0.011265,0.025952,-0.059021,-2.393692,2.662443,-0.647522,,,,,,,
1522138010.554929,-0.198522,-0.048757,-1.073597,0.232003,0.069541,0.122064,-0.196986,0.048738,-0.979194,0.017024,-0.095796,-0.100564,-2.619568,2.663313,-0.797668,,,,,,,
1522138010.584897,-0.200011,-0.043748,-1.066514,0.172036,-0.093597,0.221286,-0.198490,0.043734,-0.979127,0.011234,-0.078799,0.041795,-1.343292,2.882414,-0.947876,,,,,,,
1522138010.614865,-0.204092,-0.039730,-1.059850,0.171790,-0.212238,0.167070,-0.202518,0.039719,-0.978473,0.067188,-0.058152,0.088351,-2.240402,3.036680,-0.723938,,,,,,,
1522138010.644834,-0.206087,-0.037894,-1.055355,-0.027402,0.020564,0.073982,-0.204485,0.037884,-0.978136,-0.020048,0.076785,0.006701,-2.168716,2.886061,-1.023315,,,,,,,
1522138010.674802,-0.202822,-0.036394,-1.057997,0.058645,0.122965,-0.163670,-0.201301,0.036386,-0.978853,0.033210,-0.020822,-0.006422,-1.642990,2.958693,-1.023315,,,,,,,
