timestamp(unix),attitude_roll(radians),attitude_pitch(radians),attitude_yaw(radians),rotation_rate_x(radians/s),rotation_rate_y(radians/s),rotation_rate_z(radians/s),gravity_x(G),gravity_y(G),gravity_z(G),user_acc_x(G),user_acc_y(G),user_acc_z(G),magnetic_field_x(microteslas),magnetic_field_y(microteslas),magnetic_field_z(microteslas),latitude(degree),longitude(degree),altitude(meter),speed(m/s),course(degree),timestamp(unix),User Mark
1523522811.330439,-0.631169,-0.082867,1.758742,0.042935,0.011650,0.004771,-0.588064,0.082772,-0.804568,0.148031,-0.024713,-0.032667,-12.930557,-28.443501,-7.753662,,,,,,,
1523522811.360407,-0.625585,-0.079512,1.761073,0.155677,0.133653,-0.009108,-0.583722,0.079428,-0.808059,0.160870,-0.036200,-0.088761,-12.926666,-28.143360,-7.604858,,,,,,,
1523522811.390376,-0.621152,-0.078175,1.762495,-0.022921,0.098885,0.014221,-0.580195,0.078095,-0.810725,0.148737,-0.027543,-0.105046,-13.228149,-28.292011,-7.604431,,,,,,,
1523522811.420344,-0.617174,-0.081784,1.760946,-0.186329,0.089677,0.019448,-0.576798,0.081693,-0.812791,0.152406,-0.017972,-0.162261,-13.383087,-28.741398,-7.677673,,,,,,,
,,,,,,,,,,,,,,,,25.318912,51.455625,16.370998,7.760000,269.648438,1523522810.997241,
1523522811.450312,-0.614236,-0.085601,1.757717,-0.154292,0.032589,-0.032687,-0.574224,0.085497,-0.814222,0.132329,0.013411,-0.190600,-12.327911,-27.996510,-8.055115,,,,,,,
1523522811.480280,-0.614476,-0.086799,1.754724,-0.053142,-0.071546,-0.068734,-0.574360,0.086690,-0.814000,0.141895,0.016093,-0.182552,-12.629242,-27.995380,-8.280334,,,,,,,
1523522811.510249,-0.615684,-0.086271,1.753009,-0.014602,-0.014435,-0.042136,-0.575369,0.086164,-0.813343,0.135351,0.030062,-0.154171,-12.784927,-28.519749,-8.353333,,,,,,,
1523522811.540217,-0.614561,-0.086487,1.752927,-0.012543,0.055158,0.033451,-0.574445,0.086379,-0.813973,0.143994,0.029222,-0.155387,-11.878830,-27.998692,-8.204895,,,,,,,
1523522811.570185,-0.612730,-0.087206,1.754114,0.027807,0.028358,0.052688,-0.572917,0.087095,-0.814973,0.159068,-0.003187,-0.150360,-12.778488,-28.144321,-7.904785,,,,,,,
1523522811.600153,-0.613385,-0.086315,1.756180,0.090629,-0.045993,0.024051,-0.573496,0.086208,-0.814660,0.168115,-0.012371,-0.096457,-12.702286,-28.069614,-7.830017,,,,,,,
1523522811.630122,-0.613799,-0.083623,1.757983,0.109149,-0.035003,-0.035608,-0.573965,0.083525,-0.814609,0.171499,0.005082,-0.050320,-12.105164,-28.222507,-8.054138,,,,,,,
1523522811.660090,-0.612335,-0.079475,1.757759,0.102281,-0.001392,-0.126232,-0.572966,0.079392,-0.815725,0.167647,0.016144,-0.043009,-13.452103,-28.141071,-7.680115,,,,,,,
1523522811.690058,-0.610577,-0.074050,1.755896,0.121810,0.016916,-0.168852,-0.571769,0.073982,-0.817072,0.174049,0.016746,-0.055426,-12.476685,-28.370014,-7.228760,,,,,,,
1523522811.719993,-0.608818,-0.069691,1.753473,0.011709,0.025470,-0.136979,-0.570510,0.069635,-0.818333,0.163513,0.044241,-0.091808,-11.801712,-28.373051,-7.228394,,,,,,,
1523522811.749962,-0.607901,-0.070198,1.749987,-0.115901,0.003927,-0.049682,-0.569739,0.070140,-0.818827,0.146796,0.080571,-0.081732,-12.628922,-28.369709,-7.603821,,,,,,,
1523522811.779930,-0.605962,-0.073664,1.747983,-0.135204,0.087314,0.037588,-0.568008,0.073597,-0.819725,0.104950,0.074077,-0.084511,-12.029099,-28.297550,-7.753784,,,,,,,
1523522811.809898,-0.600095,-0.077744,1.746926,-0.104942,0.155329,0.025821,-0.563015,0.077666,-0.822789,0.058559,0.037157,-0.138209,-11.879578,-28.073689,-8.204590,,,,,,,
1523522811.839866,-0.597351,-0.078932,1.745814,-0.006091,-0.037751,-0.054886,-0.560703,0.078850,-0.824254,0.058765,-0.004936,-0.140987,-12.331055,-28.221653,-8.204224,,,,,,,
1523522811.869835,-0.599908,-0.077377,1.743631,0.008935,-0.096832,-0.120878,-0.562877,0.077299,-0.822918,0.043117,0.002138,-0.078526,-12.404846,-28.146229,-8.129578,,,,,,,
1523522811.899803,-0.602722,-0.074525,1.740491,0.028341,-0.098759,-0.157084,-0.565313,0.074456,-0.821509,0.011465,0.021430,-0.046335,-11.354736,-28.225819,-7.978760,,,,,,,
1523522811.929771,-0.605429,-0.070705,1.737280,0.055043,-0.086131,-0.148554,-0.567693,0.070646,-0.820203,0.000127,0.016833,-0.029925,-11.351593,-28.000690,-7.829651,,,,,,,
1523522811.959740,-0.608293,-0.067619,1.734900,0.017275,-0.119302,-0.101670,-0.570162,0.067567,-0.818749,-0.030058,-0.024629,-0.012764,-11.654129,-28.074619,-8.129517,,,,,,,
1523522811.989708,-0.611552,-0.066988,1.732247,-0.043507,-0.092657,-0.092148,-0.572851,0.066938,-0.816921,-0.065867,-0.025831,0.043408,-11.803223,-28.073795,-7.979614,,,,,,,
1523522812.019676,-0.613252,-0.065376,1.730090,0.050739,-0.017516,-0.082562,-0.574301,0.065330,-0.816033,-0.065943,-0.045082,0.078210,-11.200104,-27.851368,-7.830139,,,,,,,
1523522812.049644,-0.612254,-0.060890,1.730956,0.195009,0.061534,-0.040983,-0.573648,0.060853,-0.816838,-0.073935,-0.066025,0.049626,-10.746826,-27.703098,-7.530518,,,,,,,
,,,,,,,,,,,,,,,,25.318904,51.455574,16.584408,5.430000,269.296875,1523522811.997227,
1523522812.079613,-0.611932,-0.053324,1.735407,0.346211,0.007814,-0.009919,-0.573634,0.053298,-0.817376,-0.052480,-0.049316,0.046899,-11.126007,-27.851841,-7.980164,,,,,,,
1523522812.109581,-0.613355,-0.043485,1.741607,0.378070,-0.040037,-0.017301,-0.575070,0.043471,-0.816948,-0.030506,-0.017119,0.064980,-11.421631,-27.999531,-7.004700,,,,,,,
1523522812.139549,-0.613916,-0.035168,1.746242,0.243874,0.011426,-0.035564,-0.575717,0.035161,-0.816893,-0.000089,0.008891,0.065534,-11.569672,-28.073429,-6.554443,,,,,,,
1523522812.169517,-0.613481,-0.031103,1.747991,0.059071,0.008574,-0.018645,-0.575439,0.031098,-0.817253,0.006988,0.022872,0.033730,-10.740509,-27.926701,-6.104675,,,,,,,
1523522812.199516,-0.611548,-0.032503,1.747554,-0.120037,0.128751,0.032235,-0.573832,0.032498,-0.818328,-0.027562,0.022144,0.011443,-11.189590,-27.699909,-6.330750,,,,,,,
1523522812.229484,-0.608549,-0.037608,1.745521,-0.207640,0.129948,0.043890,-0.571273,0.037599,-0.819898,-0.035828,0.007430,0.012220,-11.117294,-27.925312,-6.404846,,,,,,,
1523522812.259453,-0.603148,-0.044094,1.743199,-0.234086,0.218011,0.072550,-0.566687,0.044080,-0.822753,-0.046701,-0.036313,-0.071046,-11.269241,-27.850071,-6.855225,,,,,,,
1523522812.289421,-0.597130,-0.055155,1.741111,-0.442092,0.186692,0.216283,-0.561416,0.055127,-0.825695,0.012329,-0.090985,-0.208164,-11.722824,-27.848637,-7.455444,,,,,,,
1523522812.319389,-0.591410,-0.075566,1.738393,-0.784008,0.254790,0.324644,-0.555941,0.075494,-0.827786,-0.091917,-0.041193,-0.269702,-11.352356,-27.626438,-8.581116,,,,,,,
1523522812.349357,-0.584964,-0.104135,1.726710,-1.054330,0.170012,0.084783,-0.549178,0.103946,-0.829215,-0.103730,0.104733,-0.357400,-11.802048,-27.100239,-9.408508,,,,,,,
1523522812.379326,-0.586041,-0.118051,1.715287,-0.181029,-0.112097,-0.149773,-0.549218,0.117777,-0.827338,0.000679,0.065389,-0.351281,-12.706833,-26.947208,-10.459534,,,,,,,
1523522812.409294,-0.592027,-0.108978,1.711997,0.362066,-0.199101,-0.361318,-0.554734,0.108762,-0.824889,-0.061035,0.087435,-0.212984,-11.956253,-27.025364,-10.233887,,,,,,,
1523522812.439262,-0.601704,-0.088642,1.709205,0.634009,-0.407218,-0.480243,-0.563826,0.088526,-0.821135,0.029906,0.131842,-0.023515,-11.501755,-27.475910,-8.731873,,,,,,,
1523522812.469231,-0.612538,-0.060062,1.712415,0.950112,-0.333964,-0.431069,-0.573909,0.060026,-0.816716,0.049007,0.057971,0.117757,-10.521988,-27.629276,-7.680664,,,,,,,
1523522812.499199,-0.620561,-0.031979,1.717743,0.747429,-0.240300,-0.382294,-0.581194,0.031974,-0.813137,0.026552,0.027871,0.181316,-10.742767,-27.702442,-6.855530,,,,,,,
1523522812.529167,-0.628106,-0.012174,1.719895,0.463902,-0.253046,-0.281273,-0.587570,0.012173,-0.809082,0.094086,-0.006466,0.284942,-10.513260,-27.927357,-5.729553,,,,,,,
1523522812.559135,-0.634274,-0.003188,1.720439,0.079018,-0.137682,-0.080285,-0.592590,0.003188,-0.805498,0.035568,-0.034011,0.354829,-10.362503,-28.077656,-5.353882,,,,,,,
1523522812.589104,-0.633839,-0.004941,1.718601,-0.145973,0.068194,0.039735,-0.592235,0.004941,-0.805750,0.008144,-0.041653,0.301859,-9.987976,-27.854786,-5.804504,,,,,,,
1523522812.619072,-0.630489,-0.010924,1.719199,-0.144213,0.163792,0.195211,-0.589505,0.010924,-0.807691,-0.003986,-0.044631,0.286893,-10.662949,-28.076389,-5.428955,,,,,,,
1523522812.649040,-0.623337,-0.016297,1.723362,-0.003927,0.286538,0.219695,-0.583671,0.016296,-0.811827,0.003196,-0.036132,0.277113,-11.186890,-27.699467,-5.880737,,,,,,,
1523522812.679008,-0.614159,-0.018066,1.729685,0.145797,0.300208,0.185704,-0.576178,0.018065,-0.817125,0.024618,-0.022124,0.270921,-10.509811,-27.627293,-5.655701,,,,,,,
1523522812.709002,-0.604461,-0.013226,1.737755,0.394157,0.329000,0.083567,-0.568269,0.013225,-0.822736,0.054979,-0.043514,0.239301,-10.961746,-27.775333,-5.730347,,,,,,,
1523522812.738970,-0.595199,0.000255,1.747227,0.644530,0.283674,-0.057914,-0.560674,-0.000255,-0.828037,0.058522,-0.063496,0.209628,-10.509964,-27.777073,-5.430115,,,,,,,
1523522812.768938,-0.586743,0.020204,1.754466,0.674173,0.261469,-0.234752,-0.553539,-0.020202,-0.832578,0.053035,-0.026947,0.204191,-9.603531,-27.854954,-4.229370,,,,,,,
1523522812.798906,-0.583666,0.036742,1.756180,0.325050,0.008479,-0.249674,-0.550715,-0.036733,-0.833884,0.027995,-0.006815,0.248161,-9.972961,-27.702610,-3.555115,,,,,,,
1523522812.828875,-0.581699,0.044372,1.754012,0.106282,0.147524,-0.149818,-0.548903,-0.044357,-0.834708,-0.044557,-0.032013,0.230338,-9.226440,-28.006046,-3.628540,,,,,,,
1523522812.858843,-0.573957,0.046041,1.754340,-0.009323,0.344945,0.075783,-0.542384,-0.046025,-0.838869,-0.072835,-0.059551,0.012011,-8.324524,-27.860035,-3.553650,,,,,,,
1523522812.888811,-0.561506,0.034567,1.753902,-0.669880,0.399448,0.264907,-0.532143,-0.034560,-0.845949,-0.117759,-0.072603,-0.213607,-9.080780,-28.306919,-3.852295,,,,,,,
1523522812.918779,-0.556296,-0.001764,1.743447,-1.523364,-0.007447,0.403205,-0.528044,0.001764,-0.849215,-0.069368,-0.031931,-0.272428,-9.766006,-27.706532,-6.554993,,,,,,,
1523522812.948748,-0.554575,-0.049551,1.729533,-1.517140,0.248308,0.450887,-0.525936,0.049531,-0.849081,-0.124607,0.034087,-0.427836,-9.618134,-27.108555,-7.907349,,,,,,,
1523522812.978716,-0.543386,-0.083957,1.720227,-0.813919,0.373549,0.222197,-0.515216,0.083858,-0.852948,-0.159757,0.113209,-0.645236,-10.907196,-27.254856,-10.007385,,,,,,,
1523522813.008683,-0.539590,-0.094860,1.714498,-0.164668,-0.008165,-0.126425,-0.511474,0.094718,-0.854062,-0.167801,0.121545,-0.527987,-10.981888,-27.179600,-10.082764,,,,,,,
1523522813.038651,-0.543829,-0.086632,1.707603,0.274027,-0.175945,-0.450906,-0.515476,0.086523,-0.852524,-0.140713,0.072183,-0.391265,-9.783157,-27.260059,-10.156860,,,,,,,
,,,,,,,,,,,,,,,,25.318895,51.455540,16.536190,3.810000,270.351562,1523522812.997215,
1523522813.068620,-0.552352,-0.073708,1.699795,0.108864,-0.277877,-0.400862,-0.523266,0.073641,-0.848981,-0.158222,0.032209,-0.220950,-10.234467,-27.707508,-9.630249,,,,,,,
1523522813.098588,-0.555276,-0.075088,1.688358,-0.503390,0.063420,-0.215177,-0.525692,0.075018,-0.847361,-0.266834,0.059733,-0.175238,-9.786301,-27.485203,-10.305908,,,,,,,
1523522813.128556,-0.554160,-0.092074,1.675648,-0.729000,0.074808,0.060607,-0.524000,0.091944,-0.846741,-0.245317,0.096380,-0.141693,-8.884399,-26.889942,-10.982910,,,,,,,
1523522813.158525,-0.552084,-0.106842,1.672357,-0.232339,0.052329,0.210178,-0.521472,0.106639,-0.846578,-0.141492,0.051564,-0.154795,-9.709396,-26.436970,-11.735107,,,,,,,
1523522813.188493,-0.547590,-0.107526,1.678811,0.291417,0.171181,0.198727,-0.517624,0.107319,-0.848851,-0.048111,0.015957,-0.025188,-9.789001,-27.036381,-11.507690,,,,,,,
1523522813.218462,-0.543205,-0.097492,1.690106,0.618899,0.008386,0.113890,-0.514428,0.097338,-0.851991,0.058740,-0.020281,0.094255,-9.333801,-26.738071,-11.133667,,,,,,,
1523522813.248461,-0.547502,-0.078559,1.703791,0.850769,-0.298604,0.017406,-0.518951,0.078478,-0.851194,0.100540,-0.054445,0.211820,-10.306015,-27.182484,-9.932373,,,,,,,
1523522813.278429,-0.557915,-0.055625,1.715021,0.821403,-0.379159,-0.153018,-0.528600,0.055596,-0.847049,0.165227,-0.067544,0.310367,-10.751938,-27.179798,-9.257629,,,,,,,
1523522813.308397,-0.565197,-0.033897,1.720591,0.623414,-0.154633,-0.279125,-0.535275,0.033891,-0.843998,0.170132,-0.027696,0.357395,-9.326553,-27.860020,-8.054199,,,,,,,
1523522813.338366,-0.567976,-0.016788,1.720420,0.375423,-0.042108,-0.328428,-0.537851,0.016787,-0.842873,0.125772,0.006864,0.416420,-9.468582,-27.558552,-7.230469,,,,,,,
1523522813.368334,-0.566615,-0.004403,1.717064,0.250903,0.089694,-0.290291,-0.536774,0.004403,-0.843715,0.078736,0.026725,0.413539,-9.092987,-27.635029,-7.004944,,,,,,,
1523522813.398302,-0.563492,0.004573,1.715997,0.214795,0.112949,-0.106019,-0.534136,-0.004573,-0.845386,0.000216,-0.010915,0.374042,-7.967896,-27.490314,-7.230042,,,,,,,
1523522813.428270,-0.559678,0.007313,1.718259,0.017356,0.142734,0.110110,-0.530899,-0.007313,-0.847403,-0.050659,-0.074962,0.337760,-8.491653,-27.637501,-6.779663,,,,,,,
1523522813.458239,-0.554856,-0.001863,1.720755,-0.374291,0.171050,0.302650,-0.526820,0.001863,-0.849975,-0.092122,-0.084062,0.225616,-9.091492,-27.485035,-7.005554,,,,,,,
1523522813.488207,-0.550604,-0.019713,1.721230,-0.533885,0.080982,0.322868,-0.523100,0.019712,-0.852043,-0.081346,-0.060865,0.153694,-9.921417,-27.482121,-7.830994,,,,,,,
1523522813.518175,-0.553589,-0.033232,1.723080,-0.142043,-0.236125,0.249947,-0.525453,0.033226,-0.850174,-0.074309,-0.067161,0.019470,-9.993866,-27.181873,-7.907227,,,,,,,
1523522813.548142,-0.565939,-0.030013,1.730716,0.457570,-0.505419,0.100434,-0.535967,0.030009,-0.843705,-0.075086,-0.047587,0.005723,-10.592926,-27.179020,-7.757568,,,,,,,
1523522813.578112,-0.581522,-0.014785,1.741410,0.660911,-0.543284,-0.026180,-0.549236,0.014784,-0.835536,-0.074894,-0.026625,0.139323,-10.518066,-28.003010,-6.404236,,,,,,,
1523522813.608079,-0.597284,0.001884,1.749930,0.582848,-0.441506,-0.117970,-0.562398,-0.001884,-0.826865,-0.180431,-0.017678,0.418692,-10.212067,-27.853626,-5.654663,,,,,,,
1523522813.638047,-0.596417,0.020836,1.755234,0.417454,0.336842,-0.284039,-0.561559,-0.020834,-0.827174,-0.263636,0.026800,0.011607,-9.679001,-27.854679,-4.304382,,,,,,,
1523522813.668015,-0.584612,0.023920,1.748363,-0.364818,0.267040,-0.204639,-0.551718,-0.023918,-0.833687,-0.448175,-0.021919,-0.125846,-9.380493,-28.006031,-4.303589,,,,,,,
1523522813.697972,-0.585145,0.005731,1.732737,-1.067592,-0.244919,0.013786,-0.552311,-0.005731,-0.833618,-0.506771,-0.066580,-0.142243,-9.616302,-28.006763,-6.103760,,,,,,,
