timestamp(unix),attitude_roll(radians),attitude_pitch(radians),attitude_yaw(radians),rotation_rate_x(radians/s),rotation_rate_y(radians/s),rotation_rate_z(radians/s),gravity_x(G),gravity_y(G),gravity_z(G),user_acc_x(G),user_acc_y(G),user_acc_z(G),magnetic_field_x(microteslas),magnetic_field_y(microteslas),magnetic_field_z(microteslas),latitude(degree),longitude(degree),altitude(meter),speed(m/s),course(degree),timestamp(unix),User Mark
1522138320.049750,-0.185838,-0.031617,0.295250,0.288015,-0.014910,-0.015083,-0.184677,0.031612,-0.982291,-0.038009,0.014622,0.082571,29.168442,-18.034731,-5.798950,,,,,,,
,,,,,,,,,,,,,,,,25.309942,51.444916,-7.690281,-1.000000,-1.000000,1522138312.093050,
1522138320.079718,-0.185701,-0.023979,0.298650,0.218029,-0.002823,0.106314,-0.184582,0.023977,-0.982525,-0.016132,-0.027517,0.004589,29.470535,-17.960878,-5.574097,,,,,,,
1522138320.109686,-0.187220,-0.023680,0.303051,-0.075102,-0.073641,0.157309,-0.186076,0.023677,-0.982250,-0.018361,-0.023159,0.011486,29.470978,-17.736177,-5.875000,,,,,,,
1522138320.139654,-0.188858,-0.031417,0.306342,-0.308491,0.004582,0.144284,-0.187645,0.031412,-0.981734,-0.031609,-0.013682,0.017211,28.868607,-18.108232,-5.648865,,,,,,,
,,,,,,,,,,,,,,,,25.310046,51.445002,-7.111973,-1.000000,-1.000000,1522138320.137563,
1522138320.169623,-0.187036,-0.041159,0.308357,-0.272743,0.090739,0.119715,-0.185790,0.041147,-0.981727,0.006133,-0.032556,-0.047692,29.243866,-17.810381,-6.099792,,,,,,,
1522138320.199591,-0.185767,-0.044870,0.310286,-0.007035,0.003309,0.069910,-0.184514,0.044855,-0.981806,0.035039,-0.049006,-0.031683,29.845047,-17.513384,-6.400757,,,,,,,
1522138320.229559,-0.186124,-0.041253,0.311882,0.187589,-0.011556,-0.001318,-0.184894,0.041242,-0.981893,0.013431,-0.021161,-0.014415,29.162888,-18.410006,-6.097412,,,,,,,
1522138320.259527,-0.187485,-0.036485,0.312222,0.077716,-0.073465,-0.073795,-0.186265,0.036477,-0.981822,-0.003005,0.029044,-0.029866,29.240738,-18.260134,-5.873047,,,,,,,
1522138320.289496,-0.189957,-0.036226,0.309865,-0.054815,-0.087053,-0.058963,-0.188692,0.036218,-0.981368,0.019732,0.058097,-0.004548,29.618546,-17.662371,-6.400269,,,,,,,
1522138320.319464,-0.189878,-0.037221,0.308791,-0.008623,0.048391,0.004871,-0.188608,0.037213,-0.981347,0.018702,0.039005,-0.006110,29.018433,-17.809435,-6.174927,,,,,,,
1522138320.349432,-0.188173,-0.036834,0.311740,0.035672,0.048633,0.108251,-0.186937,0.036826,-0.981681,0.048586,0.033609,-0.037514,30.442932,-17.815920,-6.249207,,,,,,,
1522138320.379400,-0.187521,-0.039535,0.315120,-0.131200,-0.015847,0.115666,-0.186278,0.039525,-0.981702,0.027724,0.028896,-0.058704,29.317520,-17.810930,-6.324768,,,,,,,
1522138320.409369,-0.189320,-0.044662,0.316240,-0.121551,-0.095008,0.037960,-0.188004,0.044648,-0.981153,0.019013,0.011886,0.005781,28.494507,-17.657152,-6.250793,,,,,,,
1522138320.439337,-0.190880,-0.044521,0.315949,0.101343,-0.008918,-0.044005,-0.189535,0.044506,-0.980865,-0.018137,-0.023480,0.029632,30.140686,-17.814943,-6.624329,,,,,,,
1522138320.469305,-0.188471,-0.040329,0.314931,0.108504,0.109313,-0.086740,-0.187205,0.040318,-0.981493,-0.056203,-0.057774,-0.039778,29.915558,-17.963701,-6.398926,,,,,,,
1522138320.499274,-0.186401,-0.040750,0.312114,-0.141894,-0.001735,-0.074023,-0.185170,0.040739,-0.981862,-0.035701,-0.101072,-0.096233,29.693863,-17.812395,-6.099548,,,,,,,
1522138320.529242,-0.190274,-0.046166,0.309497,-0.175988,-0.155063,-0.016360,-0.188926,0.046149,-0.980906,-0.058968,-0.056846,0.009837,29.546249,-17.436968,-6.326172,,,,,,,
1522138320.559210,-0.193083,-0.046714,0.311470,0.088706,-0.009015,0.126467,-0.191676,0.046697,-0.980347,-0.005941,-0.021092,0.108673,29.770950,-17.512911,-6.250732,,,,,,,
1522138320.589178,-0.191095,-0.040221,0.317829,0.299165,0.076172,0.176624,-0.189781,0.040210,-0.981003,-0.030160,0.012677,0.065216,29.467514,-17.811617,-6.324707,,,,,,,
1522138320.619136,-0.189459,-0.033664,0.323077,0.136269,0.048675,0.064648,-0.188221,0.033658,-0.981550,-0.010341,0.024066,-0.004443,30.365219,-18.040651,-6.323364,,,,,,,
1522138320.649104,-0.188806,-0.034428,0.323132,-0.113208,0.028636,-0.020755,-0.187575,0.034421,-0.981647,0.004546,-0.005033,-0.032864,29.843399,-17.813158,-6.174500,,,,,,,
1522138320.679072,-0.188187,-0.036997,0.322869,-0.019573,0.030103,0.041108,-0.186950,0.036989,-0.981673,0.008377,-0.003053,-0.020097,29.239975,-18.110506,-6.248596,,,,,,,
1522138320.709039,-0.187913,-0.035909,0.327022,0.082136,-0.016639,0.153119,-0.186689,0.035901,-0.981763,0.003721,-0.006482,0.016004,30.365219,-18.040651,-6.323364,,,,,,,
1522138320.739009,-0.187794,-0.036680,0.332011,-0.073427,0.015860,0.119938,-0.186566,0.036672,-0.981758,0.001446,-0.005544,0.017204,29.388641,-18.336031,-6.097595,,,,,,,
1522138320.768976,-0.186917,-0.041768,0.334015,-0.203165,0.032742,0.033507,-0.185669,0.041756,-0.981725,0.052459,0.000557,-0.038569,29.386078,-18.411318,-6.397400,,,,,,,
1522138320.798944,-0.185214,-0.047418,0.332011,-0.174664,0.058993,-0.084765,-0.183950,0.047401,-0.981792,0.035360,0.010873,-0.106541,29.990829,-17.889116,-6.474121,,,,,,,
1522138320.828912,-0.184333,-0.050095,0.326613,-0.101499,0.054281,-0.196586,-0.183061,0.050075,-0.981825,-0.005766,0.034261,-0.122316,29.463486,-18.261522,-6.247925,,,,,,,
1522138320.858881,-0.183133,-0.052032,0.320286,-0.100749,0.016900,-0.168848,-0.181865,0.052009,-0.981947,-0.010655,0.029107,-0.092684,29.318878,-17.810717,-6.099731,,,,,,,
1522138320.888849,-0.185099,-0.052918,0.317232,0.017567,-0.120276,-0.045021,-0.183786,0.052893,-0.981542,-0.057440,0.052362,0.039876,30.072586,-17.439104,-6.100891,,,,,,,
1522138320.918818,-0.188895,-0.049422,0.320090,0.206645,-0.112542,0.147977,-0.187544,0.049402,-0.981013,-0.056642,0.005804,0.118113,29.842804,-17.738375,-6.399841,,,,,,,
1522138320.948786,-0.188287,-0.044879,0.328740,0.144225,0.071102,0.196759,-0.186988,0.044864,-0.981337,-0.077905,-0.035297,0.038466,29.685776,-18.262957,-6.697815,,,,,,,
1522138320.978755,-0.187772,-0.044897,0.333982,-0.017037,-0.036279,0.111501,-0.186482,0.044882,-0.981433,-0.030361,-0.083395,-0.018567,30.213745,-18.189974,-6.322815,,,,,,,
1522138321.008723,-0.189896,-0.047549,0.337205,-0.098849,-0.022866,0.046429,-0.188543,0.047531,-0.980914,-0.035990,-0.086579,0.012591,29.609695,-18.412554,-6.622253,,,,,,,
1522138321.038691,-0.190076,-0.049614,0.338616,-0.045073,0.016578,0.007014,-0.188701,0.049594,-0.980781,-0.012318,-0.051959,0.005669,29.532928,-18.637133,-6.546387,,,,,,,
1522138321.068660,-0.188755,-0.049110,0.341266,0.020205,0.089498,0.041085,-0.187410,0.049090,-0.981054,0.015871,-0.003100,0.017538,30.213303,-18.190035,-6.397827,,,,,,,
1522138321.098628,-0.185050,-0.048885,0.343289,-0.040207,0.156810,0.012194,-0.183776,0.048866,-0.981753,0.032714,0.064080,0.009936,29.835312,-18.488329,-6.396851,,,,,,,
,,,,,,,,,,,,,,,,25.310064,51.445012,-7.101322,-1.000000,-1.000000,1522138321.086630,
1522138321.128596,-0.179818,-0.049108,0.344866,0.011407,0.187790,-0.030416,-0.178635,0.049088,-0.982690,0.048874,0.094863,0.006158,29.759125,-18.787691,-6.095642,,,,,,,
1522138321.158564,-0.174497,-0.046966,0.344821,0.075544,0.161324,-0.067634,-0.173422,0.046949,-0.983728,0.016317,0.071139,-0.032935,30.741425,-18.191896,-5.872559,,,,,,,
1522138321.188533,-0.172435,-0.046998,0.345451,-0.053482,-0.003274,-0.036666,-0.171392,0.046981,-0.984082,-0.001627,0.027757,-0.081943,30.214966,-18.339525,-5.872192,,,,,,,
1522138321.218501,-0.174359,-0.051472,0.346200,-0.167553,-0.115080,0.037944,-0.173247,0.051450,-0.983534,-0.050844,-0.016599,-0.060091,29.991455,-18.188509,-5.872925,,,,,,,
1522138321.248469,-0.177932,-0.056909,0.349897,-0.127643,-0.118234,0.165862,-0.176708,0.056878,-0.982618,-0.032032,-0.080209,-0.018892,30.367935,-18.040209,-5.873352,,,,,,,
1522138321.278437,-0.179779,-0.060495,0.357520,-0.034923,-0.071135,0.237266,-0.178485,0.060458,-0.982083,-0.012891,-0.106951,0.007688,30.364944,-18.340197,-5.872131,,,,,,,
1522138321.308406,-0.183312,-0.059898,0.363991,0.090323,-0.142783,0.109551,-0.181960,0.059862,-0.981482,-0.014390,-0.064104,0.114127,29.760315,-18.712618,-6.020996,,,,,,,
1522138321.338374,-0.185621,-0.056970,0.366650,0.023549,-0.008530,-0.071767,-0.184257,0.056940,-0.981227,-0.015221,-0.031335,0.026775,30.135895,-18.564470,-6.171326,,,,,,,
1522138321.368341,-0.184725,-0.057533,0.362516,-0.122818,0.024821,-0.229609,-0.183372,0.057502,-0.981360,-0.070183,-0.000907,-0.068429,30.361786,-18.340715,-6.397156,,,,,,,
1522138321.398309,-0.186553,-0.059141,0.356976,-0.090156,-0.027599,-0.191172,-0.185148,0.059107,-0.980931,-0.020403,0.001318,-0.027232,30.445343,-17.890413,-5.723877,,,,,,,
1522138321.428247,-0.185434,-0.060000,0.356098,-0.048259,0.072595,0.051705,-0.184041,0.059964,-0.981088,-0.025035,0.009112,-0.058799,30.965652,-17.818651,-6.623901,,,,,,,
1522138321.458215,-0.186155,-0.063054,0.362698,-0.083214,-0.108295,0.251113,-0.184714,0.063012,-0.980770,0.017844,0.025260,-0.016132,29.762573,-18.263018,-6.397766,,,,,,,
1522138321.488184,-0.189221,-0.066059,0.372046,-0.021360,-0.091639,0.278844,-0.187683,0.066011,-0.980009,0.009552,-0.004564,0.011640,30.143234,-17.739656,-6.324646,,,,,,,
1522138321.518152,-0.190825,-0.066952,0.379356,0.036171,-0.066230,0.120099,-0.189244,0.066902,-0.979648,0.007726,-0.010185,0.005909,29.913315,-18.188692,-6.398010,,,,,,,
1522138321.548120,-0.192301,-0.064923,0.379221,0.067485,-0.004208,-0.098373,-0.190716,0.064877,-0.979499,-0.036640,-0.020627,0.004371,29.914795,-17.814074,-6.774475,,,,,,,
1522138321.578089,-0.190713,-0.064671,0.375425,-0.096147,0.096531,-0.162526,-0.189163,0.064626,-0.979817,-0.065033,-0.054036,-0.070675,30.138153,-18.114855,-6.548157,,,,,,,
1522138321.608071,-0.188360,-0.068809,0.373045,-0.190889,0.053459,-0.048539,-0.186805,0.068754,-0.979988,-0.050209,-0.068647,-0.100639,30.292038,-17.815401,-6.399292,,,,,,,
1522138321.638039,-0.188619,-0.072720,0.374230,-0.055333,-0.048692,0.075265,-0.187007,0.072656,-0.979668,-0.057103,-0.025948,-0.012306,29.989334,-18.039110,-6.473511,,,,,,,
1522138321.668007,-0.190331,-0.071419,0.379360,0.112174,-0.031288,0.111593,-0.188701,0.071359,-0.979438,-0.006184,0.010520,0.076072,30.513428,-18.041613,-6.623291,,,,,,,
1522138321.697975,-0.188264,-0.068360,0.382983,0.078061,0.132963,0.037875,-0.186717,0.068306,-0.980036,0.013728,0.061454,-0.010488,30.364334,-18.265413,-6.097412,,,,,,,
1522138321.727944,-0.183675,-0.066035,0.384410,0.080981,0.169895,-0.079361,-0.182246,0.065987,-0.981036,-0.029500,0.098274,-0.046781,30.589035,-18.341356,-6.022034,,,,,,,
1522138321.757912,-0.178790,-0.062260,0.381190,0.117901,0.172776,-0.197622,-0.177495,0.062220,-0.982153,-0.044963,0.081778,-0.039286,31.565033,-17.971193,-6.473022,,,,,,,
1522138321.787880,-0.175674,-0.058603,0.378059,0.106410,0.056542,-0.138891,-0.174472,0.058569,-0.982919,-0.055005,0.053522,-0.021461,30.891571,-18.042788,-6.098022,,,,,,,
1522138321.817849,-0.176501,-0.056776,0.377488,0.036676,-0.088796,0.003981,-0.175303,0.056745,-0.982878,-0.071950,0.018801,-0.029299,30.817322,-17.967455,-6.098389,,,,,,,
1522138321.847817,-0.182652,-0.057848,0.381536,-0.030028,-0.284004,0.136246,-0.181334,0.057816,-0.981721,-0.051439,0.006424,0.012742,31.041565,-18.043459,-6.097961,,,,,,,
1522138321.877785,-0.191446,-0.059880,0.387201,-0.011940,-0.244019,0.184177,-0.189937,0.059844,-0.979971,-0.074131,-0.022170,0.060156,30.438736,-18.190981,-6.322693,,,,,,,
1522138321.907753,-0.194798,-0.060707,0.392818,0.020094,-0.049343,0.144566,-0.193211,0.060670,-0.979280,-0.064540,-0.042756,-0.007339,30.586029,-18.416719,-6.396729,,,,,,,
1522138321.937722,-0.196280,-0.060638,0.396987,0.024749,-0.075300,0.051915,-0.194664,0.060601,-0.978996,-0.069115,-0.054711,-0.013542,30.888870,-18.043230,-6.548035,,,,,,,
1522138321.967690,-0.199648,-0.059629,0.399170,0.033309,-0.078447,0.044459,-0.197972,0.059594,-0.978394,-0.075954,-0.060739,0.052598,30.283646,-18.565508,-6.546265,,,,,,,
1522138321.997658,-0.200616,-0.059678,0.402803,-0.014609,0.006354,0.092281,-0.198918,0.059643,-0.978199,-0.075801,-0.068767,0.037190,30.133041,-18.490053,-6.771667,,,,,,,
1522138322.027626,-0.201312,-0.060097,0.406220,-0.004031,-0.009634,0.096562,-0.199594,0.060061,-0.978036,-0.107520,-0.032442,0.029275,30.510132,-18.416521,-6.546753,,,,,,,
1522138322.057595,-0.201082,-0.061052,0.410345,-0.061527,0.036098,0.108208,-0.199358,0.061014,-0.978025,-0.064925,-0.086176,-0.022112,29.903412,-18.864168,-6.920288,,,,,,,
1522138322.087563,-0.202035,-0.063675,0.413300,-0.095892,-0.049598,0.069895,-0.200257,0.063632,-0.977675,-0.099426,-0.064151,-0.022966,30.355774,-18.716051,-6.770691,,,,,,,
,,,,,,,,,,,,,,,,25.310083,51.445025,-7.146458,-1.000000,-1.000000,1522138322.090062,
1522138322.117531,-0.204407,-0.065066,0.415000,-0.038060,-0.061161,0.028409,-0.202557,0.065020,-0.977110,-0.100834,0.012251,0.055311,31.107376,-18.419664,-6.996460,,,,,,,
1522138322.147499,-0.203416,-0.065726,0.416698,-0.037377,0.140441,0.070824,-0.201580,0.065678,-0.977268,-0.118199,0.001582,0.102145,30.660721,-18.491976,-6.321411,,,,,,,
1522138322.177468,-0.196514,-0.065570,0.420724,0.048570,0.306749,0.113348,-0.194832,0.065523,-0.978646,-0.099693,-0.021684,0.067238,30.209106,-18.789721,-6.095398,,,,,,,
1522138322.207436,-0.186801,-0.064408,0.425440,0.044395,0.338602,0.120761,-0.185332,0.064363,-0.980566,-0.074312,-0.044283,-0.032068,31.184357,-18.719179,-6.170227,,,,,,,
1522138322.237404,-0.181091,-0.065647,0.427512,-0.062758,0.124998,0.010081,-0.179715,0.065600,-0.981529,-0.065433,0.000059,-0.059242,31.108917,-18.943544,-5.869385,,,,,,,
1522138322.267372,-0.179485,-0.065702,0.427703,0.033527,0.132414,-0.020756,-0.178138,0.065655,-0.981813,-0.022302,0.028034,-0.011702,31.261169,-18.719225,-5.870178,,,,,,,
1522138322.297341,-0.174691,-0.064129,0.429460,0.041872,0.178584,0.058060,-0.173446,0.064085,-0.982756,-0.013489,0.091616,0.000975,31.637787,-18.421144,-6.096130,,,,,,,
1522138322.327309,-0.169956,-0.063179,0.431698,0.041841,0.128922,0.019744,-0.168801,0.063137,-0.983626,-0.075919,0.113346,0.043791,30.885132,-18.867464,-5.794739,,,,,,,
1522138322.357277,-0.172282,-0.062395,0.434116,0.019759,-0.182908,0.095699,-0.171098,0.062355,-0.983279,-0.021941,0.029900,0.042071,30.888275,-18.642321,-5.645691,,,,,,,
1522138322.387245,-0.177839,-0.066062,0.438848,-0.134417,-0.198952,0.164862,-0.176518,0.066014,-0.982081,-0.013424,-0.062596,-0.034658,31.785675,-18.497042,-6.320801,,,,,,,
1522138322.417214,-0.184416,-0.071634,0.443732,-0.089859,-0.243808,0.180926,-0.182902,0.071573,-0.980522,-0.030798,-0.085427,-0.023094,31.030029,-19.018709,-6.394104,,,,,,,
1522138322.447182,-0.192597,-0.073694,0.450119,-0.006729,-0.267440,0.188466,-0.190889,0.073627,-0.978846,-0.065916,-0.120533,-0.001805,31.103500,-18.944414,-6.769409,,,,,,,
1522138322.477150,-0.200349,-0.073691,0.454368,-0.000916,-0.291107,0.076612,-0.198471,0.073624,-0.977338,-0.087982,-0.114228,0.008206,31.174011,-19.170107,-7.143433,,,,,,,
1522138322.507119,-0.206722,-0.076040,0.454965,-0.163997,-0.120975,-0.033430,-0.204660,0.075967,-0.975881,-0.098975,-0.111657,0.002858,30.648453,-19.317598,-6.993103,,,,,,,
1522138322.537087,-0.208294,-0.081709,0.452211,-0.268965,0.015458,-0.056022,-0.206101,0.081618,-0.975121,-0.151732,-0.117812,-0.119941,31.101395,-19.019640,-6.994080,,,,,,,
1522138322.567055,-0.207120,-0.087889,0.451016,-0.151700,0.061411,0.017537,-0.204848,0.087776,-0.974850,-0.157685,-0.061561,-0.085437,30.876572,-18.868837,-7.219727,,,,,,,
1522138322.597010,-0.204187,-0.088803,0.453967,0.097764,0.110977,0.132757,-0.201972,0.088686,-0.975368,-0.102670,0.006925,0.057338,30.878525,-18.943407,-6.769470,,,,,,,
1522138322.626979,-0.198866,-0.083614,0.460681,0.229275,0.229201,0.198797,-0.196868,0.083517,-0.976866,-0.054750,0.046870,0.093596,31.328369,-19.095201,-6.543640,,,,,,,
1522138322.656947,-0.190914,-0.080115,0.468525,0.060586,0.241229,0.209319,-0.189148,0.080029,-0.978682,0.014587,0.067584,-0.032823,31.703354,-19.321520,-6.167542,,,,,,,
1522138322.686915,-0.187863,-0.083439,0.472930,-0.152350,0.019332,0.107091,-0.186110,0.083342,-0.978988,0.037536,0.090288,-0.086320,31.176132,-19.544146,-6.166931,,,,,,,
1522138322.716883,-0.189685,-0.087173,0.474643,-0.032729,-0.071751,0.020967,-0.187833,0.087062,-0.978335,-0.015963,0.091496,-0.025663,32.147491,-19.773745,-6.390564,,,,,,,
1522138322.746852,-0.190964,-0.085650,0.473723,0.086511,-0.048901,-0.098303,-0.189109,0.085546,-0.978223,-0.070046,0.048548,-0.011569,32.224731,-19.549089,-6.391418,,,,,,,
1522138322.776820,-0.194183,-0.084119,0.471905,0.011201,-0.147692,-0.074824,-0.192283,0.084019,-0.977736,-0.078103,0.001003,0.045088,31.475357,-19.395861,-6.542358,,,,,,,
1522138322.806788,-0.198884,-0.085315,0.471113,-0.063951,-0.138571,0.013556,-0.196856,0.085212,-0.976722,-0.091855,-0.042625,0.075080,31.549316,-19.321505,-6.842590,,,,,,,
1522138322.836756,-0.201703,-0.089009,0.474311,-0.082631,-0.066321,0.175417,-0.199545,0.088891,-0.975848,-0.068369,-0.017831,0.026248,31.473251,-19.471087,-6.767090,,,,,,,
1522138322.866725,-0.203428,-0.090474,0.479980,0.023343,-0.022898,0.159464,-0.201201,0.090351,-0.975374,-0.117723,-0.007664,-0.006300,31.244675,-19.470659,-7.367188,,,,,,,
1522138322.896693,-0.205508,-0.088392,0.483758,0.115360,-0.075695,0.077548,-0.203268,0.088277,-0.975136,-0.072183,-0.062001,0.037956,32.145813,-19.399630,-7.291992,,,,,,,
1522138322.926661,-0.205669,-0.086108,0.486626,0.034775,0.035104,0.065653,-0.203465,0.086001,-0.975298,-0.116298,-0.080050,0.013277,31.320724,-19.545702,-7.066833,,,,,,,
1522138322.956630,-0.207076,-0.088019,0.489054,-0.090921,-0.074427,0.121082,-0.204803,0.087906,-0.974848,-0.093628,-0.108368,0.010462,31.841644,-19.773333,-7.365662,,,,,,,
1522138322.986598,-0.208292,-0.091443,0.494187,-0.086720,0.003626,0.201988,-0.205925,0.091315,-0.974298,-0.099983,-0.080115,-0.025656,32.140732,-19.774828,-7.515564,,,,,,,
1522138323.016567,-0.209764,-0.093285,0.500062,0.000332,-0.101805,0.205350,-0.207324,0.093149,-0.973827,-0.061170,-0.034357,0.005505,31.917114,-19.998217,-6.914734,,,,,,,
1522138323.046535,-0.213734,-0.092212,0.506347,0.066814,-0.075180,0.173406,-0.211209,0.092082,-0.973094,-0.062564,-0.027751,0.069957,31.093781,-19.919374,-6.765503,,,,,,,
1522138323.076504,-0.212019,-0.091321,0.511185,0.023050,0.120694,0.136955,-0.209557,0.091194,-0.973535,-0.030067,-0.024818,0.012353,31.464569,-20.071489,-7.214661,,,,,,,
1522138323.106472,-0.208550,-0.091292,0.514730,0.009447,0.111589,0.076220,-0.206179,0.091165,-0.974258,-0.048917,0.003897,-0.017273,31.315048,-20.295366,-6.763855,,,,,,,
,,,,,,,,,,,,,,,,25.310102,51.445038,-7.082127,-1.000000,-1.000000,1522138323.083099,
1522138323.136439,-0.206251,-0.090777,0.517275,0.047883,0.105171,0.069857,-0.203948,0.090652,-0.974775,-0.052033,-0.001632,-0.042482,31.538544,-20.446367,-6.763184,,,,,,,
1522138323.166407,-0.203432,-0.089772,0.518553,0.013894,0.057960,-0.004707,-0.201219,0.089652,-0.975435,-0.077254,0.003366,-0.097151,32.589981,-20.301104,-6.763184,,,,,,,
1522138323.196376,-0.205047,-0.088274,0.518803,0.091159,-0.070938,0.013595,-0.202821,0.088159,-0.975239,-0.090636,0.005805,0.022725,31.466827,-20.295748,-6.463745,,,,,,,
1522138323.226344,-0.202210,-0.085323,0.522006,0.085495,0.206811,0.110268,-0.200105,0.085220,-0.976061,-0.083129,-0.006362,-0.003538,31.613098,-20.671404,-6.462158,,,,,,,
1522138323.256312,-0.195431,-0.086651,0.526763,-0.061352,0.164139,0.184796,-0.193460,0.086543,-0.977284,-0.063345,0.018743,-0.054760,32.660507,-20.751421,-6.761353,,,,,,,
1522138323.286280,-0.194157,-0.088834,0.531975,-0.004536,-0.011372,0.192464,-0.192179,0.088717,-0.977342,-0.019918,0.009122,0.049607,31.534653,-20.971132,-6.536011,,,,,,,
1522138323.316249,-0.192025,-0.088651,0.539416,0.085533,0.142040,0.253122,-0.190098,0.088535,-0.977765,0.006718,-0.001468,0.040494,32.131912,-21.198885,-6.609802,,,,,,,
1522138323.346217,-0.186135,-0.088175,0.546359,0.005950,0.180917,0.192290,-0.184343,0.088061,-0.978909,-0.034147,-0.023593,-0.037784,32.658249,-20.976412,-6.760498,,,,,,,
1522138323.376185,-0.182616,-0.090328,0.550862,-0.045458,0.063602,0.120975,-0.180863,0.090205,-0.979363,-0.028351,-0.039790,0.002999,31.981949,-21.422838,-6.234009,,,,,,,
1522138323.406153,-0.181348,-0.091504,0.553173,-0.007890,0.053208,0.074132,-0.179601,0.091376,-0.979486,-0.085062,-0.058051,0.049250,32.356323,-21.349749,-6.459106,,,,,,,
1522138323.436122,-0.179654,-0.091845,0.556126,-0.029259,0.088080,0.108184,-0.177936,0.091716,-0.979759,-0.058408,-0.101725,-0.060097,33.254929,-21.578646,-6.307739,,,,,,,
1522138323.466090,-0.177000,-0.095159,0.559782,-0.133372,0.022140,0.155048,-0.175281,0.095016,-0.979923,-0.067823,-0.078460,-0.099713,32.656326,-21.575716,-6.083008,,,,,,,
1522138323.496058,-0.178954,-0.098528,0.563918,-0.041135,-0.114180,0.163789,-0.177137,0.098368,-0.979258,-0.095309,-0.073497,-0.025701,32.878464,-21.951571,-5.931458,,,,,,,
1522138323.526026,-0.181377,-0.098088,0.570857,0.075091,-0.040706,0.254361,-0.179517,0.097931,-0.978868,-0.066790,-0.074066,0.051805,32.948517,-22.177340,-6.380554,,,,,,,
1522138323.555995,-0.180379,-0.097633,0.577697,-0.007603,0.017332,0.191368,-0.178549,0.097478,-0.979091,-0.055918,-0.088963,-0.009709,32.425049,-22.024981,-6.381409,,,,,,,
1522138323.585963,-0.182412,-0.100111,0.581866,-0.090141,-0.146633,0.113695,-0.180494,0.099944,-0.978485,-0.045794,-0.035689,-0.048263,32.570236,-22.550554,-6.304199,,,,,,,
1522138323.615933,-0.191599,-0.101371,0.583287,-0.005294,-0.369385,0.028733,-0.189451,0.101198,-0.976661,-0.076723,-0.025300,0.044654,32.189865,-22.774370,-6.828491,,,,,,,
1522138323.645901,-0.198115,-0.100206,0.585268,0.018134,-0.061840,0.104110,-0.195834,0.100038,-0.975521,-0.064786,-0.048982,-0.000706,32.113815,-22.923952,-6.752930,,,,,,,
1522138323.675870,-0.196562,-0.102959,0.588827,-0.123608,0.046616,0.146507,-0.194265,0.102778,-0.975550,-0.070796,-0.067896,-0.045461,32.340912,-22.625124,-6.903992,,,,,,,
1522138323.705838,-0.196761,-0.105977,0.593553,-0.026839,0.000447,0.180719,-0.194397,0.105779,-0.975203,-0.085541,-0.065053,0.001631,32.792679,-22.402224,-6.979675,,,,,,,
1522138323.735806,-0.197864,-0.105832,0.598028,0.055173,-0.096130,0.135057,-0.195476,0.105634,-0.975003,-0.053471,-0.089155,-0.017520,32.342117,-22.550051,-6.829285,,,,,,,
1522138323.765775,-0.200885,-0.103347,0.602496,0.109718,-0.081368,0.130826,-0.198472,0.103163,-0.974662,-0.058532,-0.057387,-0.018044,32.113373,-22.924028,-6.827881,,,,,,,
1522138323.795743,-0.200916,-0.101989,0.605485,-0.006777,0.026851,0.043263,-0.198530,0.101812,-0.974792,-0.081804,0.034891,-0.028870,32.715881,-22.402178,-7.279724,,,,,,,
1522138323.825711,-0.201891,-0.102595,0.605801,-0.008088,-0.041058,0.030540,-0.199468,0.102415,-0.974538,-0.065485,0.045427,0.060750,32.714706,-22.701876,-6.978516,,,,,,,
1522138323.855679,-0.200521,-0.103001,0.608555,-0.045414,0.120703,0.161405,-0.198124,0.102819,-0.974769,-0.033001,0.021601,-0.015099,32.490295,-22.775637,-6.753357,,,,,,,
1522138323.885648,-0.197202,-0.107189,0.615704,-0.093468,0.057051,0.313810,-0.194802,0.106984,-0.974991,-0.012245,-0.040898,-0.087891,31.882843,-23.522905,-6.750671,,,,,,,
1522138323.915616,-0.198414,-0.109952,0.624374,0.035911,-0.179969,0.276849,-0.195925,0.109730,-0.974460,-0.015867,-0.058003,-0.000348,32.256485,-23.524813,-6.975464,,,,,,,
1522138323.945584,-0.204938,-0.108048,0.631009,0.141051,-0.197501,0.163997,-0.202319,0.107838,-0.973364,-0.034543,-0.067921,0.085257,32.855835,-23.452730,-7.200439,,,,,,,
1522138323.975552,-0.206518,-0.105278,0.635693,0.077022,-0.012097,0.113684,-0.203918,0.105084,-0.973332,-0.033326,-0.070553,0.054936,32.701813,-23.901964,-7.123779,,,,,,,
1522138324.005521,-0.205714,-0.103637,0.638592,0.041389,0.073367,0.060300,-0.203170,0.103452,-0.973663,-0.092988,-0.066327,-0.008255,31.953644,-23.673677,-7.200012,,,,,,,
1522138324.035489,-0.202026,-0.104375,0.638648,-0.089534,0.104864,0.010089,-0.199562,0.104185,-0.974331,-0.061851,-0.084517,-0.110691,31.880447,-23.673052,-6.900024,,,,,,,
1522138324.065457,-0.205162,-0.104062,0.639244,0.096062,-0.166611,0.015834,-0.202624,0.103874,-0.973732,-0.146192,-0.002251,0.034065,32.777710,-23.677538,-7.349609,,,,,,,
1522138324.095425,-0.207539,-0.098072,0.640790,0.219443,0.022964,0.063676,-0.205062,0.097915,-0.973839,-0.033661,0.013383,0.069969,32.174881,-24.049669,-7.198364,,,,,,,
1522138324.125394,-0.202818,-0.092534,0.647016,0.183207,0.203752,0.207313,-0.200568,0.092402,-0.975312,-0.061562,0.087728,-0.006957,32.325653,-24.199968,-6.822693,,,,,,,
,,,,,,,,,,,,,,,,25.310124,51.445044,-7.311985,-1.000000,-1.000000,1522138324.102883,
1522138324.155362,-0.200510,-0.089498,0.652079,0.137791,-0.026104,0.119074,-0.198372,0.089378,-0.976043,-0.036842,0.095360,0.051009,32.174454,-24.498980,-6.521606,,,,,,,
1522138324.185330,-0.203271,-0.084361,0.659661,0.268951,-0.076652,0.311014,-0.201156,0.084261,-0.975928,0.041076,0.018812,0.134452,31.947983,-24.647966,-6.521118,,,,,,,
1522138324.215298,-0.202079,-0.082783,0.669080,-0.011972,0.035152,0.226515,-0.200019,0.082688,-0.976297,-0.113931,0.033660,0.037225,32.770081,-24.577272,-7.121033,,,,,,,
1522138324.245267,-0.201978,-0.086889,0.673968,-0.067492,0.006740,0.204138,-0.199851,0.086780,-0.975976,-0.002740,-0.066272,0.023370,32.320267,-24.874712,-6.595032,,,,,,,
1522138324.275235,-0.195703,-0.089315,0.680369,-0.056404,0.335080,0.202741,-0.193681,0.089196,-0.977001,-0.079222,-0.129815,-0.144108,32.320572,-25.024416,-6.294434,,,,,,,
1522138324.305203,-0.188748,-0.093679,0.682825,-0.116055,-0.001895,0.090093,-0.186807,0.093542,-0.977933,-0.023307,-0.157843,-0.279788,32.992996,-24.878115,-6.969666,,,,,,,
1522138324.335172,-0.197912,-0.094310,0.687378,0.094225,-0.358089,0.200349,-0.195749,0.094170,-0.976122,-0.056327,-0.143868,0.021792,33.440887,-25.179995,-6.818237,,,,,,,
1522138324.365140,-0.199933,-0.091844,0.694901,0.109867,0.106836,0.264894,-0.197767,0.091715,-0.975949,-0.032244,-0.113642,0.033215,32.312622,-25.549837,-6.742371,,,,,,,
1522138324.395108,-0.190613,-0.092778,0.703444,-0.017269,0.358776,0.294385,-0.188646,0.092645,-0.977665,0.008531,-0.124322,-0.113002,32.456009,-26.075701,-6.965149,,,,,,,
1522138324.425076,-0.183044,-0.094337,0.709479,-0.007045,0.078263,0.138037,-0.181214,0.094197,-0.978922,0.002167,-0.083821,-0.173040,32.530579,-26.525362,-6.288330,,,,,,,
1522138324.455045,-0.184888,-0.096203,0.711038,-0.086661,-0.161068,0.048719,-0.182986,0.096054,-0.978412,-0.018964,-0.078110,-0.054898,33.058868,-26.152819,-6.364563,,,,,,,
1522138324.485013,-0.188825,-0.098086,0.712415,-0.013823,-0.052129,0.096607,-0.186803,0.097928,-0.977504,-0.090358,-0.031003,0.064434,32.987457,-25.702639,-6.516357,,,,,,,
1522138324.514981,-0.186827,-0.096324,0.717492,0.122928,0.117698,0.226533,-0.184881,0.096176,-0.978044,-0.014003,-0.049117,0.072602,32.081345,-26.223711,-6.664734,,,,,,,
1522138324.544949,-0.179672,-0.094598,0.726185,0.048305,0.225772,0.297758,-0.177908,0.094457,-0.979503,0.024298,-0.065145,0.004985,31.856522,-26.297548,-6.514526,,,,,,,
1522138324.574918,-0.176583,-0.097421,0.733031,-0.117690,0.025879,0.222185,-0.174833,0.097267,-0.979782,0.050322,-0.094764,0.012710,33.353760,-26.529360,-6.587891,,,,,,,
1522138324.604862,-0.174568,-0.102958,0.737657,-0.179108,0.090063,0.181592,-0.172763,0.102776,-0.979587,0.059085,-0.093865,-0.104901,32.380905,-26.674379,-5.987793,,,,,,,
1522138324.634830,-0.174353,-0.107207,0.740697,-0.093292,-0.148686,0.103047,-0.172475,0.107002,-0.979185,-0.008540,-0.112694,-0.129778,32.524597,-27.125322,-6.285950,,,,,,,
1522138324.664798,-0.182849,-0.109530,0.743135,-0.085764,-0.322197,0.145839,-0.180743,0.109311,-0.977437,-0.004942,-0.129986,0.025975,33.051224,-26.603304,-6.887756,,,,,,,
1522138324.694767,-0.187939,-0.112609,0.748781,-0.087527,-0.124205,0.246872,-0.185651,0.112371,-0.976169,-0.107806,-0.132772,0.093433,32.074615,-26.898684,-6.662048,,,,,,,
1522138324.724735,-0.185118,-0.115136,0.755917,-0.034119,0.138011,0.263694,-0.182844,0.114882,-0.976407,0.000441,-0.112395,0.011181,32.071014,-27.123888,-6.886169,,,,,,,
1522138324.754703,-0.182990,-0.115001,0.762329,0.062874,0.016100,0.189296,-0.180768,0.114748,-0.976809,0.010725,-0.025973,0.027987,32.672043,-26.976671,-6.961426,,,,,,,
1522138324.784671,-0.184386,-0.110602,0.764963,0.212723,-0.111590,0.008404,-0.182223,0.110377,-0.977042,-0.012831,0.037389,0.118476,32.297531,-27.199526,-6.510742,,,,,,,
1522138324.814640,-0.185184,-0.101582,0.765315,0.294133,0.126585,-0.041856,-0.183178,0.101407,-0.977836,-0.006779,0.004336,0.023063,32.297684,-27.274385,-6.360474,,,,,,,
1522138324.844608,-0.176199,-0.098028,0.763730,-0.075189,0.355090,-0.067938,-0.174447,0.097871,-0.979790,0.019998,0.035582,-0.234367,33.273666,-27.128847,-6.435486,,,,,,,
1522138324.874576,-0.171632,-0.104793,0.761846,-0.219623,-0.032271,0.064473,-0.169854,0.104601,-0.979902,0.005471,0.062315,-0.061525,32.895401,-27.502077,-6.359253,,,,,,,
1522138324.904544,-0.175390,-0.105079,0.767705,0.200279,-0.173067,0.294018,-0.173530,0.104886,-0.979227,-0.032281,0.048846,0.179484,33.270828,-27.503679,-6.284058,,,,,,,
1522138324.934513,-0.177983,-0.096554,0.779841,0.409503,-0.042652,0.413375,-0.176221,0.096404,-0.979619,0.014737,-0.019270,0.197209,32.965012,-28.177156,-6.131470,,,,,,,
1522138324.964481,-0.172789,-0.090281,0.793380,0.130845,0.146395,0.372496,-0.171230,0.090158,-0.981097,0.078121,-0.067972,0.008365,32.661743,-28.550707,-6.055115,,,,,,,
1522138324.994449,-0.171383,-0.094842,0.800311,-0.225728,-0.027993,0.214701,-0.169779,0.094700,-0.980922,0.094400,-0.056538,-0.053914,32.436432,-28.399996,-6.355896,,,,,,,
1522138325.024418,-0.173081,-0.101396,0.803782,-0.119889,-0.105185,0.122162,-0.171334,0.101223,-0.979999,0.028038,-0.063457,-0.164959,33.258102,-28.778627,-6.278931,,,,,,,
1522138325.054386,-0.178393,-0.101265,0.806267,0.112367,-0.250072,0.092647,-0.176539,0.101092,-0.979088,0.033275,-0.103609,-0.169685,32.134949,-28.548647,-6.355469,,,,,,,
1522138325.084354,-0.183313,-0.096959,0.809986,0.156590,-0.101701,0.134081,-0.181432,0.096807,-0.978627,-0.030100,-0.144628,-0.078105,32.352325,-29.224764,-6.502625,,,,,,,
1522138325.114322,-0.185951,-0.096201,0.814564,-0.004977,-0.117614,0.187255,-0.184026,0.096052,-0.978217,-0.068125,-0.099501,0.089896,33.179504,-28.778872,-6.878967,,,,,,,
,,,,,,,,,,,,,,,,25.310150,51.445048,-7.672794,-1.000000,-1.000000,1522138325.091186,
1522138325.144291,-0.185647,-0.097463,0.821306,0.019062,0.129181,0.293569,-0.183707,0.097308,-0.978153,0.054694,-0.136890,-0.030301,31.821213,-29.747530,-6.650818,,,,,,,
1522138325.174259,-0.175376,-0.098239,0.830823,0.035655,0.291491,0.324326,-0.173637,0.098081,-0.979913,0.104301,-0.136259,-0.267996,32.120590,-29.898729,-6.500000,,,,,,,
1522138325.204227,-0.176810,-0.098463,0.837158,0.055003,-0.361852,0.143855,-0.175038,0.098304,-0.979642,0.032460,-0.078163,-0.052692,32.496017,-29.675722,-6.800720,,,,,,,
1522138325.234195,-0.191670,-0.094526,0.840185,0.200289,-0.418107,0.081163,-0.189648,0.094386,-0.977305,-0.065860,-0.119029,0.176401,32.343796,-29.900026,-6.799866,,,,,,,
1522138325.264164,-0.189258,-0.094534,0.843459,-0.176751,0.355827,0.164279,-0.187290,0.094394,-0.977759,-0.055157,-0.166736,-0.144800,33.017105,-29.978212,-6.949280,,,,,,,
1522138325.294132,-0.181975,-0.106604,0.847556,-0.395787,-0.024797,0.274239,-0.179945,0.106402,-0.977905,-0.013719,-0.146700,-0.161469,33.164841,-30.203875,-6.948303,,,,,,,
1522138325.324100,-0.185913,-0.112533,0.856430,0.076197,-0.130839,0.375935,-0.183675,0.112296,-0.976552,0.006795,-0.143805,0.053929,32.113388,-30.349138,-6.948242,,,,,,,
1522138325.354038,-0.185192,-0.108716,0.866722,0.164881,-0.014426,0.259745,-0.183048,0.108502,-0.977098,0.026264,-0.134137,-0.010771,32.185699,-30.574541,-7.022278,,,,,,,
1522138325.384006,-0.190094,-0.109339,0.872103,-0.062166,-0.242915,0.194799,-0.187823,0.109122,-0.976122,0.059863,-0.123862,0.047259,32.785507,-30.502382,-7.172241,,,,,,,
1522138325.413974,-0.193147,-0.111550,0.878274,0.024881,-0.042739,0.258589,-0.190755,0.111319,-0.975305,-0.050075,-0.133124,0.081323,32.104843,-31.024401,-7.245544,,,,,,,
1522138325.443943,-0.190535,-0.110700,0.885404,0.077102,0.162285,0.248830,-0.188225,0.110474,-0.975893,-0.046562,-0.139695,0.035845,31.577637,-31.022402,-7.620789,,,,,,,
1522138325.473911,-0.184502,-0.110067,0.892941,-0.004487,0.096404,0.277606,-0.182347,0.109845,-0.977079,0.025532,-0.132352,-0.108553,32.104858,-31.249025,-6.869629,,,,,,,
1522138325.503879,-0.184304,-0.113023,0.898707,-0.117857,-0.050388,0.188164,-0.182093,0.112783,-0.976792,0.027247,-0.049153,-0.052887,32.027023,-31.623522,-6.718201,,,,,,,
1522138325.533847,-0.188134,-0.112325,0.903275,0.145240,-0.182823,0.191685,-0.185847,0.112089,-0.976164,0.062175,-0.036833,0.087553,32.547363,-31.776384,-7.242310,,,,,,,
1522138325.563816,-0.190784,-0.105182,0.910443,0.293250,-0.024929,0.200165,-0.188581,0.104988,-0.976430,0.041715,-0.031288,0.070149,32.098724,-31.774141,-7.017578,,,,,,,
1522138325.593798,-0.186819,-0.099970,0.916307,0.144416,0.092463,0.179696,-0.184807,0.099804,-0.977694,0.078896,-0.023525,-0.010145,31.795624,-32.222549,-6.790894,,,,,,,
1522138325.623766,-0.185471,-0.098199,0.921672,0.079972,0.011833,0.183994,-0.183521,0.098041,-0.978114,0.034275,0.010083,0.101756,32.244553,-32.374496,-6.715088,,,,,,,
1522138325.653735,-0.184401,-0.095371,0.927224,0.188772,0.026215,0.216025,-0.182524,0.095227,-0.978579,0.039092,-0.058194,0.091662,31.640533,-32.821701,-6.638611,,,,,,,
1522138325.683703,-0.178751,-0.091784,0.936028,0.086617,0.206494,0.305267,-0.177052,0.091656,-0.979924,0.088994,-0.099316,-0.162105,31.717911,-32.671906,-6.489136,,,,,,,
1522138325.713671,-0.177146,-0.095985,0.942705,-0.173025,-0.164248,0.228737,-0.175410,0.095838,-0.979819,0.097194,-0.096342,-0.263757,31.561951,-33.271194,-6.486816,,,,,,,
1522138325.743639,-0.188202,-0.100833,0.948156,-0.081598,-0.464272,0.249350,-0.186143,0.100662,-0.977352,0.026139,-0.132507,-0.202762,31.483047,-33.346375,-7.011597,,,,,,,
1522138325.773608,-0.197896,-0.102806,0.955955,0.053449,-0.269578,0.318517,-0.195569,0.102625,-0.975305,0.004422,-0.191370,-0.150137,31.556091,-33.272141,-7.461853,,,,,,,
1522138325.803576,-0.203373,-0.101022,0.965517,0.163750,-0.175409,0.336620,-0.200944,0.100850,-0.974398,-0.003799,-0.231374,-0.000471,32.076096,-33.499939,-7.910645,,,,,,,
1522138325.833544,-0.205475,-0.098956,0.975261,0.079023,-0.058088,0.305534,-0.203034,0.098794,-0.974175,0.000779,-0.199456,0.092019,30.873917,-33.719528,-7.910339,,,,,,,
1522138325.863512,-0.201140,-0.102096,0.983407,-0.102255,0.274671,0.345559,-0.198746,0.101919,-0.974737,0.039429,-0.225942,0.050787,31.094589,-34.469986,-7.382263,,,,,,,
1522138325.893481,-0.192390,-0.107210,0.992402,-0.086896,0.095265,0.315913,-0.190107,0.107005,-0.975915,0.086973,-0.206370,-0.130134,31.923447,-33.948944,-7.608887,,,,,,,
1522138325.923449,-0.195496,-0.110582,0.999981,-0.079529,-0.143950,0.333200,-0.193067,0.110356,-0.974960,0.089811,-0.223363,-0.022629,30.639969,-34.843094,-7.530945,,,,,,,
1522138325.953417,-0.196764,-0.110510,1.010431,0.101768,-0.148896,0.368501,-0.194305,0.110286,-0.974722,0.029205,-0.221690,0.036032,31.087097,-34.995331,-7.755188,,,,,,,
1522138325.983385,-0.199526,-0.107256,1.020117,0.168507,-0.093425,0.313092,-0.197066,0.107050,-0.974528,-0.031358,-0.210779,0.111857,31.079742,-35.370895,-8.353638,,,,,,,
1522138326.013354,-0.198412,-0.104444,1.028644,0.016876,0.080493,0.263797,-0.196038,0.104255,-0.975038,-0.020545,-0.218604,-0.014723,30.108841,-35.365860,-7.679138,,,,,,,
1522138326.043322,-0.192051,-0.111752,1.033360,-0.379773,0.159289,0.230387,-0.189682,0.111520,-0.975492,0.036744,-0.158196,-0.260943,30.633072,-35.443207,-7.678589,,,,,,,
1522138326.073290,-0.193736,-0.123041,1.037728,-0.208513,-0.205688,0.241537,-0.191071,0.122730,-0.973873,0.046021,-0.076008,-0.139072,30.632462,-35.368439,-7.903870,,,,,,,
1522138326.103258,-0.199484,-0.122341,1.046015,0.282077,-0.232976,0.321846,-0.196683,0.122036,-0.972843,0.026791,-0.023037,0.122532,30.330399,-35.666931,-7.752869,,,,,,,
,,,,,,,,,,,,,,,,25.310178,51.445045,-7.932682,-1.000000,-1.000000,1522138326.093232,
1522138326.133227,-0.202260,-0.113134,1.057893,0.359734,0.029822,0.398356,-0.199600,0.112893,-0.973353,0.031127,-0.079064,0.182139,29.501541,-36.187958,-7.526184,,,,,,,
1522138326.163195,-0.191788,-0.112588,1.069972,-0.126621,0.373244,0.392314,-0.189407,0.112350,-0.975450,0.113922,-0.138565,-0.075682,30.626953,-36.192947,-7.450623,,,,,,,
1522138326.193163,-0.184573,-0.123780,1.076819,-0.316486,0.053539,0.287012,-0.182123,0.123464,-0.975494,0.105783,-0.103185,-0.135178,29.719955,-36.938797,-7.373108,,,,,,,
1522138326.223131,-0.187842,-0.126181,1.082019,0.164689,-0.169906,0.159728,-0.185255,0.125847,-0.974599,0.071958,-0.089378,-0.020030,29.642410,-37.013748,-7.672791,,,,,,,
1522138326.253100,-0.191151,-0.117900,1.087089,0.344165,-0.140643,0.165163,-0.188670,0.117627,-0.974970,0.077144,-0.095380,-0.038961,30.170227,-36.865891,-7.448181,,,,,,,
1522138326.283068,-0.193167,-0.111848,1.093465,0.130544,-0.119104,0.200144,-0.190768,0.111615,-0.975269,0.034823,-0.069684,-0.020031,29.340179,-37.237381,-7.672058,,,,,,,
1522138326.313036,-0.197336,-0.113320,1.098096,-0.107642,-0.131330,0.208509,-0.194800,0.113077,-0.974303,-0.016931,-0.085978,0.030608,29.338516,-37.087906,-8.197693,,,,,,,
1522138326.343005,-0.191250,-0.117885,1.104487,-0.119982,0.325988,0.308197,-0.188767,0.117612,-0.974954,0.089188,-0.103223,-0.255561,30.011993,-37.465561,-7.820862,,,,,,,
1522138326.372973,-0.180870,-0.123913,1.111818,-0.143090,0.182541,0.315783,-0.178506,0.123597,-0.976145,0.181252,-0.081803,-0.423025,29.265030,-37.386826,-7.446533,,,,,,,
1522138326.402941,-0.187201,-0.127566,1.119872,0.003091,-0.570038,0.298543,-0.184597,0.127220,-0.974545,0.114529,-0.054207,-0.097293,29.035080,-37.611237,-7.895691,,,,,,,
1522138326.432909,-0.210618,-0.124340,1.127666,0.291435,-0.883655,0.218089,-0.207450,0.124020,-0.970352,-0.049645,-0.085065,0.254273,29.406448,-37.613510,-8.495544,,,,,,,
1522138326.462878,-0.230692,-0.114204,1.136238,0.460233,-0.498032,0.325441,-0.227162,0.113956,-0.967167,-0.004619,-0.149708,0.371845,28.349930,-38.133987,-8.718994,,,,,,,
1522138326.492846,-0.227989,-0.106799,1.151033,0.206367,0.428200,0.466039,-0.224732,0.106596,-0.968573,0.007309,-0.211699,0.107351,28.046356,-38.582458,-8.567383,,,,,,,
1522138326.522814,-0.205498,-0.110473,1.161556,-0.111215,0.723775,0.403700,-0.202811,0.110248,-0.972992,0.115454,-0.265537,-0.220581,27.970337,-39.181290,-7.739990,,,,,,,
1522138326.552782,-0.190022,-0.111668,1.175320,0.191686,0.333162,0.537515,-0.187704,0.111436,-0.975884,0.033010,-0.130052,-0.154335,27.819443,-39.405380,-7.514160,,,,,,,
1522138326.582751,-0.182828,-0.107299,1.191260,0.269985,-0.061267,0.537973,-0.180765,0.107093,-0.977678,0.068140,-0.090568,-0.123396,28.188431,-40.007050,-7.511536,,,,,,,
1522138326.612725,-0.197757,-0.098976,1.207406,0.476297,-0.805044,0.460016,-0.195509,0.098814,-0.975711,0.065428,-0.139525,-0.033612,27.812698,-40.080353,-7.511414,,,,,,,
1522138326.642693,-0.215284,-0.083944,1.223444,0.715038,-0.366083,0.510903,-0.212873,0.083846,-0.973476,0.017515,-0.176253,0.022151,26.751373,-41.125732,-7.657837,,,,,,,
1522138326.672661,-0.211181,-0.065087,1.244444,0.759521,0.337885,0.573089,-0.209171,0.065041,-0.975714,-0.009060,-0.171303,0.028982,26.751709,-41.724670,-6.605408,,,,,,,
1522138326.702630,-0.196712,-0.048661,1.262420,0.549924,0.423876,0.506786,-0.195215,0.048642,-0.979554,0.002328,-0.152890,0.047181,26.299774,-42.321960,-5.928284,,,,,,,
1522138326.732598,-0.189779,-0.041485,1.277323,0.124618,0.031141,0.444003,-0.188480,0.041473,-0.981201,0.114368,-0.171722,0.011261,25.548630,-42.618286,-5.627441,,,,,,,
1522138326.762566,-0.194920,-0.049177,1.285861,-0.423924,-0.316082,0.301158,-0.193454,0.049157,-0.979877,0.102390,-0.195763,-0.027310,25.467026,-42.918503,-6.226318,,,,,,,
1522138326.792534,-0.204944,-0.066354,1.289127,-0.607407,-0.318590,0.269058,-0.203065,0.066306,-0.976918,0.040208,-0.135275,0.013676,25.161179,-42.918106,-7.201416,,,,,,,
1522138326.822503,-0.210491,-0.087296,1.292977,-0.750949,-0.093546,0.350779,-0.208145,0.087185,-0.974205,-0.018403,-0.159970,0.140007,24.861786,-42.542282,-7.728088,,,,,,,
1522138326.852471,-0.202052,-0.114525,1.299893,-0.922339,0.482512,0.546125,-0.199366,0.114275,-0.973239,-0.005026,-0.217302,0.088687,25.608276,-42.171860,-8.929199,,,,,,,
1522138326.882439,-0.181854,-0.143950,1.312481,-0.854905,0.657914,0.664269,-0.178983,0.143453,-0.973338,0.064511,-0.280233,-0.149007,24.480331,-42.466782,-8.928589,,,,,,,
1522138326.912408,-0.158694,-0.169058,1.325407,-0.692715,0.751746,0.559877,-0.155776,0.168254,-0.973357,0.172743,-0.301174,-0.428910,24.099350,-42.840439,-9.302307,,,,,,,
1522138326.942376,-0.142355,-0.189129,1.334976,-0.531674,0.226861,0.345288,-0.139345,0.188003,-0.972233,0.122285,-0.206024,-0.401470,24.997818,-42.769852,-9.677124,,,,,,,
1522138326.972344,-0.147475,-0.200757,1.337361,-0.231360,-0.478720,0.088365,-0.143990,0.199411,-0.969279,0.003899,-0.177607,-0.192784,24.019241,-42.541428,-10.653503,,,,,,,
1522138327.002312,-0.164424,-0.203355,1.335068,-0.004350,-0.554456,-0.103180,-0.160312,0.201956,-0.966185,0.005343,-0.192923,-0.055375,24.020874,-42.241653,-10.879700,,,,,,,
1522138327.032281,-0.180241,-0.198184,1.329434,0.261230,-0.432576,-0.151057,-0.175757,0.196889,-0.964543,0.096579,-0.043813,0.008412,24.772491,-41.945267,-11.105530,,,,,,,
1522138327.062249,-0.189706,-0.188761,1.328799,0.302576,-0.278856,0.037415,-0.185220,0.187642,-0.964616,0.112024,-0.053578,0.054322,24.246765,-42.242523,-10.729614,,,,,,,
1522138327.092217,-0.199328,-0.180785,1.333397,0.328645,-0.433276,0.228320,-0.194784,0.179802,-0.964225,0.090628,-0.114922,0.131019,23.421524,-42.313736,-10.654724,,,,,,,
1522138327.122185,-0.211851,-0.171967,1.342840,0.346340,-0.475105,0.278449,-0.207168,0.171120,-0.963223,0.092666,-0.149483,0.190320,24.092422,-42.542053,-10.953491,,,,,,,
,,,,,,,,,,,,,,,,25.310207,51.445039,-7.917637,-1.000000,-1.000000,1522138327.086750,
1522138327.152154,-0.223004,-0.165276,1.350951,0.242584,-0.357497,0.212192,-0.218146,0.164524,-0.961948,0.083472,-0.110157,0.246036,23.193527,-42.612717,-10.653625,,,,,,,
1522138327.182122,-0.228858,-0.159690,1.357415,0.245273,-0.185660,0.254643,-0.223979,0.159012,-0.961535,0.091593,-0.091217,0.177111,23.111511,-43.362259,-10.575684,,,,,,,
1522138327.212090,-0.227698,-0.155182,1.366814,0.230433,0.153920,0.323555,-0.223023,0.154560,-0.962482,0.082566,-0.134418,-0.070904,23.561462,-43.139664,-10.951355,,,,,,,
1522138327.242058,-0.218329,-0.145789,1.377714,0.543447,0.211489,0.337580,-0.214301,0.145273,-0.965904,0.131034,-0.127222,-0.217171,22.735809,-44.109451,-9.447876,,,,,,,
1522138327.272027,-0.216820,-0.129409,1.388418,0.612952,-0.161769,0.200560,-0.213326,0.129048,-0.968421,0.036095,-0.071263,-0.055230,22.503159,-44.783539,-9.595337,,,,,,,
1522138327.301995,-0.226309,-0.115982,1.398384,0.426629,-0.508150,0.414937,-0.222874,0.115723,-0.967954,0.047246,-0.129272,0.069303,22.504822,-44.933029,-9.069702,,,,,,,
1522138327.331963,-0.234170,-0.115572,1.417193,-0.058647,-0.026739,0.731618,-0.230488,0.115315,-0.966218,0.149311,-0.198720,0.056825,20.777969,-45.299957,-8.769104,,,,,,,
1522138327.361931,-0.219307,-0.128925,1.434450,-0.401442,0.617306,0.687026,-0.215747,0.128569,-0.967948,0.120777,-0.285170,-0.229455,20.398346,-45.673401,-8.917847,,,,,,,
1522138327.391900,-0.198634,-0.149164,1.448139,-0.688138,0.562722,0.541953,-0.195139,0.148611,-0.969451,0.053446,-0.266562,-0.266770,21.146515,-45.677063,-9.217407,,,,,,,
1522138327.421868,-0.186936,-0.173168,1.456685,-0.633959,0.203795,0.489079,-0.183069,0.172304,-0.967883,-0.013342,-0.288698,-0.169111,20.166885,-45.598557,-10.118164,,,,,,,
1522138327.451836,-0.178637,-0.185885,1.469726,-0.118481,0.211743,0.536340,-0.174627,0.184817,-0.967134,0.030920,-0.287966,-0.205718,19.939636,-45.822525,-10.117432,,,,,,,
1522138327.481804,-0.172018,-0.182907,1.483136,0.358840,-0.013268,0.329146,-0.168315,0.181889,-0.968807,0.085720,-0.262318,-0.165776,20.616409,-45.600647,-10.192993,,,,,,,
1522138327.511773,-0.178377,-0.171850,1.489778,0.389052,-0.324870,0.203750,-0.174819,0.171005,-0.969637,0.088546,-0.239959,-0.028242,19.789688,-46.495728,-8.989807,,,,,,,
1522138327.541741,-0.180528,-0.165449,1.496264,0.138455,-0.039355,0.187295,-0.177097,0.164695,-0.970316,0.112247,-0.245811,-0.003577,19.490738,-46.344467,-9.065552,,,,,,,
1522138327.571709,-0.185851,-0.165126,1.500984,0.024838,-0.268175,0.279075,-0.182269,0.164376,-0.969411,0.041903,-0.209085,0.035863,20.088776,-46.721848,-8.763733,,,,,,,
1522138327.601674,-0.183196,-0.166238,1.512963,-0.001927,0.221192,0.510847,-0.179662,0.165473,-0.969711,0.110799,-0.185188,-0.023010,19.413956,-46.793655,-8.613770,,,,,,,
1522138327.631642,-0.172772,-0.167386,1.524575,-0.039187,0.128470,0.410757,-0.169511,0.166605,-0.971344,0.086549,-0.183421,-0.159363,19.110062,-47.092453,-8.762756,,,,,,,
1522138327.661610,-0.173515,-0.169408,1.534777,-0.032007,-0.253587,0.340816,-0.170174,0.168598,-0.970884,0.068749,-0.215611,-0.095645,18.735367,-47.015839,-8.838257,,,,,,,
1522138327.691578,-0.181835,-0.166405,1.541630,0.214655,-0.366128,0.238827,-0.178337,0.165639,-0.969928,0.096748,-0.162297,-0.011060,17.983337,-47.312302,-8.687439,,,,,,,
1522138327.721547,-0.189339,-0.157928,1.549195,0.312144,-0.312038,0.220722,-0.185868,0.157272,-0.969907,0.070237,-0.140808,0.010785,17.604614,-47.685593,-8.686157,,,,,,,
1522138327.751515,-0.196155,-0.148410,1.554805,0.305172,-0.249054,0.180171,-0.192757,0.147866,-0.970041,0.117837,-0.135583,-0.018041,17.528122,-48.059875,-8.309692,,,,,,,
1522138327.781483,-0.199339,-0.145544,1.561137,-0.068218,-0.107224,0.243669,-0.195928,0.145031,-0.969834,0.129690,-0.131771,-0.047042,17.374237,-48.359314,-8.458557,,,,,,,
1522138327.811451,-0.197632,-0.152121,1.566359,-0.261033,0.013145,0.266862,-0.194080,0.151535,-0.969211,0.097324,-0.137649,-0.081723,17.673309,-48.360809,-8.608398,,,,,,,
1522138327.841420,-0.199140,-0.156512,1.573297,0.009479,-0.268694,0.357916,-0.195408,0.155874,-0.968256,0.040425,-0.174810,-0.008139,16.397324,-48.280380,-8.909363,,,,,,,
1522138327.871388,-0.204655,-0.151659,1.585418,0.302796,-0.285656,0.399707,-0.200896,0.151078,-0.967893,0.121627,-0.183442,0.048795,16.844604,-48.507462,-8.983215,,,,,,,
1522138327.901356,-0.205382,-0.143547,1.596537,0.310806,0.006940,0.344006,-0.201843,0.143054,-0.968914,0.072144,-0.177722,0.050915,17.069595,-48.508484,-8.983093,,,,,,,
1522138327.931324,-0.201856,-0.135276,1.606375,0.274936,0.035071,0.285345,-0.198656,0.134864,-0.970746,-0.027845,-0.174201,-0.005283,16.547455,-48.355911,-8.758972,,,,,,,
1522138327.961293,-0.201020,-0.131345,1.612644,0.084571,-0.106423,0.224613,-0.197949,0.130968,-0.971423,0.127240,-0.170808,-0.014844,15.871475,-48.952042,-7.931946,,,,,,,
1522138327.991261,-0.201602,-0.132825,1.620405,-0.122606,0.034520,0.354304,-0.198476,0.132435,-0.971117,0.005772,-0.113468,-0.060911,15.719070,-49.101501,-8.081421,,,,,,,
1522138328.021229,-0.196390,-0.138625,1.628600,-0.126817,0.126449,0.425618,-0.193258,0.138181,-0.971369,0.038854,-0.092039,-0.180517,15.640030,-49.326447,-8.380554,,,,,,,
1522138328.051197,-0.191787,-0.141388,1.642551,0.019606,0.056239,0.538732,-0.188711,0.140917,-0.971870,0.081579,-0.156969,-0.156503,15.190353,-49.474121,-8.080200,,,,,,,
1522138328.081166,-0.184390,-0.142997,1.656318,0.083229,0.175222,0.520545,-0.181475,0.142511,-0.973015,0.092425,-0.141015,-0.064949,15.491089,-49.400482,-8.080322,,,,,,,
1522138328.111134,-0.182259,-0.139818,1.672147,0.280424,-0.070050,0.575279,-0.179483,0.139363,-0.973840,0.087259,-0.191945,0.094064,14.361359,-50.144928,-7.627930,,,,,,,
,,,,,,,,,,,,,,,,25.310226,51.445011,-8.589634,-1.000000,-1.000000,1522138328.094705,
1522138328.141102,-0.173735,-0.133422,1.691003,0.305900,0.408879,0.608918,-0.171326,0.133026,-0.976192,0.124558,-0.257278,0.045162,14.061081,-50.443130,-7.176880,,,,,,,
1522138328.171070,-0.151083,-0.130693,1.708045,0.090556,0.808402,0.687207,-0.149225,0.130321,-0.980178,0.080927,-0.316341,-0.021699,14.136536,-50.443405,-7.101807,,,,,,,
1522138328.201039,-0.122821,-0.135717,1.727150,-0.285845,0.897647,0.670856,-0.121386,0.135301,-0.983341,0.057848,-0.390657,-0.216290,12.784653,-50.812012,-6.801025,,,,,,,
1522138328.231007,-0.099220,-0.153536,1.743858,-0.617769,0.216271,0.672358,-0.097892,0.152934,-0.983376,0.031974,-0.273173,-0.345085,12.481384,-50.960953,-7.100586,,,,,,,
1522138328.260975,-0.121874,-0.165509,1.757015,-0.104926,-1.242858,0.365196,-0.119911,0.164754,-0.979019,0.036827,-0.197897,-0.058274,11.877640,-50.883987,-7.851196,,,,,,,
1522138328.290944,-0.152707,-0.163051,1.760029,0.227994,-0.910131,0.076353,-0.150097,0.162330,-0.975254,0.088039,-0.143668,0.085727,10.749527,-51.104050,-8.000916,,,,,,,
1522138328.320912,-0.174642,-0.153478,1.761710,0.394321,-0.559434,0.013253,-0.171714,0.152876,-0.973213,0.033225,-0.103331,0.162727,10.746979,-51.179352,-8.300598,,,,,,,
1522138328.350880,-0.184637,-0.140050,1.762413,0.475593,-0.235906,0.064138,-0.181792,0.139592,-0.973378,0.095915,-0.119329,0.120641,11.649963,-51.332657,-7.549500,,,,,,,
1522138328.380848,-0.185422,-0.133142,1.768498,0.082180,0.080538,0.231890,-0.182729,0.132749,-0.974160,0.169317,-0.151335,-0.026679,11.048782,-51.629654,-7.248657,,,,,,,
1522138328.410817,-0.183300,-0.138927,1.774025,-0.280903,-0.079567,0.311692,-0.180519,0.138480,-0.973774,0.126442,-0.086448,-0.161800,10.673035,-51.478333,-7.624451,,,,,,,
1522138328.440785,-0.193133,-0.148181,1.783712,-0.126906,-0.542263,0.476355,-0.189831,0.147639,-0.970653,0.027355,-0.135371,-0.186513,10.670334,-51.254150,-8.450317,,,,,,,
1522138328.470753,-0.209359,-0.147940,1.799577,0.280897,-0.649332,0.598238,-0.205562,0.147401,-0.967480,0.059887,-0.187272,-0.198628,8.866669,-51.845657,-8.073853,,,,,,,
1522138328.500721,-0.220755,-0.140393,1.819130,0.433252,-0.277605,0.571336,-0.216812,0.139932,-0.966132,0.021927,-0.268503,-0.125299,7.969131,-51.916107,-7.549011,,,,,,,
1522138328.530690,-0.222949,-0.131943,1.838459,0.367818,-0.132790,0.550900,-0.219185,0.131561,-0.966773,0.015251,-0.258590,0.040579,8.640945,-52.144272,-7.697815,,,,,,,
1522138328.560658,-0.222462,-0.129403,1.854607,0.083734,-0.007197,0.470648,-0.218787,0.129042,-0.967202,0.151984,-0.266738,0.056329,7.517349,-52.363602,-7.097473,,,,,,,
1522138328.590626,-0.220495,-0.132717,1.867462,-0.048284,0.036894,0.439621,-0.216789,0.132328,-0.967208,0.130867,-0.260440,-0.039094,6.543900,-52.209229,-7.098572,,,,,,,
1522138328.620585,-0.218047,-0.133330,1.879516,0.105212,-0.070469,0.392949,-0.214403,0.132935,-0.967657,0.067369,-0.234711,-0.054728,7.213486,-52.662384,-7.246399,,,,,,,
1522138328.650554,-0.217594,-0.131670,1.893073,-0.003836,-0.007009,0.474846,-0.214012,0.131290,-0.967968,0.038917,-0.288135,-0.086705,6.690582,-52.584824,-7.022034,,,,,,,
1522138328.680522,-0.208574,-0.134911,1.907248,-0.109352,0.296994,0.497905,-0.205183,0.134502,-0.969437,0.032561,-0.278102,-0.232238,5.785706,-53.030823,-7.095642,,,,,,,
1522138328.710490,-0.199702,-0.143119,1.920449,-0.190105,0.090331,0.449037,-0.196349,0.142631,-0.970105,0.089385,-0.228172,-0.229679,5.860992,-52.731613,-7.546814,,,,,,,
1522138328.740458,-0.198897,-0.146991,1.932826,0.068164,0.003981,0.396045,-0.195457,0.146462,-0.969714,0.090385,-0.184045,-0.033017,4.814331,-52.576599,-7.247986,,,,,,,
1522138328.770427,-0.196244,-0.142867,1.944830,0.291258,-0.028312,0.377060,-0.193000,0.142381,-0.970813,0.105567,-0.207658,0.119831,4.816574,-52.576233,-6.872986,,,,,,,
1522138328.800395,-0.197272,-0.137196,1.957255,0.226809,-0.081485,0.405835,-0.194153,0.136766,-0.971390,0.086243,-0.214128,0.166352,3.691193,-52.795868,-6.572693,,,,,,,
1522138328.830363,-0.194515,-0.135636,1.969862,0.006578,0.108105,0.420398,-0.191515,0.135220,-0.972130,0.129595,-0.187665,0.045250,3.687607,-53.245697,-6.420837,,,,,,,
1522138328.860332,-0.183796,-0.149716,1.980748,-0.647357,0.485779,0.436581,-0.180719,0.149158,-0.972159,0.098077,-0.195621,-0.118707,4.058975,-53.247971,-7.020691,,,,,,,
1522138328.890300,-0.170060,-0.168027,1.989814,-0.343331,0.182224,0.429657,-0.166858,0.167237,-0.971694,0.077518,-0.158967,-0.201035,3.309433,-52.570648,-8.073792,,,,,,,
1522138328.920268,-0.172190,-0.170323,2.001463,0.243738,-0.301796,0.449757,-0.168861,0.169501,-0.970956,0.091697,-0.231894,-0.042731,3.012115,-52.344238,-7.999817,,,,,,,
1522138328.950236,-0.175975,-0.161200,2.017568,0.383324,-0.084592,0.488011,-0.172798,0.160503,-0.971792,0.058556,-0.242839,-0.014628,2.259048,-53.239868,-7.021606,,,,,,,
1522138328.980205,-0.173402,-0.158016,2.035263,0.008059,-0.070573,0.595320,-0.170384,0.157360,-0.972732,0.003377,-0.263469,-0.061341,2.258896,-53.165024,-7.171875,,,,,,,
1522138329.010173,-0.170611,-0.166445,2.050644,-0.305397,0.143434,0.492590,-0.167438,0.165677,-0.971862,0.103245,-0.208005,-0.178163,1.055359,-53.384827,-7.396667,,,,,,,
1522138329.040141,-0.165879,-0.174301,2.062695,-0.004801,-0.070239,0.400321,-0.162618,0.173420,-0.971329,0.098393,-0.114338,-0.118789,1.278992,-53.386063,-7.621521,,,,,,,
1522138329.070109,-0.170042,-0.165627,2.075383,0.508973,-0.292338,0.371094,-0.166908,0.164871,-0.972090,0.059867,-0.125106,0.036223,0.160645,-53.305054,-6.647400,,,,,,,
1522138329.100078,-0.178397,-0.150582,2.090162,0.465741,-0.362651,0.411626,-0.175444,0.150013,-0.972993,0.113142,-0.194370,0.099778,-0.138885,-53.528244,-6.196655,,,,,,,
,,,,,,,,,,,,,,,,25.310245,51.444979,-8.451511,-1.000000,-1.000000,1522138329.085280,
1522138329.130046,-0.176969,-0.149944,2.104369,-0.239030,0.201580,0.510699,-0.174072,0.149383,-0.973336,0.180526,-0.227096,-0.112647,-0.064484,-53.453812,-6.421875,,,,,,,
1522138329.160014,-0.168371,-0.166041,2.119844,-0.404899,0.051135,0.657769,-0.165272,0.165279,-0.972300,0.068592,-0.263088,-0.254186,-1.183609,-52.773926,-6.575195,,,,,,,
1522138329.189982,-0.170297,-0.169520,2.140459,0.286645,-0.222786,0.684125,-0.167045,0.168710,-0.971408,0.068428,-0.310754,-0.166868,-1.637482,-53.072037,-6.724182,,,,,,,
1522138329.219951,-0.179140,-0.155439,2.162295,0.755054,-0.641924,0.584737,-0.176035,0.154814,-0.972134,0.084787,-0.294218,-0.010334,-2.089401,-53.444702,-6.422913,,,,,,,
1522138329.249919,-0.200106,-0.133899,2.182825,0.822037,-0.789280,0.511415,-0.196994,0.133499,-0.971273,0.024432,-0.325348,0.175252,-3.060318,-53.664276,-5.372559,,,,,,,
1522138329.279887,-0.210453,-0.122661,2.201060,0.121838,-0.040498,0.506946,-0.207333,0.122354,-0.970589,0.026043,-0.324960,0.164955,-4.630295,-53.656387,-4.548340,,,,,,,
1522138329.309855,-0.196437,-0.137123,2.210994,-0.608182,0.601799,0.394937,-0.193344,0.136693,-0.971562,0.132980,-0.217016,-0.098461,-4.858444,-53.655884,-5.073486,,,,,,,
1522138329.339824,-0.179068,-0.152755,2.221271,-0.235641,0.370165,0.413555,-0.176038,0.152161,-0.972552,0.085737,-0.107728,-0.368696,-5.010681,-53.655579,-5.448608,,,,,,,
1522138329.369792,-0.177577,-0.148412,2.232617,0.464614,-0.246189,0.319878,-0.174703,0.147868,-0.973454,0.146444,-0.107646,-0.191218,-5.458099,-53.353653,-5.525024,,,,,,,
1522138329.399760,-0.188975,-0.136681,2.244867,0.383622,-0.435193,0.330654,-0.186100,0.136256,-0.973037,0.100804,-0.140894,0.039947,-5.005417,-53.579865,-4.698853,,,,,,,
1522138329.429728,-0.193670,-0.129782,2.257224,0.239783,-0.067585,0.387723,-0.190843,0.129418,-0.973052,0.092958,-0.196694,0.098387,-5.827209,-53.575638,-4.174255,,,,,,,
1522138329.459697,-0.189045,-0.132191,2.272242,-0.166885,0.209246,0.604510,-0.186281,0.131806,-0.973615,0.108980,-0.167786,-0.005038,-7.028534,-53.570465,-4.399963,,,,,,,
1522138329.489665,-0.177447,-0.143995,2.291209,-0.250139,0.328847,0.702352,-0.174690,0.143498,-0.974111,0.091606,-0.215932,-0.229503,-6.279037,-53.124649,-5.226318,,,,,,,
1522138329.519633,-0.175882,-0.146524,2.311037,0.231778,-0.384801,0.623510,-0.173101,0.146001,-0.974022,0.051031,-0.310277,-0.159385,-7.775070,-53.042389,-4.702393,,,,,,,
1522138329.549602,-0.188432,-0.140806,2.328906,0.293021,-0.446782,0.497896,-0.185465,0.140341,-0.972577,0.101206,-0.256216,0.031812,-8.525177,-53.188797,-4.477173,,,,,,,
1522138329.579570,-0.193664,-0.131472,2.344355,0.481927,-0.070576,0.426261,-0.190795,0.131093,-0.972837,0.050155,-0.243688,0.059797,-8.521286,-53.113281,-3.952515,,,,,,,
1522138329.609519,-0.186797,-0.120004,2.358900,0.431609,0.310336,0.372566,-0.184377,0.119716,-0.975537,0.022604,-0.249568,0.071011,-8.742935,-53.411240,-2.901428,,,,,,,
1522138329.639487,-0.176631,-0.112226,2.370683,0.218897,0.221819,0.342659,-0.174608,0.111990,-0.978248,0.098055,-0.292288,0.118736,-8.891296,-53.335419,-2.751770,,,,,,,
1522138329.669456,-0.166890,-0.108805,2.382185,0.221644,0.378939,0.361687,-0.165134,0.108591,-0.980275,0.089939,-0.149179,0.086567,-8.510025,-52.886841,-2.453430,,,,,,,
1522138329.699424,-0.157021,-0.099282,2.396645,0.390690,0.123695,0.483543,-0.155606,0.099119,-0.982834,0.079923,-0.146330,-0.079178,-9.559952,-53.106735,-2.078064,,,,,,,
1522138329.729392,-0.152996,-0.097404,2.413128,-0.069831,0.107473,0.536490,-0.151677,0.097250,-0.983634,0.140538,-0.120138,-0.121117,-10.156937,-52.804062,-2.079529,,,,,,,
1522138329.759360,-0.149894,-0.102851,2.427606,-0.100388,-0.071841,0.508945,-0.148544,0.102670,-0.983562,0.063843,-0.271264,-0.044652,-10.077332,-52.204636,-2.306885,,,,,,,
1522138329.789329,-0.152710,-0.105184,2.443134,-0.011151,-0.166637,0.511229,-0.151276,0.104990,-0.982900,0.095017,-0.233789,-0.048365,-11.503754,-52.572845,-1.931152,,,,,,,
1522138329.819266,-0.153206,-0.103798,2.458439,0.151343,-0.122427,0.511315,-0.151786,0.103612,-0.982968,-0.005135,-0.229207,0.050411,-11.879486,-52.646164,-1.931030,,,,,,,
1522138329.849235,-0.157514,-0.099375,2.474925,0.185984,-0.228907,0.531686,-0.156090,0.099211,-0.982748,0.021858,-0.245284,0.128789,-11.497314,-52.197433,-1.482605,,,,,,,
1522138329.879203,-0.158051,-0.094700,2.490296,0.110839,0.033419,0.426943,-0.156689,0.094558,-0.983111,0.060146,-0.208724,0.024539,-13.073730,-52.340332,-1.482849,,,,,,,
1522138329.909171,-0.154059,-0.094612,2.500877,-0.079603,0.062242,0.323419,-0.152764,0.094471,-0.983737,0.056588,-0.198673,-0.017148,-12.921188,-52.041092,-1.558960,,,,,,,
1522138329.939139,-0.148088,-0.100898,2.508198,-0.401805,0.310866,0.288836,-0.146796,0.100727,-0.984025,0.164802,-0.169437,-0.221511,-12.097137,-51.820328,-2.084473,,,,,,,
1522138329.969108,-0.139731,-0.119397,2.516246,-0.533592,0.084183,0.385926,-0.138285,0.119114,-0.983203,0.094294,-0.059314,-0.315152,-13.674179,-51.888458,-2.309937,,,,,,,
1522138329.999076,-0.148292,-0.124559,2.528971,0.187328,-0.497210,0.453116,-0.146604,0.124237,-0.981362,0.017728,-0.151001,-0.178412,-13.748428,-51.588501,-2.686218,,,,,,,
1522138330.029044,-0.162672,-0.118177,2.542254,0.223279,-0.594927,0.435123,-0.160826,0.117902,-0.979915,0.069914,-0.189801,-0.057026,-13.743042,-50.913757,-2.913940,,,,,,,
1522138330.059012,-0.177375,-0.118449,2.553625,0.026011,-0.427241,0.532844,-0.175210,0.118173,-0.977413,-0.004584,-0.178750,0.082821,-14.939240,-50.982620,-2.164246,,,,,,,
1522138330.088981,-0.183383,-0.124117,2.572617,-0.212950,-0.238741,0.861721,-0.180954,0.123798,-0.975669,0.021271,-0.218235,-0.175744,-15.611801,-50.829437,-2.015198,,,,,,,
,,,,,,,,,,,,,,,,25.310257,51.444938,-8.444157,-1.000000,-1.000000,1522138330.081746,
1522138330.118949,-0.178528,-0.138330,2.592431,-0.291462,0.327920,0.847243,-0.175885,0.137889,-0.974706,0.005642,-0.284205,-0.236857,-16.734238,-50.299850,-2.467834,,,,,,,
1522138330.148917,-0.172945,-0.142925,2.612827,0.196882,-0.238522,0.686209,-0.170330,0.142439,-0.975038,0.002544,-0.320509,-0.038604,-17.707550,-49.995697,-2.694519,,,,,,,
1522138330.178886,-0.185683,-0.134178,2.626341,0.472411,-0.535888,0.414996,-0.182959,0.133775,-0.973976,0.036276,-0.254900,0.199654,-17.172531,-49.397430,-2.021667,,,,,,,
1522138330.208854,-0.191754,-0.124059,2.634754,0.285003,0.044107,0.205428,-0.189117,0.123741,-0.974127,0.047027,-0.209816,0.146597,-17.023865,-49.847565,-1.494751,,,,,,,
