timestamp(unix),attitude_roll(radians),attitude_pitch(radians),attitude_yaw(radians),rotation_rate_x(radians/s),rotation_rate_y(radians/s),rotation_rate_z(radians/s),gravity_x(G),gravity_y(G),gravity_z(G),user_acc_x(G),user_acc_y(G),user_acc_z(G),magnetic_field_x(microteslas),magnetic_field_y(microteslas),magnetic_field_z(microteslas),latitude(degree),longitude(degree),altitude(meter),speed(m/s),course(degree),timestamp(unix),User Mark
1522139087.833158,-0.015294,-0.027297,-0.960420,0.031152,-0.008068,0.002742,-0.015288,0.027294,-0.999511,-0.048875,0.030933,0.012679,0.969421,5.528044,-44.907288,,,,,,,
,,,,,,,,,,,,,,,,25.304164,51.439048,10.993729,-1.000000,-1.000000,1522139084.850930,
1522139087.863127,-0.015283,-0.026133,-0.960278,0.029040,0.001467,0.006996,-0.015277,0.026130,-0.999542,-0.038907,-0.004265,-0.131424,0.744431,5.529066,-44.907410,,,,,,,
1522139087.893095,-0.015999,-0.025504,-0.960468,0.024591,-0.050517,-0.003610,-0.015993,0.025502,-0.999547,-0.006315,0.044628,0.100011,1.192459,5.376966,-44.981567,,,,,,,
1522139087.923063,-0.017464,-0.025173,-0.960802,0.005252,-0.080192,-0.006796,-0.017458,0.025171,-0.999531,-0.076506,-0.127054,0.040470,0.141464,5.007154,-44.530579,,,,,,,
1522139087.953031,-0.018793,-0.025715,-0.960896,-0.029752,-0.010079,0.009087,-0.018786,0.025712,-0.999493,0.008730,-0.009736,-0.130512,-0.158981,5.008436,-44.605774,,,,,,,
1522139087.983000,-0.020105,-0.025069,-0.960913,0.045908,-0.051664,0.001731,-0.020097,0.025066,-0.999484,-0.031996,0.088795,-0.137296,0.593689,5.230116,-44.531250,,,,,,,
1522139088.012968,-0.020833,-0.023758,-0.960948,0.028793,-0.048472,0.009164,-0.020826,0.023756,-0.999501,-0.091769,0.001696,-0.145687,-0.380508,5.309492,-44.532043,,,,,,,
1522139088.042936,-0.021407,-0.022897,-0.960750,0.036362,-0.021968,0.014475,-0.021400,0.022895,-0.999509,-0.074120,-0.023582,-0.104648,0.294296,5.381315,-44.682068,,,,,,,
1522139088.072904,-0.021521,-0.022001,-0.960231,0.016153,0.001424,0.019763,-0.021515,0.022000,-0.999526,-0.039277,0.030948,0.024230,0.143112,5.306913,-44.756836,,,,,,,
1522139088.102865,-0.021092,-0.021231,-0.959926,0.039650,-0.001812,0.016595,-0.021086,0.021229,-0.999552,-0.026476,0.036846,-0.000402,0.889633,4.778868,-44.454285,,,,,,,
1522139088.132833,-0.020272,-0.020436,-0.959572,0.019530,0.033327,0.014409,-0.020266,0.020434,-0.999586,-0.083448,-0.027697,-0.109148,0.138306,4.782011,-44.679749,,,,,,,
1522139088.162771,-0.019283,-0.019536,-0.959309,0.033463,0.043908,0.014415,-0.019278,0.019534,-0.999623,-0.050607,-0.061221,0.005345,0.809982,4.628691,-44.978760,,,,,,,
1522139088.192739,-0.018063,-0.018892,-0.958956,0.011039,0.045057,0.013316,-0.018059,0.018891,-0.999658,-0.022682,-0.040177,0.008295,0.209869,4.481627,-44.753479,,,,,,,
1522139088.222707,-0.016647,-0.018326,-0.958761,0.027079,0.046080,0.011206,-0.016643,0.018325,-0.999694,-0.005467,-0.008178,0.043090,0.515244,4.930403,-44.605103,,,,,,,
1522139088.252675,-0.015050,-0.017237,-0.958685,0.028210,0.050370,0.003750,-0.015047,0.017236,-0.999738,-0.007521,-0.035043,0.004331,1.341995,5.151594,-44.680603,,,,,,,
1522139088.282644,-0.013426,-0.016617,-0.958772,0.016455,0.051472,0.004794,-0.013424,0.016616,-0.999772,-0.008167,-0.046264,0.008713,0.812225,4.853682,-44.979675,,,,,,,
1522139088.312612,-0.012044,-0.016333,-0.958744,-0.001743,0.039837,0.003726,-0.012042,0.016332,-0.999794,-0.000135,-0.036871,0.043938,0.734543,4.404341,-44.677917,,,,,,,
1522139088.342580,-0.010733,-0.016556,-0.958808,-0.004901,0.045174,0.000527,-0.010731,0.016555,-0.999805,0.025807,-0.031814,0.032673,0.661789,4.629667,-44.678833,,,,,,,
1522139088.372549,-0.009788,-0.016876,-0.958841,-0.024218,0.023958,0.001602,-0.009786,0.016875,-0.999810,0.033925,-0.060439,0.003457,1.260117,4.551817,-44.828186,,,,,,,
1522139088.402517,-0.009222,-0.017538,-0.958931,-0.018959,0.008002,0.002685,-0.009220,0.017538,-0.999804,0.005924,-0.021795,0.004305,1.865479,4.999250,-44.679749,,,,,,,
1522139088.432485,-0.009023,-0.018288,-0.959028,-0.033978,-0.011079,0.000566,-0.009021,0.018287,-0.999792,0.028110,-0.047874,-0.022913,0.216446,5.231443,-44.906433,,,,,,,
1522139088.462453,-0.008916,-0.019192,-0.959071,-0.027560,-0.006832,0.000558,-0.008915,0.019191,-0.999776,0.039341,0.009816,-0.017421,0.967316,5.228209,-44.756104,,,,,,,
1522139088.492422,-0.009435,-0.019908,-0.959169,-0.035159,-0.033386,0.001645,-0.009433,0.019907,-0.999757,0.001712,-0.026758,-0.041808,1.114761,4.927626,-44.679810,,,,,,,
1522139088.522390,-0.009892,-0.020868,-0.959088,-0.027669,-0.028114,0.003781,-0.009890,0.020866,-0.999733,0.012575,0.015770,-0.053794,1.343201,5.226667,-44.605896,,,,,,,
1522139088.552358,-0.010706,-0.021338,-0.959097,-0.017050,-0.038783,0.005932,-0.010703,0.021336,-0.999715,0.007636,0.000988,-0.054820,0.665527,5.004652,-44.680359,,,,,,,
1522139088.582296,-0.011545,-0.021795,-0.958984,-0.014873,-0.029223,0.005923,-0.011542,0.021793,-0.999696,0.020606,-0.001927,-0.032577,0.739944,4.854460,-44.529663,,,,,,,
1522139088.612264,-0.012308,-0.022012,-0.958940,-0.004248,-0.036708,0.009133,-0.012305,0.022010,-0.999682,0.008734,-0.017677,-0.017057,1.266861,5.002165,-44.455017,,,,,,,
1522139088.642232,-0.013082,-0.022143,-0.958768,0.000044,-0.032455,0.008062,-0.013079,0.022141,-0.999669,-0.005049,0.019759,-0.030787,0.892014,5.153624,-44.680847,,,,,,,
1522139088.672201,-0.013696,-0.022105,-0.958709,0.000123,-0.017598,0.008061,-0.013692,0.022104,-0.999662,-0.027278,-0.004663,-0.047045,1.342300,5.226530,-44.755920,,,,,,,
1522139088.702169,-0.014091,-0.022109,-0.958645,-0.002014,-0.015448,0.008044,-0.014087,0.022108,-0.999656,0.017230,0.002413,-0.018380,0.741287,4.854673,-44.304688,,,,,,,
1522139088.732137,-0.014252,-0.022102,-0.958582,0.001249,0.000468,0.010161,-0.014248,0.022101,-0.999654,-0.000843,-0.024756,-0.038203,0.666000,4.780088,-44.229431,,,,,,,
1522139088.762105,-0.014319,-0.022160,-0.958383,-0.001933,0.002599,0.009098,-0.014315,0.022159,-0.999652,0.014910,0.006085,0.007526,0.965363,5.078138,-44.830444,,,,,,,
1522139088.792074,-0.014127,-0.022048,-0.958222,0.002341,0.003654,0.009098,-0.014123,0.022046,-0.999657,0.002740,-0.009671,-0.012138,1.118515,5.302610,-44.681335,,,,,,,
1522139088.822042,-0.013775,-0.022071,-0.958184,0.000265,0.014300,0.006955,-0.013771,0.022069,-0.999662,-0.008705,-0.017659,-0.014102,0.522141,5.530516,-44.457520,,,,,,,
1522139088.852010,-0.013251,-0.021911,-0.958126,0.008835,0.018547,0.004824,-0.013247,0.021910,-0.999672,0.004275,0.000658,-0.026848,1.120926,5.452742,-44.531921,,,,,,,
1522139088.881978,-0.012860,-0.021765,-0.958251,0.001334,0.007972,0.000565,-0.012856,0.021763,-0.999680,-0.004340,-0.031514,0.015199,1.041428,5.003096,-44.530151,,,,,,,
1522139088.911947,-0.012195,-0.021840,-0.958263,-0.001762,0.031355,0.000541,-0.012192,0.021838,-0.999687,0.022415,0.016278,0.056190,0.966431,5.003447,-44.530151,,,,,,,
1522139088.941915,-0.011702,-0.021485,-0.958485,0.020572,0.004780,-0.005810,-0.011699,0.021483,-0.999701,-0.021810,0.017228,-0.017450,1.339172,4.776762,-44.529053,,,,,,,
1522139088.971883,-0.010947,-0.020880,-0.958735,0.013259,0.038789,-0.005841,-0.010944,0.020879,-0.999722,-0.037151,-0.010503,-0.013950,0.966431,5.003447,-44.530151,,,,,,,
1522139089.001851,-0.010312,-0.020568,-0.959083,0.005627,0.001652,-0.009014,-0.010310,0.020566,-0.999735,0.020838,-0.024366,0.058939,0.891434,5.003782,-44.530212,,,,,,,
1522139089.031789,-0.009717,-0.020655,-0.959335,-0.004986,0.016543,-0.007969,-0.009715,0.020654,-0.999739,-0.016179,-0.010827,0.083831,1.793793,5.374495,-44.756287,,,,,,,
1522139089.061757,-0.009114,-0.020933,-0.959655,-0.016745,0.011244,-0.007962,-0.009112,0.020932,-0.999739,0.018252,-0.000775,0.025054,1.342743,5.226591,-44.680908,,,,,,,
1522139089.091726,-0.008539,-0.021489,-0.959924,-0.017811,0.012348,-0.010111,-0.008537,0.021487,-0.999733,-0.011818,-0.017413,-0.064415,1.191879,4.777876,-44.079163,,,,,,,
1522139089.121685,-0.008492,-0.022125,-0.960178,-0.020052,-0.007861,-0.006894,-0.008489,0.022123,-0.999719,0.019079,-0.019559,0.069513,1.568344,5.150801,-44.455444,,,,,,,
1522139089.151653,-0.008341,-0.022608,-0.960400,-0.011511,-0.001559,-0.000496,-0.008339,0.022606,-0.999710,-0.005775,0.010734,-0.019288,1.343811,5.151899,-44.380615,,,,,,,
1522139089.181622,-0.008552,-0.022746,-0.960480,0.001263,-0.014325,-0.003666,-0.008550,0.022744,-0.999705,0.009618,0.020149,0.067347,1.264175,4.777098,-44.529114,,,,,,,
1522139089.211590,-0.008802,-0.022629,-0.960640,0.003407,-0.009041,-0.000472,-0.008799,0.022627,-0.999705,-0.028844,-0.020338,-0.021565,1.725388,5.675398,-44.157471,,,,,,,
1522139089.241558,-0.009115,-0.022458,-0.960741,0.010927,-0.001611,-0.002602,-0.009112,0.022456,-0.999706,0.005465,-0.000835,-0.013126,0.971985,5.378706,-44.231689,,,,,,,
1522139089.271526,-0.009571,-0.022068,-0.960984,0.011876,-0.028163,-0.003646,-0.009569,0.022066,-0.999711,-0.061614,-0.011522,-0.044952,1.190506,5.002287,-44.680054,,,,,,,
1522139089.301495,-0.009921,-0.022046,-0.961221,-0.009385,-0.006834,-0.004760,-0.009919,0.022045,-0.999708,0.020539,-0.013027,-0.025073,1.495895,5.226439,-44.155823,,,,,,,
1522139089.331463,-0.010546,-0.022106,-0.961543,0.007537,-0.041956,-0.003642,-0.010543,0.022104,-0.999700,0.009704,0.027563,-0.038645,0.818680,5.004484,-44.155273,,,,,,,
1522139089.361431,-0.011383,-0.021552,-0.961793,0.017251,-0.020726,-0.004718,-0.011380,0.021551,-0.999703,-0.033770,0.018626,-0.101509,1.120178,5.377745,-44.531616,,,,,,,
1522139089.391398,-0.012617,-0.021272,-0.962186,0.003167,-0.067424,-0.006818,-0.012614,0.021271,-0.999694,0.006373,0.003571,0.007568,0.894730,5.154066,-44.230835,,,,,,,
1522139089.421368,-0.013776,-0.021259,-0.962446,0.001220,-0.023871,-0.004729,-0.013772,0.021257,-0.999679,-0.022056,0.008863,-0.049988,1.116119,4.927839,-44.454773,,,,,,,
1522139089.451304,-0.015111,-0.021232,-0.962550,-0.001095,-0.058963,-0.000432,-0.015107,0.021230,-0.999660,0.005128,-0.003377,-0.033787,0.367203,5.081144,-44.530762,,,,,,,
1522139089.481273,-0.016398,-0.021423,-0.962636,-0.012696,-0.030234,-0.002597,-0.016393,0.021421,-0.999636,-0.013605,0.009813,-0.068250,1.418961,5.301329,-44.606140,,,,,,,
1522139089.511241,-0.017925,-0.021869,-0.962732,-0.010707,-0.062113,-0.002566,-0.017920,0.021867,-0.999600,-0.027536,-0.042619,-0.029956,1.043365,5.153166,-44.455750,,,,,,,
1522139089.541209,-0.018960,-0.022212,-0.962747,-0.006259,-0.019629,-0.000479,-0.018954,0.022210,-0.999574,-0.002439,0.033317,-0.043288,1.343658,5.002119,-44.154968,,,,,,,
1522139089.571177,-0.019661,-0.022092,-0.962812,-0.000899,-0.019629,-0.003665,-0.019655,0.022090,-0.999563,-0.016493,-0.019160,-0.056193,1.646057,5.375532,-44.381348,,,,,,,
1522139089.601146,-0.019991,-0.022447,-0.962894,-0.005152,-0.016419,-0.004740,-0.019984,0.022445,-0.999548,-0.036458,0.001923,-0.064417,0.670929,5.230146,-44.156250,,,,,,,
1522139089.631114,-0.020007,-0.022340,-0.963058,0.000294,0.006943,-0.004758,-0.020001,0.022338,-0.999550,0.005291,-0.028655,0.002709,1.192307,5.227201,-44.755981,,,,,,,
1522139089.661083,-0.019536,-0.022494,-0.963367,-0.001731,0.028192,-0.005836,-0.019530,0.022492,-0.999556,-0.015367,0.016219,0.048232,0.142807,5.007368,-44.305603,,,,,,,
1522139089.691051,-0.018972,-0.022515,-0.963765,-0.006086,0.005945,-0.011158,-0.018966,0.022513,-0.999567,-0.003205,-0.009192,-0.063986,0.221100,5.157316,-44.006226,,,,,,,
1522139089.721020,-0.018247,-0.022851,-0.964225,-0.011339,0.025087,-0.011182,-0.018241,0.022849,-0.999573,-0.008965,-0.020210,0.023041,1.343964,5.077040,-44.230286,,,,,,,
1522139089.750988,-0.017431,-0.023067,-0.964521,-0.003822,0.040987,-0.006937,-0.017425,0.023064,-0.999582,-0.033371,0.022407,0.009180,0.664047,4.630033,-44.303833,,,,,,,
1522139089.780956,-0.016761,-0.023208,-0.964889,-0.013492,0.024001,-0.007982,-0.016756,0.023206,-0.999590,-0.017805,-0.036817,0.039767,0.740997,4.779753,-44.229431,,,,,,,
1522139089.810925,-0.015973,-0.023795,-0.965262,-0.016672,0.030377,-0.006925,-0.015968,0.023793,-0.999589,-0.014275,-0.009251,-0.003462,1.646484,5.600233,-44.682251,,,,,,,
1522139089.840893,-0.015540,-0.024085,-0.965617,-0.001747,0.022915,-0.009037,-0.015535,0.024083,-0.999589,-0.018736,0.041301,0.018068,2.020432,5.448622,-44.606445,,,,,,,
1522139089.870831,-0.015059,-0.023962,-0.966034,-0.001838,0.005904,-0.006892,-0.015054,0.023959,-0.999600,0.003137,0.003888,0.027737,1.269104,5.227156,-44.455933,,,,,,,
1522139089.900799,-0.014768,-0.024029,-0.966352,0.004559,0.003763,-0.006885,-0.014763,0.024027,-0.999602,0.001549,0.014730,0.020934,0.295807,5.082060,-43.930847,,,,,,,
1522139089.930767,-0.014751,-0.023586,-0.966655,0.018512,0.017573,-0.010091,-0.014746,0.023584,-0.999613,-0.007028,0.002951,0.032374,0.894119,5.228834,-44.456116,,,,,,,
1522139089.960735,-0.014848,-0.023213,-0.966856,0.011950,-0.013264,-0.005797,-0.014843,0.023211,-0.999620,0.001354,0.026670,-0.034941,1.117752,5.227613,-44.681030,,,,,,,
1522139089.990704,-0.015285,-0.022781,-0.967076,0.012989,-0.023859,-0.010051,-0.015281,0.022779,-0.999624,-0.036828,0.018328,-0.039134,1.419708,5.376326,-44.606445,,,,,,,
1522139090.020672,-0.015639,-0.022576,-0.967296,0.002471,0.015466,-0.006904,-0.015634,0.022574,-0.999623,0.019052,-0.006247,0.054768,0.969269,5.153654,-44.305786,,,,,,,
1522139090.050640,-0.016226,-0.022517,-0.967447,0.007483,-0.054697,-0.004697,-0.016221,0.022515,-0.999615,-0.023284,0.008033,-0.098148,0.745926,5.229811,-44.156189,,,,,,,
1522139090.080607,-0.016731,-0.022333,-0.967620,0.001288,-0.011121,-0.005801,-0.016726,0.022331,-0.999611,-0.055738,0.024239,-0.017769,1.640488,5.000257,-44.679871,,,,,,,
1522139090.110564,-0.017325,-0.022108,-0.967764,0.017260,-0.020725,-0.005780,-0.017320,0.022107,-0.999606,0.007066,-0.000470,0.007372,0.142807,5.007368,-44.305603,,,,,,,
1522139090.140532,-0.017715,-0.021672,-0.967860,0.013106,0.007963,-0.003682,-0.017710,0.021670,-0.999608,-0.004858,-0.001315,-0.017421,0.670486,5.230070,-44.231262,,,,,,,
1522139090.170500,-0.018387,-0.021150,-0.967919,0.022455,-0.047314,-0.002560,-0.018381,0.021148,-0.999607,-0.023031,-0.005172,-0.047558,1.418655,5.226408,-44.530823,,,,,,,
1522139090.200467,-0.018860,-0.020593,-0.968058,0.021588,-0.006930,-0.004724,-0.018855,0.020591,-0.999610,-0.023534,0.006722,0.009269,0.967178,5.078444,-44.530457,,,,,,,
1522139090.230437,-0.019246,-0.019998,-0.968333,0.013059,-0.005826,-0.006866,-0.019241,0.019996,-0.999615,-0.054063,-0.030845,-0.079975,1.269424,5.302076,-44.531189,,,,,,,
1522139090.260404,-0.019532,-0.019820,-0.968646,-0.004003,-0.000464,-0.006888,-0.019527,0.019819,-0.999613,-0.044377,-0.020048,-0.033194,1.417740,5.226255,-44.680847,,,,,,,
1522139090.290342,-0.019960,-0.019777,-0.968990,0.006614,-0.013220,-0.007943,-0.019955,0.019776,-0.999605,-0.009235,-0.003418,-0.008131,0.214218,4.781828,-44.529663,,,,,,,
1522139090.320310,-0.020319,-0.019795,-0.969187,-0.011502,-0.003631,-0.005832,-0.020314,0.019794,-0.999598,-0.024577,-0.002780,0.004221,0.667191,4.855162,-44.154724,,,,,,,
1522139090.350278,-0.020714,-0.020021,-0.969377,0.000108,-0.036592,-0.007917,-0.020709,0.020020,-0.999585,-0.001020,-0.019608,-0.026889,0.892319,5.228544,-44.756165,,,,,,,
1522139090.380246,-0.020723,-0.020082,-0.969554,-0.002867,0.014408,-0.006902,-0.020718,0.020080,-0.999584,0.008572,0.008408,0.002925,0.595032,5.230330,-44.306274,,,,,,,
1522139090.410215,-0.020742,-0.020085,-0.969714,0.000282,0.001659,-0.007954,-0.020737,0.020084,-0.999583,-0.028290,0.033002,-0.020818,0.592026,5.154982,-44.680969,,,,,,,
1522139090.440183,-0.020720,-0.020239,-0.969877,-0.010452,-0.010029,-0.005811,-0.020714,0.020238,-0.999581,0.011147,-0.024785,0.004036,0.892334,5.003920,-44.380249,,,,,,,
1522139090.470151,-0.020366,-0.020346,-0.970139,0.002444,0.008016,-0.006889,-0.020360,0.020345,-0.999586,0.000417,-0.010823,-0.010867,0.742035,4.929670,-44.304993,,,,,,,
1522139090.500119,-0.019965,-0.020573,-0.970399,-0.017691,0.044183,-0.004812,-0.019959,0.020571,-0.999589,-0.040267,-0.015505,-0.101134,0.291901,5.006544,-44.455505,,,,,,,
1522139090.530088,-0.019951,-0.020989,-0.970692,-0.007285,-0.014310,-0.002608,-0.019945,0.020988,-0.999581,0.008684,-0.007697,0.009407,1.419418,5.301405,-44.531128,,,,,,,
1522139090.560056,-0.019732,-0.021335,-0.970907,-0.017850,0.014405,-0.000523,-0.019726,0.021334,-0.999578,-0.026004,-0.022600,-0.022685,0.295044,5.231688,-44.306458,,,,,,,
1522139090.590024,-0.019623,-0.021756,-0.971115,-0.010339,0.019710,-0.002650,-0.019617,0.021755,-0.999571,-0.021902,0.028782,-0.051104,1.047882,5.378523,-44.081604,,,,,,,
1522139090.619993,-0.019700,-0.021863,-0.971272,-0.007208,0.006941,-0.000508,-0.019694,0.021861,-0.999567,-0.009191,-0.002071,-0.009497,1.867889,5.149382,-44.530334,,,,,,,
1522139090.649961,-0.019916,-0.022021,-0.971425,-0.003056,-0.021762,-0.001535,-0.019909,0.022019,-0.999559,-0.018970,0.001052,0.003435,0.965088,4.778593,-44.379333,,,,,,,
1522139090.679929,-0.020276,-0.021942,-0.971552,0.007727,-0.001574,-0.004746,-0.020270,0.021940,-0.999554,-0.001260,-0.005110,0.000820,1.491852,5.001158,-44.454895,,,,,,,
1522139090.709867,-0.020691,-0.021857,-0.971644,0.001251,-0.014321,-0.002608,-0.020684,0.021855,-0.999547,-0.004889,-0.019414,-0.033778,1.870285,5.524137,-44.756836,,,,,,,
1522139090.739836,-0.021138,-0.021940,-0.971729,-0.002993,-0.006879,-0.001555,-0.021131,0.021938,-0.999536,-0.004412,-0.020107,-0.028098,2.317719,5.446836,-45.056274,,,,,,,
1522139090.769804,-0.021659,-0.021868,-0.971888,0.009828,-0.014302,-0.008992,-0.021652,0.021866,-0.999526,-0.020035,0.014923,-0.040284,2.989960,5.667982,-45.881836,,,,,,,
1522139090.799773,-0.022035,-0.021638,-0.972078,0.000301,0.001661,-0.010076,-0.022028,0.021637,-0.999523,0.042856,-0.011383,0.062069,2.687592,5.294569,-45.655457,,,,,,,
1522139090.829741,-0.022209,-0.021814,-0.972251,-0.009386,-0.008958,-0.005819,-0.022202,0.021812,-0.999516,0.037705,0.003563,0.009052,2.608383,5.144484,-46.104919,,,,,,,
1522139090.859709,-0.022190,-0.021922,-0.972275,0.000304,0.008013,-0.005824,-0.022182,0.021921,-0.999514,0.015545,0.011008,-0.006300,3.502945,5.139555,-47.004517,,,,,,,
1522139090.889676,-0.021962,-0.021981,-0.972334,-0.007190,0.004836,-0.004761,-0.021955,0.021980,-0.999517,0.032728,-0.007346,-0.006968,3.354736,5.365141,-47.080444,,,,,,,
1522139090.919646,-0.021568,-0.022244,-0.972380,-0.007178,0.005905,-0.005827,-0.021561,0.022242,-0.999520,0.035034,-0.023676,-0.019874,1.850143,5.221388,-47.605591,,,,,,,
1522139090.949613,-0.021131,-0.022493,-0.972460,-0.007141,0.018639,-0.002647,-0.021124,0.022491,-0.999524,0.030432,0.020279,-0.011310,1.402420,5.448408,-47.606750,,,,,,,
1522139090.979581,-0.020541,-0.022369,-0.972677,0.008846,0.007990,-0.005817,-0.020534,0.022368,-0.999539,0.018139,0.000154,-0.037143,0.351273,5.153440,-47.306091,,,,,,,
1522139091.009549,-0.019959,-0.022312,-0.972894,-0.001812,0.011215,-0.006896,-0.019953,0.022310,-0.999552,0.049998,0.001661,0.010752,-0.325043,4.931623,-47.155518,,,,,,,
1522139091.039518,-0.019608,-0.022320,-0.973030,0.000324,0.016510,-0.003710,-0.019602,0.022319,-0.999559,0.027811,-0.008509,0.039110,-0.321442,4.932203,-46.555542,,,,,,,
1522139091.069486,-0.019386,-0.022303,-0.973139,-0.000856,-0.005816,-0.001558,-0.019380,0.022302,-0.999563,0.024233,0.000144,-0.032327,-1.216599,5.011915,-45.881348,,,,,,,
1522139091.099454,-0.019234,-0.022500,-0.973183,-0.012553,0.003753,-0.000499,-0.019228,0.022498,-0.999562,0.023196,-0.004050,-0.030116,-1.287399,5.162687,-45.431946,,,,,,,
1522139091.129389,-0.019286,-0.022760,-0.973480,-0.009384,-0.004746,-0.001556,-0.019279,0.022758,-0.999555,0.021950,-0.007102,-0.009799,-0.009445,5.456923,-45.432495,,,,,,,
1522139091.159357,-0.019224,-0.022975,-0.973641,-0.004034,-0.002637,-0.001552,-0.019218,0.022973,-0.999551,0.044181,-0.008615,-0.025427,-0.685318,5.010572,-44.830994,,,,,,,
1522139091.189325,-0.019189,-0.023293,-0.973747,-0.013656,-0.000502,0.001630,-0.019183,0.023291,-0.999545,0.033236,-0.002081,-0.056028,-0.309875,5.008955,-44.755859,,,,,,,
1522139091.219294,-0.019488,-0.023522,-0.973812,-0.006242,-0.018553,-0.002610,-0.019481,0.023519,-0.999534,0.061595,0.001795,-0.049447,0.514343,4.930250,-44.755127,,,,,,,
1522139091.249262,-0.019777,-0.023633,-0.974033,-0.001983,-0.022827,-0.002594,-0.019771,0.023631,-0.999525,0.001765,-0.007884,-0.076952,-0.006744,5.232740,-44.606567,,,,,,,
1522139091.279230,-0.020036,-0.023581,-0.974195,0.000259,0.003722,-0.000491,-0.020029,0.023578,-0.999521,0.024576,-0.006977,-0.053350,-0.006744,5.232740,-44.606567,,,,,,,
1522139091.309199,-0.020258,-0.023551,-0.974537,0.006542,-0.027087,-0.003651,-0.020251,0.023549,-0.999518,0.042727,-0.003881,0.012793,0.972427,5.603407,-44.532593,,,,,,,
1522139091.339167,-0.020423,-0.023398,-0.974722,0.005621,0.009055,-0.002636,-0.020416,0.023396,-0.999518,0.037597,-0.004231,-0.003793,0.225143,5.831846,-44.458862,,,,,,,
1522139091.369135,-0.020416,-0.023128,-0.975056,0.009861,-0.002648,-0.004739,-0.020409,0.023126,-0.999524,0.028954,-0.006448,-0.039111,-0.005386,5.232969,-44.381592,,,,,,,
1522139091.399103,-0.020354,-0.023054,-0.975287,-0.000824,-0.001569,-0.002620,-0.020347,0.023052,-0.999527,0.031364,-0.007946,-0.016693,0.748032,5.529646,-44.307434,,,,,,,
1522139091.429072,-0.020035,-0.022975,-0.975622,0.003592,0.031349,-0.001581,-0.020028,0.022973,-0.999535,0.040246,0.011893,-0.033073,0.670029,5.229994,-44.306274,,,,,,,
1522139091.459040,-0.019766,-0.022730,-0.975794,0.007694,-0.005834,-0.002614,-0.019759,0.022728,-0.999546,0.006484,-0.014641,-0.093898,0.294464,5.306456,-44.531738,,,,,,,
1522139091.489008,-0.019557,-0.022555,-0.975936,0.005637,0.014348,-0.000506,-0.019551,0.022553,-0.999554,0.060826,0.007262,0.050107,0.969864,5.528120,-44.832275,,,,,,,
1522139091.518976,-0.019156,-0.022048,-0.976163,0.023745,0.004737,-0.000482,-0.019150,0.022046,-0.999574,0.031358,0.019046,-0.005675,0.073364,5.607603,-44.383057,,,,,,,
1522139091.548914,-0.018930,-0.021386,-0.976263,0.020537,0.002631,-0.001549,-0.018924,0.021384,-0.999592,0.033344,-0.006354,-0.017849,0.671844,5.454908,-44.382141,,,,,,,
1522139091.578882,-0.018694,-0.020958,-0.976279,0.008767,0.003672,0.004838,-0.018689,0.020956,-0.999606,0.059140,-0.036810,0.031603,1.193817,5.377195,-44.756592,,,,,,,
1522139091.608851,-0.018435,-0.020562,-0.976104,0.020524,0.010028,0.005894,-0.018430,0.020561,-0.999619,0.047879,0.009911,0.063202,0.297302,5.456678,-44.307373,,,,,,,
1522139091.638819,-0.018361,-0.019963,-0.975924,0.015099,-0.012280,0.004857,-0.018356,0.019962,-0.999632,0.039368,-0.017032,-0.045778,0.220657,5.381865,-44.457031,,,,,,,
1522139091.668787,-0.018183,-0.019618,-0.975685,0.013042,0.005762,0.006977,-0.018178,0.019617,-0.999642,0.027532,-0.032648,-0.048255,1.123306,5.827513,-44.758423,,,,,,,
1522139091.698755,-0.018153,-0.019206,-0.975435,0.005567,0.010048,0.008016,-0.018149,0.019205,-0.999651,0.019110,-0.040307,-0.056776,0.747574,5.754194,-44.758301,,,,,,,
1522139091.728724,-0.018236,-0.018813,-0.975147,0.021442,-0.024019,0.008077,-0.018232,0.018812,-0.999657,0.046888,0.028032,0.033196,0.298492,5.756361,-44.608521,,,,,,,
1522139091.758692,-0.018271,-0.018112,-0.975167,0.020505,0.001494,0.005925,-0.018267,0.018111,-0.999669,0.045183,-0.063216,0.008107,0.898026,5.528975,-44.307312,,,,,,,
1522139091.788660,-0.018438,-0.017881,-0.975049,0.007611,-0.013358,0.008056,-0.018434,0.017880,-0.999670,0.039140,-0.013089,-0.021585,0.449387,5.755842,-44.458435,,,,,,,
1522139091.818628,-0.018809,-0.017385,-0.974924,0.022482,-0.028273,0.009144,-0.018805,0.017384,-0.999672,0.063788,-0.034657,0.020683,0.374847,5.756254,-44.383545,,,,,,,
1522139091.848597,-0.019079,-0.017127,-0.974871,0.003310,-0.018650,0.008052,-0.019075,0.017126,-0.999671,0.054232,-0.007910,-0.055657,0.675278,5.754972,-44.308350,,,,,,,
1522139091.878565,-0.019578,-0.016981,-0.974754,0.000156,-0.011214,0.006988,-0.019574,0.016981,-0.999664,0.035062,-0.052488,-0.034195,0.527084,5.980558,-44.384338,,,,,,,
1522139091.908533,-0.020190,-0.017006,-0.974748,-0.002041,-0.026076,0.005935,-0.020186,0.017005,-0.999652,0.032210,-0.007743,-0.025708,1.350693,5.976637,-44.608887,,,,,,,
1522139091.938502,-0.020644,-0.017124,-0.974605,-0.011641,-0.021818,0.008055,-0.020639,0.017123,-0.999640,0.044229,-0.008487,-0.021554,1.346802,5.676497,-44.757690,,,,,,,
1522139091.968439,-0.020869,-0.017353,-0.974611,-0.005157,-0.006909,0.003771,-0.020865,0.017352,-0.999632,0.031683,-0.001757,-0.011278,0.075760,5.757750,-44.233643,,,,,,,
1522139091.998408,-0.021150,-0.017319,-0.974555,0.001226,-0.011203,0.005919,-0.021146,0.017318,-0.999626,0.030179,-0.035934,-0.041954,0.751328,5.904554,-44.383911,,,,,,,
1522139092.028376,-0.021253,-0.017156,-0.974517,0.008709,-0.002739,0.010171,-0.021249,0.017155,-0.999627,0.060372,0.012218,0.001763,0.302536,5.981642,-44.309448,,,,,,,
1522139092.058344,-0.021360,-0.016766,-0.974359,0.011844,-0.025049,0.005945,-0.021355,0.016765,-0.999631,0.068291,-0.018245,0.039838,0.228592,6.131910,-44.385071,,,,,,,
1522139092.088312,-0.021251,-0.016669,-0.974126,0.005579,0.008974,0.006964,-0.021247,0.016668,-0.999635,0.031516,-0.021429,-0.057356,1.576141,5.975691,-44.533752,,,,,,,
1522139092.118287,-0.021300,-0.016642,-0.973921,-0.006287,-0.017575,0.008051,-0.021296,0.016642,-0.999635,0.023340,-0.037394,0.008149,1.277206,5.902342,-44.233643,,,,,,,
1522139092.148255,-0.021300,-0.017082,-0.973694,-0.013648,0.011127,0.010142,-0.021296,0.017082,-0.999627,0.046885,-0.027137,0.012445,0.976166,5.978392,-44.534058,,,,,,,
1522139092.178223,-0.021361,-0.017295,-0.973473,-0.003040,-0.006951,0.008039,-0.021357,0.017294,-0.999622,0.048304,0.007822,-0.038387,1.798889,5.749693,-44.532715,,,,,,,
1522139092.208191,-0.021497,-0.017222,-0.973249,-0.001982,-0.011203,0.006467,-0.021493,0.017221,-0.999621,0.011468,-0.040628,-0.003874,1.127960,5.978010,-44.234009,,,,,,,
1522139092.238160,-0.021657,-0.017253,-0.973078,0.000236,0.014264,0.010905,-0.021652,0.017252,-0.999617,0.042069,-0.017130,0.003889,0.307480,6.431700,-44.236206,,,,,,,
1522139092.268128,-0.021943,-0.016789,-0.972919,0.017174,-0.019762,0.008818,-0.021938,0.016788,-0.999618,0.052074,-0.014377,-0.018295,0.459259,6.655943,-44.312073,,,,,,,
1522139092.298096,-0.022066,-0.016411,-0.972927,0.004468,0.004734,0.007706,-0.022061,0.016410,-0.999622,0.026883,-0.015479,-0.011914,0.082642,6.357862,-44.085999,,,,,,,
1522139092.328064,-0.022275,-0.016284,-0.972902,0.003400,-0.004815,0.002405,-0.022270,0.016283,-0.999619,0.038337,-0.046175,0.001725,0.149857,5.532637,-44.007751,,,,,,,
1522139092.358033,-0.022395,-0.016241,-0.972984,-0.001955,-0.002699,0.006656,-0.022390,0.016241,-0.999617,0.048742,-0.009664,-0.022523,0.373657,5.456556,-44.082275,,,,,,,
1522139092.388001,-0.022591,-0.016219,-0.972945,0.005455,-0.022870,0.001354,-0.022586,0.016218,-0.999613,0.049243,-0.005385,-0.034810,0.302094,5.756956,-44.008545,,,,,,,
1522139092.417939,-0.022596,-0.016082,-0.973036,-0.000840,0.004745,0.004522,-0.022592,0.016082,-0.999615,0.068170,-0.030318,-0.008594,0.225311,5.532377,-43.932678,,,,,,,
1522139092.447907,-0.022522,-0.015961,-0.972924,0.010878,0.003640,0.007723,-0.022518,0.015961,-0.999619,0.028926,-0.025345,-0.075622,1.124069,5.677885,-44.382812,,,,,,,
1522139092.477875,-0.022685,-0.015674,-0.972784,0.004446,-0.002742,0.008800,-0.022680,0.015674,-0.999620,0.021643,0.022778,-0.028792,0.601929,5.830458,-44.158691,,,,,,,
1522139092.507843,-0.022663,-0.015371,-0.972859,0.005616,0.017477,0.005577,-0.022659,0.015370,-0.999625,0.039642,-0.061391,-0.058801,0.752670,5.904768,-44.158875,,,,,,,
1522139092.537812,-0.022801,-0.015612,-0.972697,-0.014778,-0.001629,0.009843,-0.022796,0.015611,-0.999618,0.023468,0.017149,-0.065964,1.724792,5.750181,-44.382812,,,,,,,
1522139092.567780,-0.023131,-0.015499,-0.972633,0.004440,-0.003801,0.008799,-0.023126,0.015498,-0.999612,0.044549,-0.028499,0.029230,1.048920,5.528440,-44.157227,,,,,,,
1522139092.597748,-0.023383,-0.015723,-0.972484,-0.010575,-0.020748,0.006672,-0.023378,0.015722,-0.999603,0.047868,-0.007833,-0.038407,1.124359,5.752806,-44.458069,,,,,,,
1522139092.627716,-0.023638,-0.015652,-0.972378,0.005494,-0.009101,0.006673,-0.023633,0.015652,-0.999598,0.052777,-0.016933,-0.001867,2.328491,6.347075,-44.759888,,,,,,,
1522139092.657685,-0.023903,-0.015456,-0.972253,0.009755,-0.013344,0.004547,-0.023898,0.015456,-0.999595,0.062121,-0.003493,0.000953,0.752365,6.054472,-44.459473,,,,,,,
1522139092.687653,-0.024010,-0.015158,-0.972045,0.015086,-0.015487,0.004557,-0.024005,0.015157,-0.999597,0.066165,-0.008123,-0.040610,1.198914,5.752394,-44.533081,,,,,,,
1522139092.717621,-0.024154,-0.014828,-0.971852,0.001198,-0.018650,0.004556,-0.024149,0.014827,-0.999598,0.041300,-0.030422,-0.059316,2.328033,6.347013,-44.834839,,,,,,,
1522139092.747590,-0.024113,-0.014716,-0.971671,0.010821,-0.015451,0.002415,-0.024108,0.014715,-0.999601,0.032653,-0.013693,-0.079882,1.351898,6.051710,-44.534180,,,,,,,
1522139092.777558,-0.024189,-0.014484,-0.971527,0.003499,0.015361,0.002394,-0.024184,0.014483,-0.999603,0.042281,0.005292,0.003311,1.275406,5.902052,-44.533630,,,,,,,
1522139092.807526,-0.024169,-0.014367,-0.971340,-0.001899,0.011108,0.007707,-0.024164,0.014367,-0.999605,0.005762,-0.032494,-0.086562,1.125244,5.977568,-44.684021,,,,,,,
1522139092.837464,-0.024435,-0.014496,-0.971257,-0.006289,-0.018626,0.005607,-0.024430,0.014495,-0.999596,0.026185,-0.004074,0.041390,1.499786,5.975813,-44.758850,,,,,,,
1522139092.867432,-0.024527,-0.014547,-0.971114,-0.003089,-0.019699,0.005613,-0.024522,0.014547,-0.999593,0.067430,-0.007635,0.073812,1.573730,5.825560,-44.683167,,,,,,,
1522139092.897400,-0.024310,-0.014640,-0.971032,-0.004050,0.005803,0.005953,-0.024305,0.014639,-0.999597,0.022795,-0.006582,-0.022665,1.949783,5.749159,-44.382690,,,,,,,
1522139092.927369,-0.024232,-0.014755,-0.970930,-0.001932,0.001561,0.004599,-0.024227,0.014754,-0.999598,0.040829,-0.004866,0.025721,1.646790,5.675154,-44.757568,,,,,,,
1522139092.957337,-0.023876,-0.014712,-0.970853,0.001288,0.006844,0.006234,-0.023871,0.014711,-0.999607,0.043296,-0.043276,-0.014614,1.868179,5.448927,-44.981506,,,,,,,
1522139092.987305,-0.023511,-0.014666,-0.970702,0.003417,0.007887,0.008152,-0.023506,0.014665,-0.999616,0.038063,-0.004106,0.017713,2.097809,5.823042,-44.832886,,,,,,,
1522139093.017273,-0.022995,-0.014447,-0.970639,0.003545,0.033400,0.005614,-0.022991,0.014447,-0.999631,0.007595,-0.045407,-0.035617,1.651138,5.975355,-44.533691,,,,,,,
1522139093.047242,-0.022625,-0.014530,-0.970619,-0.009398,0.002637,0.003331,-0.022620,0.014530,-0.999639,0.065604,-0.020145,0.009130,1.348450,5.751646,-44.607971,,,,,,,
1522139093.077210,-0.021930,-0.014566,-0.970604,0.003482,0.020641,0.006226,-0.021926,0.014565,-0.999653,0.030960,-0.020287,-0.010417,1.197098,5.752104,-44.833069,,,,,,,
1522139093.107163,-0.021448,-0.014595,-0.970563,-0.011499,0.011134,0.003957,-0.021444,0.014594,-0.999664,0.037115,-0.012732,-0.037629,1.043671,5.452711,-44.906921,,,,,,,
1522139093.137131,-0.021076,-0.014510,-0.970578,0.010912,0.002596,-0.000508,-0.021072,0.014510,-0.999673,0.064712,0.007203,-0.017524,2.247513,5.747450,-44.757568,,,,,,,
1522139093.167100,-0.020876,-0.014236,-0.970517,0.004496,0.008935,0.006834,-0.020872,0.014236,-0.999681,0.044081,-0.022750,0.000062,1.272263,5.452284,-44.306824,,,,,,,
1522139093.197068,-0.020825,-0.014109,-0.970323,0.009718,-0.014454,0.007821,-0.020821,0.014109,-0.999684,0.029092,0.003271,-0.044933,1.046967,5.602995,-44.607544,,,,,,,
1522139093.227036,-0.020801,-0.013631,-0.970112,0.011870,-0.008113,0.011018,-0.020798,0.013630,-0.999691,0.062744,-0.011387,-0.019978,2.249146,6.047224,-44.983704,,,,,,,
1522139093.256974,-0.020917,-0.013420,-0.969752,0.003251,-0.018753,0.016348,-0.020914,0.013420,-0.999691,0.053537,-0.029426,-0.011982,2.400360,5.896986,-44.533020,,,,,,,
1522139093.286942,-0.021223,-0.013154,-0.969344,0.010719,-0.017725,0.018484,-0.021220,0.013154,-0.999688,0.032374,-0.018052,0.037713,1.649338,5.750441,-44.457825,,,,,,,
1522139093.316910,-0.021367,-0.012640,-0.968818,0.015086,0.008801,0.022722,-0.021364,0.012640,-0.999692,0.052324,-0.025045,-0.043124,1.567902,5.375364,-44.906372,,,,,,,
1522139093.346879,-0.021677,-0.011932,-0.968213,0.022334,-0.040106,0.023843,-0.021673,0.011932,-0.999694,0.036780,-0.022003,-0.036134,0.966858,5.228132,-44.831055,,,,,,,
1522139093.376847,-0.022176,-0.011139,-0.967429,0.028836,-0.012513,0.028074,-0.022173,0.011138,-0.999692,0.053560,-0.065765,0.039930,1.200256,5.752607,-44.308105,,,,,,,
1522139093.406815,-0.022511,-0.010521,-0.966547,0.012796,-0.010409,0.035525,-0.022508,0.010521,-0.999691,0.053148,-0.052773,-0.051181,2.022369,5.823317,-44.907898,,,,,,,
1522139093.436784,-0.023007,-0.009858,-0.965537,0.029697,-0.051901,0.035585,-0.023004,0.009857,-0.999687,0.028939,-0.037583,-0.099053,0.973007,5.753263,-44.683167,,,,,,,
1522139093.466752,-0.023431,-0.009212,-0.964619,0.013920,0.000235,0.033380,-0.023428,0.009212,-0.999683,0.056860,-0.072216,0.098942,1.269562,5.451841,-44.756836,,,,,,,
1522139093.496720,-0.023678,-0.008909,-0.963605,0.007409,-0.019965,0.036595,-0.023675,0.008909,-0.999680,0.046227,-0.093992,-0.076629,1.498459,5.526350,-44.231995,,,,,,,
1522139093.526688,-0.024022,-0.008750,-0.962586,0.003230,0.000234,0.036573,-0.024019,0.008750,-0.999673,0.056353,-0.086829,0.024301,0.897888,5.379194,-44.081726,,,,,,,
1522139093.556657,-0.024339,-0.008710,-0.961566,-0.001117,-0.015705,0.037653,-0.024335,0.008710,-0.999666,0.019819,-0.050458,-0.004484,0.898926,5.529112,-44.157288,,,,,,,
1522139093.586625,-0.024477,-0.008633,-0.960491,-0.005313,0.002383,0.037623,-0.024474,0.008633,-0.999663,0.054641,-0.083233,-0.009935,2.247955,5.747526,-44.682556,,,,,,,
1522139093.616593,-0.024353,-0.008611,-0.959357,-0.006395,0.004466,0.042952,-0.024349,0.008611,-0.999666,0.003384,-0.033650,-0.013014,1.572845,5.600782,-44.457275,,,,,,,
1522139093.646561,-0.023940,-0.008339,-0.958179,0.001161,0.019332,0.040817,-0.023937,0.008339,-0.999679,0.051357,-0.059853,-0.079514,1.945297,5.299177,-44.380920,,,,,,,
1522139093.676499,-0.023787,-0.008350,-0.957027,-0.010765,-0.017840,0.042973,-0.023784,0.008350,-0.999682,0.036509,-0.067432,0.098346,2.619049,5.445707,-44.831116,,,,,,,
1522139093.706467,-0.022940,-0.008674,-0.955777,-0.012656,0.039519,0.046114,-0.022937,0.008674,-0.999699,0.028293,-0.016852,-0.030452,2.023438,5.523985,-44.231750,,,,,,,
1522139093.736436,-0.021966,-0.008411,-0.954623,0.004392,0.023576,0.039753,-0.021963,0.008411,-0.999723,0.070822,-0.085208,-0.004580,2.019974,5.223921,-44.305542,,,,,,,
1522139093.766404,-0.021047,-0.008718,-0.953343,-0.022318,0.025748,0.043987,-0.021044,0.008718,-0.999741,0.026598,-0.042120,-0.052551,2.994171,5.369169,-44.680664,,,,,,,
1522139093.796372,-0.020144,-0.008932,-0.952056,-0.006290,0.028897,0.043994,-0.020142,0.008932,-0.999757,0.055085,-0.071386,0.007234,2.622055,5.521055,-44.456421,,,,,,,
1522139093.826340,-0.019073,-0.009273,-0.950699,-0.022334,0.022546,0.045060,-0.019072,0.009273,-0.999775,0.057676,-0.070919,-0.039638,2.616196,5.070875,-44.679626,,,,,,,
1522139093.856309,-0.018583,-0.009538,-0.949302,-0.006389,0.009741,0.047215,-0.018581,0.009538,-0.999782,0.032497,-0.019868,-0.013585,3.367065,5.292265,-44.905151,,,,,,,
1522139093.886277,-0.018031,-0.009500,-0.948006,-0.010685,-0.001898,0.041895,-0.018030,0.009500,-0.999792,0.050027,-0.070260,-0.088434,2.316376,4.997374,-44.529480,,,,,,,
1522139093.916245,-0.017935,-0.009699,-0.946659,-0.002236,-0.017875,0.045110,-0.017933,0.009699,-0.999792,0.054387,-0.064325,0.034308,2.462921,4.696638,-44.603210,,,,,,,
1522139093.946213,-0.017905,-0.009404,-0.945233,0.013817,-0.008359,0.046178,-0.017904,0.009404,-0.999795,0.026097,-0.008580,-0.017798,2.764099,4.994978,-44.904236,,,,,,,
1522139093.976182,-0.018272,-0.008765,-0.943952,0.014907,-0.006207,0.042975,-0.018270,0.008764,-0.999795,0.050787,-0.069891,-0.007987,2.542557,5.071424,-44.454651,,,,,,,
1522139094.006150,-0.018544,-0.008283,-0.942553,0.009460,-0.029600,0.045135,-0.018543,0.008283,-0.999794,0.040592,-0.035398,0.010017,2.617249,5.220793,-44.755249,,,,,,,
1522139094.036118,-0.019021,-0.007666,-0.941236,0.017094,0.002283,0.041911,-0.019019,0.007666,-0.999790,0.078239,-0.039480,0.019260,3.443863,5.516844,-44.981018,,,,,,,
1522139094.066087,-0.018978,-0.007312,-0.939926,0.003201,0.003359,0.045096,-0.018976,0.007312,-0.999793,0.066996,-0.065997,-0.100625,2.994476,5.444090,-44.755981,,,,,,,
1522139094.096024,-0.018974,-0.007010,-0.938606,0.012812,0.002296,0.042967,-0.018973,0.007010,-0.999795,0.044699,-0.061834,-0.019476,2.766037,5.145048,-44.829834,,,,,,,
1522139094.125968,-0.018896,-0.006788,-0.937383,0.002064,-0.015760,0.042990,-0.018895,0.006788,-0.999798,0.018269,-0.066495,-0.048206,3.216476,5.143095,-44.754639,,,,,,,
1522139094.155935,-0.018500,-0.006582,-0.936053,0.006564,0.035253,0.041868,-0.018499,0.006582,-0.999807,0.123952,-0.045080,0.038092,3.594620,5.366545,-44.605347,,,,,,,
1522139094.185903,-0.018042,-0.006190,-0.934738,0.010613,-0.012582,0.042985,-0.018041,0.006190,-0.999818,0.082723,-0.038371,-0.028594,3.065277,5.068693,-44.829346,,,,,,,
1522139094.215871,-0.017437,-0.005869,-0.933486,0.008651,0.019337,0.037625,-0.017436,0.005869,-0.999831,0.080089,-0.068796,0.032912,3.216766,5.218016,-44.829895,,,,,,,
1522139094.245840,-0.016472,-0.005921,-0.932148,-0.015888,0.032099,0.045051,-0.016471,0.005921,-0.999847,0.126731,-0.053544,-0.022462,3.223221,5.818052,-44.757324,,,,,,,
1522139094.275808,-0.015903,-0.006080,-0.930821,-0.004296,-0.003006,0.045102,-0.015902,0.006080,-0.999855,0.049670,-0.088721,-0.087212,4.116730,5.438597,-45.205322,,,,,,,
1522139094.305776,-0.015137,-0.006518,-0.929442,-0.028732,0.026831,0.045038,-0.015136,0.006518,-0.999864,0.102202,-0.054171,0.069795,3.741287,5.215574,-44.904663,,,,,,,
1522139094.335744,-0.014188,-0.006662,-0.928176,0.003355,0.029952,0.039748,-0.014187,0.006662,-0.999877,0.095989,-0.037851,-0.024064,2.913193,4.994154,-45.054199,,,,,,,
1522139094.365713,-0.013280,-0.006545,-0.926943,-0.018031,0.024673,0.041871,-0.013279,0.006545,-0.999890,0.119694,-0.083510,0.029920,3.139069,5.217909,-45.279968,,,,,,,
1522139094.395681,-0.012218,-0.006582,-0.925694,0.004410,0.028899,0.039741,-0.012217,0.006582,-0.999904,0.136424,-0.054967,0.016917,3.736496,4.915297,-45.203430,,,,,,,
1522139094.425649,-0.011095,-0.006395,-0.924531,-0.005196,0.024687,0.036547,-0.011095,0.006395,-0.999918,0.111192,-0.064409,-0.055029,3.362259,4.991987,-45.203918,,,,,,,
1522139094.455617,-0.010275,-0.006295,-0.923442,-0.000949,0.016200,0.033361,-0.010275,0.006295,-0.999927,0.158773,-0.044854,0.065388,4.492157,5.436979,-45.130188,,,,,,,
1522139094.485586,-0.009222,-0.006526,-0.922427,-0.017909,0.039643,0.030128,-0.009222,0.006526,-0.999936,0.173193,-0.074504,-0.098391,3.287872,5.142164,-45.354553,,,,,,,
1522139094.515523,-0.008477,-0.006730,-0.921439,-0.012712,0.009872,0.031225,-0.008477,0.006730,-0.999941,0.107247,-0.013200,-0.071088,3.811661,4.840117,-45.053101,,,,,,,
1522139094.545492,-0.007875,-0.006706,-0.920474,-0.003064,0.016240,0.029094,-0.007874,0.006706,-0.999947,0.140702,-0.044258,0.059685,4.339478,5.212584,-45.204285,,,,,,,
1522139094.575460,-0.007196,-0.006804,-0.919574,-0.007405,0.001362,0.030174,-0.007196,0.006804,-0.999951,0.191964,-0.008864,-0.045398,2.688202,4.995161,-45.054321,,,,,,,
1522139094.605428,-0.007030,-0.006877,-0.918592,-0.006403,-0.008251,0.035519,-0.007030,0.006877,-0.999952,0.180034,-0.076213,-0.006518,3.589813,5.290892,-45.280029,,,,,,,
1522139094.635396,-0.007016,-0.007269,-0.917512,-0.006479,-0.026290,0.033399,-0.007016,0.007269,-0.999949,0.144635,-0.006063,-0.054601,4.491104,5.511671,-45.430481,,,,,,,
1522139094.665365,-0.006902,-0.006982,-0.916553,0.006463,-0.000811,0.031256,-0.006901,0.006982,-0.999952,0.195668,-0.027917,-0.007372,3.816605,5.514784,-45.355835,,,,,,,
1522139094.695333,-0.006770,-0.006976,-0.915595,-0.005332,-0.009296,0.033386,-0.006769,0.006976,-0.999953,0.150370,-0.034671,-0.058031,3.741135,5.515059,-45.430847,,,,,,,
1522139094.725302,-0.006815,-0.007036,-0.914598,-0.006443,-0.020946,0.030192,-0.006814,0.007036,-0.999952,0.154184,-0.050005,-0.023897,4.790222,5.285551,-45.204407,,,,,,,
1522139094.755269,-0.006510,-0.006981,-0.913595,0.006476,0.005557,0.033376,-0.006510,0.006981,-0.999954,0.139704,-0.007332,0.004517,3.812851,4.915190,-44.978394,,,,,,,
1522139094.785239,-0.006112,-0.006478,-0.912632,0.010772,0.003465,0.026989,-0.006112,0.006478,-0.999960,0.170770,-0.063836,0.040579,3.816299,5.215239,-44.904602,,,,,,,
1522139094.815206,-0.005540,-0.006151,-0.911671,0.012825,-0.009319,0.031264,-0.005540,0.006151,-0.999966,0.225892,-0.053834,0.044979,4.865204,5.285215,-45.204346,,,,,,,
1522139094.845174,-0.004669,-0.005670,-0.910714,0.018346,0.029975,0.031234,-0.004669,0.005670,-0.999973,0.107529,-0.044046,-0.092877,3.889801,5.064909,-44.903931,,,,,,,
1522139094.875143,-0.003838,-0.005089,-0.909827,0.005527,0.027911,0.029086,-0.003838,0.005089,-0.999980,0.183999,-0.022713,-0.028219,4.338577,4.987822,-44.978455,,,,,,,
1522139094.905111,-0.002803,-0.004872,-0.909038,0.004424,0.014105,0.025914,-0.002803,0.004872,-0.999984,0.155498,-0.031849,0.009826,4.940796,5.210112,-44.979004,,,,,,,
1522139094.935049,-0.001778,-0.004720,-0.908240,-0.009341,0.039644,0.025877,-0.001778,0.004720,-0.999987,0.181679,-0.038045,0.046206,3.964951,4.989729,-44.753662,,,,,,,
1522139094.965017,-0.000629,-0.004941,-0.907436,-0.003021,0.018376,0.024842,-0.000629,0.004941,-0.999988,0.141742,-0.022748,0.004779,4.038895,4.839476,-44.677979,,,,,,,
1522139094.994985,0.000344,-0.004976,-0.906628,-0.009369,0.027997,0.020558,0.000344,0.004976,-0.999988,0.202247,-0.044404,0.049777,5.163544,4.984114,-44.978027,,,,,,,
1522139095.024953,0.001388,-0.005189,-0.905914,-0.006176,0.026901,0.022699,0.001388,0.005189,-0.999986,0.174073,-0.053117,0.030122,4.261185,4.838011,-45.127930,,,,,,,
1522139095.054922,0.002019,-0.005432,-0.905165,-0.009501,0.001402,0.023786,0.002019,0.005432,-0.999983,0.162639,-0.040817,-0.010362,3.964493,4.989653,-44.828613,,,,,,,
1522139095.084890,0.002735,-0.005411,-0.904489,0.002324,0.015224,0.019514,0.002735,0.005411,-0.999982,0.165341,-0.029489,0.031430,5.015350,5.209700,-45.054016,,,,,,,
1522139095.114850,0.003391,-0.005353,-0.903887,-0.005163,0.009928,0.018454,0.003391,0.005353,-0.999980,0.158428,-0.009137,-0.005849,4.416580,5.062849,-44.603699,,,,,,,
1522139095.144818,0.003903,-0.005187,-0.903381,0.000096,-0.009190,0.016341,0.003903,0.005187,-0.999979,0.133823,-0.043334,-0.027151,4.791855,5.136076,-44.678833,,,,,,,
1522139095.174787,0.003952,-0.005507,-0.902904,-0.018062,-0.014451,0.014208,0.003952,0.005507,-0.999977,0.166275,-0.012602,0.028297,4.942917,5.060698,-44.378479,,,,,,,
