timestamp(unix),attitude_roll(radians),attitude_pitch(radians),attitude_yaw(radians),rotation_rate_x(radians/s),rotation_rate_y(radians/s),rotation_rate_z(radians/s),gravity_x(G),gravity_y(G),gravity_z(G),user_acc_x(G),user_acc_y(G),user_acc_z(G),magnetic_field_x(microteslas),magnetic_field_y(microteslas),magnetic_field_z(microteslas),latitude(degree),longitude(degree),altitude(meter),speed(m/s),course(degree),timestamp(unix),User Mark
1523694326.632837,0.852604,0.015650,1.846162,0.263600,-0.410969,0.039802,0.752899,-0.015650,-0.657939,0.036209,-0.072439,0.007457,12.970520,-4.568989,-2.595398,,,,,,,
1523694326.662805,0.841833,0.021506,1.844568,0.072658,-0.231785,0.163087,0.745687,-0.021505,-0.665938,0.021250,-0.036616,-0.087647,12.260269,-2.387806,0.395508,,,,,,,
,,,,,,,,,,,,,,,,25.313721,51.438070,16.123728,11.250000,90.351562,1523694325.998663,
1523694326.692774,0.840988,0.025368,1.849700,-0.120689,0.050929,0.222332,0.745057,-0.025365,-0.666507,-0.062364,-0.014369,-0.023434,10.480881,-0.953754,1.438965,,,,,,,
1523694326.722742,0.840826,0.026610,1.857500,-0.176223,-0.001752,0.178653,0.744925,-0.026607,-0.666606,-0.097892,-0.003392,0.040721,5.330948,1.020306,2.328430,,,,,,,
1523694326.752710,0.838517,0.025679,1.863970,-0.194373,-0.113664,0.081789,0.743402,-0.025676,-0.668341,-0.049585,-0.002568,-0.012369,3.982758,1.925167,1.124146,,,,,,,
1523694326.782678,0.835793,0.021873,1.869423,-0.223449,-0.020593,0.003885,0.741646,-0.021871,-0.670424,0.012596,-0.003672,-0.107240,3.006119,2.752911,-0.529602,,,,,,,
1523694326.812647,0.838102,0.019059,1.872000,-0.009169,0.111879,-0.022721,0.743235,-0.019058,-0.668749,0.050817,0.007034,-0.158964,3.680191,2.525112,-0.303406,,,,,,,
1523694326.842615,0.839753,0.023321,1.867285,0.342483,0.006576,0.018142,0.744270,-0.023319,-0.667460,0.016411,-0.012371,-0.057973,6.014435,2.141781,1.874268,,,,,,,
1523694326.872583,0.840032,0.030716,1.859543,0.296604,-0.005941,0.001071,0.744308,-0.030711,-0.667119,-0.020538,-0.038121,0.006001,5.419891,1.696102,3.525818,,,,,,,
1523694326.902521,0.842753,0.033126,1.856724,-0.003555,0.190394,-0.007878,0.746063,-0.033120,-0.665041,-0.057830,-0.085532,0.049791,2.423325,1.410641,4.575439,,,,,,,
1523694326.932489,0.850281,0.030333,1.860806,-0.258647,0.243955,0.021709,0.751115,-0.030328,-0.659463,-0.118562,-0.091071,0.077890,1.152267,1.941128,4.347717,,,,,,,
1523694326.962457,0.855219,0.024856,1.868411,-0.313633,0.117685,0.015403,0.754476,-0.024853,-0.655846,-0.082128,-0.042346,0.058296,-1.703323,1.878155,3.521484,,,,,,,
1523694326.992426,0.853203,0.020062,1.874244,-0.172775,-0.174645,-0.018296,0.753233,-0.020061,-0.657437,-0.037596,0.012553,-0.049824,-4.123032,1.661114,0.596191,,,,,,,
1523694327.022394,0.846792,0.018829,1.872842,0.140416,-0.181244,-0.095849,0.749021,-0.018828,-0.662268,0.044833,0.003294,-0.125605,-3.233139,1.505688,-0.827759,,,,,,,
1523694327.052362,0.848274,0.022308,1.864597,0.341751,0.195437,-0.090744,0.749948,-0.022306,-0.661110,0.004981,-0.055407,-0.039833,-1.458267,0.295528,-2.997070,,,,,,,
,,,,,,,,,,,,,,,,25.313720,51.438182,16.216588,11.230000,95.273438,1523694326.998642,
1523694327.082330,0.854976,0.025204,1.856567,0.183826,0.215984,-0.087675,0.754310,-0.025201,-0.656023,-0.042350,-0.109290,0.053530,0.332825,-0.238117,-3.593994,,,,,,,
1523694327.112299,0.859661,0.024850,1.855540,-0.105380,0.126727,0.014492,0.757382,-0.024848,-0.652488,-0.049221,-0.093164,0.112342,1.824402,-1.444233,-2.988464,,,,,,,
1523694327.142267,0.862443,0.022017,1.864031,-0.380936,0.069905,0.185883,0.759245,-0.022015,-0.650421,-0.068861,-0.061405,0.036270,0.089600,-2.561192,-2.759827,,,,,,,
1523694327.172235,0.861007,0.021635,1.877128,-0.250019,-0.118288,0.306577,0.758316,-0.021634,-0.651517,-0.033340,-0.004688,-0.087329,-2.626465,-3.674793,-3.581726,,,,,,,
1523694327.202204,0.856298,0.027472,1.885368,0.019858,-0.184769,0.296190,0.755131,-0.027468,-0.654987,-0.013401,0.033282,-0.133297,-3.078857,-3.373661,-4.483215,,,,,,,
1523694327.232172,0.850909,0.036825,1.885787,0.331446,-0.135763,0.167445,0.751365,-0.036817,-0.658848,0.000679,0.011304,-0.082500,-1.450272,-3.534290,-7.781738,,,,,,,
1523694327.262140,0.849581,0.049264,1.876110,0.606105,0.030139,0.052396,0.750087,-0.049244,-0.659492,-0.019420,-0.019680,-0.028801,0.267609,-3.618061,-8.830505,,,,,,,
1523694327.292108,0.854808,0.058727,1.864936,0.352389,0.239705,-0.043892,0.753139,-0.058693,-0.655227,-0.005473,-0.052635,0.008163,2.675903,-3.103382,-8.306335,,,,,,,
1523694327.322046,0.858521,0.060497,1.861754,-0.025203,-0.057470,0.039238,0.755486,-0.060460,-0.652357,0.001670,-0.046489,-0.049821,6.360550,-3.717335,-5.677063,,,,,,,
1523694327.352014,0.853081,0.060891,1.867414,-0.196390,-0.183581,0.203328,0.751909,-0.060854,-0.656442,-0.071702,-0.040678,-0.021003,8.248840,-3.648731,-3.576416,,,,,,,
1523694327.381960,0.849850,0.062354,1.877186,-0.180927,-0.004435,0.259633,0.749716,-0.062314,-0.658808,-0.104666,-0.000476,0.009516,11.050888,-3.507053,0.699463,,,,,,,
1523694327.411928,0.848597,0.065242,1.883515,-0.054814,-0.088015,0.162847,0.748752,-0.065196,-0.659626,-0.121310,0.013164,0.022098,10.321793,-3.125935,3.547546,,,,,,,
1523694327.441896,0.848803,0.065509,1.884706,-0.025157,0.072855,-0.059980,0.748874,-0.065463,-0.659460,-0.026508,-0.021024,0.005285,6.305893,-2.503208,8.193054,,,,,,,
1523694327.471864,0.848658,0.062462,1.881861,0.049376,-0.083915,-0.156732,0.748925,-0.062422,-0.659697,0.019935,-0.039416,-0.059831,4.444931,-2.043262,9.765259,,,,,,,
1523694327.501833,0.842736,0.062559,1.875440,0.229446,-0.339775,-0.101996,0.745001,-0.062518,-0.664116,0.007669,-0.044690,-0.024452,0.480759,-2.173405,11.788818,,,,,,,
1523694327.531801,0.835567,0.066499,1.868634,0.221492,-0.123506,-0.027632,0.740032,-0.066450,-0.669270,0.020374,-0.066775,-0.003597,-1.162552,-2.090031,12.762634,,,,,,,
1523694327.561769,0.832611,0.067751,1.866509,-0.046650,-0.129345,-0.006529,0.737989,-0.067699,-0.671398,-0.004575,-0.057622,-0.086644,-3.630722,-1.628559,13.134583,,,,,,,
1523694327.591737,0.830288,0.064333,1.870283,-0.234057,-0.022599,-0.009969,0.736593,-0.064289,-0.673263,-0.022284,-0.041805,-0.101746,-6.180023,-1.467243,12.982666,,,,,,,
1523694327.621706,0.827223,0.057934,1.876410,-0.308368,-0.192281,-0.032225,0.734815,-0.057902,-0.675782,-0.052960,-0.019079,-0.095641,-8.353134,-1.232533,12.905640,,,,,,,
1523694327.651674,0.825248,0.052282,1.880603,-0.141492,0.102796,-0.044122,0.733707,-0.052258,-0.677443,-0.055256,-0.014499,-0.030488,-10.836136,-1.447330,11.930298,,,,,,,
1523694327.681642,0.829903,0.050412,1.879963,0.032964,0.155748,-0.080275,0.736924,-0.050391,-0.674085,-0.035859,-0.034723,-0.031802,-11.894485,-1.968098,11.406799,,,,,,,
1523694327.711610,0.832743,0.048400,1.877237,-0.022802,0.038306,-0.133471,0.738908,-0.048381,-0.672057,-0.050554,-0.068226,-0.046968,-13.104492,-2.114079,9.981812,,,,,,,
1523694327.741579,0.831165,0.041877,1.876979,-0.237614,-0.077629,-0.193183,0.738064,-0.041865,-0.673420,-0.040921,-0.063589,-0.036586,-13.563965,-1.439716,7.278870,,,,,,,
1523694327.771516,0.832176,0.031835,1.878454,-0.249309,0.164742,-0.200905,0.739019,-0.031830,-0.672922,-0.012594,-0.069611,-0.028982,-15.395554,-2.035740,3.005310,,,,,,,
1523694327.801485,0.840068,0.025885,1.878191,-0.038914,0.276239,-0.114545,0.744434,-0.025882,-0.667184,-0.008502,-0.072507,-0.041754,-14.514343,-2.791584,1.133728,,,,,,,
1523694327.831453,0.846054,0.026386,1.876154,0.094553,0.159351,-0.010966,0.748404,-0.026383,-0.662708,0.000375,-0.046325,-0.080365,-11.549881,-4.233433,-2.383972,,,,,,,
1523694327.861421,0.851610,0.026743,1.875383,-0.085287,0.275747,-0.027210,0.752068,-0.026740,-0.658533,-0.047249,-0.064324,-0.057684,-9.537247,-5.068165,-3.054626,,,,,,,
1523694327.891389,0.864505,0.018535,1.880272,-0.451794,0.517772,-0.167295,0.760638,-0.018534,-0.648901,-0.039141,-0.063726,-0.045191,-4.983154,-5.092106,-6.502258,,,,,,,
1523694327.921358,0.879890,0.001854,1.890079,-0.680038,0.501784,-0.229259,0.770662,-0.001854,-0.637230,-0.057390,-0.057289,-0.024879,-3.945938,-5.697895,-7.624329,,,,,,,
1523694327.951326,0.892759,-0.014166,1.900798,-0.535706,0.390371,-0.154437,0.778721,0.014166,-0.627198,-0.019627,-0.047796,-0.015914,-2.597229,-5.554417,-8.074219,,,,,,,
1523694327.981294,0.902341,-0.020923,1.906985,-0.137791,0.289305,0.024966,0.784602,0.020922,-0.619634,-0.019191,-0.030642,0.006597,-0.347153,-5.864017,-7.546814,,,,,,,
1523694328.011263,0.909310,-0.018718,1.907231,0.120762,0.153372,0.075363,0.788936,0.018717,-0.614178,-0.003550,-0.008356,-0.015735,0.027237,-6.240177,-7.020203,,,,,,,
1523694328.041231,0.908480,-0.013852,1.904451,0.183750,-0.121779,0.043722,0.788489,0.013852,-0.614881,0.014048,-0.005139,-0.065753,1.077652,-6.469456,-6.568726,,,,,,,
1523694328.071199,0.905509,-0.010875,1.901811,0.062607,-0.036199,0.006246,0.786687,0.010875,-0.617244,-0.033055,-0.029216,-0.065922,2.443481,-5.200077,-6.048096,,,,,,,
,,,,,,,,,,,,,,,,25.313721,51.438294,16.354916,11.770000,93.515625,1523694327.998622,
1523694328.101167,0.907290,-0.010669,1.902210,-0.028681,0.100985,0.023089,0.787787,0.010669,-0.615843,-0.013663,-0.009814,-0.058259,1.552368,-4.895084,-5.074768,,,,,,,
1523694328.131136,0.909722,-0.009611,1.903336,0.035185,0.102646,0.064702,0.789291,0.009611,-0.613932,-0.052291,0.001299,-0.005026,1.856552,-4.746006,-4.625183,,,,,,,
1523694328.161104,0.911369,-0.006752,1.902573,0.088298,-0.006612,0.020091,0.790319,0.006752,-0.612646,-0.088292,0.021996,0.008795,3.824158,-3.928288,-3.052490,,,,,,,
1523694328.191042,0.907365,-0.006254,1.899819,0.082788,-0.177948,-0.093747,0.787863,0.006254,-0.615807,-0.050451,0.012240,-0.075493,5.482986,-4.308659,-0.950134,,,,,,,
1523694328.221010,0.904337,-0.009163,1.895905,0.014659,-0.022903,-0.205844,0.785977,0.009163,-0.618176,-0.038082,-0.046822,-0.067370,7.306641,-4.462666,3.251404,,,,,,,
1523694328.250978,0.906045,-0.014997,1.891976,-0.017617,0.120836,-0.236904,0.786976,0.014996,-0.616790,-0.020023,-0.106824,0.004256,7.322571,-4.759571,6.402527,,,,,,,
1523694328.280946,0.910235,-0.018461,1.888863,0.031824,0.155615,-0.063214,0.789507,0.018460,-0.613451,-0.044344,-0.107159,0.038058,4.706894,-5.719654,9.555115,,,,,,,
1523694328.310915,0.912906,-0.015780,1.887466,0.110392,0.024573,0.110649,0.791180,0.015779,-0.611368,-0.065227,-0.086793,0.076090,0.585022,-8.021748,13.912231,,,,,,,
1523694328.340883,0.912204,-0.012000,1.888198,-0.019275,-0.079256,0.112789,0.790791,0.012000,-0.611955,-0.062627,-0.049475,-0.019972,-0.693329,-9.214573,15.341431,,,,,,,
1523694328.370848,0.906061,-0.011825,1.891448,-0.110485,-0.264466,0.039382,0.787019,0.011824,-0.616803,-0.022309,-0.032271,-0.099978,-6.036926,-11.664539,16.323547,,,,,,,
1523694328.400816,0.900047,-0.012160,1.893433,0.013993,-0.155161,0.014863,0.783292,0.012160,-0.621523,-0.004148,-0.016722,-0.107344,-9.415390,-11.874561,16.097717,,,,,,,
1523694328.430785,0.897215,-0.009762,1.891147,0.158622,-0.058752,0.004220,0.781550,0.009762,-0.623755,0.004308,-0.008709,-0.083017,-16.397644,-11.245396,13.841675,,,,,,,
1523694328.460753,0.895957,-0.005463,1.887335,0.204515,-0.017691,0.042570,0.780790,0.005463,-0.624758,-0.009443,0.005904,-0.066282,-20.010437,-10.856922,11.063293,,,,,,,
1523694328.490721,0.894990,-0.000443,1.883405,0.170229,-0.038911,0.048966,0.780197,0.000443,-0.625522,-0.054214,-0.007905,-0.018979,-23.097565,-8.823444,5.653564,,,,,,,
1523694328.520689,0.893944,0.001105,1.881970,-0.012065,-0.026455,0.005126,0.779542,-0.001105,-0.626337,-0.121278,-0.046579,0.048945,-22.052902,-7.331516,2.273132,,,,,,,
1523694328.550658,0.892513,-0.001524,1.883517,-0.143366,-0.082069,-0.048195,0.778644,0.001524,-0.627452,-0.066257,-0.067167,-0.022435,-19.889053,-5.246586,-3.059082,,,,,,,
1523694328.580626,0.889186,-0.004311,1.885181,-0.032603,-0.102809,-0.010789,0.776546,0.004311,-0.630034,-0.001278,-0.061089,-0.126787,-17.426636,-5.334614,-5.007507,,,,,,,
1523694328.610594,0.889475,-0.001906,1.883469,0.176303,0.113121,0.037088,0.776734,0.001906,-0.629814,-0.000367,-0.024596,-0.088829,-14.730194,-5.197575,-5.831726,,,,,,,
1523694328.640532,0.893629,0.003774,1.878563,0.271600,0.140675,0.011570,0.779339,-0.003773,-0.626579,0.001545,0.001790,-0.057442,-12.264435,-6.258442,-5.601257,,,,,,,
1523694328.670500,0.896345,0.007354,1.873888,0.117708,0.064850,-0.028970,0.781023,-0.007354,-0.624447,-0.051164,-0.043565,-0.005695,-10.998154,-7.089207,-5.672241,,,,,,,
1523694328.700469,0.897366,0.006084,1.874005,-0.137589,0.033629,-0.032325,0.781666,-0.006084,-0.623655,-0.097432,-0.059056,0.041547,-7.549667,-6.655704,-6.647278,,,,,,,
1523694328.730437,0.896732,0.000568,1.879130,-0.301065,-0.006270,-0.043060,0.781285,-0.000568,-0.624161,-0.068883,-0.054425,-0.003524,-5.674896,-6.589283,-6.796570,,,,,,,
1523694328.760405,0.894286,-0.004302,1.884015,-0.132166,-0.152525,-0.005498,0.779749,0.004302,-0.626065,0.017873,-0.030440,-0.113834,0.285843,-5.037739,-3.424805,,,,,,,
1523694328.790373,0.889461,-0.002185,1.883262,0.194433,-0.118661,0.048000,0.776725,0.002185,-0.629825,0.020455,-0.014941,-0.167691,4.056564,-4.901478,-0.198486,,,,,,,
1523694328.820342,0.890292,0.003834,1.877428,0.280251,0.149278,-0.004424,0.777244,-0.003834,-0.629176,-0.029685,-0.048687,-0.063543,4.937866,-4.671452,8.801025,,,,,,,
1523694328.850310,0.895773,0.005709,1.872798,0.051273,0.187592,-0.082421,0.780674,-0.005709,-0.624901,-0.030887,-0.094862,0.034645,3.462372,-3.837116,11.496948,,,,,,,
1523694328.880278,0.898834,0.002740,1.874327,-0.184767,0.027151,-0.000390,0.782593,-0.002740,-0.622516,-0.043656,-0.085441,0.017871,-3.030212,-3.203556,15.841187,,,,,,,
1523694328.910246,0.897428,0.000616,1.880137,-0.177157,-0.055471,0.109458,0.781720,-0.000616,-0.623618,-0.014462,-0.025965,-0.056741,-7.071503,-2.734699,16.512268,,,,,,,
1523694328.940215,0.894651,0.002525,1.885119,-0.022916,-0.117850,0.162903,0.779983,-0.002525,-0.625785,-0.018111,0.033851,-0.128320,-11.792130,-2.113758,16.207458,,,,,,,
1523694328.970183,0.892110,0.005994,1.885120,0.107286,-0.051325,0.025477,0.778379,-0.005994,-0.627755,-0.038877,0.015790,-0.099448,-19.900284,-0.356556,11.921387,,,,,,,
1523694329.000151,0.893238,0.006386,1.881576,0.080863,0.074106,-0.122778,0.779084,-0.006386,-0.626875,-0.111451,-0.052895,0.009886,-21.716309,0.472561,7.867126,,,,,,,
1523694329.030119,0.894669,0.003294,1.877616,0.004124,0.049110,-0.168623,0.779992,-0.003294,-0.625769,-0.073709,-0.101152,0.055106,-19.660019,1.728924,-1.511902,,,,,,,
1523694329.060057,0.895084,-0.000541,1.877001,-0.107822,-0.016263,-0.050364,0.780256,0.000541,-0.625449,-0.017576,-0.093513,-0.021585,-17.870468,1.943783,-3.611816,,,,,,,
,,,,,,,,,,,,,,,,25.313716,51.438411,16.060216,12.080000,93.515625,1523694328.998601,
1523694329.090025,0.893727,-0.001370,1.880071,-0.060672,-0.039756,0.100999,0.779406,0.001370,-0.626506,0.003645,-0.018704,-0.078938,-11.663574,0.939495,-4.954712,,,,,,,
1523694329.119994,0.891994,0.002208,1.882041,0.074690,-0.065755,0.123504,0.778317,-0.002208,-0.627855,-0.012341,0.029415,-0.099562,-7.611176,0.771938,-4.277039,,,,,,,
1523694329.149962,0.891087,0.005439,1.881432,0.063800,0.008296,0.023260,0.777738,-0.005439,-0.628553,-0.025831,0.014915,-0.107287,-6.480316,-0.130665,-1.797852,,,,,,,
1523694329.179930,0.891574,0.005101,1.880101,0.011013,0.030330,-0.070561,0.778046,-0.005100,-0.628175,-0.024063,-0.025158,-0.050841,-5.949036,-0.132008,-0.747620,,,,,,,
1523694329.209898,0.892812,0.003239,1.879645,-0.048943,0.032402,-0.039719,0.778829,-0.003239,-0.627217,-0.059590,-0.063747,-0.017955,-6.540329,0.246471,0.075623,,,,,,,
1523694329.239867,0.891799,0.002601,1.880893,-0.030641,-0.076622,0.043522,0.778194,-0.002601,-0.628007,-0.038097,-0.038262,-0.054611,-8.181107,0.854382,0.597351,,,,,,,
1523694329.269835,0.888599,0.004360,1.883019,-0.016819,-0.045072,0.083999,0.776176,-0.004360,-0.630490,-0.076698,-0.015446,0.008862,-7.942337,2.053600,0.892700,,,,,,,
1523694329.299803,0.887655,0.005326,1.885189,-0.061657,-0.075554,0.054152,0.775577,-0.005326,-0.631219,-0.076435,-0.018478,-0.023231,-7.487885,2.726177,0.515198,,,,,,,
1523694329.329772,0.885110,0.004009,1.887086,-0.071757,-0.058906,-0.042839,0.773973,-0.004009,-0.633194,-0.060121,0.001506,0.019135,-9.130936,3.558346,0.286072,,,,,,,
1523694329.359740,0.884825,0.001576,1.886626,-0.022128,0.001845,-0.087609,0.773797,-0.001576,-0.633419,-0.020334,-0.018413,-0.039676,-11.301880,5.590405,-2.423157,,,,,,,
1523694329.389711,0.884151,0.000375,1.885193,0.046905,-0.014640,-0.033205,0.773371,-0.000375,-0.633942,0.017278,-0.013770,-0.094162,-11.908478,6.191036,-4.525879,,,,,,,
1523694329.419679,0.882749,0.002918,1.882100,0.192696,-0.068444,0.011707,0.772479,-0.002918,-0.635022,-0.014331,-0.001141,-0.080188,-13.519730,4.994244,-8.571899,,,,,,,
1523694329.449648,0.883722,0.007593,1.877464,0.206024,0.059993,0.025447,0.773077,-0.007593,-0.634255,-0.023763,-0.049902,-0.058387,-13.481918,3.115993,-11.639343,,,,,,,
1523694329.479616,0.884174,0.010369,1.875768,0.005926,0.001799,0.060520,0.773345,-0.010368,-0.633889,-0.097533,-0.073738,-0.014731,-10.921341,-0.050983,-17.100403,,,,,,,
1523694329.509554,0.883916,0.010118,1.880005,-0.184172,0.002198,0.071034,0.773183,-0.010118,-0.634091,-0.051305,-0.053069,-0.007892,-7.728119,-1.343494,-20.243591,,,,,,,
1523694329.539522,0.885379,0.006862,1.887022,-0.256435,0.063051,0.057061,0.774131,-0.006862,-0.632977,-0.064643,-0.012501,-0.077412,-2.220627,-4.070820,-22.779907,,,,,,,
1523694329.569490,0.886161,0.004693,1.890900,-0.055381,0.046041,-0.016275,0.774635,-0.004693,-0.632379,-0.003578,0.039972,-0.102057,3.097733,-4.919437,-22.473877,,,,,,,
1523694329.599458,0.885910,0.006640,1.887784,0.232568,-0.016321,-0.011749,0.774469,-0.006640,-0.632566,-0.008722,0.049700,-0.058031,10.075394,-7.496113,-17.735107,,,,,,,
1523694329.629427,0.886441,0.011205,1.881365,0.230935,0.060387,-0.040592,0.774772,-0.011204,-0.632130,-0.083412,-0.011501,0.061359,12.939575,-8.105610,-14.356262,,,,,,,
1523694329.659395,0.887312,0.010538,1.877582,-0.037130,-0.021415,-0.098256,0.775328,-0.010538,-0.631459,-0.068083,-0.071585,0.042531,15.731598,-8.115330,-11.504822,,,,,,,
1523694329.689363,0.885040,0.004903,1.879795,-0.241467,-0.089055,-0.078095,0.773926,-0.004903,-0.633246,-0.019501,-0.097713,-0.045953,13.669403,-8.024906,-5.356201,,,,,,,
1523694329.719331,0.882175,0.000046,1.884302,-0.156594,-0.090018,0.027466,0.772117,-0.000046,-0.635469,0.014977,-0.049957,-0.162459,13.079773,-8.020527,-3.631531,,,,,,,
1523694329.749300,0.880808,0.002154,1.885645,0.119957,-0.012504,0.089392,0.771246,-0.002154,-0.636522,-0.031424,0.006732,-0.131682,10.018143,-8.079426,-1.307800,,,,,,,
1523694329.779268,0.882462,0.006055,1.882566,0.137927,0.093228,0.008310,0.772286,-0.006055,-0.635235,-0.085579,-0.023685,-0.023624,9.264267,-8.600803,-1.081116,,,,,,,
1523694329.809236,0.884953,0.007187,1.880003,0.042935,0.049127,-0.034332,0.773860,-0.007187,-0.633305,-0.062587,-0.076767,0.043827,8.954224,-8.975452,-2.129761,,,,,,,
1523694329.839204,0.885295,0.004775,1.880948,-0.162150,0.018870,-0.041909,0.774088,-0.004775,-0.633049,-0.088159,-0.060441,0.042458,7.454300,-8.968708,-2.130554,,,,,,,
1523694329.869173,0.885682,0.000002,1.885797,-0.249924,0.019859,0.000641,0.774341,-0.000002,-0.632757,-0.029987,-0.019590,-0.034800,8.268326,-9.797810,-2.576843,,,,,,,
1523694329.899141,0.885157,-0.001767,1.890401,-0.048864,-0.040748,0.087154,0.774008,0.001767,-0.633163,0.016443,0.037815,-0.153458,9.696426,-10.028339,-1.675171,,,,,,,
1523694329.929109,0.883970,0.003504,1.888769,0.271481,-0.027756,0.090578,0.773252,-0.003504,-0.634078,-0.021604,0.034358,-0.096681,8.597153,-9.569874,1.847473,,,,,,,
1523694329.959047,0.885362,0.008539,1.882713,0.182135,0.106343,-0.060920,0.774111,-0.008539,-0.632981,-0.116091,-0.016821,0.053422,7.570435,-8.363377,3.717163,,,,,,,
1523694329.989015,0.888928,0.005800,1.881062,-0.154980,0.094854,-0.121891,0.776378,-0.005800,-0.630230,-0.139171,-0.064421,0.145305,5.333420,-7.377796,4.237061,,,,,,,
1523694330.018983,0.887857,-0.001296,1.886134,-0.318946,-0.164679,-0.025861,0.775715,0.001296,-0.631071,-0.021046,-0.076186,-0.056872,2.212143,-5.037861,5.126160,,,,,,,
1523694330.048952,0.880533,-0.003594,1.892235,-0.084126,-0.248098,0.119307,0.771068,0.003594,-0.636732,0.047123,0.010734,-0.252810,1.019974,-4.207569,5.047241,,,,,,,
,,,,,,,,,,,,,,,,25.313709,51.438536,16.132808,12.080000,92.812500,1523694329.998581,
1523694330.078920,0.876454,0.000576,1.892306,0.169306,0.009878,0.062765,0.768469,-0.000576,-0.639876,0.017877,0.042079,-0.206453,0.281525,-2.779697,4.591125,,,,,,,
1523694330.108888,0.880681,0.003710,1.887645,0.179035,0.152940,-0.038586,0.771162,-0.003710,-0.636617,-0.043043,-0.034330,-0.114725,0.357391,-2.330647,3.989380,,,,,,,
1523694330.138857,0.883762,0.005971,1.883086,0.141274,0.072252,-0.034276,0.773111,-0.005971,-0.634231,-0.088846,-0.074961,0.000259,-0.148575,-0.378452,3.906311,,,,,,,
1523694330.168825,0.887786,0.005032,1.881859,-0.113388,0.164410,-0.053741,0.775661,-0.005032,-0.631118,-0.127010,-0.076511,0.165252,0.308456,0.144787,4.204407,,,,,,,
1523694330.198793,0.888709,-0.001233,1.887938,-0.384856,-0.078575,-0.006820,0.776253,0.001233,-0.630409,-0.021736,-0.008755,-0.024666,-1.849503,0.681438,6.151245,,,,,,,
1523694330.228761,0.882440,-0.006437,1.895773,-0.193915,-0.296203,0.045763,0.772270,0.006437,-0.635251,0.089714,0.050357,-0.295200,-3.567993,0.840008,6.974731,,,,,,,
1523694330.258730,0.876214,-0.004203,1.895032,0.232341,-0.038797,0.011713,0.768309,0.004203,-0.640054,0.027604,0.027230,-0.239401,-4.307327,1.593853,7.496338,,,,,,,
1523694330.288698,0.881467,-0.000025,1.886137,0.328220,0.230727,-0.121669,0.771667,0.000025,-0.636015,-0.030029,-0.080576,-0.065217,-6.033737,1.451611,7.496033,,,,,,,
1523694330.318666,0.886576,0.002259,1.878111,0.169510,0.152034,-0.056711,0.774905,-0.002259,-0.632063,-0.059268,-0.121902,0.057112,-7.687714,1.458385,6.820190,,,,,,,
1523694330.348634,0.890379,0.003709,1.877624,-0.046203,0.090884,0.103018,0.777299,-0.003709,-0.629109,-0.049074,-0.070876,0.102147,-7.181473,0.254986,5.700256,,,,,,,
1523694330.378545,0.889843,0.004602,1.884354,-0.208869,-0.121867,0.194739,0.776959,-0.004602,-0.629523,-0.067944,0.011315,0.009070,-7.037155,-0.719990,6.379211,,,,,,,
1523694330.408513,0.884196,0.003677,1.893000,-0.271655,-0.176363,0.108441,0.773395,-0.003677,-0.633903,-0.079395,0.036575,-0.061639,-5.774124,-3.273411,8.640076,,,,,,,
1523694330.438482,0.880802,-0.001065,1.898269,-0.177184,-0.080468,-0.113218,0.771244,0.001065,-0.636528,-0.061939,0.012989,-0.080376,-6.446686,-3.344852,9.165039,,,,,,,
1523694330.468450,0.878857,-0.007504,1.895494,0.009605,-0.048982,-0.277190,0.769983,0.007504,-0.638009,-0.013651,-0.053510,-0.111914,-9.889923,-3.478016,10.513794,,,,,,,
1523694330.498418,0.878473,-0.011602,1.888225,0.165682,0.045974,-0.234555,0.769708,0.011602,-0.638280,0.013495,-0.082479,-0.101069,-11.764709,-3.319798,10.287292,,,,,,,
1523694330.528386,0.880706,-0.009326,1.880511,0.299085,0.082147,0.013782,0.771150,0.009326,-0.636575,-0.002977,-0.089602,-0.093848,-14.534988,-2.258320,9.306641,,,,,,,
1523694330.558355,0.882044,-0.000202,1.877219,0.204815,0.041475,0.241768,0.772034,0.000202,-0.635570,-0.004899,-0.092213,-0.023671,-15.058792,-1.507008,8.253357,,,,,,,
1523694330.588323,0.882997,0.005811,1.882267,-0.160369,0.031769,0.240439,0.772626,-0.005811,-0.634824,-0.047956,-0.017428,-0.057895,-11.090469,-0.103321,4.799744,,,,,,,
1523694330.618291,0.883707,0.004697,1.892432,-0.329557,0.035062,0.133758,0.773082,-0.004697,-0.634278,-0.104228,0.048322,-0.033233,-9.510178,0.564342,4.572876,,,,,,,
1523694330.648259,0.886921,0.000367,1.900374,-0.261111,0.138906,-0.001611,0.775125,-0.000367,-0.631797,-0.125833,0.051957,0.025855,-9.722977,1.016567,5.845947,,,,,,,
1523694330.678228,0.890325,-0.003585,1.903500,-0.076350,0.093105,-0.051508,0.777266,0.003585,-0.629151,-0.040343,0.060182,-0.053573,-11.573639,2.601315,7.263672,,,,,,,
1523694330.708196,0.889021,-0.003049,1.899120,0.273248,-0.102896,-0.106461,0.776446,0.003049,-0.630165,-0.014849,0.035922,-0.049492,-12.246826,3.053890,6.811523,,,,,,,
1523694330.738164,0.887574,-0.000634,1.887950,0.328615,-0.012019,-0.204543,0.775537,0.000634,-0.631291,-0.045526,-0.051934,-0.039851,-15.184189,3.664028,3.732605,,,,,,,
1523694330.768133,0.887621,-0.001802,1.879942,0.078874,0.015132,-0.199429,0.775566,0.001802,-0.631253,-0.017768,-0.143739,-0.024813,-14.904343,3.584545,0.508057,,,,,,,
1523694330.798101,0.887335,-0.005189,1.879036,-0.098186,0.008027,-0.033328,0.775376,0.005189,-0.631467,-0.049485,-0.143403,-0.022158,-12.772491,2.145168,-4.285095,,,,,,,
1523694330.828039,0.887567,-0.005362,1.882527,-0.093616,-0.003575,0.104141,0.775521,0.005362,-0.631288,-0.017663,-0.061316,-0.058471,-10.474731,0.632809,-6.302917,,,,,,,
1523694330.858007,0.887130,-0.003670,1.887329,-0.084265,-0.020837,0.138260,0.775252,0.003670,-0.631631,0.020372,0.005898,-0.156562,-4.206894,-1.646961,-7.865662,,,,,,,
1523694330.887975,0.885931,-0.001353,1.890454,0.004700,-0.018477,0.073326,0.774498,0.001353,-0.632563,0.001442,0.032628,-0.170049,-2.116241,-3.080540,-7.033875,,,,,,,
1523694330.917943,0.887666,-0.001388,1.889924,-0.002432,0.114372,-0.080242,0.775594,0.001388,-0.631219,-0.047368,-0.016418,-0.060737,-0.831223,-3.159519,-5.232910,,,,,,,
1523694330.947912,0.891588,-0.004059,1.889438,-0.071836,0.129338,-0.067527,0.778058,0.004059,-0.628167,-0.063138,-0.057282,0.012200,-0.894806,-2.782963,-3.959473,,,,,,,
1523694330.977880,0.893574,-0.005728,1.891315,-0.060033,0.043450,0.052978,0.779298,0.005728,-0.626615,-0.037736,-0.007650,-0.034594,-1.935623,-2.177753,-3.437378,,,,,,,
1523694331.007848,0.895319,-0.002106,1.892713,0.088135,0.089225,0.139354,0.780401,0.002106,-0.625264,-0.086019,0.042923,0.030918,-5.901489,-1.259922,-3.442993,,,,,,,
1523694331.037816,0.897104,0.001420,1.893077,0.009312,0.024219,0.044516,0.781517,-0.001420,-0.623871,-0.086051,0.047669,0.039932,-5.912308,-1.486286,-4.867188,,,,,,,
1523694331.067785,0.895872,-0.000463,1.894046,-0.085681,-0.096991,-0.064109,0.780748,0.000463,-0.624834,-0.049410,0.002436,-0.043135,-5.247864,-0.742283,-7.869812,,,,,,,
,,,,,,,,,,,,,,,,25.313707,51.438656,16.031455,12.070000,93.515625,1523694330.998561,
1523694331.097753,0.892735,-0.002672,1.893528,0.014875,-0.047335,-0.058758,0.778782,0.002672,-0.627277,-0.011692,-0.036333,-0.080822,-4.428909,-0.896717,-8.618774,,,,,,,
1523694331.127721,0.891759,-0.001550,1.890875,0.152257,-0.044966,0.009534,0.778171,0.001550,-0.628039,-0.000873,-0.026880,-0.093840,-1.436234,-1.360630,-9.065369,,,,,,,
1523694331.157689,0.890433,0.002930,1.887281,0.186123,-0.049660,0.061770,0.777335,-0.002930,-0.629068,0.000467,-0.009490,-0.074820,-1.512711,-1.959538,-8.313049,,,,,,,
1523694331.187658,0.889647,0.007040,1.885731,0.054910,-0.011160,0.073353,0.776824,-0.007040,-0.629666,-0.094482,-0.030558,-0.017200,-1.445480,-3.009388,-7.858826,,,,,,,
1523694331.217626,0.888435,0.006682,1.888204,-0.158423,-0.032575,0.018885,0.776062,-0.006682,-0.630609,-0.096619,-0.048967,0.017816,-0.621567,-2.938389,-8.158691,,,,,,,
1523694331.247594,0.886307,0.002572,1.893047,-0.219329,-0.085275,-0.019475,0.774733,-0.002572,-0.632271,-0.086043,-0.036552,-0.034889,-1.987991,-3.683735,-9.656433,,,,,,,
1523694331.277532,0.883589,-0.001630,1.896188,-0.107070,-0.080072,-0.043902,0.773014,0.001630,-0.634375,-0.002171,-0.017545,-0.136835,-1.847321,-4.210041,-10.329224,,,,,,,
1523694331.307500,0.883472,-0.000494,1.894599,0.191386,0.100570,0.001956,0.772941,0.000494,-0.634467,-0.026130,0.013544,-0.094873,-0.653519,-4.515949,-10.852417,,,,,,,
1523694331.337468,0.887623,0.004035,1.889000,0.225884,0.146350,-0.022573,0.775562,-0.004035,-0.631247,-0.084628,-0.039483,0.038123,-0.819366,-6.015339,-10.996460,,,,,,,
1523694331.367427,0.889967,0.005052,1.886078,-0.007401,0.020499,-0.026873,0.777035,-0.005052,-0.629425,-0.069958,-0.064955,0.037079,-0.011490,-7.144947,-11.966614,,,,,,,
1523694331.397395,0.887843,0.002487,1.888842,-0.192921,-0.107891,0.014662,0.775704,-0.002487,-0.631081,-0.011437,-0.038911,-0.060860,1.685562,-8.729603,-13.984375,,,,,,,
1523694331.427363,0.886093,0.000175,1.894281,-0.164004,-0.010687,0.082784,0.774601,-0.000175,-0.632439,-0.017857,0.012214,-0.132897,1.522110,-10.078861,-13.979065,,,,,,,
1523694331.457331,0.886509,0.000727,1.897156,0.018966,0.034799,0.046650,0.774864,-0.000727,-0.632116,-0.031730,0.041956,-0.101663,3.222168,-12.037403,-14.870422,,,,,,,
1523694331.487300,0.887429,0.002779,1.894384,0.162597,0.030966,-0.064053,0.775442,-0.002779,-0.631401,-0.076773,-0.006498,-0.033104,5.088715,-12.795948,-15.016418,,,,,,,
1523694331.517268,0.887803,0.003281,1.889467,0.107200,0.014361,-0.101369,0.775677,-0.003281,-0.631110,-0.078381,-0.079101,-0.002221,7.710022,-13.032963,-15.239197,,,,,,,
1523694331.547236,0.887354,0.002305,1.887689,-0.035337,-0.015585,-0.023659,0.775396,-0.002305,-0.631459,-0.050863,-0.090331,0.004033,8.695297,-11.912556,-15.393127,,,,,,,
1523694331.577205,0.886208,0.001048,1.891003,-0.157599,-0.021260,0.073208,0.774674,-0.001048,-0.632349,-0.022858,-0.037908,-0.024710,9.604965,-11.166279,-15.020630,,,,,,,
1523694331.607173,0.886523,0.001151,1.896312,-0.088262,0.017562,0.119039,0.774873,-0.001151,-0.632105,-0.007463,0.033179,-0.099096,9.904373,-11.092854,-15.245850,,,,,,,
1523694331.637141,0.886230,0.004210,1.897002,0.134957,-0.039942,0.056402,0.774681,-0.004210,-0.632327,0.013527,0.047545,-0.176709,10.881271,-11.171787,-14.795044,,,,,,,
1523694331.667109,0.885606,0.007578,1.892532,0.181880,0.048946,-0.059789,0.774271,-0.007578,-0.632798,-0.051233,-0.002218,-0.077621,13.879089,-12.159000,-13.514526,,,,,,,
1523694331.697078,0.886203,0.006886,1.888636,0.004500,-0.036348,-0.106724,0.774652,-0.006886,-0.632339,-0.040369,-0.077678,-0.060288,13.812637,-11.708027,-12.841370,,,,,,,
1523694331.727015,0.885357,0.003481,1.889833,-0.150765,-0.011221,0.001820,0.774131,-0.003480,-0.633005,-0.053382,-0.084029,-0.075614,12.785049,-10.950932,-10.369934,,,,,,,
1523694331.756984,0.887485,0.002692,1.893541,-0.081261,0.123951,0.097630,0.775477,-0.002692,-0.631358,-0.117274,-0.041802,0.066432,13.544617,-10.578373,-9.396057,,,,,,,
1523694331.786952,0.887785,0.004864,1.896632,-0.026798,-0.091984,0.111733,0.775661,-0.004864,-0.631119,-0.041484,0.033047,-0.022201,11.766006,-9.967823,-6.849365,,,,,,,
1523694331.816920,0.882861,0.005809,1.898122,-0.005173,-0.154006,0.007394,0.772540,-0.005809,-0.634928,-0.046451,0.022655,-0.120169,12.082764,-9.142826,-5.427551,,,,,,,
1523694331.846888,0.881749,0.004635,1.896790,0.013327,0.042175,-0.094011,0.771838,-0.004635,-0.635790,-0.035190,-0.032764,-0.086301,10.165665,-6.882481,-3.712524,,,,,,,
1523694331.876857,0.884824,0.002581,1.895154,-0.001475,0.113178,-0.061064,0.773795,-0.002581,-0.633419,-0.035392,-0.048902,-0.039006,9.053894,-5.827045,-3.267334,,,,,,,
1523694331.906825,0.885923,0.003581,1.894875,0.054807,-0.030322,0.077639,0.774489,-0.003581,-0.632566,0.024492,-0.018224,-0.095812,8.325500,-4.472416,-1.923035,,,,,,,
1523694331.936793,0.884432,0.008559,1.895159,0.123672,-0.033323,0.177854,0.773521,-0.008558,-0.633701,0.000893,0.048186,-0.145962,7.740234,-3.943211,-0.350525,,,,,,,
1523694331.966761,0.885259,0.014916,1.895797,0.070044,0.096773,0.131864,0.773987,-0.014915,-0.633014,-0.141205,0.045967,0.035846,7.753159,-3.641621,1.298340,,,,,,,
1523694331.996730,0.887680,0.014249,1.897687,-0.166331,0.036938,-0.041924,0.775525,-0.014249,-0.631144,-0.147625,-0.018848,0.069163,9.133835,-2.594471,4.669800,,,,,,,
1523694332.026698,0.883806,0.007963,1.901458,-0.214231,-0.235600,-0.102428,0.773128,-0.007963,-0.634188,-0.109477,-0.023653,-0.058012,8.624329,-2.215229,6.618042,,,,,,,
1523694332.056666,0.877200,0.002836,1.902074,-0.055569,-0.123184,-0.127991,0.768943,-0.002836,-0.639299,0.001122,-0.021349,-0.146498,5.347504,-3.319782,12.320862,,,,,,,
1523694332.086634,0.877807,0.001635,1.898474,0.164176,0.100290,-0.101412,0.769333,-0.001635,-0.638834,0.007843,-0.001722,-0.174734,2.286606,-3.303684,14.644226,,,,,,,
,,,,,,,,,,,,,,,,25.313710,51.438787,15.766939,12.520000,91.054688,1523694331.998540,
1523694332.116603,0.881366,0.005091,1.891465,0.277161,0.135676,-0.035303,0.771593,-0.005091,-0.636084,-0.052568,-0.052022,-0.051522,-4.163071,-4.622395,16.896240,,,,,,,
1523694332.146540,0.884488,0.008624,1.885955,0.132542,0.063585,-0.006575,0.773556,-0.008623,-0.633657,-0.061825,-0.090376,0.008352,-7.541992,-4.607868,16.219543,,,,,,,
1523694332.176509,0.883798,0.007857,1.887507,-0.204403,-0.038874,0.025244,0.773123,-0.007857,-0.634195,-0.101446,-0.068742,0.000101,-12.362549,-4.365009,12.391113,,,,,,,
1523694332.206477,0.883256,0.002879,1.896252,-0.368798,0.015415,0.068760,0.772800,-0.002879,-0.634631,-0.123661,-0.013967,0.010928,-15.463654,-5.403675,9.768738,,,,,,,
1523694332.236445,0.881999,-0.000985,1.904954,-0.233864,-0.108317,0.088163,0.772005,0.000985,-0.635604,-0.068925,0.044440,-0.089799,-17.237793,-7.350636,4.825684,,,,,,,
1523694332.266414,0.878546,-0.001142,1.908051,0.030202,-0.098979,0.027609,0.769805,0.001142,-0.638266,-0.006682,0.045214,-0.191400,-16.366333,-8.632175,2.206238,,,,,,,
1523694332.296382,0.877528,0.000753,1.903837,0.202340,0.048084,-0.094940,0.769155,-0.000753,-0.639049,-0.032186,-0.002558,-0.100666,-16.544205,-9.983768,-0.188477,,,,,,,
1523694332.326350,0.881162,0.000668,1.896968,0.127288,0.145411,-0.156901,0.771473,-0.000668,-0.636250,-0.054157,-0.085742,0.009968,-12.698212,-12.331165,-5.277161,,,,,,,
1523694332.356318,0.883967,-0.001164,1.894246,-0.026414,0.044059,-0.046091,0.773254,0.001164,-0.634083,-0.058548,-0.078648,0.039631,-9.635773,-13.095768,-6.097534,,,,,,,
1523694332.386294,0.881417,-0.001755,1.897257,-0.114574,-0.142798,0.113859,0.771634,0.001755,-0.636053,-0.021847,-0.013428,-0.098444,-5.290909,-13.565388,-6.168518,,,,,,,
1523694332.416262,0.877533,0.000598,1.902303,-0.042190,-0.104207,0.190598,0.769158,-0.000598,-0.639046,-0.020669,0.055667,-0.215355,-3.776581,-12.671314,-5.271301,,,,,,,
1523694332.446230,0.877389,0.003925,1.903696,0.060969,0.097515,0.029564,0.769061,-0.003925,-0.639152,-0.081347,0.028049,-0.087869,-1.643433,-9.755238,-4.606934,,,,,,,
1523694332.476198,0.880655,0.002648,1.902099,-0.019593,0.074180,-0.100461,0.771147,-0.002648,-0.636639,-0.079634,-0.057532,-0.049274,-1.626816,-7.955555,-4.839172,,,,,,,
1523694332.506167,0.882038,0.000909,1.900527,0.040726,0.039522,-0.027928,0.772029,-0.000909,-0.635574,-0.044032,-0.056998,-0.036240,-0.920990,-5.407841,-3.948975,,,,,,,
1523694332.536135,0.882889,0.003274,1.899757,0.067943,0.054558,0.090355,0.772566,-0.003274,-0.634914,-0.076796,0.012124,0.015727,-0.230911,-4.210423,-3.428406,,,,,,,
1523694332.566103,0.885547,0.006651,1.900763,0.018856,0.070548,0.099895,0.774238,-0.006651,-0.632847,-0.093055,0.041151,0.017612,-1.332336,-2.704044,-2.009949,,,,,,,
1523694332.596041,0.884202,0.007381,1.902672,-0.072309,-0.105099,0.026480,0.773382,-0.007381,-0.633884,-0.052145,0.037609,-0.105099,-1.099136,-1.655476,-2.389038,,,,,,,
1523694332.626009,0.882274,0.006832,1.903435,0.017942,-0.016879,-0.007646,0.772161,-0.006832,-0.635377,-0.029623,0.010525,-0.168960,-0.621002,1.117443,-2.324890,,,,,,,
1523694332.655977,0.883837,0.006993,1.900798,0.089341,0.107733,-0.075901,0.773153,-0.006993,-0.634168,-0.070333,-0.045833,-0.085619,-0.527756,2.767315,-2.031433,,,,,,,
1523694332.685946,0.886222,0.005969,1.897117,0.067900,0.048543,-0.112092,0.774668,-0.005969,-0.632327,-0.032313,-0.050245,-0.076093,-1.410019,3.822475,-0.836121,,,,,,,
1523694332.715914,0.885080,0.006852,1.894253,0.129596,-0.093834,0.014900,0.773941,-0.006852,-0.633207,0.003723,-0.040175,-0.148272,-0.570816,4.569820,0.286316,,,,,,,
1523694332.745882,0.881700,0.011263,1.893017,0.090866,-0.063494,0.096884,0.771766,-0.011263,-0.635794,-0.063941,-0.025633,-0.130945,-0.720352,4.345943,0.737122,,,,,,,
1523694332.775850,0.880532,0.012243,1.894653,-0.110279,-0.009312,0.018892,0.771013,-0.012243,-0.636688,-0.127932,-0.056925,-0.024002,-0.408188,4.571194,2.386353,,,,,,,
1523694332.805819,0.881284,0.007954,1.898549,-0.235690,0.027673,-0.059020,0.771526,-0.007954,-0.636135,-0.088313,-0.062328,-0.052479,0.194168,4.718639,2.536133,,,,,,,
1523694332.835787,0.881156,0.004030,1.901783,-0.073767,0.000371,-0.011986,0.771462,-0.004030,-0.636249,-0.072549,-0.026869,-0.083813,-2.865372,4.510326,5.460388,,,,,,,
1523694332.865755,0.882541,0.005411,1.900798,0.112226,0.087890,0.020023,0.772337,-0.005411,-0.635176,-0.064650,0.011454,-0.053606,-4.363358,4.442516,5.909973,,,,,,,
1523694332.895724,0.884197,0.007588,1.898227,0.091969,0.034076,-0.028940,0.773377,-0.007588,-0.633887,-0.072358,0.018437,-0.005167,-7.460373,2.506008,5.466125,,,,,,,
1523694332.925692,0.883357,0.008065,1.896350,0.038075,-0.063637,-0.016098,0.772841,-0.008065,-0.634534,-0.030867,-0.033485,-0.087572,-8.602112,1.684719,4.043884,,,,,,,
1523694332.955660,0.880373,0.008895,1.895828,0.025848,-0.114935,0.030823,0.770940,-0.008895,-0.636833,-0.004430,-0.042191,-0.152184,-9.143753,0.785885,2.772156,,,,,,,
1523694332.985628,0.879192,0.008991,1.896435,-0.055479,0.054364,0.009288,0.770186,-0.008991,-0.637743,-0.037535,-0.024304,-0.094389,-8.738403,-2.517872,0.835571,,,,,,,
1523694333.015597,0.881605,0.007959,1.897824,-0.036175,0.075565,0.010344,0.771730,-0.007959,-0.635888,-0.078767,-0.023459,-0.012611,-8.008057,-3.947056,-0.058350,,,,,,,
1523694333.045534,0.881408,0.008267,1.897632,0.037996,-0.053172,0.007330,0.771602,-0.008267,-0.636038,-0.080623,-0.024097,-0.026010,-6.826920,-6.651005,1.303040,,,,,,,
1523694333.075503,0.878492,0.009146,1.896006,0.059574,-0.075133,-0.052292,0.769738,-0.009145,-0.638281,-0.090829,-0.039744,-0.025690,-6.845932,-8.151600,0.634033,,,,,,,
,,,,,,,,,,,,,,,,25.313707,51.438908,16.061457,12.280000,90.000000,1523694332.998520,
1523694333.105471,0.876713,0.006591,1.895095,-0.099139,-0.053118,-0.104645,0.768617,-0.006591,-0.639661,-0.026613,-0.067369,-0.112872,-6.939377,-9.277363,-0.561523,,,,,,,
1523694333.135439,0.877364,0.002546,1.895612,-0.078393,0.099553,-0.062166,0.769048,-0.002546,-0.639173,-0.056706,-0.057345,-0.033908,-7.104965,-10.027958,-1.908569,,,,,,,
1523694333.165407,0.880552,0.002888,1.896104,0.032983,0.058163,0.042382,0.771080,-0.002888,-0.636717,-0.064690,-0.038586,0.040450,-6.071625,-11.383137,-2.427612,,,,,,,
1523694333.195376,0.879388,0.004673,1.895692,0.053769,-0.077845,0.034011,0.770334,-0.004673,-0.637610,0.031439,0.015797,-0.107995,-6.678070,-11.531223,-3.252380,,,,,,,
1523694333.225344,0.877330,0.006613,1.894842,0.038070,-0.026652,0.014757,0.769011,-0.006613,-0.639187,-0.032699,0.016455,-0.133335,-2.998459,-10.349003,-4.455261,,,,,,,
1523694333.255312,0.880963,0.005807,1.895380,-0.089058,0.156621,-0.014279,0.771332,-0.005807,-0.636392,-0.093903,-0.058174,0.010080,-2.679474,-8.175892,-4.913757,,,,,,,
1523694333.285280,0.881429,0.004129,1.898660,-0.109731,-0.089253,0.052014,0.771635,-0.004129,-0.636038,-0.078611,-0.036933,-0.044412,-2.031128,-4.277241,-3.354065,,,,,,,
1523694333.315249,0.878335,0.004644,1.901335,-0.018991,-0.060988,0.079761,0.769662,-0.004644,-0.638421,0.005652,0.030370,-0.141151,-2.309692,-2.400547,-2.911682,,,,,,,
1523694333.345217,0.878017,0.007409,1.902314,0.063627,0.040777,0.087169,0.769446,-0.007409,-0.638655,-0.022238,0.058526,-0.077944,-4.015472,-0.742435,-2.469177,,,,,,,
1523694333.375189,0.880687,0.009862,1.902753,0.006765,0.152846,0.034814,0.771132,-0.009862,-0.636585,-0.169157,0.011068,0.109638,-4.823975,0.911205,-2.476196,,,,,,,
1523694333.405157,0.882800,0.008962,1.903073,-0.055575,-0.027077,-0.043911,0.772481,-0.008962,-0.634960,-0.112874,-0.032053,0.086696,-3.847534,1.730679,-3.604004,,,,,,,
1523694333.435126,0.877957,0.005254,1.904203,-0.115072,-0.233919,-0.074650,0.769418,-0.005254,-0.638710,-0.003976,-0.005869,-0.137322,-5.493042,3.086575,-5.110229,,,,,,,
1523694333.465094,0.873948,0.003495,1.904171,0.051039,-0.019108,-0.006542,0.766857,-0.003495,-0.641794,-0.020153,-0.019088,-0.133337,-5.279266,2.409863,-5.857422,,,,,,,
1523694333.495032,0.875930,0.006704,1.901260,0.153885,0.088834,0.020065,0.768115,-0.006704,-0.640262,-0.027225,-0.033854,-0.039471,-4.405548,0.679440,-7.350037,,,,,,,
1523694333.525000,0.876210,0.009458,1.899178,0.088031,-0.050328,0.038267,0.768277,-0.009457,-0.640033,-0.017636,-0.019275,-0.044782,-4.937576,0.605785,-8.400024,,,,,,,
1523694333.554968,0.874851,0.011372,1.898777,0.001605,-0.041614,0.037136,0.767391,-0.011372,-0.641064,-0.063961,-0.071056,-0.033238,-1.280594,0.511486,-11.247864,,,,,,,
1523694333.584936,0.873448,0.009082,1.901687,-0.232960,-0.032144,-0.017392,0.766509,-0.009081,-0.642155,-0.051803,-0.041151,-0.067104,2.015778,1.095074,-12.823486,,,,,,,
1523694333.614905,0.870856,0.003947,1.907656,-0.243911,-0.071558,0.000751,0.764867,-0.003947,-0.644161,-0.042287,-0.010579,-0.110950,5.103577,1.158215,-10.797241,,,,,,,
1523694333.644873,0.870171,0.001965,1.911125,-0.030306,0.004075,0.050907,0.764431,-0.001965,-0.644689,-0.003292,0.014675,-0.180491,6.156982,0.555050,-9.219299,,,,,,,
1523694333.674841,0.870899,0.006183,1.909093,0.221986,0.071449,0.049971,0.764887,-0.006183,-0.644121,-0.046991,0.003543,-0.064726,7.699890,3.258734,-5.888977,,,,,,,
1523694333.704810,0.873552,0.009816,1.904956,0.115868,0.119038,-0.032196,0.766571,-0.009816,-0.642070,-0.105926,-0.052302,0.058193,6.496674,1.541479,-3.557678,,,,,,,
1523694333.734778,0.875138,0.008159,1.904174,-0.102264,0.008239,-0.065279,0.767599,-0.008159,-0.640863,-0.092566,-0.066518,0.026529,6.720337,1.540243,-3.782593,,,,,,,
1523694333.764746,0.873604,0.003083,1.907303,-0.226594,-0.075530,-0.046109,0.766637,-0.003083,-0.642059,-0.067754,-0.037948,-0.062882,9.199860,2.578100,-4.760498,,,,,,,
1523694333.794714,0.872634,-0.000317,1.910593,-0.086514,0.011052,-0.015202,0.766018,0.000317,-0.642805,-0.036663,0.024173,-0.090990,9.137711,3.553900,-4.239441,,,,,,,
1523694333.824683,0.872690,0.000015,1.910311,0.090557,-0.020274,-0.007567,0.766054,-0.000015,-0.642762,0.047835,0.013702,-0.206664,11.141617,6.923254,-0.876892,,,,,,,
1523694333.854651,0.873056,0.003739,1.905651,0.280956,0.060030,-0.008582,0.766284,-0.003739,-0.642478,-0.015902,-0.025970,-0.155054,12.220184,8.345800,1.517944,,,,,,,
1523694333.884619,0.875655,0.011222,1.898477,0.324623,0.088287,0.037242,0.767908,-0.011222,-0.640448,-0.077570,-0.116937,0.033636,10.695007,11.131323,5.181030,,,,,,,
1523694333.914587,0.877392,0.012778,1.898049,-0.184855,0.049148,0.041165,0.769005,-0.012777,-0.639101,-0.036964,-0.083689,-0.008405,9.499741,11.062597,6.080750,,,,,,,
1523694333.944525,0.876600,0.008576,1.906695,-0.327508,-0.032711,0.096552,0.768533,-0.008576,-0.639738,-0.049493,-0.000228,-0.058000,6.194214,9.878531,7.133789,,,,,,,
1523694333.974493,0.877503,0.006272,1.914667,-0.188327,0.056205,0.097623,0.769123,-0.006272,-0.639055,-0.103031,0.059007,-0.048612,5.138580,9.133581,7.436279,,,,,,,
1523694334.004462,0.878083,0.006234,1.917048,0.032827,-0.028685,-0.000142,0.769494,-0.006234,-0.638610,-0.105477,0.068367,-0.000505,4.377533,8.161779,7.214783,,,,,,,
1523694334.034430,0.875123,0.006756,1.912320,0.180553,-0.107747,-0.142734,0.767598,-0.006756,-0.640882,-0.020879,0.003720,-0.082293,5.430191,8.157492,7.665344,,,,,,,
1523694334.064398,0.874051,0.006466,1.904532,0.184443,0.022028,-0.163110,0.766912,-0.006466,-0.641706,-0.040395,-0.077320,-0.075839,5.293991,9.133780,8.336365,,,,,,,
,,,,,,,,,,,,,,,,25.313713,51.439020,16.038860,11.260000,92.460938,1523694333.998498,
1523694334.094366,0.875016,0.006522,1.899491,0.066485,0.052276,-0.039631,0.767530,-0.006522,-0.640965,-0.075132,-0.117989,0.073232,3.740204,10.042791,10.356934,,,,,,,
1523694334.124335,0.876316,0.006468,1.901789,-0.139666,-0.031174,0.112680,0.768363,-0.006468,-0.639967,0.021966,-0.053469,-0.070116,1.870544,10.126959,11.105652,,,,,,,
1523694334.154303,0.870747,0.008425,1.908684,-0.091999,-0.207473,0.235420,0.764776,-0.008425,-0.644227,0.042185,0.051363,-0.277083,-3.843628,9.476400,9.830444,,,,,,,
1523694334.184271,0.869521,0.012669,1.913075,0.023212,0.130838,0.137137,0.763952,-0.012669,-0.645135,-0.167272,0.049015,-0.032355,-6.107498,9.035009,8.256042,,,,,,,
1523694334.214239,0.874611,0.014253,1.912160,0.034849,0.118350,-0.056764,0.767210,-0.014252,-0.641224,-0.148527,-0.030334,0.091816,-7.566055,8.287222,3.908325,,,,,,,
1523694334.244208,0.872499,0.009377,1.912550,-0.203200,-0.207757,-0.140786,0.765897,-0.009377,-0.642881,-0.031843,-0.044182,-0.083895,-7.516541,7.084753,1.663147,,,,,,,
1523694334.274176,0.869018,0.004186,1.914107,-0.058630,-0.001571,-0.046054,0.763682,-0.004186,-0.645565,-0.002955,-0.005518,-0.154667,-5.225830,5.496374,-1.404358,,,,,,,
1523694334.304144,0.871463,0.006560,1.911640,0.206244,0.114083,0.036071,0.765248,-0.006560,-0.643688,0.028941,0.023330,-0.140202,-4.783493,4.819235,-1.551453,,,,,,,
1523694334.334113,0.874771,0.013078,1.907137,0.261432,0.104002,0.090463,0.767325,-0.013077,-0.641112,-0.040121,-0.005309,-0.065065,-3.509705,4.289190,-0.873718,,,,,,,
1523694334.364081,0.876990,0.018243,1.903519,0.114253,0.052835,0.014749,0.768683,-0.018242,-0.639356,-0.003241,-0.033135,-0.061190,0.536530,3.371878,0.031982,,,,,,,
1523694334.393990,0.878740,0.016850,1.904675,-0.156618,0.099318,-0.003604,0.769819,-0.016849,-0.638025,-0.118620,-0.048367,-0.009420,-0.584198,3.078131,1.232666,,,,,,,
1523694334.423958,0.882009,0.013715,1.909735,-0.193069,0.117182,0.038966,0.771938,-0.013714,-0.635536,-0.164135,-0.045841,0.111671,-1.120651,0.757498,3.191650,,,,,,,
1523694334.453926,0.882689,0.011190,1.914663,-0.178027,-0.109123,0.029613,0.772395,-0.011190,-0.635031,-0.091776,0.002294,0.008017,-2.254410,-0.436869,3.720825,,,,,,,
1523694334.483894,0.876279,0.010424,1.916183,0.059655,-0.244400,-0.008431,0.768314,-0.010424,-0.639975,0.063275,0.061480,-0.276026,-6.632523,-3.342005,3.880310,,,,,,,
1523694334.513863,0.872327,0.012846,1.910892,0.245014,0.024672,-0.106597,0.765758,-0.012846,-0.642987,0.000310,-0.024798,-0.158893,-8.147614,-3.861841,2.231567,,,,,,,
1523694334.543831,0.878438,0.013256,1.902028,0.197247,0.228301,-0.186744,0.769668,-0.013255,-0.638292,-0.076401,-0.134923,0.028094,-7.808807,-4.693018,-2.414856,,,,,,,
1523694334.573799,0.881957,0.011706,1.897363,-0.001743,0.034579,-0.070548,0.771924,-0.011706,-0.635593,-0.109006,-0.142149,0.120456,-7.747742,-5.144861,-3.988037,,,,,,,
1523694334.603767,0.879558,0.010550,1.901355,-0.191588,-0.155519,0.134076,0.770407,-0.010550,-0.637451,-0.064871,-0.043589,-0.023194,-3.342285,-6.291025,-5.331299,,,,,,,
1523694334.633736,0.875460,0.011124,1.909842,-0.200350,-0.107194,0.217128,0.767784,-0.011123,-0.640599,-0.099144,0.038314,-0.047817,-0.793411,-6.677042,-4.878479,,,,,,,
1523694334.663704,0.873613,0.011327,1.916788,-0.157672,-0.033030,0.081762,0.766598,-0.011327,-0.642014,-0.074749,0.062993,-0.121628,0.336975,-7.355112,-2.850159,,,,,,,
1523694334.693672,0.872933,0.009100,1.918467,-0.032807,-0.020382,-0.100358,0.766178,-0.009099,-0.642550,0.013759,0.011541,-0.211500,1.183716,-7.205545,0.524658,,,,,,,
1523694334.723640,0.874362,0.006957,1.914251,0.133485,0.102818,-0.149378,0.767109,-0.006956,-0.641465,-0.009983,-0.053239,-0.143111,0.603241,-6.376062,2.396057,,,,,,,
1523694334.753609,0.879346,0.007367,1.907300,0.195742,0.208718,-0.120666,0.770294,-0.007367,-0.637632,0.002701,-0.052997,-0.032565,-5.220581,-4.922907,4.337341,,,,,,,
1523694334.783577,0.882697,0.009091,1.904762,0.029579,0.053659,0.078618,0.772416,-0.009091,-0.635038,-0.053315,-0.031039,0.019056,-6.944168,-4.465677,3.809631,,,,,,,
1523694334.813545,0.882679,0.012524,1.908371,-0.042891,-0.028746,0.187332,0.772376,-0.012524,-0.635028,-0.114722,0.004666,0.049121,-6.281677,-4.545603,1.860229,,,,,,,
1523694334.843483,0.880342,0.014677,1.913391,-0.125012,-0.088649,0.120211,0.770867,-0.014677,-0.636813,-0.142693,0.021604,0.008777,-6.069412,-5.147684,0.737793,,,,,,,
1523694334.873451,0.877496,0.012588,1.918028,-0.170209,-0.084401,-0.014088,0.769074,-0.012587,-0.639023,-0.073669,0.019118,-0.088226,-5.554352,-5.600901,-0.160095,,,,,,,
1523694334.903419,0.875600,0.009325,1.919396,-0.039405,-0.022740,-0.065196,0.767888,-0.009325,-0.640503,-0.026754,0.003572,-0.109391,-4.811264,-6.429010,0.068542,,,,,,,
1523694334.933388,0.877998,0.009357,1.916707,0.143760,0.126542,-0.051364,0.769422,-0.009357,-0.638659,-0.009854,-0.014096,-0.032789,-6.166428,-6.947916,0.069946,,,,,,,
1523694334.963356,0.879903,0.012506,1.911152,0.238230,0.023137,-0.036279,0.770610,-0.012505,-0.637170,0.007252,-0.017204,-0.039053,-6.772095,-7.245646,-0.379211,,,,,,,
1523694334.993324,0.878555,0.015618,1.906637,0.107389,-0.065015,0.002081,0.769717,-0.015618,-0.638181,-0.012286,-0.029121,-0.125873,-6.325012,-6.724009,-1.731018,,,,,,,
1523694335.023293,0.876702,0.016225,1.907830,-0.093409,-0.020257,0.055163,0.768526,-0.016224,-0.639600,-0.066560,-0.042263,-0.106128,-6.338745,-5.528223,-6.010864,,,,,,,
1523694335.053261,0.876604,0.014645,1.913002,-0.205517,-0.000958,0.071039,0.768482,-0.014644,-0.639691,-0.085666,-0.037495,-0.085636,-4.102356,-5.540537,-8.259705,,,,,,,
,,,,,,,,,,,,,,,,25.313717,51.439142,15.671347,12.060000,91.054688,1523694334.998478,
1523694335.083229,0.876023,0.012519,1.918382,-0.132899,-0.019093,0.054070,0.768132,-0.012519,-0.640156,-0.044499,0.002021,-0.115459,1.294586,-5.715036,-8.481262,,,,,,,
1523694335.113197,0.876821,0.013583,1.918490,0.119737,0.076225,0.009411,0.768632,-0.013583,-0.639534,-0.070497,-0.005979,-0.033836,4.224304,-6.326426,-6.677368,,,,,,,
1523694335.143166,0.877812,0.015802,1.913845,0.148777,0.013083,-0.087473,0.769241,-0.015801,-0.638751,-0.092010,-0.029029,0.012438,8.603409,-6.565866,-1.424194,,,,,,,
1523694335.173134,0.877323,0.013610,1.910263,-0.034686,-0.013694,-0.144054,0.768953,-0.013609,-0.639148,-0.070512,-0.063661,-0.011487,8.772491,-6.413706,1.500244,,,,,,,
1523694335.203102,0.876569,0.009452,1.910656,-0.114300,-0.044927,-0.055646,0.768508,-0.009452,-0.639758,-0.036696,-0.082254,-0.075819,7.684464,-5.504175,6.146118,,,,,,,
1523694335.233070,0.875662,0.007984,1.913277,-0.063381,0.006258,0.051960,0.767937,-0.007984,-0.640463,0.005287,-0.032071,-0.163538,6.050598,-5.194635,8.319031,,,,,,,
1523694335.263039,0.877696,0.009864,1.914288,0.077924,0.101467,0.062624,0.769225,-0.009864,-0.638889,-0.023116,0.012244,-0.116803,0.227402,-4.265512,11.237427,,,,,,,
1523694335.292976,0.880106,0.013224,1.912427,0.112926,0.013396,0.031841,0.770733,-0.013223,-0.637008,-0.055523,-0.021704,-0.072404,-2.620255,-4.027704,11.235046,,,,,,,
1523694335.322945,0.879405,0.014411,1.911678,-0.017221,0.002250,0.000854,0.770273,-0.014411,-0.637538,-0.121195,-0.061013,0.015590,-5.090225,-3.117273,10.555176,,,,,,,
1523694335.352913,0.879866,0.011589,1.913963,-0.196349,0.014630,-0.034453,0.770595,-0.011589,-0.637206,-0.133892,-0.088188,0.034148,-9.062439,-0.403467,6.492310,,,,,,,
1523694335.382892,0.877494,0.005103,1.919856,-0.324004,-0.124226,-0.038669,0.769123,-0.005103,-0.639067,-0.054477,-0.029198,-0.086840,-9.664886,0.796850,4.087219,,,,,,,
1523694335.412860,0.873292,0.001295,1.924582,-0.055227,-0.108354,0.027575,0.766441,-0.001295,-0.642301,-0.003013,0.031019,-0.175708,-8.317856,2.437551,0.856323,,,,,,,
1523694335.442829,0.872642,0.004926,1.921099,0.270201,0.044073,-0.004300,0.766014,-0.004926,-0.642791,-0.020790,0.031262,-0.169251,-8.986252,3.190405,0.702942,,,,,,,
1523694335.472797,0.876693,0.009783,1.913286,0.295715,0.168841,-0.077920,0.768584,-0.009783,-0.639660,-0.110442,-0.054182,0.018475,-6.746231,2.729437,-0.194031,,,,,,,
1523694335.502765,0.878961,0.010966,1.908562,0.015100,-0.018557,-0.073691,0.770024,-0.010966,-0.637908,-0.117298,-0.112676,0.072966,-4.493652,3.393621,-0.870605,,,,,,,
1523694335.532733,0.876131,0.007247,1.911251,-0.224789,-0.122470,-0.021546,0.768241,-0.007247,-0.640106,-0.074760,-0.074647,-0.036652,-3.136078,3.838034,-0.346680,,,,,,,
1523694335.562702,0.871606,0.003999,1.917630,-0.206093,-0.115803,0.082877,0.765351,-0.003999,-0.643587,-0.031388,-0.003234,-0.146360,-1.405579,3.531668,1.080383,,,,,,,
1523694335.592670,0.870995,0.004625,1.921352,0.010249,0.034516,0.086091,0.764956,-0.004625,-0.644053,-0.022860,0.065660,-0.204610,0.794861,3.600897,5.206238,,,,,,,
1523694335.622638,0.872091,0.008766,1.918485,0.252991,0.032319,0.010619,0.765639,-0.008766,-0.643197,-0.023040,0.000038,-0.159934,-0.092453,3.382360,7.681702,,,,,,,
1523694335.652606,0.874777,0.014082,1.911039,0.323868,0.093979,-0.017103,0.767318,-0.014082,-0.641098,-0.030242,-0.074831,-0.083755,-1.275314,4.064413,9.403320,,,,,,,
1523694335.682575,0.876220,0.017833,1.905737,0.096209,0.048805,-0.009770,0.768196,-0.017832,-0.639953,-0.089622,-0.072805,0.018233,-7.202194,4.914343,7.671997,,,,,,,
1523694335.712543,0.879711,0.016336,1.908459,-0.212038,0.158765,0.026120,0.770445,-0.016335,-0.637283,-0.174940,-0.031303,0.122207,-10.895187,4.328939,5.647461,,,,,,,
1523694335.742481,0.882228,0.011876,1.915303,-0.290759,-0.026947,0.017733,0.772095,-0.011876,-0.635381,-0.158967,0.000630,0.060385,-12.754105,2.755117,-1.547180,,,,,,,
1523694335.772449,0.875884,0.007038,1.920337,-0.139981,-0.300906,-0.061803,0.768084,-0.007038,-0.640297,-0.007311,0.032566,-0.204811,-10.899307,2.443914,-4.394958,,,,,,,
1523694335.802417,0.867071,0.005128,1.917025,0.156838,-0.195677,-0.173556,0.762420,-0.005128,-0.647049,-0.011505,-0.014250,-0.260209,-8.386292,0.629477,-7.536499,,,,,,,
1523694335.832386,0.869410,0.004011,1.906907,0.251052,0.191770,-0.299615,0.763936,-0.004011,-0.645266,-0.084294,-0.153856,-0.045560,-6.970657,0.322042,-8.584534,,,,,,,
1523694335.862354,0.873817,0.002824,1.896522,0.212699,0.113416,-0.175954,0.766775,-0.002824,-0.641896,-0.117895,-0.203841,0.092656,-4.869095,0.163122,-8.057861,,,,,,,
1523694335.892322,0.873316,0.003355,1.893117,-0.024452,-0.135073,0.039342,0.766452,-0.003355,-0.642279,0.044690,-0.159991,-0.032312,-3.368393,0.006735,-7.681458,,,,,,,
1523694335.922290,0.868811,0.005197,1.900440,-0.186906,-0.084576,0.320472,0.763545,-0.005197,-0.645720,0.010747,-0.024390,-0.204911,-1.641800,-0.150507,-7.155029,,,,,,,
1523694335.952259,0.868621,0.010549,1.910208,-0.100836,0.041770,0.304428,0.763390,-0.010549,-0.645839,-0.114067,0.068929,-0.067601,-0.892258,-0.378565,-6.853760,,,,,,,
1523694335.982227,0.869510,0.011951,1.916731,-0.178900,-0.016986,0.073212,0.763952,-0.011950,-0.645149,-0.143453,0.043399,-0.092979,-1.183884,0.148260,-6.330933,,,,,,,
1523694336.012195,0.867417,0.007371,1.920206,-0.163273,-0.081623,-0.111041,0.762634,-0.007371,-0.646775,-0.063064,0.024049,-0.198714,-0.804138,1.120733,-7.159668,,,,,,,
1523694336.042163,0.867762,0.003637,1.918502,0.099340,0.113467,-0.141948,0.762872,-0.003637,-0.646526,-0.117822,-0.047663,-0.064747,0.317062,1.189932,-7.909363,,,,,,,
1523694336.072132,0.870195,0.004365,1.910690,0.257072,0.047203,-0.143891,0.764441,-0.004365,-0.644666,-0.068320,-0.039122,0.009686,1.290405,0.885778,-7.682678,,,,,,,
,,,,,,,,,,,,,,,,25.313717,51.439262,15.629251,12.050000,92.460938,1523694335.998458,
1523694336.102100,0.868844,0.006807,1.903036,0.229490,-0.064843,-0.068139,0.763559,-0.006807,-0.645690,-0.035501,-0.047240,0.024428,3.543289,0.951010,-7.306763,,,,,,,
1523694336.132068,0.866590,0.008778,1.898479,0.075260,-0.085154,0.005280,0.762090,-0.008778,-0.647399,-0.078954,-0.091350,-0.047395,7.982666,1.083212,-5.130127,,,,,,,
1523694336.162036,0.865148,0.009287,1.899613,-0.087142,-0.024704,0.079686,0.761152,-0.009287,-0.648494,-0.155409,-0.097403,0.006221,9.793991,1.451345,-3.855713,,,,,,,
1523694336.191974,0.864690,0.007754,1.905490,-0.244347,-0.042604,0.112615,0.760865,-0.007754,-0.648851,-0.107087,-0.081922,-0.078200,11.547775,2.122122,-0.182434,,,,,,,
1523694336.221942,0.861720,0.006486,1.912099,-0.110254,-0.120623,0.128778,0.758941,-0.006486,-0.651114,0.011704,0.000794,-0.283700,10.959061,1.902014,2.068115,,,,,,,
1523694336.251911,0.861581,0.010232,1.912547,0.195405,0.103298,0.060592,0.758827,-0.010232,-0.651199,-0.036216,0.027551,-0.134720,9.781372,1.162268,7.020447,,,,,,,
1523694336.281879,0.867748,0.014914,1.906275,0.252061,0.183904,-0.088625,0.762783,-0.014913,-0.646469,-0.063290,-0.030100,0.016937,10.462082,0.561163,8.973206,,,,,,,
1523694336.311847,0.867731,0.014722,1.901841,-0.020252,-0.103152,-0.121572,0.762775,-0.014722,-0.646484,-0.091769,-0.051471,0.003723,9.949707,0.565573,11.072998,,,,,,,
1523694336.341815,0.864609,0.010235,1.903264,-0.179477,-0.046992,-0.043956,0.760795,-0.010235,-0.648898,-0.107841,-0.073581,-0.028103,5.460724,0.362936,13.246521,,,,,,,
1523694336.371777,0.862021,0.007639,1.908026,-0.165501,-0.106397,0.089300,0.759131,-0.007639,-0.650880,-0.077689,-0.035849,-0.137969,3.059357,-0.000879,13.621765,,,,,,,
1523694336.401745,0.861224,0.007682,1.911645,-0.039680,0.057107,0.061540,0.758612,-0.007682,-0.651485,-0.100058,0.013847,-0.137364,-4.065323,-0.418070,14.369873,,,,,,,
1523694336.431713,0.863772,0.008973,1.910131,0.146770,0.088237,-0.045990,0.760262,-0.008973,-0.649543,0.047829,-0.004302,-0.228311,-7.150558,-0.855158,13.395081,,,,,,,
1523694336.461682,0.866418,0.012160,1.903560,0.288769,0.086803,-0.044809,0.761952,-0.012160,-0.647507,-0.042271,-0.059862,-0.136475,-10.629669,-1.742884,10.021851,,,,,,,
1523694336.491650,0.871143,0.016966,1.896127,0.235781,0.186771,-0.036433,0.764949,-0.016965,-0.643855,-0.135249,-0.090228,0.068171,-13.415237,-1.582376,7.994873,,,,,,,
1523694336.521618,0.876282,0.016654,1.895340,-0.153142,0.130279,-0.027066,0.768252,-0.016653,-0.639918,-0.146853,-0.062174,0.121196,-15.247299,-1.729227,2.894470,,,,,,,
1523694336.551586,0.874808,0.010743,1.902654,-0.374659,-0.150129,0.033790,0.767370,-0.010743,-0.641102,-0.116323,0.005967,-0.026928,-15.633438,-1.130335,0.041931,,,,,,,
1523694336.581555,0.867334,0.007349,1.910096,-0.139307,-0.234950,0.075604,0.762580,-0.007349,-0.646839,0.010796,0.072459,-0.204647,-14.819641,0.361639,-4.313599,,,,,,,
1523694336.611523,0.862925,0.009680,1.909769,0.190414,-0.087775,0.034144,0.759706,-0.009680,-0.650182,0.006194,0.042090,-0.268564,-12.871414,1.176229,-5.965942,,,,,,,
1523694336.641461,0.864451,0.014436,1.902783,0.290300,0.151853,-0.077907,0.760654,-0.014435,-0.648985,-0.032291,-0.071548,-0.104418,-9.570236,2.284719,-7.618713,,,,,,,
1523694336.671429,0.867502,0.017014,1.897831,0.105785,0.028639,-0.018257,0.762599,-0.017013,-0.646635,-0.050746,-0.121446,-0.116899,-4.142914,4.885504,-7.401367,,,,,,,
1523694336.701397,0.866981,0.017952,1.897665,-0.061170,0.007364,0.042386,0.762250,-0.017951,-0.647022,-0.075925,-0.078652,-0.082714,-1.503937,5.474981,-6.052429,,,,,,,
1523694336.731365,0.870418,0.016360,1.903315,-0.218799,0.158238,0.099660,0.764490,-0.016359,-0.644416,-0.230051,-0.058745,0.074790,-0.126221,6.222158,-2.679749,,,,,,,
1523694336.761334,0.869886,0.013412,1.909350,-0.233956,-0.227860,0.008392,0.764180,-0.013411,-0.644850,-0.094426,0.017165,-0.107911,-1.912933,6.606771,-1.107178,,,,,,,
1523694336.791302,0.862168,0.008335,1.913208,-0.153994,-0.144411,-0.101378,0.759223,-0.008335,-0.650765,-0.012046,0.052753,-0.260994,-3.267090,6.237783,-1.181396,,,,,,,
1523694336.821270,0.864270,0.005205,1.910178,0.143578,0.176250,-0.172864,0.760605,-0.005205,-0.649182,-0.045349,-0.088225,-0.152393,-3.425201,6.461767,-2.907349,,,,,,,
1523694336.851238,0.870302,0.005958,1.902980,0.184955,0.194812,-0.106790,0.764504,-0.005958,-0.644579,-0.061363,-0.129952,-0.033674,-4.279999,5.187780,-5.752686,,,,,,,
1523694336.881207,0.874216,0.007934,1.900011,0.066270,0.104754,0.050901,0.767010,-0.007934,-0.641573,-0.122540,-0.067491,0.073229,-3.179169,3.531546,-7.020508,,,,,,,
1523694336.911175,0.877777,0.007717,1.901361,-0.140554,0.090860,-0.017424,0.769291,-0.007717,-0.638839,-0.022099,0.010326,0.003829,-0.297455,0.366644,-8.956421,,,,,,,
1523694336.941143,0.878194,0.001539,1.906842,-0.288694,-0.077777,-0.009907,0.769579,-0.001539,-0.638536,-0.086611,0.043455,-0.187392,1.705460,-1.443033,-9.623169,,,,,,,
1523694336.971111,0.872495,0.000599,1.909753,0.056614,-0.159709,0.036243,0.765929,-0.000599,-0.642912,-0.087310,-0.007641,-0.119829,3.866013,-2.802896,-9.766663,,,,,,,
