timestamp(unix),attitude_roll(radians),attitude_pitch(radians),attitude_yaw(radians),rotation_rate_x(radians/s),rotation_rate_y(radians/s),rotation_rate_z(radians/s),gravity_x(G),gravity_y(G),gravity_z(G),user_acc_x(G),user_acc_y(G),user_acc_z(G),magnetic_field_x(microteslas),magnetic_field_y(microteslas),magnetic_field_z(microteslas),latitude(degree),longitude(degree),altitude(meter),speed(m/s),course(degree),timestamp(unix),User Mark
1522314091.772165,-0.247588,-0.050737,-1.367110,0.942402,0.042812,0.368357,-0.244751,0.050715,-0.968259,0.007935,-0.098231,0.198453,-0.813049,31.979164,-19.389160,,,,,,,1
,,,,,,,,,,,,,,,,25.301158,51.438986,17.614592,2.250000,132.890625,1522314090.998878,1
1522314091.802133,-0.221016,-0.011795,-1.352197,1.558080,1.225275,0.028791,-0.219206,0.011794,-0.975607,-0.026919,-0.134246,-0.412500,-0.372818,31.451439,-20.136841,,,,,,,1
1522314091.832101,-0.193374,0.022844,-1.349300,0.820440,0.678717,-0.262096,-0.192121,-0.022842,-0.981105,-0.086443,-0.019883,-0.240971,-0.074463,31.150322,-19.910461,,,,,,,1
1522314091.862069,-0.183201,0.033583,-1.354307,0.007711,0.046655,-0.151255,-0.182075,-0.033577,-0.982711,-0.187141,-0.028129,-0.107316,0.674454,31.221657,-20.210327,,,,,,,1
1522314091.892038,-0.195147,0.025175,-1.354003,-0.449724,-0.583833,0.213453,-0.193850,-0.025172,-0.980708,-0.157469,0.061839,0.113582,-0.228516,30.925713,-20.209595,,,,,,,1
1522314091.922006,-0.204154,0.006545,-1.344999,-0.534226,-0.014160,0.530342,-0.202735,-0.006545,-0.979212,-0.085489,0.141722,0.186808,-0.599304,31.077827,-19.760437,,,,,,,1
1522314091.951974,-0.198742,-0.009203,-1.331190,-0.320842,0.222051,0.560107,-0.197428,0.009203,-0.980274,0.001368,0.147139,0.165394,0.971603,30.845467,-20.058716,,,,,,,1
1522314091.981942,-0.188411,-0.012908,-1.317415,0.237070,0.396122,0.391984,-0.187283,0.012908,-0.982221,0.059704,0.114747,0.167234,0.747665,30.771767,-19.758545,,,,,,,1
1522314092.011911,-0.179544,0.004387,-1.306773,0.835541,0.228503,0.139012,-0.178579,-0.004387,-0.983916,0.100195,0.080650,0.091078,0.218185,30.548775,-20.132935,,,,,,,1
1522314092.041879,-0.175674,0.029136,-1.303072,0.722984,0.073306,-0.114520,-0.174697,-0.029131,-0.984191,0.046859,0.031054,-0.123597,0.667557,30.621529,-20.357971,,,,,,,1
,,,,,,,,,,,,,,,,25.301149,51.439012,17.539358,2.860000,110.039062,1522314091.998866,1
1522314092.071847,-0.184262,0.041793,-1.306317,0.216316,-0.644130,-0.212205,-0.183061,-0.041781,-0.982213,-0.149672,-0.013013,-0.170939,0.286880,30.322792,-20.806946,,,,,,,1
1522314092.101815,-0.201977,0.052458,-1.312080,0.401222,-0.402119,-0.243196,-0.200331,-0.052434,-0.978324,-0.147386,0.005239,-0.166848,0.286880,30.322792,-20.806946,,,,,,,1
1522314092.131784,-0.205710,0.066097,-1.317315,0.351813,-0.012937,-0.261750,-0.203816,-0.066048,-0.976779,-0.264247,-0.053413,-0.222226,0.284180,30.322365,-21.256958,,,,,,,1
1522314092.161752,-0.204487,0.070177,-1.321787,-0.168050,0.022952,-0.043737,-0.202565,-0.070120,-0.976755,-0.207958,-0.107630,-0.129065,0.210678,30.472694,-21.257629,,,,,,,1
1522314092.191720,-0.210565,0.056385,-1.319941,-0.529760,-0.293823,0.252531,-0.208681,-0.056355,-0.976359,-0.118727,-0.099544,0.035685,0.210815,30.622459,-21.483215,,,,,,,1
1522314092.221688,-0.213227,0.039343,-1.314651,-0.496948,0.163803,0.292581,-0.211451,-0.039333,-0.976597,0.005381,-0.086399,0.178165,1.188919,30.618584,-20.957642,,,,,,,1
1522314092.251657,-0.202354,0.025135,-1.309701,-0.367431,0.420959,0.246598,-0.200912,-0.025133,-0.979287,0.079254,-0.106627,0.164376,1.567947,30.842186,-20.658386,,,,,,,1
1522314092.281625,-0.189943,0.019033,-1.303823,0.041753,0.411847,0.188309,-0.188769,-0.019031,-0.981837,0.092867,-0.055248,0.002940,1.416931,30.692940,-20.582825,,,,,,,1
1522314092.311593,-0.181387,0.027019,-1.299057,0.394523,0.141857,0.075897,-0.180328,-0.027016,-0.983235,0.066223,-0.039070,-0.159739,2.462082,30.612556,-21.257080,,,,,,,1
1522314092.341562,-0.183273,0.039550,-1.295453,0.422284,-0.162774,0.017622,-0.182106,-0.039540,-0.982484,-0.062141,-0.086437,-0.306548,1.337891,30.467995,-20.882019,,,,,,,1
1522314092.371530,-0.187859,0.048280,-1.295561,0.112426,-0.118649,-0.104121,-0.186539,-0.048262,-0.981261,-0.087173,-0.119371,-0.382340,1.114838,30.619072,-20.807739,,,,,,,1
1522314092.401499,-0.194258,0.038541,-1.300553,-0.695895,-0.373787,-0.103405,-0.192896,-0.038531,-0.980462,-0.122168,-0.119565,-0.267752,1.947128,31.215553,-20.584656,,,,,,,1
1522314092.431467,-0.209808,0.012391,-1.307240,-0.932261,-0.543121,0.034045,-0.208256,-0.012391,-0.977996,-0.066174,-0.078155,0.098113,1.500000,31.367790,-20.360535,,,,,,,1
1522314092.461436,-0.220921,-0.010080,-1.309118,-0.561899,-0.216410,0.135219,-0.219117,0.010080,-0.975647,-0.085006,-0.080621,0.292175,1.277847,31.743629,-20.512146,,,,,,,1
1522314092.491404,-0.220766,-0.020354,-1.306222,-0.180305,0.176499,0.187322,-0.218931,0.020352,-0.975528,-0.076113,-0.072613,0.312091,1.432495,32.118080,-20.363586,,,,,,,1
1522314092.521372,-0.211301,-0.024180,-1.301600,-0.024461,0.350706,0.140380,-0.209671,0.024178,-0.977473,-0.044464,-0.017616,0.282481,1.505112,31.742989,-20.137085,,,,,,,1
1522314092.551340,-0.200036,-0.020030,-1.298084,0.301526,0.316593,0.042618,-0.198665,0.020029,-0.979863,-0.053944,0.066565,0.157628,0.454391,31.672707,-20.137329,,,,,,,1
1522314092.581309,-0.192976,-0.009370,-1.297174,0.373457,0.246154,-0.092570,-0.191772,0.009370,-0.981395,-0.103653,0.154524,0.121043,0.679398,31.671700,-20.137207,,,,,,,1
1522314092.611277,-0.187246,0.002247,-1.297960,0.383613,0.137710,-0.087130,-0.186153,-0.002247,-0.982518,-0.156407,0.158772,0.135594,0.299454,31.447960,-20.586426,,,,,,,1
1522314092.641245,-0.180989,0.012585,-1.296706,0.250021,0.259322,0.043710,-0.179988,-0.012585,-0.983588,-0.197103,0.167019,0.055167,2.244110,31.138832,-20.959229,,,,,,,1
1522314092.671213,-0.171625,0.015126,-1.292497,0.060776,0.336548,0.160695,-0.170765,-0.015125,-0.985196,-0.145291,0.161061,0.087720,1.874084,31.141335,-20.134460,,,,,,,1
1522314092.701182,-0.160145,0.015430,-1.286975,0.010180,0.485422,0.163702,-0.159442,-0.015430,-0.987087,-0.064923,0.191791,0.144344,1.416183,30.617943,-20.582581,,,,,,,1
1522314092.731150,-0.144050,0.012932,-1.283749,-0.096038,0.501191,0.073042,-0.143540,-0.012932,-0.989560,0.015397,0.111824,0.090833,2.690216,30.612053,-20.731934,,,,,,,1
1522314092.761118,-0.128854,0.012173,-1.281109,0.131450,0.579951,0.126405,-0.128488,-0.012173,-0.991636,0.050501,0.077923,0.001478,3.368927,30.759377,-20.357178,,,,,,,1
1522314092.791086,-0.111656,0.022683,-1.275770,0.517644,0.501484,0.117183,-0.111395,-0.022681,-0.993517,0.056601,0.084235,-0.120451,3.287964,30.384377,-20.730713,,,,,,,1
1522314092.821055,-0.105592,0.034386,-1.273458,0.231828,-0.045240,-0.007145,-0.105334,-0.034379,-0.993842,0.004229,0.113572,-0.215066,3.213409,30.384773,-20.655762,,,,,,,1
1522314092.851023,-0.117374,0.036638,-1.274681,0.036268,-0.611874,-0.052533,-0.117026,-0.036629,-0.992453,-0.113580,0.032128,-0.189798,2.989609,30.460854,-20.581116,,,,,,,1
1522314092.880991,-0.137832,0.040973,-1.275111,0.215324,-0.625390,-0.005511,-0.137281,-0.040962,-0.989685,-0.170413,-0.008065,-0.102509,2.690506,30.686974,-20.807251,,,,,,,1
1522314092.910959,-0.151862,0.047366,-1.273368,0.192772,-0.338924,0.063451,-0.151109,-0.047348,-0.987383,-0.167510,-0.087219,-0.092177,2.992584,30.985466,-20.958252,,,,,,,1
1522314092.940928,-0.159284,0.052314,-1.270234,0.216311,-0.110397,0.046187,-0.158394,-0.052290,-0.985990,-0.128807,-0.178575,-0.171938,3.445709,31.208580,-20.808960,,,,,,,1
1522314092.970896,-0.156708,0.060798,-1.270198,0.280454,0.172293,-0.134120,-0.155779,-0.060761,-0.985921,-0.051481,-0.206680,-0.258921,3.218643,31.134377,-21.033752,,,,,,,1
1522314093.000864,-0.154304,0.061390,-1.277776,-0.323079,-0.103322,-0.316503,-0.153403,-0.061351,-0.986257,-0.021951,-0.172444,-0.300883,3.215942,30.909309,-21.107849,,,,,,,1
1522314093.030833,-0.162097,0.043145,-1.291551,-0.821549,-0.372659,-0.370949,-0.161237,-0.043132,-0.985973,-0.056383,-0.150243,-0.147008,3.667419,31.057289,-21.108215,,,,,,,1
1522314093.060801,-0.173064,0.018934,-1.304447,-0.864384,-0.383670,-0.150400,-0.172170,-0.018933,-0.984885,-0.070399,-0.161197,0.004127,2.097275,31.364647,-20.810242,,,,,,,1
,,,,,,,,,,,,,,,,25.301148,51.439052,17.546529,4.170000,94.218750,1522314092.998854,1
1522314093.090769,-0.183507,0.001242,-1.308084,-0.379943,-0.227836,0.036257,-0.182479,-0.001242,-0.983209,-0.160325,-0.170038,0.125665,1.876923,31.740791,-20.661804,,,,,,,1
1522314093.120737,-0.181562,-0.006628,-1.306918,-0.266069,0.248457,0.110459,-0.180562,0.006628,-0.983541,-0.142055,-0.162740,0.326452,1.957001,32.340279,-20.814209,,,,,,,1
1522314093.150706,-0.174921,-0.019033,-1.305607,-0.465350,0.124435,0.137079,-0.173998,0.019032,-0.984562,-0.034452,-0.151738,0.316044,2.479156,31.963081,-20.662415,,,,,,,1
1522314093.180674,-0.173359,-0.031755,-1.302169,-0.306077,0.001419,0.198050,-0.172405,0.031750,-0.984514,0.081310,-0.012646,0.210772,3.312500,32.709480,-20.515015,,,,,,,1
1522314093.210642,-0.170702,-0.036988,-1.295851,-0.036521,0.194700,0.269450,-0.169758,0.036980,-0.984792,0.082707,0.097114,0.108998,3.012512,32.486198,-20.139282,,,,,,,1
1522314093.240610,-0.167758,-0.035954,-1.287306,0.191683,-0.073824,0.295461,-0.166864,0.035946,-0.985324,0.043726,0.069385,0.042682,2.932297,31.961571,-20.137207,,,,,,,1
1522314093.270548,-0.171094,-0.025793,-1.278575,0.545284,0.009366,0.125162,-0.170204,0.025790,-0.985071,-0.072533,0.093289,-0.053961,3.534058,32.183784,-20.212769,,,,,,,1
1522314093.300516,-0.167759,-0.011226,-1.277314,0.324550,0.005374,-0.136055,-0.166963,0.011225,-0.985899,-0.108275,0.065282,-0.132204,2.560455,32.188393,-19.988281,,,,,,,1
1522314093.330485,-0.177533,-0.008547,-1.280418,-0.034605,-0.506238,-0.088925,-0.176595,0.008547,-0.984246,-0.162272,0.042143,0.025582,2.482178,31.813820,-19.911804,,,,,,,1
1522314093.360453,-0.192714,-0.010768,-1.280357,-0.084325,-0.415033,0.105937,-0.191512,0.010768,-0.981431,-0.141083,0.015187,0.222413,2.333359,32.114189,-20.213074,,,,,,,1
1522314093.390416,-0.195593,-0.014688,-1.274790,-0.113831,0.110846,0.282271,-0.194328,0.014687,-0.980827,-0.047371,0.055656,0.292945,2.707291,31.962578,-20.137329,,,,,,,1
1522314093.420384,-0.188372,-0.018938,-1.266458,0.025950,0.320937,0.275773,-0.187227,0.018937,-0.982134,0.013963,0.106368,0.220507,2.408661,31.964149,-19.912476,,,,,,,1
1522314093.450353,-0.171088,-0.007330,-1.257653,0.758692,0.755447,0.181049,-0.170250,0.007330,-0.985374,0.058556,0.150065,-0.006860,3.380615,31.884392,-20.286621,,,,,,,1
1522314093.480321,-0.145976,0.026836,-1.250695,1.322938,0.808985,-0.076446,-0.145406,-0.026832,-0.989008,-0.017436,0.167915,-0.388235,2.923447,31.211388,-20.359192,,,,,,,1
1522314093.510289,-0.133153,0.059107,-1.253544,0.749076,0.187239,-0.309601,-0.132528,-0.059073,-0.989417,-0.106302,0.125678,-0.434533,2.991104,30.610847,-20.581726,,,,,,,1
1522314093.540257,-0.136941,0.069572,-1.260208,0.080592,-0.416545,-0.193343,-0.136183,-0.069516,-0.988242,-0.166414,0.071896,-0.274454,3.663849,30.382820,-20.580505,,,,,,,1
1522314093.570226,-0.155886,0.070265,-1.261149,0.058775,-0.668151,0.086054,-0.154873,-0.070207,-0.985437,-0.234974,0.030046,-0.122824,2.236786,30.314018,-20.805969,,,,,,,1
1522314093.600194,-0.168047,0.070092,-1.255410,-0.028531,-0.203576,0.236831,-0.166846,-0.070035,-0.983492,-0.160623,0.016644,0.016558,2.236481,30.463722,-21.106567,,,,,,,1
1522314093.630162,-0.170680,0.064274,-1.248870,-0.224100,-0.035047,0.214146,-0.169502,-0.064229,-0.983435,-0.086449,0.024541,0.105246,2.915512,30.685966,-20.807129,,,,,,,1
1522314093.660131,-0.170068,0.057613,-1.245528,-0.142940,0.071832,0.097952,-0.168969,-0.057581,-0.983938,0.061684,-0.009924,0.202017,2.538132,30.537514,-20.956665,,,,,,,1
1522314093.690099,-0.167971,0.058680,-1.244277,0.261273,0.085408,-0.011510,-0.166895,-0.058647,-0.984229,0.070856,-0.092217,0.148734,3.209061,30.309196,-21.255493,,,,,,,1
1522314093.720067,-0.163019,0.077014,-1.242732,0.781284,0.241957,-0.092268,-0.161817,-0.076938,-0.983817,0.070661,-0.119549,-0.005563,3.735382,30.307060,-21.030151,,,,,,,1
1522314093.750035,-0.158346,0.096253,-1.244309,0.418693,-0.024195,-0.196685,-0.156955,-0.096104,-0.982919,-0.035519,-0.120219,-0.157493,3.208923,30.159431,-21.029846,,,,,,,1
1522314093.780004,-0.169032,0.099353,-1.249027,-0.142604,-0.600204,-0.137920,-0.167399,-0.099190,-0.980887,-0.122884,-0.119820,-0.067422,2.683609,30.311485,-21.330688,,,,,,,1
1522314093.809972,-0.187551,0.093255,-1.253610,-0.220300,-0.490900,-0.090138,-0.185643,-0.093120,-0.978195,-0.161891,-0.153142,0.017471,2.837204,30.760643,-21.482422,,,,,,,1
1522314093.839940,-0.196397,0.087174,-1.256796,-0.221032,-0.166871,-0.079813,-0.194396,-0.087064,-0.977052,-0.253877,-0.194857,-0.020476,2.014328,30.839577,-21.258179,,,,,,,1
1522314093.869908,-0.195652,0.075269,-1.260277,-0.537542,0.049099,-0.005674,-0.193856,-0.075198,-0.978144,-0.076453,-0.131208,0.135935,2.612808,30.686882,-21.257263,,,,,,,1
1522314093.899877,-0.195905,0.055919,-1.263339,-0.619329,-0.055062,0.027399,-0.194350,-0.055890,-0.979339,-0.018907,-0.069095,0.244598,2.472260,31.362953,-20.810059,,,,,,,1
1522314093.929845,-0.196470,0.042629,-1.263739,-0.313283,-0.032023,0.119236,-0.195031,-0.042616,-0.979871,0.076440,-0.010606,0.226453,2.022720,31.365059,-20.735291,,,,,,,1
1522314093.959813,-0.195354,0.039527,-1.260894,0.096727,0.163794,0.080995,-0.193962,-0.039517,-0.980213,0.025078,-0.002674,0.016071,2.699799,31.212608,-20.134338,,,,,,,1
1522314093.989781,-0.186142,0.045095,-1.258694,0.263939,0.433996,-0.018261,-0.184880,-0.045079,-0.981727,-0.022609,0.034902,-0.248605,2.698441,31.212395,-20.359314,,,,,,,1
1522314094.019750,-0.176303,0.046477,-1.261875,-0.226184,0.042884,-0.138629,-0.175202,-0.046460,-0.983436,-0.135223,0.060239,-0.288903,2.019287,30.840370,-20.433167,,,,,,,1
1522314094.049718,-0.188463,0.030479,-1.266233,-0.710779,-0.641653,0.064151,-0.187263,-0.030474,-0.981837,-0.232522,0.082598,0.007212,1.800751,31.216805,-19.984802,,,,,,,1
,,,,,,,,,,,,,,,,25.301149,51.439102,17.698071,4.770000,90.703125,1522314093.998841,1
1522314094.079686,-0.208250,0.009961,-1.263070,-0.512253,-0.553870,0.356163,-0.206737,-0.009961,-0.978346,-0.226078,0.137784,0.229292,1.875580,31.515938,-20.510986,,,,,,,1
1522314094.109654,-0.209883,0.004339,-1.251811,0.182208,0.351310,0.434624,-0.208344,-0.004339,-0.978046,-0.126449,0.183020,0.227222,1.572586,31.217308,-20.509949,,,,,,,1
1522314094.139623,-0.189672,0.014708,-1.238857,0.531113,0.827632,0.273501,-0.188516,-0.014707,-0.981960,0.002755,0.193113,-0.078083,1.867050,30.616066,-20.432373,,,,,,,1
1522314094.169591,-0.165707,0.028859,-1.232717,0.348011,0.636561,0.006114,-0.164881,-0.028854,-0.985891,0.059794,0.155762,-0.220514,2.991547,30.610924,-20.506775,,,,,,,1
1522314094.199559,-0.160934,0.031435,-1.236319,-0.061853,-0.036851,-0.190641,-0.160161,-0.031430,-0.986590,0.045934,0.074811,-0.019879,2.694702,30.837410,-20.357788,,,,,,,1
1522314094.229527,-0.164972,0.029602,-1.243431,-0.072809,-0.171349,-0.252309,-0.164152,-0.029597,-0.985991,-0.068666,-0.011922,0.085020,3.368179,30.909004,-20.732788,,,,,,,1
1522314094.259496,-0.168461,0.030905,-1.249038,0.079531,-0.133102,-0.154204,-0.167585,-0.030900,-0.985373,-0.117678,-0.014266,0.054831,1.795654,31.066231,-20.584167,,,,,,,1
1522314094.289464,-0.170307,0.035877,-1.251148,0.187089,-0.078818,-0.054017,-0.169376,-0.035870,-0.984899,-0.154660,-0.029865,-0.008677,2.242767,30.913994,-20.808350,,,,,,,1
1522314094.319432,-0.175602,0.045651,-1.250138,0.414685,-0.192522,0.017656,-0.174518,-0.045635,-0.983596,-0.145703,-0.078159,-0.014894,2.095932,31.364433,-21.035217,,,,,,,1
1522314094.349401,-0.178065,0.060666,-1.247096,0.531835,0.204655,0.008826,-0.176800,-0.060629,-0.982378,-0.075153,-0.107294,-0.028502,2.539185,30.687431,-21.032288,,,,,,,1
1522314094.379369,-0.173263,0.069778,-1.245395,0.099155,0.093433,-0.037214,-0.171978,-0.069722,-0.982630,-0.020084,-0.108104,-0.184545,2.541138,30.612877,-20.581970,,,,,,,1
1522314094.409320,-0.176369,0.061484,-1.247521,-0.516240,-0.199594,-0.006477,-0.175124,-0.061445,-0.982627,0.033248,-0.087099,-0.009286,2.917465,30.836037,-20.732727,,,,,,,1
1522314094.439288,-0.184788,0.044397,-1.249951,-0.497763,-0.303108,0.047993,-0.183557,-0.044382,-0.982007,0.040277,-0.088766,0.064099,2.397110,31.213524,-20.584473,,,,,,,1
1522314094.469257,-0.188251,0.043065,-1.248702,0.282600,0.077923,-0.012551,-0.186967,-0.043052,-0.981422,-0.042052,-0.079080,-0.077934,1.945633,31.065559,-20.584106,,,,,,,1
1522314094.499225,-0.182552,0.049646,-1.248654,-0.042902,0.091560,-0.025582,-0.181316,-0.049626,-0.982172,-0.055897,-0.058697,-0.099600,2.995712,31.435234,-21.185059,,,,,,,1
1522314094.529193,-0.187644,0.037814,-1.250279,-0.538244,-0.269083,0.059647,-0.186411,-0.037805,-0.981744,-0.058309,-0.042090,0.097772,2.175140,31.514519,-20.585754,,,,,,,1
1522314094.559161,-0.193188,0.024454,-1.249848,-0.286756,-0.056623,0.131010,-0.191931,-0.024451,-0.981104,-0.020578,-0.001534,0.225519,2.323456,31.438698,-20.735413,,,,,,,1
1522314094.589130,-0.188856,0.026419,-1.245683,0.320697,0.315386,0.053304,-0.187669,-0.026416,-0.981877,-0.059706,0.032275,0.052556,2.772095,31.211830,-20.584229,,,,,,,1
1522314094.619098,-0.179828,0.030225,-1.244117,-0.092009,0.148747,0.021198,-0.178779,-0.030221,-0.983425,-0.032830,0.038170,-0.027134,2.095642,31.064888,-20.583984,,,,,,,1
1522314094.649066,-0.182840,0.021562,-1.243954,-0.272239,-0.237857,0.057686,-0.181781,-0.021560,-0.983103,-0.053983,0.035476,0.020441,2.100143,31.290230,-20.209900,,,,,,,1
1522314094.679034,-0.187373,0.021413,-1.243173,0.208642,0.023855,-0.004028,-0.186236,-0.021411,-0.982272,-0.099149,0.029758,-0.060346,2.697983,31.436943,-20.810242,,,,,,,1
1522314094.709003,-0.185646,0.024883,-1.243432,-0.041215,-0.006162,-0.027634,-0.184524,-0.024881,-0.982513,-0.110062,0.021356,-0.109589,1.427261,31.593117,-20.361450,,,,,,,1
1522314094.738971,-0.189214,0.016142,-1.243874,-0.423885,-0.200548,0.095889,-0.188063,-0.016142,-0.982024,-0.030886,0.077100,-0.028718,2.323456,31.214088,-20.359497,,,,,,,1
1522314094.768939,-0.199208,0.001825,-1.243456,-0.393128,-0.261122,0.084260,-0.197893,-0.001825,-0.980222,-0.072585,0.018229,0.054013,2.701599,31.662148,-20.586060,,,,,,,1
1522314094.798907,-0.201220,-0.004670,-1.241627,-0.052172,0.063164,0.088445,-0.199863,0.004670,-0.979813,0.016101,0.060317,0.081101,1.427856,31.742958,-20.512085,,,,,,,1
1522314094.828876,-0.193106,-0.001875,-1.241187,0.133464,0.323100,-0.070448,-0.191908,0.001875,-0.981411,0.015761,0.039339,-0.101337,1.725601,31.292000,-20.135132,,,,,,,1
1522314094.858844,-0.193247,-0.000994,-1.243828,0.008400,-0.206695,-0.090250,-0.192046,0.000994,-0.981385,-0.032502,0.011640,-0.075881,2.702652,31.587440,-20.285828,,,,,,,1
1522314094.888812,-0.195704,0.004966,-1.245610,0.297642,0.000900,-0.096635,-0.194454,-0.004966,-0.980899,-0.088901,-0.002587,-0.144482,2.027222,31.590416,-20.361145,,,,,,,1
1522314094.918780,-0.194642,0.010642,-1.247782,-0.045936,0.090721,-0.057544,-0.193404,-0.010642,-0.981061,-0.074876,-0.038522,-0.041064,1.125763,31.444466,-20.361023,,,,,,,1
1522314094.948749,-0.198549,-0.000945,-1.248729,-0.493524,-0.248218,0.100144,-0.197247,0.000945,-0.980353,-0.054401,-0.022139,0.175681,2.249207,31.289421,-20.359863,,,,,,,1
1522314094.978717,-0.202747,-0.010026,-1.247843,-0.055301,0.069607,0.079912,-0.201351,0.010026,-0.979468,-0.035160,-0.004593,0.239493,1.655243,31.667458,-19.986633,,,,,,,1
1522314095.008685,-0.196791,-0.003984,-1.245559,0.360284,0.250936,-0.015848,-0.195521,0.003984,-0.980691,-0.015523,-0.010805,0.018335,1.649231,31.292122,-20.360168,,,,,,,1
1522314095.038654,-0.190914,0.005958,-1.244712,0.234650,0.078154,-0.029630,-0.189753,-0.005958,-0.981814,-0.005025,0.006096,-0.171781,2.474365,31.438179,-20.585327,,,,,,,1
,,,,,,,,,,,,,,,,25.301153,51.439155,17.580244,4.900000,88.945312,1522314094.998829,1
1522314095.068622,-0.189684,0.010473,-1.246700,0.049402,0.094090,-0.116086,-0.188538,-0.010473,-0.982010,-0.061538,-0.003641,-0.251358,2.323761,31.289009,-20.434814,,,,,,,1
1522314095.098590,-0.192124,0.002783,-1.252193,-0.598085,-0.223210,-0.096012,-0.190943,-0.002783,-0.981597,-0.018773,0.025412,0.020919,1.727859,31.516991,-20.136047,,,,,,,1
1522314095.128558,-0.204478,-0.022943,-1.256910,-0.910969,-0.522162,0.066017,-0.203002,0.022941,-0.978909,-0.047409,0.018364,0.184049,2.180984,31.740089,-19.986694,,,,,,,1
1522314095.158527,-0.216778,-0.037039,-1.257055,-0.024502,-0.184545,0.096172,-0.214936,0.037031,-0.975926,-0.055953,-0.003065,0.211949,1.282364,31.744362,-19.762146,,,,,,,1
1522314095.188495,-0.208647,-0.025902,-1.252881,0.513351,0.378922,0.017152,-0.207067,0.025899,-0.977984,-0.007868,0.038829,0.021349,1.958679,31.741539,-19.536804,,,,,,,1
1522314095.218463,-0.197720,-0.009953,-1.251967,0.458448,0.398866,-0.081992,-0.196424,0.009953,-0.980469,0.020109,0.007335,-0.120041,1.654343,31.442696,-19.760803,,,,,,,1
1522314095.248431,-0.190679,-0.000619,-1.252758,0.229703,0.088191,-0.095704,-0.189526,0.000619,-0.981876,-0.074696,0.025504,-0.126813,1.352722,31.368889,-19.910583,,,,,,,1
1522314095.278400,-0.189656,0.003439,-1.254772,-0.049685,-0.022984,-0.053181,-0.188520,-0.003439,-0.982063,-0.058001,0.043951,-0.133217,1.801193,31.441505,-20.285645,,,,,,,1
1522314095.308368,-0.192873,-0.004835,-1.256921,-0.355730,-0.104490,0.009544,-0.191677,0.004835,-0.981446,-0.089481,0.032854,-0.042937,1.954773,31.441414,-19.685608,,,,,,,1
1522314095.338336,-0.195257,-0.013577,-1.256720,-0.180114,-0.127856,0.096012,-0.194001,0.013576,-0.980907,-0.041869,0.013996,0.054241,1.429810,31.443779,-19.685913,,,,,,,1
1522314095.368304,-0.192602,-0.009079,-1.255360,0.307366,0.329869,-0.038351,-0.191405,0.009079,-0.981469,-0.025849,-0.008942,-0.021186,1.355865,31.369408,-19.385620,,,,,,,1
1522314095.398282,-0.185937,-0.006265,-1.256605,-0.137160,-0.002613,-0.049000,-0.184863,0.006265,-0.982744,-0.021725,0.006857,0.089068,1.056183,31.445686,-19.461060,,,,,,,1
1522314095.428250,-0.190970,-0.015018,-1.258548,-0.357225,-0.157827,0.042612,-0.189790,0.015017,-0.981710,0.003144,0.018171,0.212896,1.056946,31.520683,-19.461365,,,,,,,1
1522314095.458218,-0.195503,-0.017933,-1.256399,0.289281,-0.023520,0.053629,-0.194229,0.017932,-0.980792,-0.058579,0.021588,0.084369,0.981491,31.296318,-19.160522,,,,,,,1
1522314095.488186,-0.186559,-0.000269,-1.253213,0.670738,0.374858,-0.067955,-0.185479,0.000269,-0.982648,-0.015663,0.029135,-0.132952,1.354370,31.219414,-19.385010,,,,,,,1
1522314095.518155,-0.177274,0.013023,-1.254010,0.175701,0.140691,-0.137358,-0.176332,-0.013023,-0.984245,-0.050918,0.007667,-0.351388,1.501816,31.143456,-19.684631,,,,,,,1
1522314095.548123,-0.181694,0.005446,-1.259206,-0.548724,-0.402948,-0.092590,-0.180693,-0.005446,-0.983524,-0.073030,0.035124,-0.181637,1.804504,31.367165,-19.610352,,,,,,,1
1522314095.578091,-0.199754,-0.015784,-1.263607,-0.769774,-0.722163,0.048213,-0.198403,0.015784,-0.979993,-0.118690,0.067941,0.081541,1.134491,31.595634,-19.161621,,,,,,,1
1522314095.608060,-0.215019,-0.031098,-1.264035,-0.247976,-0.199242,0.148240,-0.213263,0.031093,-0.976500,-0.055597,0.030599,0.218138,0.379410,31.223808,-19.385559,,,,,,,1
1522314095.638028,-0.211905,-0.028410,-1.259335,0.342706,0.254574,0.080021,-0.210238,0.028406,-0.977237,-0.006773,0.019491,0.091633,0.833282,31.746529,-19.612366,,,,,,,1
1522314095.667996,-0.206037,-0.018155,-1.257146,0.272321,0.118575,-0.050943,-0.204549,0.018154,-0.978688,-0.005687,-0.021358,0.036534,0.753189,31.371666,-19.835876,,,,,,,1
1522314095.697964,-0.203886,-0.011786,-1.258109,0.212430,0.028816,-0.109504,-0.202462,0.011785,-0.979219,-0.027259,-0.039831,-0.047880,0.530594,31.522820,-19.686646,,,,,,,1
1522314095.727933,-0.203720,-0.004674,-1.260812,0.169675,-0.021832,-0.144650,-0.202311,0.004674,-0.979310,-0.056249,-0.053777,-0.201766,1.354980,31.593880,-19.911499,,,,,,,1
1522314095.757901,-0.208744,-0.008518,-1.266613,-0.482891,-0.316613,-0.153364,-0.207223,0.008518,-0.978257,-0.138220,-0.066287,-0.082550,0.608902,31.672768,-19.387207,,,,,,,1
1522314095.787869,-0.222875,-0.031077,-1.273547,-0.912724,-0.503686,0.008456,-0.220928,0.031072,-0.974795,-0.116246,-0.081091,0.210788,0.233917,31.674461,-19.387390,,,,,,,1
1522314095.817837,-0.230460,-0.055451,-1.276949,-0.648424,-0.024752,0.107275,-0.228074,0.055423,-0.972065,-0.068495,-0.062350,0.410419,0.763229,32.196922,-19.539185,,,,,,,1
1522314095.847806,-0.228581,-0.067441,-1.275971,-0.132398,0.096937,0.148029,-0.226081,0.067390,-0.971775,-0.026788,-0.042137,0.387378,0.315506,32.199318,-19.164429,,,,,,,1
1522314095.877774,-0.219131,-0.054539,-1.268895,0.916495,0.595256,0.085441,-0.217058,0.054512,-0.974635,0.029253,0.012947,0.127986,0.312515,31.899330,-19.163269,,,,,,,1
1522314095.907742,-0.186832,-0.014038,-1.260955,1.600916,1.325996,-0.109776,-0.185728,0.014038,-0.982501,0.075224,0.015946,-0.483426,1.051682,31.220329,-19.835144,,,,,,,1
1522314095.937710,-0.160583,0.017828,-1.263819,0.409606,0.397610,-0.339887,-0.159868,-0.017827,-0.986977,-0.066481,-0.039348,-0.602805,0.903183,31.146370,-19.459900,,,,,,,1
1522314095.967679,-0.172012,0.006255,-1.270858,-0.867319,-0.884033,-0.017762,-0.171162,-0.006255,-0.985223,-0.145565,-0.008454,-0.200034,0.683899,31.672432,-19.387207,,,,,,,1
1522314095.997647,-0.201793,-0.026415,-1.273303,-1.115216,-0.902026,0.210102,-0.200356,0.026412,-0.979367,-0.099708,0.075410,0.272519,1.131332,31.595116,-19.686646,,,,,,,1
1522314096.027615,-0.213056,-0.053132,-1.269556,-0.601803,-0.005634,0.396044,-0.211150,0.053107,-0.976010,0.000166,0.078790,0.415417,0.384369,31.449226,-18.936401,,,,,,,1
1522314096.057583,-0.203064,-0.053814,-1.258185,0.608710,0.545611,0.303696,-0.201379,0.053788,-0.978035,0.042413,0.134048,0.159996,0.531631,31.448112,-19.386353,,,,,,,1
,,,,,,,,,,,,,,,,25.301159,51.439227,17.549647,5.460000,88.593750,1522314095.998818,1
1522314096.087552,-0.181261,-0.021766,-1.249119,1.257239,0.702725,-0.056129,-0.180228,0.021764,-0.983384,0.094901,0.058177,-0.097335,1.577545,31.218117,-19.684937,,,,,,,1
1522314096.117520,-0.165881,0.011191,-1.248412,0.874431,0.342736,-0.256373,-0.165111,-0.011191,-0.986211,0.039394,-0.024392,-0.369334,0.529099,31.148201,-19.310181,,,,,,,1
1522314096.147488,-0.168286,0.021135,-1.256342,-0.210496,-0.501946,-0.339440,-0.167455,-0.021133,-0.985653,-0.062433,-0.061829,-0.261646,0.676865,30.922539,-19.309204,,,,,,,1
1522314096.177456,-0.195140,-0.001954,-1.270401,-1.164767,-1.037995,-0.233060,-0.193904,0.001954,-0.981019,-0.121450,-0.046815,0.096940,1.206024,31.519859,-19.611267,,,,,,,1
1522314096.207425,-0.221822,-0.031598,-1.280161,-0.783780,-0.603634,-0.029700,-0.219897,0.031593,-0.975011,-0.126889,-0.088203,0.299016,0.013138,31.825905,-18.938110,,,,,,,1
1522314096.237393,-0.223850,-0.042243,-1.280182,-0.077179,0.249905,0.134071,-0.221787,0.042231,-0.974180,-0.072738,-0.030756,0.292616,0.010132,31.750542,-19.312805,,,,,,,1
1522314096.267361,-0.212699,-0.039350,-1.274321,0.240816,0.327070,0.232250,-0.210936,0.039340,-0.976708,0.059080,-0.056018,0.096459,0.314468,32.049385,-19.088806,,,,,,,1
1522314096.297330,-0.208300,-0.029536,-1.267626,0.427848,0.153629,0.047166,-0.206707,0.029532,-0.977957,0.069454,-0.049124,-0.224680,-0.215759,31.526772,-19.086975,,,,,,,1
1522314096.327298,-0.204698,-0.023912,-1.269021,-0.107742,-0.013533,-0.170430,-0.203213,0.023910,-0.978842,0.020901,-0.019683,-0.278024,-0.439850,31.752556,-19.313049,,,,,,,1
1522314096.357266,-0.213501,-0.034696,-1.278654,-0.619753,-0.443284,-0.224730,-0.211755,0.034689,-0.976707,-0.040808,0.018076,-0.075783,0.384979,31.599068,-19.086975,,,,,,,1
1522314096.387208,-0.229498,-0.053610,-1.287679,-0.642133,-0.471018,-0.051033,-0.227162,0.053585,-0.972382,-0.142757,-0.004757,0.180802,-0.359909,31.977654,-18.863892,,,,,,,1
1522314096.417177,-0.239494,-0.064437,-1.287401,-0.082034,-0.087081,0.157837,-0.236719,0.064393,-0.969442,-0.177084,-0.013337,0.326147,-0.658264,32.054146,-18.714355,,,,,,,1
1522314096.447145,-0.231511,-0.059947,-1.277118,0.435928,0.385359,0.335697,-0.229036,0.059912,-0.971573,-0.069563,0.030894,0.233322,-0.438950,31.752708,-19.163025,,,,,,,1
1522314096.477113,-0.213299,-0.043249,-1.264205,0.811403,0.644525,0.217446,-0.211487,0.043236,-0.976424,0.033906,0.053780,-0.045152,-0.588806,31.678535,-19.012817,,,,,,,1
1522314096.507081,-0.192632,-0.019246,-1.258027,0.649403,0.606610,-0.075661,-0.191408,0.019245,-0.981322,0.046526,0.054180,-0.245988,0.007126,31.450554,-19.311646,,,,,,,1
1522314096.537050,-0.185163,-0.011252,-1.261097,-0.013929,-0.010757,-0.142671,-0.184096,0.011252,-0.982844,-0.000902,0.023965,-0.257589,0.233170,31.374840,-19.011230,,,,,,,1
1522314096.567018,-0.190691,-0.012571,-1.269748,-0.190261,-0.230269,-0.298135,-0.189523,0.012570,-0.981796,-0.079947,0.045337,-0.064148,-0.295135,31.451530,-19.686768,,,,,,,1
1522314096.596986,-0.204570,-0.025458,-1.277359,-0.619072,-0.560376,-0.045595,-0.203081,0.025456,-0.978831,-0.124647,-0.015019,0.191203,0.684647,31.747429,-19.387512,,,,,,,1
1522314096.626954,-0.221947,-0.037500,-1.275867,0.031325,-0.498740,0.177523,-0.219974,0.037491,-0.974785,-0.180081,-0.039307,0.095955,0.011627,31.900536,-19.313416,,,,,,,1
1522314096.656892,-0.214934,-0.020432,-1.266921,0.745364,0.610057,0.156691,-0.213238,0.020431,-0.976787,0.001095,0.008118,-0.120183,-0.369064,31.377174,-19.386536,,,,,,,1
1522314096.686860,-0.201222,-0.013002,-1.265261,-0.189364,0.260996,-0.045028,-0.199850,0.013002,-0.979740,0.022650,-0.084566,-0.083279,-0.441956,31.452721,-19.161804,,,,,,,1
1522314096.716829,-0.204002,-0.025669,-1.269348,-0.439196,-0.214386,-0.049009,-0.202523,0.025666,-0.978941,0.064553,-0.045548,0.080717,0.007584,31.450630,-19.236633,,,,,,,1
1522314096.746797,-0.206284,-0.028199,-1.273836,0.097881,0.129399,-0.168294,-0.204743,0.028195,-0.978410,-0.010086,-0.012265,0.060014,-0.144653,31.226311,-19.235779,,,,,,,1
1522314096.776765,-0.204018,-0.028754,-1.278153,-0.278184,-0.072126,-0.089513,-0.202522,0.028750,-0.978856,-0.100701,-0.001162,0.064854,0.762344,31.972160,-19.313354,,,,,,,1
1522314096.806733,-0.210105,-0.039701,-1.279389,-0.348641,-0.286003,0.131202,-0.208398,0.039691,-0.977238,-0.082953,-0.040194,0.068989,-0.438492,31.752785,-19.088013,,,,,,,1
1522314096.836702,-0.216339,-0.041435,-1.274943,0.203450,-0.057690,0.105821,-0.214471,0.041423,-0.975852,-0.101264,0.042943,0.068686,-0.588959,31.753380,-19.163086,,,,,,,1
1522314096.866670,-0.212469,-0.037144,-1.272598,0.057312,0.137585,0.042641,-0.210728,0.037135,-0.976839,-0.068141,-0.026103,0.134813,0.310272,31.674339,-19.162354,,,,,,,1
1522314096.896638,-0.209747,-0.033316,-1.270310,0.246666,0.187255,0.013965,-0.208097,0.033310,-0.977541,-0.001987,0.012466,-0.014128,-0.065460,31.601021,-19.162231,,,,,,,1
1522314096.926607,-0.201686,-0.023814,-1.269144,0.298556,0.256619,-0.047860,-0.200265,0.023811,-0.979452,0.012994,0.043755,-0.260172,-0.519638,31.228004,-19.235962,,,,,,,1
1522314096.956575,-0.205929,-0.024207,-1.271844,-0.290450,-0.456569,-0.116838,-0.204417,0.024204,-0.978585,-0.118246,-0.017277,-0.097969,0.532089,31.448189,-19.311340,,,,,,,1
1522314096.986543,-0.220944,-0.036327,-1.275029,-0.388756,-0.496926,0.067460,-0.219006,0.036319,-0.975047,-0.066669,-0.016468,0.014796,-0.588501,31.528831,-18.712219,,,,,,,1
1522314097.016511,-0.226179,-0.037569,-1.275150,0.150813,0.228989,0.005332,-0.224097,0.037560,-0.973843,-0.026651,-0.059258,0.019192,-0.965149,31.455376,-18.862122,,,,,,,1
1522314097.046480,-0.219586,-0.033089,-1.274456,0.082341,0.161365,-0.025548,-0.217707,0.033083,-0.975453,-0.030935,-0.061723,-0.067698,0.531952,31.523033,-19.461609,,,,,,,1
,,,,,,,,,,,,,,,,25.301159,51.439281,17.490433,5.070000,88.242188,1522314096.998805,1
1522314097.076448,-0.217564,-0.034991,-1.276367,-0.179186,0.097684,-0.092818,-0.215719,0.034984,-0.975828,0.006872,-0.011790,0.083922,-0.593002,31.528099,-19.462219,,,,,,,1
1522314097.106416,-0.217128,-0.041988,-1.278455,-0.194618,-0.140950,-0.000952,-0.215236,0.041975,-0.975659,-0.037343,0.027529,0.105191,-0.590607,31.453621,-18.936951,,,,,,,1
1522314097.136384,-0.217366,-0.039286,-1.277597,0.238004,0.157520,0.012931,-0.215492,0.039276,-0.975716,-0.063897,0.044053,-0.087700,0.084656,31.750130,-19.387817,,,,,,,1
1522314097.166353,-0.211670,-0.035200,-1.277827,-0.100511,0.081176,-0.041588,-0.209963,0.035193,-0.977076,-0.063063,0.023324,-0.090414,-0.966949,31.455086,-19.162109,,,,,,,1
1522314097.196321,-0.214443,-0.048978,-1.280436,-0.674658,-0.180794,0.091440,-0.212549,0.048958,-0.975923,0.018426,-0.000176,0.173387,-0.513947,31.753044,-19.163086,,,,,,,1
1522314097.226289,-0.225738,-0.061462,-1.280437,0.030895,-0.271495,0.047303,-0.223403,0.061423,-0.972789,-0.066224,0.028009,0.195781,-0.213379,31.901543,-19.313538,,,,,,,1
1522314097.256257,-0.220516,-0.044199,-1.277047,0.759257,0.363925,-0.057215,-0.218520,0.044185,-0.974832,-0.014085,0.017262,0.010018,-0.515594,31.453285,-18.936890,,,,,,,1
1522314097.286226,-0.210362,-0.026126,-1.276600,0.407031,0.341717,-0.097950,-0.208742,0.026123,-0.977622,0.017702,-0.011353,-0.200006,-0.589096,31.603615,-18.937561,,,,,,,1
1522314097.316194,-0.206506,-0.018467,-1.277498,0.173712,-0.007403,-0.084978,-0.205006,0.018466,-0.978586,-0.083156,0.000684,-0.298284,-0.146317,31.151161,-19.385498,,,,,,,1
1522314097.346162,-0.216914,-0.019234,-1.279759,-0.232192,-0.470030,-0.037924,-0.215177,0.019233,-0.976386,-0.134844,-0.066688,0.026709,-0.817230,31.604103,-19.462585,,,,,,,1
1522314097.376130,-0.230581,-0.033310,-1.278287,-0.446450,-0.571158,0.216673,-0.228416,0.033304,-0.972994,-0.114419,-0.008920,0.125994,-1.188919,31.756081,-19.163391,,,,,,,1
1522314097.406115,-0.230673,-0.031536,-1.274053,0.435648,0.553645,0.126691,-0.228519,0.031531,-0.973029,0.025486,-0.063239,-0.006723,0.008774,31.750313,-19.537781,,,,,,,1
1522314097.436083,-0.216070,-0.020645,-1.271215,0.282174,0.351600,-0.100180,-0.214347,0.020644,-0.976539,0.005088,-0.083373,0.042076,-0.667252,31.378807,-19.086609,,,,,,,1
1522314097.466051,-0.206647,-0.014992,-1.271885,0.089128,0.202001,-0.063946,-0.205156,0.014992,-0.978614,0.058946,-0.008507,-0.035607,-0.293335,31.451836,-19.386780,,,,,,,1
1522314097.496019,-0.204236,-0.016283,-1.274150,-0.168332,0.007700,0.003195,-0.202793,0.016282,-0.979086,0.040454,0.036453,-0.037088,0.079102,31.374855,-19.686279,,,,,,,1
1522314097.525988,-0.210937,-0.020752,-1.274806,-0.206322,-0.302862,0.057816,-0.209331,0.020751,-0.977625,-0.078190,0.040056,0.006403,-0.892380,31.454674,-19.237061,,,,,,,1
1522314097.555956,-0.217185,-0.024118,-1.275309,-0.104042,0.016308,-0.034063,-0.215419,0.024115,-0.976224,-0.119282,-0.022132,0.106564,-0.963638,31.829994,-19.238586,,,,,,,1
1522314097.585924,-0.213411,-0.032950,-1.275878,-0.308521,0.006564,0.063825,-0.211680,0.032944,-0.976784,-0.018407,0.001815,0.154640,-0.213226,31.826698,-19.163208,,,,,,,1
1522314097.615893,-0.212359,-0.033595,-1.275079,0.243554,0.177847,-0.009458,-0.210648,0.033588,-0.976985,-0.036209,0.017834,0.036082,-0.293335,31.451836,-19.386780,,,,,,,1
1522314097.645861,-0.207418,-0.025051,-1.274121,0.208853,0.001895,-0.059390,-0.205869,0.025049,-0.978259,-0.019854,0.041281,-0.154264,-0.594666,31.452965,-19.611938,,,,,,,1
1522314097.675829,-0.213671,-0.024675,-1.276585,-0.196251,-0.312835,-0.039128,-0.211984,0.024673,-0.976961,-0.006750,0.019242,-0.010893,-0.220139,31.451195,-19.686768,,,,,,,1
1522314097.705797,-0.221393,-0.029430,-1.279391,-0.107300,-0.040799,-0.072365,-0.219494,0.029425,-0.975170,-0.036259,-0.034735,0.005077,-1.416016,31.457253,-19.012390,,,,,,,1
1522314097.735766,-0.224482,-0.032910,-1.280369,-0.099880,-0.239824,-0.029539,-0.222481,0.032904,-0.974382,-0.074165,-0.053503,0.008180,-0.888779,31.679878,-19.013000,,,,,,,1
1522314097.765734,-0.227564,-0.035338,-1.280620,-0.037378,-0.040643,0.032109,-0.225464,0.035331,-0.973611,-0.027374,-0.055289,-0.015220,-0.887878,31.904655,-19.238892,,,,,,,1
1522314097.795702,-0.227192,-0.032742,-1.280300,0.192871,0.044235,-0.029612,-0.225122,0.032736,-0.973780,-0.079810,-0.089529,-0.138662,-1.035492,32.055473,-19.089539,,,,,,,1
1522314097.825670,-0.222578,-0.024889,-1.281131,0.102197,0.237171,-0.083153,-0.220677,0.024886,-0.975029,-0.057171,-0.081756,-0.083946,-0.887589,31.979576,-19.314209,,,,,,,1
1522314097.855639,-0.219612,-0.033360,-1.283766,-0.577896,-0.060792,0.066887,-0.217730,0.033353,-0.975439,-0.016599,-0.085142,0.053152,-0.583862,32.128578,-18.939636,,,,,,,1
1522314097.885607,-0.226837,-0.051194,-1.283339,-0.423922,-0.151021,0.150206,-0.224602,0.051172,-0.973106,0.003945,-0.006845,0.189827,-0.657516,32.129143,-18.714661,,,,,,,1
1522314097.915575,-0.225126,-0.053738,-1.279400,0.201184,0.110415,0.073697,-0.222906,0.053712,-0.973359,-0.006845,-0.003495,0.097001,0.011917,31.975456,-19.388733,,,,,,,1
1522314097.945543,-0.215365,-0.046895,-1.278358,0.126015,0.376959,-0.024667,-0.213469,0.046878,-0.975824,0.073485,-0.047748,0.063929,0.088120,31.825569,-18.938110,,,,,,,1
1522314097.975512,-0.207771,-0.046832,-1.279357,-0.035893,0.193704,-0.050171,-0.206053,0.046815,-0.977420,0.126403,0.061782,-0.047009,-0.514236,31.678123,-19.087769,,,,,,,1
1522314098.005480,-0.204369,-0.045083,-1.283845,-0.033162,-0.055128,-0.175657,-0.202743,0.045068,-0.978194,-0.005097,0.047233,-0.138474,0.011932,31.750832,-19.012817,,,,,,,1
1522314098.035448,-0.214704,-0.045498,-1.288714,0.038372,-0.273285,-0.157259,-0.212838,0.045482,-0.976028,-0.095786,0.074620,0.040436,-0.141357,31.376595,-18.936401,,,,,,,1
,,,,,,,,,,,,,,,,25.301153,51.439338,17.373769,6.390000,90.000000,1522314097.998793,1
1522314098.065416,-0.218505,-0.042676,-1.289278,0.196205,-0.134493,-0.002782,-0.216573,0.042663,-0.975334,-0.116740,0.028504,0.068000,-1.040146,31.455711,-18.862183,,,,,,,1
1522314098.095385,-0.215662,-0.038016,-1.284233,0.223912,0.088231,0.199464,-0.213840,0.038007,-0.976129,-0.044812,0.046542,-0.005087,-0.366348,31.602226,-19.312439,,,,,,,1
1522314098.125353,-0.213095,-0.031788,-1.276292,0.287581,0.011523,0.207039,-0.211379,0.031782,-0.976887,-0.004182,0.040620,-0.005840,-1.266922,31.456429,-19.162231,,,,,,,1
1522314098.155321,-0.211694,-0.023529,-1.270630,0.359269,0.148173,0.090813,-0.210058,0.023527,-0.977406,0.035864,-0.025999,-0.061184,-1.341324,31.606621,-19.312927,,,,,,,1
1522314098.185290,-0.212663,-0.013956,-1.269293,0.273066,-0.036104,-0.120031,-0.211043,0.013955,-0.977377,-0.005418,-0.064233,-0.142038,-0.220139,31.451195,-19.686768,,,,,,,1
1522314098.215258,-0.216209,-0.013350,-1.273933,-0.156426,-0.198075,-0.205432,-0.214510,0.013350,-0.976631,-0.041334,-0.107695,-0.019280,-1.040588,31.455635,-18.937195,,,,,,,1
1522314098.245226,-0.222610,-0.020824,-1.279321,-0.313415,-0.284702,-0.069082,-0.220728,0.020822,-0.975113,-0.054892,-0.108118,0.099869,-1.189514,31.606239,-19.012878,,,,,,,1
1522314098.275194,-0.228171,-0.024247,-1.280404,0.075779,-0.068400,0.010908,-0.226130,0.024245,-0.973795,-0.132650,-0.152251,0.040446,-0.586258,31.753822,-18.713074,,,,,,,1
1522314098.305163,-0.222443,-0.020386,-1.279536,-0.026998,0.301890,-0.024702,-0.220567,0.020384,-0.975159,-0.042021,-0.072737,-0.031418,-1.414658,31.682091,-19.163208,,,,,,,1
1522314098.335131,-0.214638,-0.030046,-1.282160,-0.587429,0.149893,0.029373,-0.212897,0.030042,-0.976613,0.020179,-0.070356,-0.012554,-1.264664,31.681419,-19.163147,,,,,,,1
1522314098.365099,-0.215027,-0.044490,-1.283421,-0.364010,0.062708,0.107419,-0.213162,0.044475,-0.976004,0.009564,0.015705,0.080954,0.086761,31.825340,-19.163086,,,,,,,1
1522314098.395053,-0.212692,-0.044738,-1.281221,0.170256,0.135910,0.087492,-0.210881,0.044723,-0.976488,0.008412,-0.036971,0.113207,-0.888031,31.754875,-19.013306,,,,,,,1
1522314098.425022,-0.207201,-0.035926,-1.275536,0.386052,0.174620,0.097204,-0.205589,0.035919,-0.977979,0.001045,0.036896,-0.033938,-1.116165,31.530754,-19.162476,,,,,,,1
1522314098.454990,-0.199160,-0.029110,-1.272359,0.053161,0.188402,0.067113,-0.197762,0.029106,-0.979818,0.063362,0.076607,-0.168009,0.233917,31.674461,-19.387390,,,,,,,1
1522314098.484958,-0.201904,-0.031064,-1.272644,-0.046969,-0.127196,-0.046663,-0.200439,0.031059,-0.979214,-0.048234,0.009911,-0.041279,-0.215012,31.601768,-19.087280,,,,,,,1
1522314098.514926,-0.207509,-0.032301,-1.273461,-0.028473,-0.257088,-0.018806,-0.205916,0.032295,-0.978037,-0.054781,-0.006737,0.110559,-0.443451,31.302727,-19.161255,,,,,,,1
1522314098.544895,-0.209603,-0.031951,-1.272514,0.084528,0.011073,0.039604,-0.207965,0.031946,-0.977614,-0.048108,-0.024164,0.010634,0.232422,31.524467,-19.386841,,,,,,,1
1522314098.574863,-0.207114,-0.030595,-1.270918,-0.016892,0.011315,0.039535,-0.205540,0.030591,-0.978170,-0.035381,0.020099,-0.079309,-0.888931,31.754738,-19.163269,,,,,,,1
1522314098.604831,-0.211582,-0.031632,-1.270631,-0.022879,-0.171227,0.007758,-0.209902,0.031627,-0.977211,-0.036131,-0.032146,0.052055,-0.214722,31.676704,-19.162598,,,,,,,1
1522314098.634799,-0.214135,-0.030228,-1.271093,0.106751,0.066033,-0.078704,-0.212405,0.030224,-0.976714,-0.029249,-0.052502,0.015975,0.154404,31.449440,-19.761536,,,,,,,1
1522314098.664768,-0.212021,-0.031189,-1.273471,-0.188799,-0.089668,-0.045734,-0.210333,0.031184,-0.977132,0.009100,-0.061122,-0.040797,-0.892838,31.454597,-19.312073,,,,,,,1
1522314098.694736,-0.216720,-0.034827,-1.275361,-0.070356,-0.073142,-0.019029,-0.214897,0.034820,-0.976016,-0.004478,-0.069503,-0.104978,-0.136856,31.826576,-18.938171,,,,,,,1
1522314098.724704,-0.220259,-0.038919,-1.276874,-0.242947,-0.223625,-0.015810,-0.218317,0.038910,-0.975102,-0.075369,-0.091995,-0.117336,0.015976,32.200737,-19.089600,,,,,,,1
1522314098.754672,-0.224692,-0.044511,-1.278821,-0.213208,0.000360,0.004240,-0.222586,0.044496,-0.973897,-0.040491,-0.110674,0.083470,-0.208878,31.902275,-18.563538,,,,,,,1
1522314098.784641,-0.221535,-0.051614,-1.278514,-0.198415,0.084599,0.107528,-0.219435,0.051591,-0.974262,0.029280,-0.046464,0.109699,-0.360352,31.977577,-18.938904,,,,,,,1
1522314098.814609,-0.219023,-0.054570,-1.275314,-0.065352,0.043621,0.147086,-0.216953,0.054543,-0.974657,0.060123,0.052376,0.127504,-0.359756,31.902809,-18.713562,,,,,,,1
1522314098.844577,-0.217360,-0.054778,-1.271813,0.138032,0.100852,0.096036,-0.215329,0.054750,-0.975006,0.011288,0.005919,0.011688,-0.510345,31.978249,-18.938965,,,,,,,1
1522314098.874546,-0.211844,-0.042270,-1.268927,0.585170,0.317771,-0.083922,-0.210075,0.042257,-0.976772,-0.006233,-0.025961,-0.079762,0.465195,32.123711,-19.089050,,,,,,,1
1522314098.904514,-0.201929,-0.034620,-1.269657,-0.108012,0.075856,-0.039449,-0.200440,0.034613,-0.979094,-0.028625,0.009104,-0.150849,0.312225,31.824409,-19.087952,,,,,,,1
1522314098.934482,-0.206333,-0.041451,-1.271954,-0.243706,-0.067952,0.059687,-0.204696,0.041439,-0.977948,-0.034867,0.004581,-0.039966,-0.285812,31.752541,-18.638000,,,,,,,1
1522314098.964450,-0.206767,-0.045016,-1.270753,-0.070076,0.097264,0.075638,-0.205088,0.045001,-0.977708,-0.055074,0.018262,0.061433,-0.363953,31.752373,-19.162964,,,,,,,1
1522314098.994419,-0.204937,-0.047401,-1.267899,-0.059570,0.085392,0.098034,-0.203277,0.047383,-0.977974,0.011886,-0.005833,0.049660,0.467285,32.198921,-18.864380,,,,,,,1
1522314099.024387,-0.207606,-0.054462,-1.265324,-0.266098,-0.202385,0.143989,-0.205812,0.054435,-0.977076,0.049943,-0.016609,0.176966,0.013275,31.975670,-19.163696,,,,,,,1
1522314099.054355,-0.209504,-0.054894,-1.261725,0.264567,-0.021622,0.089862,-0.207661,0.054867,-0.976661,0.019154,0.001179,-0.029488,-0.883240,32.055153,-18.714478,,,,,,,1
,,,,,,,,,,,,,,,,25.301152,51.439418,17.462239,7.050000,92.109375,1522314098.998780,1
1522314099.084323,-0.201396,-0.037698,-1.261315,0.577887,0.474733,-0.189573,-0.199895,0.037689,-0.979092,0.000448,-0.065414,-0.250980,-0.134766,31.901787,-18.713440,,,,,,,1
1522314099.114292,-0.194906,-0.033148,-1.269011,-0.355629,0.070609,-0.264453,-0.193568,0.033142,-0.980527,0.000316,-0.119705,-0.112872,-0.436707,31.977699,-19.163940,,,,,,,1
1522314099.144260,-0.204345,-0.052897,-1.275924,-0.677316,-0.476164,-0.063833,-0.202642,0.052872,-0.977824,-0.033503,-0.032440,0.252223,0.391861,32.199196,-18.939453,,,,,,,1
1522314099.174228,-0.207695,-0.062414,-1.275931,0.063157,0.112475,0.132195,-0.205804,0.062373,-0.976603,0.002236,0.014394,0.232493,-0.960190,31.905434,-18.788879,,,,,,,1
1522314099.204196,-0.197297,-0.050940,-1.269143,0.517516,0.297002,0.176028,-0.195766,0.050918,-0.979328,0.064326,0.074387,-0.049496,-0.137756,31.601799,-18.712280,,,,,,,1
1522314099.234165,-0.188646,-0.036524,-1.262862,0.418631,0.278761,0.083280,-0.187404,0.036516,-0.981604,0.063854,0.048979,-0.302683,0.533310,31.523262,-19.236633,,,,,,,1
1522314099.264133,-0.191050,-0.033834,-1.263418,-0.105547,-0.168067,-0.108461,-0.189781,0.033828,-0.981243,0.018501,-0.084792,-0.090549,0.835678,31.447426,-18.711182,,,,,,,1
1522314099.294101,-0.200725,-0.044126,-1.266663,-0.413334,-0.454316,-0.093480,-0.199186,0.044111,-0.978968,-0.066317,0.001100,0.054728,-0.213211,31.602074,-18.787292,,,,,,,1
1522314099.324069,-0.204688,-0.054235,-1.270440,-0.341052,-0.139807,0.035188,-0.202963,0.054208,-0.977685,-0.008402,0.018012,0.067773,-0.135361,31.751945,-18.562927,,,,,,,1
1522314099.354038,-0.209742,-0.058344,-1.269232,0.016350,-0.075544,0.140869,-0.207853,0.058311,-0.976420,-0.018572,-0.029777,0.148417,-0.207062,31.902565,-18.263550,,,,,,,1
1522314099.384006,-0.207217,-0.052237,-1.263219,0.378051,0.315843,0.115168,-0.205456,0.052213,-0.977272,0.061719,-0.044675,0.004158,0.087067,31.675636,-18.862488,,,,,,,1
1522314099.413981,-0.202171,-0.045375,-1.260051,0.210706,-0.038656,-0.038024,-0.200590,0.045360,-0.978625,0.016157,-0.076915,-0.150282,0.761612,31.672539,-18.937134,,,,,,,1
1522314099.443950,-0.202196,-0.040884,-1.262291,-0.036190,0.008473,-0.153342,-0.200654,0.040872,-0.978809,0.067383,-0.002313,-0.227703,-0.365295,31.527534,-19.012146,,,,,,,1
1522314099.473918,-0.209172,-0.051614,-1.271369,-0.674407,-0.489946,-0.222572,-0.207373,0.051591,-0.976901,-0.068383,-0.028092,-0.163938,0.088562,31.825630,-18.863098,,,,,,,1
1522314099.503886,-0.225387,-0.074041,-1.279350,-0.802676,-0.454290,0.041549,-0.222871,0.073974,-0.972037,-0.065444,-0.069533,0.213095,0.391556,32.124275,-18.864136,,,,,,,1
1522314099.533854,-0.234268,-0.088566,-1.277576,-0.130367,-0.047272,0.251552,-0.231222,0.088450,-0.968872,-0.081278,-0.055003,0.264450,-0.803757,32.504799,-18.716187,,,,,,,1
1522314099.563823,-0.225705,-0.081681,-1.266380,0.506792,0.461721,0.328230,-0.223047,0.081590,-0.971387,0.061777,-0.026811,0.120359,-0.060364,31.976234,-18.938782,,,,,,,1
1522314099.593791,-0.211290,-0.066454,-1.255972,0.620727,0.377960,0.109966,-0.209259,0.066405,-0.975603,0.031555,-0.042708,-0.116163,0.241714,32.050102,-18.713867,,,,,,,1
1522314099.623760,-0.200060,-0.048764,-1.252766,0.450558,0.306375,-0.077619,-0.198492,0.048745,-0.978890,0.088538,-0.014931,-0.151161,0.012390,31.526283,-18.561951,,,,,,,1
1522314099.653727,-0.199801,-0.046979,-1.258748,-0.232364,-0.022388,-0.231229,-0.198256,0.046962,-0.979025,0.082548,-0.125011,0.030935,0.463104,31.823875,-18.937866,,,,,,,1
1522314099.683697,-0.206208,-0.054164,-1.263158,-0.029172,-0.303061,-0.129577,-0.204450,0.054138,-0.977379,-0.029666,-0.066589,-0.005226,0.764603,31.972511,-18.938354,,,,,,,1
1522314099.713664,-0.203957,-0.047504,-1.264125,0.161008,0.063494,-0.041355,-0.202317,0.047487,-0.978168,-0.088393,0.006575,-0.097516,0.239182,31.750175,-18.637695,,,,,,,1
1522314099.743632,-0.201733,-0.048261,-1.263824,-0.130445,0.090311,0.180019,-0.200134,0.048243,-0.978580,-0.005905,-0.056894,-0.061062,0.539444,31.823753,-18.712830,,,,,,,1
1522314099.773600,-0.198808,-0.042442,-1.258369,0.370002,0.383030,0.081010,-0.197323,0.042429,-0.979420,-0.029407,-0.043375,-0.063915,0.763397,31.897453,-19.013062,,,,,,,1
1522314099.803569,-0.192788,-0.042163,-1.253652,-0.151193,-0.063399,0.135403,-0.191425,0.042151,-0.980602,0.050175,-0.003974,-0.096791,-0.063202,31.601387,-18.787231,,,,,,,1
1522314099.833537,-0.198618,-0.049844,-1.250895,-0.163493,-0.211990,0.114237,-0.197070,0.049823,-0.979123,0.052111,0.026532,-0.054615,0.238129,31.824883,-18.937988,,,,,,,1
1522314099.863505,-0.199327,-0.053288,-1.251825,-0.174600,-0.017469,-0.043660,-0.197729,0.053262,-0.978809,0.048681,-0.032663,0.042896,0.689606,31.972862,-18.938354,,,,,,,1
1522314099.893473,-0.203747,-0.056510,-1.254919,-0.057428,-0.137480,-0.094595,-0.202017,0.056480,-0.977752,0.005453,-0.127830,0.109023,0.319427,32.050194,-18.263855,,,,,,,1
1522314099.923442,-0.204907,-0.058082,-1.256314,-0.104637,-0.113361,-0.030729,-0.203133,0.058049,-0.977429,-0.002510,-0.060612,0.017193,0.318680,31.975197,-18.263550,,,,,,,1
1522314099.953410,-0.212512,-0.063602,-1.257900,-0.262723,-0.343690,-0.011435,-0.210490,0.063559,-0.975528,-0.055806,-0.060446,0.047076,0.771179,32.497704,-18.715393,,,,,,,1
1522314099.983378,-0.219491,-0.071639,-1.260255,-0.322854,-0.154585,0.013910,-0.217175,0.071577,-0.973505,-0.024296,-0.056456,0.183725,-0.204239,32.277397,-18.415039,,,,,,,1
1522314100.013346,-0.219591,-0.076337,-1.260042,-0.002632,0.152263,0.088419,-0.217196,0.076263,-0.973144,-0.012815,-0.032119,0.061432,0.168655,32.200493,-18.639526,,,,,,,1
1522314100.043315,-0.217368,-0.074978,-1.258016,0.044272,0.030575,-0.001990,-0.215054,0.074908,-0.973725,-0.095096,-0.031710,-0.085540,0.473740,32.349724,-18.039978,,,,,,,1
,,,,,,,,,,,,,,,,25.301146,51.439496,17.294591,8.000000,94.921875,1522314099.998769,1
1522314100.073283,-0.213892,-0.076770,-1.259197,-0.207877,0.226719,-0.002370,-0.211640,0.076695,-0.974334,0.053834,0.001156,-0.068528,-0.355865,32.202934,-18.564819,,,,,,,1
1522314100.103251,-0.214642,-0.086699,-1.260929,-0.304654,-0.169349,-0.008438,-0.212198,0.086591,-0.973383,-0.042685,0.011737,0.040323,-0.357056,32.127861,-18.639526,,,,,,,1
1522314100.133220,-0.211154,-0.087229,-1.259804,0.090420,0.189210,0.089520,-0.208792,0.087118,-0.974072,-0.008844,0.076120,-0.018848,0.316864,32.199532,-18.939453,,,,,,,1
1522314100.163188,-0.203089,-0.085297,-1.257697,0.019567,0.348726,0.096766,-0.200962,0.085193,-0.975887,0.046055,0.029538,-0.047611,0.091568,31.900993,-18.488342,,,,,,,1
1522314100.193156,-0.197566,-0.085417,-1.255832,0.052783,0.246360,-0.014991,-0.195567,0.085313,-0.976972,-0.005086,0.034728,-0.017626,1.365921,31.970039,-18.713013,,,,,,,1
1522314100.223125,-0.193105,-0.082201,-1.254299,0.260804,-0.050504,-0.032649,-0.191259,0.082108,-0.978099,0.040518,0.080383,-0.155263,0.990799,31.821953,-18.487610,,,,,,,1
1522314100.253093,-0.193610,-0.075388,-1.255509,0.092813,-0.160427,-0.057169,-0.191856,0.075317,-0.978529,-0.002449,0.042649,-0.078951,0.014328,31.900963,-18.863403,,,,,,,1
1522314100.283062,-0.197523,-0.073975,-1.257845,-0.001550,0.043493,-0.008435,-0.195704,0.073908,-0.977874,0.023051,-0.042612,0.175262,0.989136,31.971428,-19.013245,,,,,,,1
1522314100.313029,-0.198031,-0.069493,-1.255052,0.390020,0.033699,0.035560,-0.196265,0.069437,-0.978089,-0.043939,-0.087900,0.200852,1.290314,32.045158,-18.938354,,,,,,,1
1522314100.342997,-0.187971,-0.048294,-1.247169,0.993461,0.426798,0.132584,-0.186648,0.048275,-0.981240,0.045321,-0.009457,-0.055259,0.236633,31.674889,-18.937378,,,,,,,1
1522314100.372966,-0.173711,-0.021656,-1.241661,0.655033,0.262927,-0.015622,-0.172798,0.021654,-0.984719,0.001579,-0.043108,-0.347663,0.305328,31.224281,-19.235535,,,,,,,1
1522314100.402924,-0.176536,-0.016398,-1.243337,-0.261997,-0.236032,-0.058431,-0.175596,0.016398,-0.984326,0.015196,-0.109415,-0.061741,0.080902,31.375145,-19.386292,,,,,,,1
1522314100.432892,-0.190525,-0.032963,-1.246837,-0.609451,-0.522413,-0.011509,-0.189271,0.032957,-0.981372,-0.017943,-0.081022,0.113635,0.235428,31.599831,-19.012146,,,,,,,1
1522314100.462860,-0.199019,-0.041763,-1.247140,-0.015446,-0.131151,0.049273,-0.197535,0.041751,-0.979406,-0.030264,0.004758,0.041708,0.986725,32.045921,-19.538513,,,,,,,1
1522314100.492829,-0.197680,-0.037859,-1.246703,0.111707,0.100329,0.026766,-0.196255,0.037850,-0.979822,0.002407,-0.080422,-0.126181,0.084808,31.450645,-18.861572,,,,,,,1
1522314100.522797,-0.202170,-0.037091,-1.246459,-0.039978,-0.194426,-0.010353,-0.200657,0.037083,-0.978959,-0.063335,-0.056538,0.058717,0.608902,31.672768,-19.387207,,,,,,,1
1522314100.552765,-0.201856,-0.037289,-1.244740,0.116678,0.100905,0.096020,-0.200348,0.037280,-0.979015,0.035325,-0.051333,0.022487,1.063690,31.971016,-19.088135,,,,,,,1
1522314100.582733,-0.199960,-0.028762,-1.242237,0.272174,0.091924,-0.042373,-0.198548,0.028758,-0.979669,-0.071471,0.007436,-0.099082,-0.589249,31.678459,-19.087769,,,,,,,1
1522314100.612702,-0.196834,-0.028718,-1.243000,-0.255313,-0.082519,0.020266,-0.195485,0.028714,-0.980286,0.002232,-0.007840,-0.122314,0.236923,31.749809,-19.012695,,,,,,,1
1522314100.642670,-0.202678,-0.037930,-1.244920,-0.360993,-0.054785,0.041475,-0.201148,0.037921,-0.978826,-0.032769,-0.063083,0.062872,0.312225,31.599785,-18.712036,,,,,,,1
1522314100.672638,-0.205374,-0.044741,-1.243192,0.021969,-0.047752,0.113153,-0.203730,0.044726,-0.978005,-0.009298,-0.043032,0.038277,0.239624,31.974876,-18.938599,,,,,,,1
1522314100.702606,-0.198649,-0.034876,-1.238391,0.410444,0.271856,0.009761,-0.197225,0.034869,-0.979738,0.015752,-0.011264,-0.133925,-0.065460,31.601021,-19.162231,,,,,,,1
1522314100.732575,-0.196357,-0.035326,-1.239340,-0.393360,-0.181909,-0.003169,-0.194975,0.035319,-0.980172,-0.001543,-0.014933,0.021325,1.134476,31.820259,-19.537537,,,,,,,1
1522314100.762512,-0.204429,-0.048809,-1.243551,-0.411252,-0.109695,0.009530,-0.202767,0.048790,-0.978011,0.066124,-0.045342,0.150969,0.165512,31.975365,-18.788635,,,,,,,1
1522314100.792481,-0.205768,-0.047335,-1.242643,0.390271,0.009731,-0.032605,-0.204090,0.047317,-0.977808,-0.035290,-0.034088,-0.025534,0.312515,31.899330,-19.163269,,,,,,,1
1522314100.822449,-0.204100,-0.038335,-1.242420,0.080818,0.025529,-0.053102,-0.202537,0.038326,-0.978524,-0.015511,-0.104472,-0.153876,1.288071,31.820168,-18.937439,,,,,,,1
1522314100.852417,-0.208248,-0.043345,-1.243575,-0.190826,-0.256802,-0.004000,-0.206552,0.043332,-0.977476,-0.093497,-0.091107,-0.119296,0.091400,32.200478,-19.014587,,,,,,,1
1522314100.882386,-0.210703,-0.047236,-1.243583,-0.139042,-0.042840,0.076796,-0.208914,0.047218,-0.976793,-0.003443,-0.103752,0.086703,0.765350,32.047508,-18.938660,,,,,,,1
1522314100.912354,-0.209244,-0.050123,-1.242882,-0.087686,0.215246,0.075515,-0.207460,0.050102,-0.976960,0.017595,-0.125312,0.002274,0.844070,32.422157,-18.940063,,,,,,,1
1522314100.942322,-0.207050,-0.051460,-1.240264,0.045589,-0.079324,0.060993,-0.205302,0.051437,-0.977346,0.038157,-0.023285,-0.124857,0.390213,31.899422,-18.713196,,,,,,,1
1522314100.972290,-0.208599,-0.049732,-1.239244,-0.044719,0.007064,0.049111,-0.206833,0.049712,-0.977112,0.016663,-0.123549,0.029221,0.016281,32.051033,-18.789001,,,,,,,1
1522314101.002259,-0.209498,-0.053145,-1.236580,-0.060482,-0.075332,0.135496,-0.207675,0.053120,-0.976754,0.061496,-0.083210,-0.054511,1.362930,31.894676,-19.087708,,,,,,,1
1522314101.032227,-0.209431,-0.052922,-1.235014,-0.049251,0.132769,0.004235,-0.207612,0.052897,-0.976780,0.023271,-0.061168,-0.066219,0.537949,31.673759,-18.712219,,,,,,,1
1522314101.062195,-0.208964,-0.062068,-1.235711,-0.443142,-0.250310,0.068266,-0.207047,0.062028,-0.976363,-0.018509,-0.012910,0.124571,0.541397,31.973824,-18.638489,,,,,,,1
,,,,,,,,,,,,,,,,25.301143,51.439573,17.345489,7.920000,95.625000,1522314100.998756,1
1522314101.092163,-0.214890,-0.069113,-1.234329,0.024249,0.026357,0.150378,-0.212731,0.069058,-0.974667,0.033882,-0.012066,0.201993,0.468185,32.199074,-18.714355,,,,,,,1
1522314101.122132,-0.208350,-0.059937,-1.227736,0.563983,0.316607,0.088684,-0.206474,0.059901,-0.976617,0.014412,-0.027186,-0.008888,0.393204,32.199409,-18.714417,,,,,,,1
1522314101.152100,-0.199319,-0.042318,-1.222658,0.472164,0.175306,-0.033779,-0.197825,0.042306,-0.979324,0.008509,0.002387,-0.207123,0.690948,31.973076,-18.713318,,,,,,,1
1522314101.182068,-0.200297,-0.045223,-1.223860,-0.392927,-0.268309,0.043800,-0.198757,0.045208,-0.979005,0.045239,-0.039287,-0.083922,0.840485,31.972328,-18.788269,,,,,,,1
1522314101.212036,-0.211100,-0.048117,-1.224069,0.221880,-0.154580,-0.028307,-0.209293,0.048098,-0.976669,-0.104687,-0.026400,-0.077728,0.240677,31.900169,-18.638306,,,,,,,1
1522314101.242005,-0.205436,-0.039983,-1.224503,0.032842,0.270079,-0.058706,-0.203831,0.039973,-0.978190,-0.007061,-0.051997,-0.047003,0.091110,32.125542,-18.939270,,,,,,,1
1522314101.271973,-0.206485,-0.050956,-1.224210,-0.476255,-0.354102,0.184478,-0.204755,0.050934,-0.977487,0.018811,-0.039795,0.059839,0.463379,32.123421,-19.389099,,,,,,,1
1522314101.301941,-0.215731,-0.055478,-1.221397,0.150036,0.170880,0.106630,-0.213732,0.055449,-0.975317,-0.004438,-0.076735,0.172888,0.543640,32.198814,-18.639343,,,,,,,1
1522314101.331909,-0.204767,-0.046141,-1.214484,0.545287,0.137422,0.038771,-0.203123,0.046125,-0.978066,0.008665,0.013766,-0.117393,0.316864,31.974907,-18.563538,,,,,,,1
1522314101.361878,-0.196681,-0.026204,-1.212299,0.610974,0.389756,-0.055201,-0.195348,0.026201,-0.980384,0.041387,-0.119646,-0.203042,1.668289,32.343452,-18.939392,,,,,,,1
1522314101.391843,-0.189743,-0.022437,-1.214605,-0.358180,-0.042281,-0.076804,-0.188559,0.022435,-0.981805,0.063926,-0.053578,-0.071692,1.514114,31.969078,-19.012939,,,,,,,1
1522314101.421811,-0.200723,-0.038658,-1.217733,-0.523841,-0.448449,0.016192,-0.199229,0.038649,-0.979191,-0.012746,-0.012297,0.106388,0.764740,32.122292,-19.163879,,,,,,,1
1522314101.451780,-0.204688,-0.043512,-1.217177,0.164143,0.176424,0.068278,-0.203069,0.043499,-0.978198,0.011495,-0.034343,-0.021528,0.920410,32.422035,-18.715027,,,,,,,1
1522314101.481748,-0.202879,-0.039350,-1.214414,0.040163,-0.153368,0.014182,-0.201334,0.039340,-0.978732,-0.076254,-0.072818,0.008426,0.768341,32.122871,-18.563904,,,,,,,1
1522314101.511716,-0.204313,-0.042898,-1.213339,-0.143595,-0.041107,0.133269,-0.202708,0.042884,-0.978300,0.051585,-0.064186,-0.005557,1.589554,31.968803,-18.937927,,,,,,,1
1522314101.541684,-0.203130,-0.042297,-1.210626,0.088664,0.034071,0.088616,-0.201555,0.042284,-0.978564,0.031572,-0.012515,-0.103605,1.443909,32.269691,-18.714172,,,,,,,1
1522314101.571653,-0.207659,-0.039549,-1.209428,-0.051255,-0.130420,-0.043449,-0.206009,0.039539,-0.977751,-0.055176,-0.051532,-0.083788,0.545883,32.423805,-18.640259,,,,,,,1
1522314101.601621,-0.210159,-0.049516,-1.211439,-0.407331,-0.149287,0.044749,-0.208360,0.049495,-0.976799,0.016511,-0.061947,0.023018,0.996475,32.571617,-18.790588,,,,,,,1
1522314101.631589,-0.217098,-0.058029,-1.210746,-0.172721,-0.101643,0.138638,-0.215034,0.057996,-0.974883,-0.003975,-0.087675,0.115813,1.449600,32.794731,-18.641296,,,,,,,1
1522314101.661557,-0.216185,-0.060597,-1.207031,-0.008837,0.019092,0.139694,-0.214111,0.060560,-0.974930,0.053268,-0.057920,0.106705,1.001114,32.946754,-18.642151,,,,,,,1
1522314101.691526,-0.217770,-0.052194,-1.202759,0.518047,0.004744,0.028224,-0.215758,0.052171,-0.975052,-0.009187,-0.085420,-0.024719,0.549164,32.798714,-18.716736,,,,,,,1
1522314101.721494,-0.207791,-0.034600,-1.202297,0.391381,0.550590,-0.185508,-0.206176,0.034593,-0.977903,0.013579,-0.055161,-0.146059,0.397842,32.574532,-18.565918,,,,,,,1
1522314101.751462,-0.204100,-0.038200,-1.206852,-0.388809,-0.212192,-0.081978,-0.202538,0.038191,-0.978529,-0.051017,-0.088805,-0.112672,0.692291,32.197914,-18.864258,,,,,,,1
1522314101.781430,-0.209332,-0.049521,-1.207294,-0.281591,-0.066464,0.161959,-0.207552,0.049500,-0.976971,-0.008421,0.006484,0.060955,1.820084,32.567696,-19.015198,,,,,,,1
1522314101.811399,-0.209607,-0.050462,-1.201557,0.225997,0.002584,0.136693,-0.207810,0.050441,-0.976868,-0.046478,-0.016124,-0.123154,0.695145,32.348122,-18.639893,,,,,,,1
1522314101.841367,-0.204413,-0.049806,-1.196842,-0.201039,0.043814,0.166172,-0.202740,0.049785,-0.977966,0.084454,-0.003200,-0.057160,1.145721,32.495949,-18.790222,,,,,,,1
