timestamp(unix),attitude_roll(radians),attitude_pitch(radians),attitude_yaw(radians),rotation_rate_x(radians/s),rotation_rate_y(radians/s),rotation_rate_z(radians/s),gravity_x(G),gravity_y(G),gravity_z(G),user_acc_x(G),user_acc_y(G),user_acc_z(G),magnetic_field_x(microteslas),magnetic_field_y(microteslas),magnetic_field_z(microteslas),latitude(degree),longitude(degree),altitude(meter),speed(m/s),course(degree),timestamp(unix),User Mark
1523523783.696779,-0.781593,-0.096357,-1.272448,0.012219,-0.049202,-0.095351,-0.701143,0.096208,-0.706499,0.006136,0.089186,0.009066,-1.013428,25.892952,-9.337280,,,,,,,
1523523783.726748,-0.780622,-0.096139,-1.272827,-0.006211,0.031837,0.024945,-0.700472,0.095991,-0.707194,0.003954,0.082385,0.005595,-0.860306,26.117424,-9.188110,,,,,,,
,,,,,,,,,,,,,,,,25.321085,51.458323,19.101931,18.629999,76.992188,1523523782.996366,
1523523783.756716,-0.777221,-0.097971,-1.273394,-0.069656,0.153221,0.011990,-0.697938,0.097814,-0.709446,0.001344,0.046137,-0.110668,-0.113327,25.814064,-9.186523,,,,,,,
1523523783.786684,-0.775380,-0.099173,-1.273935,0.013874,-0.055096,-0.011178,-0.696548,0.099011,-0.710645,0.019927,0.040851,-0.115725,-1.317459,25.444405,-9.260620,,,,,,,
1523523783.816652,-0.779207,-0.096820,-1.274351,0.088805,-0.120494,-0.105894,-0.699424,0.096669,-0.708138,0.033652,0.086314,-0.027396,-0.790100,25.592186,-9.111023,,,,,,,
1523523783.846621,-0.780648,-0.092939,-1.274646,0.054044,-0.012043,-0.102832,-0.700702,0.092806,-0.707391,0.002323,0.091032,-0.022666,-0.415421,25.740196,-9.411377,,,,,,,
1523523783.876589,-0.778980,-0.092820,-1.277233,-0.118974,0.054868,-0.035905,-0.699529,0.092687,-0.708566,0.022878,0.065211,-0.094885,-0.868698,25.142677,-8.959229,,,,,,,
1523523783.906557,-0.778869,-0.095145,-1.280243,-0.087319,-0.028119,-0.033659,-0.699297,0.095002,-0.708488,-0.029051,0.060409,-0.078636,-1.014618,25.593269,-9.036133,,,,,,,
1523523783.936525,-0.780198,-0.095171,-1.281800,0.014041,-0.052762,-0.041015,-0.700236,0.095028,-0.707557,0.009669,0.060246,-0.071785,-0.188019,25.664696,-8.885925,,,,,,,
1523523783.966524,-0.781224,-0.093135,-1.281575,0.075080,-0.026268,-0.052716,-0.701097,0.093000,-0.706974,0.005479,0.068636,-0.031307,-0.491608,25.440834,-9.110229,,,,,,,
1523523783.996492,-0.781416,-0.092002,-1.281576,-0.012483,-0.006015,-0.031486,-0.701306,0.091872,-0.706914,-0.007434,0.073655,-0.038859,-0.266891,25.364906,-9.034790,,,,,,,
1523523784.026461,-0.780657,-0.092651,-1.284517,-0.099670,0.022143,-0.076331,-0.700727,0.092518,-0.707404,0.019010,0.063335,-0.080698,-1.088425,25.893303,-9.337341,,,,,,,
1523523784.056429,-0.781681,-0.092542,-1.287904,-0.048553,-0.032005,-0.099687,-0.701458,0.092410,-0.706693,-0.009067,0.076734,-0.036166,-0.859711,26.042641,-8.962830,,,,,,,
,,,,,,,,,,,,,,,,25.321117,51.458514,19.482958,18.990000,80.156250,1523523783.996355,
1523523784.086397,-0.781371,-0.091433,-1.290874,-0.028029,0.026335,-0.093331,-0.701311,0.091305,-0.706982,0.002245,0.084689,-0.083133,-0.559250,26.041359,-8.887634,,,,,,,
1523523784.116366,-0.781844,-0.091614,-1.292945,-0.073477,-0.032412,-0.031520,-0.701633,0.091486,-0.706639,-0.025952,0.088369,-0.043193,0.046722,26.414009,-8.513855,,,,,,,
1523523784.146334,-0.782137,-0.093126,-1.295012,-0.058570,-0.009278,-0.002758,-0.701742,0.092991,-0.706334,0.009252,0.067653,-0.071223,-0.854172,26.642540,-9.040222,,,,,,,
1523523784.176302,-0.782140,-0.094034,-1.295835,-0.016831,-0.006097,-0.017642,-0.701684,0.093895,-0.706272,0.006540,0.060081,-0.061276,-0.703415,26.716866,-9.040466,,,,,,,
1523523784.206270,-0.783753,-0.093080,-1.296407,0.022575,-0.072861,-0.056972,-0.702885,0.092946,-0.705203,0.015172,0.082439,-0.037611,-0.020676,27.314095,-8.742493,,,,,,,
1523523784.236239,-0.784889,-0.092151,-1.298185,-0.037924,-0.019424,-0.079446,-0.703747,0.092020,-0.704464,0.036739,0.079443,-0.026767,-0.773346,27.092400,-8.816956,,,,,,,
1523523784.266207,-0.785746,-0.091639,-1.300777,-0.040118,-0.034290,-0.080496,-0.704384,0.091511,-0.703894,0.027596,0.082760,0.007193,-1.225250,26.719734,-8.515686,,,,,,,
1523523784.296175,-0.784680,-0.091445,-1.304068,-0.077844,0.104080,-0.098784,-0.703646,0.091317,-0.704657,-0.006514,0.081763,-0.031015,-1.520752,27.171059,-8.517639,,,,,,,
1523523784.326143,-0.782493,-0.092145,-1.306865,-0.040097,0.004844,-0.052841,-0.702057,0.092015,-0.706149,0.007538,0.060039,-0.037671,-2.198700,26.874107,-8.516785,,,,,,,
1523523784.356112,-0.783632,-0.092399,-1.308653,-0.035844,-0.008947,-0.059208,-0.702845,0.092268,-0.705332,0.026118,0.081499,-0.027105,-1.069550,27.019478,-8.066772,,,,,,,
1523523784.386080,-0.782465,-0.092509,-1.310231,-0.013393,0.023782,-0.036849,-0.702014,0.092378,-0.706145,0.044467,0.084487,-0.017793,-2.497635,26.800758,-8.216675,,,,,,,
1523523784.416048,-0.782222,-0.092642,-1.310738,-0.010346,0.012996,-0.015522,-0.701834,0.092510,-0.706306,0.037283,0.088612,-0.001564,-2.050049,26.648598,-8.365845,,,,,,,
1523523784.446016,-0.779516,-0.093523,-1.312366,-0.059882,0.111134,-0.052945,-0.699863,0.093387,-0.708145,0.042529,0.085507,-0.081421,-1.977020,26.498192,-8.440186,,,,,,,
1523523784.475985,-0.778065,-0.094253,-1.315594,-0.075070,0.005259,-0.100809,-0.698786,0.094114,-0.709111,0.032526,0.083224,-0.071803,-1.295746,26.945427,-8.141602,,,,,,,
1523523784.505953,-0.778923,-0.093550,-1.319715,-0.064291,-0.026330,-0.146583,-0.699441,0.093413,-0.708558,0.016045,0.089402,-0.045302,-2.423843,26.725349,-8.291321,,,,,,,
1523523784.535921,-0.779344,-0.092711,-1.323496,-0.034731,-0.039531,-0.093269,-0.699794,0.092578,-0.708319,0.047618,0.078672,-0.015757,-1.748566,26.572609,-7.990417,,,,,,,
1523523784.565881,-0.779778,-0.092610,-1.324854,-0.016654,0.014228,-0.035783,-0.700107,0.092477,-0.708022,0.011448,0.089072,0.031936,-1.896774,26.798210,-8.066345,,,,,,,
1523523784.595850,-0.775837,-0.093594,-1.326783,-0.086373,0.165384,-0.048775,-0.697248,0.093457,-0.710710,-0.000735,0.077258,-0.095092,-2.044815,26.948952,-7.992065,,,,,,,
1523523784.625818,-0.774478,-0.094732,-1.330145,-0.073447,-0.073587,-0.070895,-0.696206,0.094591,-0.711581,0.044473,0.043074,-0.095182,-1.218964,27.170006,-8.217529,,,,,,,
1523523784.655786,-0.777500,-0.094191,-1.333189,-0.031250,-0.012729,-0.126337,-0.698390,0.094052,-0.709509,-0.003316,0.080264,0.006491,-2.198547,26.574638,-7.990662,,,,,,,
1523523784.685755,-0.775826,-0.092897,-1.336472,-0.042823,0.048790,-0.106162,-0.697286,0.092763,-0.710764,0.026189,0.088587,-0.051764,-2.270264,26.949883,-8.067139,,,,,,,
1523523784.715723,-0.772940,-0.092300,-1.339486,-0.045784,0.123064,-0.089194,-0.695270,0.092169,-0.712812,0.017459,0.081430,-0.041124,-1.217316,27.245140,-8.067749,,,,,,,
1523523784.745691,-0.769863,-0.092550,-1.342163,-0.068539,0.078273,-0.060382,-0.693057,0.092418,-0.714932,0.002612,0.086232,-0.052005,-2.268921,27.174736,-8.218018,,,,,,,
1523523784.775659,-0.768854,-0.093121,-1.345081,-0.059116,0.016747,-0.078429,-0.692299,0.092986,-0.715593,0.002510,0.089128,-0.056609,-2.416656,27.175774,-7.843140,,,,,,,
1523523784.805628,-0.768653,-0.092063,-1.347932,-0.023912,-0.019303,-0.102870,-0.692222,0.091933,-0.715802,0.010780,0.083726,-0.098269,-2.193161,27.024757,-7.842407,,,,,,,
1523523784.835596,-0.769825,-0.092074,-1.350890,-0.074415,-0.052336,-0.070914,-0.693060,0.091944,-0.714990,0.004767,0.088644,-0.068778,-2.412750,27.475899,-7.694275,,,,,,,
1523523784.865563,-0.772531,-0.091593,-1.352954,0.009640,-0.102567,-0.059083,-0.695023,0.091465,-0.713143,0.039139,0.096508,0.008614,-2.712921,27.552101,-7.844788,,,,,,,
1523523784.895531,-0.773835,-0.090145,-1.352816,0.062246,-0.000910,-0.027181,-0.696044,0.090023,-0.712330,0.039611,0.089833,0.040501,-2.261871,27.475365,-7.544250,,,,,,,
1523523784.925500,-0.771664,-0.089485,-1.352816,-0.004546,0.085403,-0.040092,-0.694537,0.089366,-0.713882,0.019717,0.076970,0.001388,-3.013657,27.478447,-7.844604,,,,,,,
1523523784.955468,-0.769762,-0.091171,-1.355291,-0.133888,0.050670,-0.041221,-0.693073,0.091045,-0.715092,0.019947,0.035466,-0.053432,-3.010330,27.628731,-7.545227,,,,,,,
1523523784.985436,-0.770072,-0.094316,-1.359742,-0.138410,-0.024594,-0.062477,-0.693091,0.094176,-0.714669,0.014945,0.047059,-0.023155,-2.408691,27.701180,-7.395203,,,,,,,
1523523785.015404,-0.770336,-0.095467,-1.362641,-0.034628,0.035603,-0.048594,-0.693204,0.095322,-0.714407,0.011823,0.064315,-0.005960,-3.311523,27.555016,-7.620117,,,,,,,
1523523785.045403,-0.769333,-0.095492,-1.362080,0.044738,-0.015166,0.042080,-0.692486,0.095347,-0.715100,0.066601,0.071249,-0.009524,-3.384872,27.630501,-7.470398,,,,,,,
,,,,,,,,,,,,,,,,25.321143,51.458697,19.974650,18.990000,84.375000,1523523784.996344,
1523523785.075372,-0.768799,-0.096584,-1.360412,-0.007408,0.039063,0.055836,-0.692031,0.096434,-0.715395,0.048369,0.068605,0.012316,-3.004944,28.078865,-7.397034,,,,,,,
1523523785.105340,-0.767622,-0.099810,-1.360283,-0.081066,0.029746,0.046204,-0.690969,0.099644,-0.715981,0.050741,0.041942,0.004891,-3.757919,27.557625,-7.020325,,,,,,,
1523523785.135309,-0.765131,-0.103210,-1.362929,-0.172020,0.125140,-0.038140,-0.688944,0.103027,-0.717452,0.019114,0.029313,-0.090913,-3.759567,27.482491,-7.170044,,,,,,,
1523523785.165277,-0.762733,-0.105989,-1.368564,-0.155076,0.008735,-0.112599,-0.687022,0.105791,-0.718892,0.016261,0.041228,-0.105647,-3.081268,27.854362,-7.246216,,,,,,,
1523523785.195245,-0.764829,-0.105640,-1.373203,-0.051774,-0.079555,-0.136934,-0.688552,0.105444,-0.717477,0.003799,0.069651,-0.051962,-3.606094,27.781868,-7.096130,,,,,,,
1523523785.225214,-0.766693,-0.104061,-1.376419,0.023483,-0.092074,-0.044170,-0.690003,0.103873,-0.716311,0.045243,0.069543,0.004214,-3.681549,27.557503,-6.795288,,,,,,,
1523523785.255182,-0.766964,-0.103669,-1.376686,-0.000736,0.037272,0.004704,-0.690226,0.103483,-0.716154,0.032145,0.067476,0.005872,-3.234116,27.480202,-7.094727,,,,,,,
1523523785.285150,-0.763441,-0.105650,-1.378524,-0.146286,0.140013,-0.046661,-0.687555,0.105453,-0.718431,-0.020498,0.045654,-0.111509,-4.507721,27.261528,-6.494507,,,,,,,
1523523785.315119,-0.762345,-0.107049,-1.384332,-0.134757,-0.037778,-0.156211,-0.686665,0.106845,-0.719077,0.007100,0.035855,-0.143334,-4.130783,27.409904,-6.419922,,,,,,,
1523523785.345087,-0.767107,-0.104720,-1.389655,-0.009142,-0.166331,-0.200760,-0.690252,0.104528,-0.715977,-0.007914,0.077631,-0.033688,-3.758499,27.183159,-6.493835,,,,,,,
1523523785.375055,-0.770044,-0.101092,-1.392669,0.030410,-0.057593,-0.114526,-0.692611,0.100920,-0.714214,0.008346,0.085955,0.003246,-4.136765,26.809929,-6.417542,,,,,,,
1523523785.405022,-0.770375,-0.100403,-1.393255,-0.032860,0.024610,0.006803,-0.692896,0.100234,-0.714034,-0.009878,0.081833,0.032393,-4.433289,26.886711,-5.967957,,,,,,,
1523523785.434992,-0.766494,-0.103658,-1.394075,-0.122293,0.151901,0.069479,-0.689889,0.103472,-0.716479,0.005762,0.040433,-0.088422,-3.754593,27.258659,-5.969116,,,,,,,
1523523785.464959,-0.765540,-0.107266,-1.395613,-0.065271,-0.074078,-0.002700,-0.688943,0.107060,-0.716863,0.014444,0.043544,-0.058528,-4.215195,26.510216,-6.491394,,,,,,,
1523523785.494927,-0.769501,-0.105941,-1.396648,0.052541,-0.101331,-0.097420,-0.691875,0.105743,-0.714230,0.024806,0.059327,-0.010196,-4.591965,26.286980,-6.415649,,,,,,,
1523523785.524895,-0.769586,-0.103756,-1.398195,0.003670,0.018486,-0.042177,-0.692095,0.103570,-0.714336,0.031130,0.067207,-0.013890,-3.912949,26.509224,-6.116211,,,,,,,
1523523785.554864,-0.768817,-0.104821,-1.401552,-0.109503,0.050426,-0.012449,-0.691468,0.104629,-0.714788,0.001984,0.066056,-0.026301,-4.661407,26.437965,-5.741333,,,,,,,
1523523785.584832,-0.766762,-0.108646,-1.405093,-0.139629,0.038574,0.021637,-0.689715,0.108432,-0.715914,0.029864,0.019924,-0.030607,-4.439575,26.211830,-5.890259,,,,,,,
1523523785.614800,-0.766591,-0.109944,-1.407266,0.051470,-0.013671,-0.020790,-0.689494,0.109723,-0.715930,0.031902,0.027392,0.031329,-4.442719,25.986687,-6.039368,,,,,,,
1523523785.644768,-0.765758,-0.107410,-1.407063,0.083961,0.033315,-0.066623,-0.689089,0.107204,-0.716702,0.019075,0.027135,-0.000751,-4.667862,26.062553,-6.189758,,,,,,,
1523523785.674737,-0.764037,-0.106606,-1.409750,-0.073165,0.014451,-0.048606,-0.687914,0.106404,-0.717949,0.042375,0.022853,-0.039131,-3.993332,26.059441,-6.264404,,,,,,,
1523523785.704705,-0.765108,-0.108736,-1.413960,-0.149073,-0.009818,-0.047563,-0.688523,0.108522,-0.717047,0.019914,0.045623,-0.012537,-3.693344,26.058098,-6.264282,,,,,,,
1523523785.734673,-0.764405,-0.110303,-1.418283,-0.047500,0.025007,-0.047533,-0.687900,0.110080,-0.717407,0.031651,0.045575,-0.029694,-3.844543,25.983696,-6.339050,,,,,,,
1523523785.764641,-0.763608,-0.109244,-1.419029,0.043111,0.020377,-0.025087,-0.687409,0.109027,-0.718039,0.020905,0.042371,-0.027002,-3.768372,26.283058,-6.640198,,,,,,,
1523523785.794610,-0.762344,-0.109414,-1.419370,-0.037161,0.011882,0.003624,-0.686488,0.109196,-0.718894,0.029292,0.019085,-0.083398,-3.846786,25.758705,-6.338196,,,,,,,
1523523785.824578,-0.763461,-0.111870,-1.421597,-0.119568,-0.065270,-0.026197,-0.687103,0.111636,-0.717930,0.011489,0.033566,-0.038265,-4.145889,25.984825,-6.564209,,,,,,,
1523523785.854546,-0.764576,-0.113003,-1.424099,-0.041333,-0.031303,-0.050669,-0.687815,0.112763,-0.717072,0.027582,0.028732,-0.025299,-4.220871,25.985161,-6.564209,,,,,,,
1523523785.884514,-0.765035,-0.111706,-1.425137,0.029212,-0.028187,-0.064478,-0.688245,0.111474,-0.716861,0.011396,0.049430,-0.007871,-3.766861,26.208427,-6.264893,,,,,,,
1523523785.914483,-0.764726,-0.110626,-1.426373,-0.027237,0.013291,-0.051762,-0.688106,0.110401,-0.717160,0.024807,0.020611,-0.060504,-4.214890,26.585136,-6.566650,,,,,,,
1523523785.944451,-0.765348,-0.111475,-1.428702,-0.096856,-0.029064,-0.047514,-0.688487,0.111244,-0.716664,-0.008931,0.021645,-0.034221,-3.160294,26.955544,-6.417603,,,,,,,
1523523785.974419,-0.765616,-0.112636,-1.432224,-0.090159,0.001961,-0.078449,-0.688589,0.112398,-0.716386,-0.013529,0.021331,-0.081481,-3.387848,26.881264,-6.717407,,,,,,,
1523523786.004388,-0.766705,-0.111811,-1.434467,0.016240,-0.076964,-0.075090,-0.689433,0.111578,-0.715702,-0.007039,0.020242,-0.025311,-4.135712,26.735237,-6.117249,,,,,,,
1523523786.034356,-0.768213,-0.110399,-1.434319,0.027793,-0.029721,0.002655,-0.690620,0.110175,-0.714774,0.007744,0.034112,-0.005807,-4.209808,26.960335,-6.343140,,,,,,,
1523523786.064324,-0.767403,-0.110983,-1.434356,-0.024394,0.018117,0.018549,-0.689996,0.110755,-0.715287,0.034418,0.020867,-0.025054,-4.655426,27.037941,-5.743713,,,,,,,
,,,,,,,,,,,,,,,,25.321149,51.458913,21.273957,19.430000,87.890625,1523523785.996333,
1523523786.094292,-0.767582,-0.111513,-1.434943,-0.019938,0.000389,-0.031507,-0.690083,0.111282,-0.715121,0.008275,0.022934,0.005054,-4.957077,26.964149,-5.893555,,,,,,,
1523523786.124261,-0.766834,-0.110791,-1.436667,-0.009997,0.017712,-0.080533,-0.689604,0.110564,-0.715695,0.037885,0.008180,-0.034335,-4.280304,27.186028,-5.969116,,,,,,,
1523523786.154229,-0.767428,-0.109415,-1.438576,-0.024101,-0.026913,-0.076236,-0.690134,0.109197,-0.715394,0.016061,0.026332,-0.000213,-4.653183,27.262932,-5.744629,,,,,,,
1523523786.184228,-0.766735,-0.110353,-1.441545,-0.114688,0.052760,-0.040160,-0.689566,0.110129,-0.715798,0.002311,0.033411,-0.066383,-5.031158,26.964638,-5.743591,,,,,,,
1523523786.214196,-0.766145,-0.112188,-1.444068,-0.084222,-0.026160,-0.011282,-0.689003,0.111953,-0.716058,0.000099,0.032090,-0.052756,-4.734177,26.887917,-6.118164,,,,,,,
1523523786.244164,-0.766267,-0.113104,-1.444958,-0.002977,0.009696,-0.000605,-0.689018,0.112863,-0.715900,0.014702,0.007757,-0.051877,-5.408386,26.741325,-5.742920,,,,,,,
1523523786.274132,-0.766007,-0.112939,-1.445164,-0.002034,-0.036964,-0.015469,-0.688845,0.112699,-0.716092,0.049426,0.000796,-0.042315,-5.035950,26.439735,-5.666504,,,,,,,
1523523786.304101,-0.768147,-0.113392,-1.445867,-0.051279,-0.067638,-0.017610,-0.690341,0.113150,-0.714580,0.004824,0.029413,0.017375,-4.582977,26.737694,-5.667480,,,,,,,
1523523786.334069,-0.766512,-0.114156,-1.451182,-0.138582,0.104399,-0.122275,-0.689112,0.113908,-0.715645,-0.007696,0.036467,-0.100929,-5.038803,26.289528,-5.890869,,,,,,,
1523523786.364037,-0.766985,-0.113940,-1.457010,-0.087152,-0.093381,-0.122032,-0.689467,0.113693,-0.715337,0.029143,0.007980,-0.035030,-5.110947,26.440071,-5.666565,,,,,,,
1523523786.394005,-0.769576,-0.113527,-1.461132,-0.059310,-0.007791,-0.063492,-0.691350,0.113283,-0.713582,-0.011988,0.046156,-0.011684,-4.360397,26.811165,-6.192627,,,,,,,
1523523786.423974,-0.767875,-0.115323,-1.463681,-0.112928,0.018464,0.001428,-0.689993,0.115067,-0.714609,0.008154,0.028182,-0.077856,-5.329056,27.041191,-5.519043,,,,,,,
1523523786.453942,-0.769184,-0.116915,-1.465029,-0.025596,-0.042274,-0.006961,-0.690800,0.116649,-0.713572,0.008427,0.021412,0.024623,-5.107956,26.740059,-5.667725,,,,,,,
1523523786.483910,-0.767871,-0.116262,-1.465731,0.002050,0.099412,-0.067819,-0.689915,0.116000,-0.714534,0.000050,0.001279,-0.033803,-4.579681,27.112602,-5.743958,,,,,,,
1523523786.513879,-0.766302,-0.115581,-1.468272,-0.078591,-0.038440,-0.079465,-0.688848,0.115324,-0.715672,0.028798,0.006868,-0.058361,-5.254074,27.040855,-5.518982,,,,,,,
1523523786.543847,-0.768552,-0.116670,-1.473153,-0.151006,-0.022173,-0.100844,-0.690368,0.116406,-0.714030,0.011551,0.038517,-0.004171,-5.478439,26.967094,-5.293823,,,,,,,
1523523786.573814,-0.768241,-0.117969,-1.477906,-0.131677,0.030738,-0.076376,-0.690041,0.117696,-0.714135,-0.006828,0.059382,-0.019279,-5.029221,27.114693,-5.669189,,,,,,,
1523523786.603782,-0.766664,-0.118924,-1.480948,-0.056074,0.052461,-0.018803,-0.688835,0.118644,-0.715141,0.017143,0.042581,-0.031441,-5.626495,27.342461,-5.595398,,,,,,,
1523523786.633751,-0.765426,-0.120096,-1.481690,-0.025546,0.000033,0.020704,-0.687853,0.119808,-0.715893,0.029772,0.012913,-0.048512,-5.778580,27.043297,-5.444275,,,,,,,
1523523786.663719,-0.766620,-0.121705,-1.482035,-0.035334,-0.052965,0.006889,-0.688573,0.121404,-0.714931,0.040868,0.020991,0.016307,-5.329956,27.041054,-5.669067,,,,,,,
1523523786.693687,-0.766899,-0.121365,-1.483009,-0.000356,0.030412,-0.076278,-0.688801,0.121068,-0.714768,0.026981,0.040004,0.021989,-6.377808,27.120995,-5.444885,,,,,,,
1523523786.723655,-0.764707,-0.120360,-1.485908,-0.083408,0.050962,-0.099793,-0.687316,0.120069,-0.716364,0.037810,0.032152,-0.025167,-5.922440,27.569084,-5.296448,,,,,,,
1523523786.753624,-0.763919,-0.121635,-1.491104,-0.174241,0.039464,-0.094523,-0.686645,0.121335,-0.716794,0.012817,0.036990,-0.040240,-5.099426,27.415306,-5.370422,,,,,,,
1523523786.783592,-0.764437,-0.123513,-1.496163,-0.109568,-0.032073,-0.068829,-0.686857,0.123199,-0.716273,0.024336,0.048096,-0.012868,-5.848480,27.194206,-4.844910,,,,,,,
1523523786.813560,-0.764968,-0.123711,-1.497892,0.003543,0.014083,-0.020859,-0.687221,0.123396,-0.715890,0.013301,0.047640,0.016901,-6.079010,26.819954,-5.143494,,,,,,,
1523523786.843528,-0.762136,-0.123651,-1.497617,0.005910,0.091466,0.003581,-0.685195,0.123336,-0.717839,0.025680,0.036393,-0.065059,-6.001923,26.894829,-4.918823,,,,,,,
1523523786.873497,-0.762254,-0.124576,-1.497976,-0.037506,-0.079438,-0.006930,-0.685201,0.124254,-0.717676,0.033269,0.039580,-0.033621,-5.702835,26.893333,-5.068604,,,,,,,
1523523786.903465,-0.764492,-0.125447,-1.499774,-0.048963,-0.051565,-0.037867,-0.686730,0.125118,-0.716062,0.059380,0.032978,0.001752,-5.777512,26.743965,-4.768066,,,,,,,
1523523786.933433,-0.764759,-0.125372,-1.501266,-0.015515,0.022797,-0.044324,-0.686928,0.125044,-0.715885,0.022835,0.040132,0.038075,-5.254364,26.741310,-5.067749,,,,,,,
1523523786.963401,-0.762586,-0.126028,-1.502787,-0.074177,0.059957,-0.020953,-0.685314,0.125694,-0.717317,0.016293,0.025444,-0.032988,-5.702225,26.818550,-4.843323,,,,,,,
1523523786.993370,-0.762182,-0.127317,-1.504998,-0.057452,-0.032461,-0.031499,-0.684912,0.126973,-0.717476,0.027899,0.011912,-0.011345,-5.702972,26.743553,-4.843018,,,,,,,
1523523787.023338,-0.762716,-0.128694,-1.507124,-0.083793,0.048325,-0.027331,-0.685173,0.128339,-0.716983,0.023812,0.011233,-0.014249,-5.328003,26.966499,-5.218750,,,,,,,
1523523787.053306,-0.761784,-0.129775,-1.508443,-0.033021,-0.014722,0.006856,-0.684409,0.129411,-0.717520,0.030692,0.021056,0.015112,-5.176208,26.966118,-4.918701,,,,,,,
,,,,,,,,,,,,,,,,25.321157,51.459126,21.828413,19.670000,91.757812,1523523786.996323,
1523523787.083274,-0.761583,-0.131111,-1.509351,-0.074227,0.072567,-0.000721,-0.684145,0.130736,-0.717532,0.023760,0.026811,-0.016965,-5.321564,27.566536,-5.146118,,,,,,,
1523523787.113243,-0.759364,-0.133003,-1.511621,-0.105275,0.022877,-0.026263,-0.682379,0.132612,-0.718868,0.021063,0.019244,-0.039937,-5.474258,27.342155,-5.220337,,,,,,,
1523523787.143211,-0.761253,-0.134816,-1.514515,-0.097190,-0.078066,-0.028296,-0.683569,0.134407,-0.717402,0.056006,0.016075,0.022471,-5.397461,27.342110,-4.920288,,,,,,,
1523523787.173179,-0.761232,-0.136042,-1.516613,-0.069725,0.089744,-0.028432,-0.683440,0.135622,-0.717296,0.012831,0.029768,-0.012074,-5.020981,27.939659,-5.672485,,,,,,,
1523523787.203148,-0.759079,-0.137122,-1.518629,-0.064762,0.015322,-0.023035,-0.681792,0.136693,-0.718660,0.023497,0.033259,-0.046400,-5.545502,27.717476,-5.221863,,,,,,,
1523523787.233116,-0.759046,-0.138404,-1.520323,-0.089221,0.035554,-0.021999,-0.681647,0.137963,-0.718555,-0.004266,0.036231,-0.024640,-5.695206,27.568443,-4.921326,,,,,,,
1523523787.263084,-0.758442,-0.140412,-1.522363,-0.068280,-0.017849,0.010033,-0.681022,0.139951,-0.718763,0.047141,0.013949,-0.027971,-5.920029,27.719231,-5.147034,,,,,,,
1523523787.293052,-0.759378,-0.141327,-1.522300,-0.002095,-0.025410,0.004759,-0.681605,0.140857,-0.718033,0.000514,0.041608,0.027985,-5.316757,27.866814,-4.847351,,,,,,,
1523523787.323051,-0.757324,-0.141862,-1.523438,-0.059057,0.087629,-0.031631,-0.680078,0.141387,-0.719376,0.007134,0.023591,-0.076156,-6.288116,28.096413,-4.623779,,,,,,,
1523523787.353019,-0.757584,-0.143445,-1.525633,-0.100490,-0.076061,-0.009126,-0.680110,0.142954,-0.719036,0.016093,0.015905,-0.035313,-5.915085,27.944649,-4.697937,,,,,,,
1523523787.382988,-0.759527,-0.145788,-1.527293,-0.061871,-0.024193,0.003649,-0.681273,0.145273,-0.717468,0.008833,0.022498,-0.002335,-6.211182,28.246132,-4.549316,,,,,,,
1523523787.412956,-0.760036,-0.145847,-1.527545,0.025654,-0.048743,-0.012241,-0.681632,0.145330,-0.717115,0.026237,0.036005,0.025862,-6.132736,28.545860,-4.475464,,,,,,,
1523523787.442924,-0.759986,-0.145379,-1.527265,0.000382,0.036295,-0.007020,-0.681643,0.144867,-0.717199,0.023638,0.005111,0.023977,-5.758514,28.693794,-4.850891,,,,,,,
1523523787.472892,-0.757596,-0.146670,-1.528195,-0.097677,0.085370,0.001373,-0.679798,0.146145,-0.718689,0.002567,-0.003063,-0.056351,-6.581665,28.473183,-4.175415,,,,,,,
1523523787.502861,-0.757504,-0.149872,-1.531245,-0.136563,-0.040830,-0.020903,-0.679407,0.149312,-0.718408,0.001505,0.025508,-0.038809,-7.179688,28.401314,-3.725403,,,,,,,
1523523787.532829,-0.759424,-0.150373,-1.533701,-0.012499,-0.040884,-0.059158,-0.680733,0.149807,-0.717048,0.019326,0.030598,-0.004815,-6.652618,28.698799,-3.876343,,,,,,,
1523523787.562791,-0.760303,-0.148306,-1.533388,0.081251,-0.040317,-0.020736,-0.681575,0.147763,-0.716672,0.040447,0.030414,0.034131,-7.329819,28.252220,-3.499878,,,,,,,
1523523787.592759,-0.759912,-0.147545,-1.531696,0.029971,0.019955,0.038841,-0.681373,0.147010,-0.717020,0.043769,0.018456,0.051859,-7.485352,27.877617,-3.798462,,,,,,,
1523523787.622728,-0.757334,-0.149765,-1.531499,-0.096736,0.099955,0.040794,-0.679295,0.149206,-0.718535,0.019948,0.018992,-0.014588,-7.484299,27.802910,-3.498169,,,,,,,
1523523787.652696,-0.755508,-0.152018,-1.534687,-0.108052,0.048794,-0.084892,-0.677751,0.151433,-0.719527,0.010087,0.013957,-0.048295,-7.934280,27.804939,-3.498413,,,,,,,
1523523787.682664,-0.757313,-0.151020,-1.537940,0.007672,-0.110773,-0.099571,-0.679152,0.150446,-0.718412,0.061903,0.012212,-0.001665,-7.410660,27.577736,-3.347229,,,,,,,
1523523787.712632,-0.758995,-0.148892,-1.538724,0.025115,0.023821,-0.053882,-0.680578,0.148342,-0.717500,0.005300,0.051441,0.063874,-6.587799,27.498817,-3.571472,,,,,,,
1523523787.742601,-0.755910,-0.149723,-1.540001,-0.091340,0.082052,0.015247,-0.678276,0.149164,-0.719506,0.030236,0.029730,-0.031944,-7.260208,27.352516,-2.896240,,,,,,,
1523523787.772569,-0.754848,-0.152561,-1.541188,-0.075545,0.036308,0.017434,-0.677219,0.151970,-0.719915,0.014575,0.002190,0.000096,-7.789246,27.354225,-3.571472,,,,,,,
1523523787.802537,-0.753184,-0.153976,-1.542773,-0.059118,0.056880,-0.043307,-0.675872,0.153368,-0.720883,0.014632,-0.009188,-0.078326,-7.114273,27.351173,-3.571167,,,,,,,
1523523787.832506,-0.754763,-0.153577,-1.544911,-0.008608,-0.140693,-0.071838,-0.677052,0.152974,-0.719859,0.023823,0.030223,0.028392,-7.263962,27.202156,-3.270630,,,,,,,
1523523787.862474,-0.757014,-0.152335,-1.546731,-0.029269,0.025076,-0.063504,-0.678800,0.151747,-0.718471,0.025693,0.030184,0.020244,-7.639389,26.979149,-2.969971,,,,,,,
1523523787.892442,-0.754867,-0.152512,-1.548829,-0.067685,0.054740,-0.039044,-0.677238,0.151921,-0.719907,0.004600,0.025737,0.003904,-7.040314,26.976295,-3.119629,,,,,,,
1523523787.922410,-0.754389,-0.153317,-1.550918,-0.043310,0.024881,-0.031544,-0.676810,0.152717,-0.720141,0.019430,0.002434,-0.002042,-7.568420,26.528908,-2.893066,,,,,,,
1523523787.952379,-0.753346,-0.153914,-1.553574,-0.049650,0.024988,-0.044336,-0.675996,0.153307,-0.720781,0.007416,0.004332,-0.025786,-7.564819,26.754112,-2.669006,,,,,,,
1523523787.982347,-0.754642,-0.154269,-1.557139,-0.036094,-0.045197,-0.042121,-0.676892,0.153658,-0.719864,-0.000125,0.029127,0.045105,-7.036255,27.201576,-2.820496,,,,,,,
1523523788.012315,-0.753581,-0.153477,-1.560155,-0.011968,0.077066,-0.059277,-0.676211,0.152875,-0.720671,0.049014,0.025821,-0.018953,-7.710770,26.980064,-2.369995,,,,,,,
1523523788.042283,-0.752738,-0.153123,-1.563153,-0.019855,0.024791,-0.026203,-0.675640,0.152525,-0.721280,0.029247,0.014925,0.018018,-7.716003,26.455086,-2.367920,,,,,,,
,,,,,,,,,,,,,,,,25.321144,51.459334,22.573780,19.709999,94.570312,1523523787.996312,
1523523788.072252,-0.752104,-0.153238,-1.565157,-0.046249,0.063235,-0.046492,-0.675171,0.152639,-0.721695,0.005661,0.030360,-0.015213,-6.740448,26.375923,-2.142090,,,,,,,
1523523788.102220,-0.750858,-0.155123,-1.567862,-0.133146,-0.000439,-0.025195,-0.674073,0.154502,-0.722325,0.020692,0.015786,-0.052395,-7.786804,26.605858,-1.918518,,,,,,,
1523523788.132188,-0.752675,-0.156116,-1.569982,-0.007300,-0.054816,-0.044222,-0.675280,0.155483,-0.720986,0.013552,0.029484,0.043877,-7.487564,26.529518,-1.918091,,,,,,,
1523523788.162156,-0.751760,-0.154540,-1.570328,0.054057,0.059758,-0.040025,-0.674786,0.153925,-0.721782,0.052441,0.003301,0.002742,-7.411362,26.379616,-1.467407,,,,,,,
1523523788.192125,-0.750550,-0.153823,-1.569938,-0.017905,0.023460,0.010035,-0.673987,0.153217,-0.722679,0.004325,0.022366,0.012168,-7.407166,26.530052,-1.018005,,,,,,,
1523523788.222093,-0.749433,-0.157118,-1.572970,-0.193692,0.069813,-0.022106,-0.672832,0.156473,-0.723057,0.003948,0.006827,-0.061290,-7.183350,26.229347,-0.716736,,,,,,,
1523523788.252061,-0.749370,-0.159767,-1.577527,-0.116962,-0.024570,-0.076296,-0.672502,0.159088,-0.722794,-0.008086,0.021179,-0.017105,-6.510330,26.076241,-0.790771,,,,,,,
1523523788.282029,-0.750564,-0.158519,-1.580042,0.031624,0.002774,-0.087937,-0.673499,0.157856,-0.722135,0.010047,0.018535,-0.023898,-6.280518,25.926262,0.259949,,,,,,,
1523523788.311998,-0.750310,-0.156432,-1.580456,0.022599,-0.033744,-0.028244,-0.673539,0.155794,-0.722546,0.027482,0.026685,-0.016285,-5.527557,26.222878,0.259094,,,,,,,
1523523788.341966,-0.751478,-0.157081,-1.581041,-0.047855,0.000238,-0.000624,-0.674313,0.156435,-0.721684,0.024899,0.027341,0.026448,-4.552002,26.368324,0.109070,,,,,,,
1523523788.371934,-0.750449,-0.157844,-1.583032,-0.066454,0.058141,-0.068888,-0.673489,0.157189,-0.722290,0.002316,0.024330,0.000244,-3.281723,26.436714,-0.790588,,,,,,,
1523523788.401903,-0.748647,-0.157238,-1.586503,-0.043879,0.045619,-0.109349,-0.672251,0.156591,-0.723572,0.019236,-0.001302,-0.056503,-2.457077,26.807320,-1.466675,,,,,,,
1523523788.431871,-0.750278,-0.156040,-1.588991,-0.018958,-0.065234,-0.069793,-0.673557,0.155408,-0.722611,-0.000912,0.015262,-0.012466,-2.020462,26.728264,-3.566101,,,,,,,
1523523788.461870,-0.751872,-0.156991,-1.589931,-0.054568,-0.046614,0.016462,-0.674607,0.156347,-0.721429,-0.026016,0.024012,0.017419,-1.878601,26.726280,-4.916077,,,,,,,
1523523788.491838,-0.750505,-0.158024,-1.590460,-0.015522,0.085051,0.015301,-0.673510,0.157367,-0.722231,-0.023328,0.004437,-0.020948,-2.190887,26.800499,-7.091492,,,,,,,
1523523788.521806,-0.750858,-0.157973,-1.587990,0.106065,-0.093217,0.089086,-0.673770,0.157317,-0.721999,0.044284,-0.058516,0.028426,-3.318253,26.880043,-7.617432,,,,,,,
1523523788.551772,-0.751228,-0.158664,-1.584031,0.022283,0.056659,0.111253,-0.673963,0.157999,-0.721670,0.010084,-0.014704,0.007483,-5.348267,26.513954,-7.841919,,,,,,,
1523523788.581741,-0.748707,-0.162392,-1.583593,-0.143144,0.042355,0.087706,-0.671736,0.161679,-0.722931,0.022444,-0.022030,-0.039673,-6.397003,26.369133,-7.391846,,,,,,,
1523523788.611709,-0.749334,-0.165824,-1.585195,-0.101375,-0.014618,0.014276,-0.671807,0.165065,-0.722099,-0.014747,-0.008769,0.004630,-6.165878,26.668617,-6.867981,,,,,,,
1523523788.641677,-0.748231,-0.166351,-1.586414,-0.000621,0.039553,-0.016614,-0.670951,0.165585,-0.722776,0.031745,-0.057354,-0.043994,-6.314209,26.519814,-6.342468,,,,,,,
1523523788.671645,-0.749881,-0.165501,-1.584949,0.061309,-0.110946,0.057105,-0.672238,0.164746,-0.721770,0.052945,-0.050443,0.060378,-5.712891,26.741951,-6.493042,,,,,,,
1523523788.701614,-0.750064,-0.168126,-1.582515,-0.082436,0.077925,0.146316,-0.672073,0.167336,-0.721329,0.009429,-0.031868,0.046539,-5.197357,26.288811,-7.315918,,,,,,,
1523523788.731582,-0.744721,-0.172809,-1.583012,-0.145594,0.177533,0.057724,-0.667671,0.171951,-0.724325,-0.004479,-0.057128,-0.045771,-5.201263,26.437920,-8.216553,,,,,,,
1523523788.761550,-0.743337,-0.173935,-1.584336,-0.008171,0.007757,-0.027234,-0.666536,0.173059,-0.725105,0.018023,-0.101267,-0.039146,-4.985901,26.734856,-10.317627,,,,,,,
1523523788.791518,-0.744211,-0.172929,-1.585099,-0.021139,-0.038864,-0.039993,-0.667287,0.172069,-0.724650,-0.009867,-0.085490,-0.055181,-6.343048,26.515144,-11.142456,,,,,,,
1523523788.821487,-0.746240,-0.172717,-1.586748,-0.044780,-0.072848,-0.036766,-0.668782,0.171860,-0.723321,-0.013851,-0.030258,-0.009299,-9.200439,26.451866,-12.268616,,,,,,,
1523523788.851455,-0.746561,-0.171681,-1.588099,-0.016554,0.038627,-0.031536,-0.669134,0.170839,-0.723237,-0.012323,-0.013247,-0.022048,-10.549805,26.832420,-12.795837,,,,,,,
1523523788.881423,-0.745284,-0.170823,-1.588727,0.012077,0.001313,-0.025079,-0.668309,0.169993,-0.724199,0.018483,-0.054393,-0.058974,-14.814423,27.152809,-11.599243,,,,,,,
1523523788.911391,-0.746336,-0.169055,-1.589082,0.006826,-0.008041,-0.051720,-0.669274,0.168251,-0.723715,-0.009315,-0.023537,-0.035563,-16.980316,27.388680,-10.476257,,,,,,,
1523523788.941360,-0.746221,-0.169282,-1.591472,-0.087086,-0.002460,-0.056061,-0.669165,0.168474,-0.723764,-0.022928,-0.034197,-0.020728,-18.455795,28.223000,-7.780334,,,,,,,
1523523788.971328,-0.746812,-0.167895,-1.594735,-0.011885,0.007474,-0.135927,-0.669750,0.167107,-0.723539,-0.033024,-0.025994,-0.001818,-19.869034,28.455940,-6.206970,,,,,,,
1523523789.001296,-0.747303,-0.164662,-1.596721,0.046403,-0.032333,-0.086829,-0.670469,0.163919,-0.723602,0.023084,-0.042276,0.000595,-20.007614,28.608208,-4.557678,,,,,,,
1523523789.031265,-0.748344,-0.163214,-1.596853,-0.005234,-0.012657,0.004749,-0.671382,0.162491,-0.723077,-0.004048,0.000427,0.050699,-19.157288,29.207603,-1.334595,,,,,,,
,,,,,,,,,,,,,,,,25.321128,51.459541,23.272885,19.840000,97.382812,1523523788.996302,
1523523789.061233,-0.746738,-0.165211,-1.597610,-0.107353,0.112719,0.041845,-0.669999,0.164461,-0.723914,-0.005385,-0.012086,-0.016091,-19.670242,29.286797,0.539856,,,,,,,
1523523789.091201,-0.743615,-0.167964,-1.598622,-0.077552,0.086117,0.036565,-0.667426,0.167175,-0.725668,-0.005075,-0.045715,-0.051462,-18.078629,29.057777,3.691528,,,,,,,
1523523789.121169,-0.743213,-0.168951,-1.598572,0.017039,-0.032989,0.016510,-0.667022,0.168148,-0.725814,0.011062,-0.051083,-0.052415,-16.116852,29.425301,5.041077,,,,,,,
1523523789.151138,-0.744694,-0.168196,-1.598329,0.005398,-0.044426,-0.014392,-0.668182,0.167404,-0.724918,0.002197,-0.020203,-0.020794,-14.605774,28.821358,7.894226,,,,,,,
1523523789.181106,-0.745688,-0.168710,-1.598690,-0.058680,-0.000994,0.027075,-0.668844,0.167911,-0.724190,-0.008463,-0.028262,0.018761,-13.100266,28.516014,9.321167,,,,,,,
1523523789.211074,-0.743640,-0.170863,-1.598705,-0.057597,0.057120,0.073899,-0.667113,0.170033,-0.725291,0.009154,-0.066807,-0.015401,-8.978546,27.149193,11.053772,,,,,,,
1523523789.241042,-0.742555,-0.172607,-1.597771,-0.019198,0.033710,0.063306,-0.666124,0.171751,-0.725795,0.000658,-0.075971,-0.011662,-7.702362,26.544655,12.256775,,,,,,,
1523523789.271011,-0.742095,-0.174257,-1.597530,-0.059819,-0.009563,0.035616,-0.665598,0.173377,-0.725892,-0.000525,-0.066062,-0.038726,-2.614258,25.621315,11.813049,,,,,,,
1523523789.300979,-0.743012,-0.175166,-1.598583,-0.063947,-0.028348,-0.010195,-0.666157,0.174272,-0.725164,-0.015514,-0.044740,0.002264,0.602524,25.380867,10.840576,,,,,,,
1523523789.330947,-0.743046,-0.174916,-1.600262,-0.034756,0.025941,-0.033672,-0.666211,0.174025,-0.725174,0.012845,-0.077590,-0.023438,3.350510,24.839897,7.244141,,,,,,,
1523523789.360915,-0.742908,-0.174220,-1.600703,0.019255,-0.038177,-0.002659,-0.666192,0.173340,-0.725355,-0.002494,-0.059692,0.020719,4.011063,24.834526,4.844482,,,,,,,
1523523789.390884,-0.743664,-0.173598,-1.600701,-0.019026,0.001205,0.001535,-0.666813,0.172728,-0.724930,0.024647,-0.041472,0.009018,4.826096,25.278465,2.443115,,,,,,,
1523523789.420852,-0.742970,-0.173624,-1.601681,-0.034710,0.041840,-0.028359,-0.666307,0.172753,-0.725389,-0.007780,-0.040170,0.029314,2.488708,25.661278,-0.259583,,,,,,,
1523523789.450820,-0.741591,-0.172651,-1.603768,-0.027974,0.055971,-0.077374,-0.665420,0.171794,-0.726431,0.019347,-0.067455,-0.010553,1.580200,25.663948,-1.685059,,,,,,,
1523523789.480788,-0.741671,-0.171113,-1.605434,0.004721,-0.018583,-0.064488,-0.665655,0.170279,-0.726572,0.010336,-0.057669,0.033671,0.454010,26.267799,-2.888062,,,,,,,
1523523789.510757,-0.741984,-0.169977,-1.606564,-0.010318,0.002451,-0.028291,-0.666013,0.169159,-0.726506,0.017652,-0.015122,0.013692,-1.493835,26.576424,-3.040283,,,,,,,
1523523789.540725,-0.741520,-0.169689,-1.607441,-0.017749,0.024724,-0.018735,-0.665708,0.168876,-0.726851,0.015760,-0.011985,0.019713,-2.842575,26.882179,-3.342163,,,,,,,
1523523789.570724,-0.740888,-0.169504,-1.607297,0.004486,0.031804,0.023899,-0.665270,0.168693,-0.727295,0.022356,-0.040657,0.023575,-3.146469,26.808037,-3.867065,,,,,,,
1523523789.600693,-0.739307,-0.170049,-1.606444,0.009689,0.024244,0.040949,-0.664058,0.169231,-0.728277,0.034160,-0.074840,-0.001673,-4.870361,26.741081,-3.567566,,,,,,,
1523523789.630661,-0.739756,-0.170942,-1.605099,-0.012001,-0.026861,0.062299,-0.664283,0.170111,-0.727867,0.019492,-0.057425,0.022240,-5.092636,26.967155,-3.493652,,,,,,,
1523523789.660630,-0.739445,-0.172505,-1.604929,-0.039305,0.026631,0.020668,-0.663876,0.171651,-0.727876,-0.005161,-0.038716,-0.003828,-6.138855,27.346870,-3.495667,,,,,,,
1523523789.690598,-0.740271,-0.172011,-1.604358,0.055294,-0.084047,0.009140,-0.664534,0.171164,-0.727390,0.041335,-0.065634,0.067768,-6.589294,27.348824,-3.570862,,,,,,,
1523523789.720566,-0.740901,-0.169946,-1.602110,0.096279,0.032615,0.028222,-0.665229,0.169129,-0.727231,0.019843,-0.063691,0.047940,-6.287048,27.347832,-3.195740,,,,,,,
1523523789.750534,-0.737615,-0.171122,-1.601340,-0.115971,0.117919,0.061013,-0.662702,0.170288,-0.729265,-0.001879,-0.076278,-0.053328,-6.437943,27.348366,-3.345825,,,,,,,
1523523789.780503,-0.736850,-0.174861,-1.603434,-0.118525,-0.027343,0.016408,-0.661711,0.173971,-0.729295,-0.003923,-0.083960,-0.009093,-6.883423,27.800362,-3.347839,,,,,,,
1523523789.810471,-0.738603,-0.175622,-1.603808,0.025496,-0.047922,0.020798,-0.662899,0.174721,-0.728036,0.022259,-0.098305,0.040918,-6.579102,28.323845,-3.499817,,,,,,,
1523523789.840439,-0.738430,-0.173692,-1.600608,0.138694,0.007833,0.062374,-0.662999,0.172820,-0.728398,0.016912,-0.072218,0.057851,-6.430450,28.098320,-3.348816,,,,,,,
1523523789.870407,-0.735897,-0.174155,-1.597839,-0.059715,0.100442,0.109020,-0.661098,0.173276,-0.730016,0.021068,-0.084592,-0.012278,-7.029678,27.951393,-2.973511,,,,,,,
1523523789.900376,-0.734333,-0.178158,-1.597687,-0.093009,0.028451,0.083491,-0.659485,0.177217,-0.730528,0.021760,-0.093828,0.007521,-7.178619,28.101997,-3.049194,,,,,,,
1523523789.930344,-0.733895,-0.178771,-1.597697,0.031245,0.008604,-0.010159,-0.659092,0.177820,-0.730736,0.039723,-0.111902,0.015191,-7.476349,28.103706,-2.674377,,,,,,,
1523523789.960312,-0.733902,-0.176629,-1.596062,0.086454,-0.022583,0.022947,-0.659352,0.175712,-0.731013,0.056828,-0.103340,0.026163,-7.327255,28.102882,-2.824280,,,,,,,
1523523789.990279,-0.733800,-0.178109,-1.594525,-0.098469,0.029341,0.109065,-0.659102,0.177169,-0.730886,0.036482,-0.070464,0.031622,-7.021439,28.551735,-2.600952,,,,,,,
1523523790.020249,-0.730555,-0.182827,-1.596104,-0.162659,0.147999,0.031112,-0.656161,0.181810,-0.732391,-0.015287,-0.091280,-0.019654,-7.699539,28.105003,-2.374512,,,,,,,
1523523790.050216,-0.728938,-0.182924,-1.597263,0.052725,0.004494,-0.037843,-0.654965,0.181905,-0.733438,0.041211,-0.118764,-0.024512,-7.624252,28.179588,-2.449707,,,,,,,
,,,,,,,,,,,,,,,,25.321098,51.459734,24.327908,20.070000,98.085938,1523523789.996291,
1523523790.080184,-0.728477,-0.180167,-1.596759,0.033493,0.017195,-0.024017,-0.654958,0.179193,-0.734111,0.047155,-0.079844,-0.070623,-6.878021,27.801231,-2.447815,,,,,,,
1523523790.110152,-0.730188,-0.179787,-1.597356,-0.036518,-0.099653,-0.005830,-0.656259,0.178820,-0.733040,0.042046,-0.023974,0.021111,-6.800476,27.876198,-2.148071,,,,,,,
1523523790.140121,-0.730027,-0.179214,-1.598312,-0.020587,0.089648,-0.032654,-0.656209,0.178256,-0.733222,0.019124,-0.022663,-0.026880,-7.929337,27.581123,-2.297485,,,,,,,
1523523790.170089,-0.725620,-0.177867,-1.599729,-0.001174,0.100431,-0.061423,-0.653129,0.176931,-0.736286,0.047279,-0.078542,-0.100033,-8.004776,27.581383,-2.372559,,,,,,,
1523523790.200058,-0.726341,-0.175605,-1.600320,0.049253,-0.078238,-0.058008,-0.653924,0.174704,-0.736112,0.036645,-0.063559,-0.043155,-8.008820,27.131477,-2.295776,,,,,,,
1523523790.230026,-0.727714,-0.174745,-1.601062,-0.048775,-0.000635,-0.028321,-0.655035,0.173857,-0.735325,-0.003229,-0.016524,-0.006954,-7.558380,27.129524,-2.220520,,,,,,,
1523523790.259995,-0.724962,-0.174802,-1.603204,-0.046185,0.086575,-0.040128,-0.653002,0.173913,-0.737118,0.012499,-0.053430,-0.063069,-7.037903,26.901817,-2.594360,,,,,,,
1523523790.289963,-0.724061,-0.173758,-1.602784,0.060829,-0.024640,0.021866,-0.652457,0.172885,-0.737841,0.027839,-0.084765,-0.043714,-7.714066,26.605156,-2.293518,,,,,,,
1523523790.319931,-0.723676,-0.173994,-1.600639,-0.003392,0.011228,0.082513,-0.652146,0.173118,-0.738062,0.022614,-0.062293,-0.068640,-7.189240,26.677635,-2.443481,,,,,,,
1523523790.349900,-0.723942,-0.175669,-1.599209,-0.018542,-0.052392,0.067654,-0.652150,0.174767,-0.737670,0.028020,-0.053368,-0.033311,-6.516510,26.674248,-2.818115,,,,,,,
1523523790.379868,-0.723508,-0.175561,-1.597930,0.031113,0.026374,0.031382,-0.651842,0.174660,-0.737967,0.040743,-0.082894,-0.031335,-6.817245,26.375969,-2.442078,,,,,,,
1523523790.409836,-0.721856,-0.174606,-1.596518,0.039742,0.029636,0.017534,-0.650731,0.173720,-0.739168,0.049260,-0.103316,-0.028013,-6.967834,26.451424,-2.667480,,,,,,,
1523523790.439804,-0.720994,-0.173808,-1.595462,0.008624,0.004173,0.023923,-0.650185,0.172935,-0.739833,0.039834,-0.095237,-0.009130,-6.065475,26.597511,-2.517639,,,,,,,
1523523790.469773,-0.719354,-0.174993,-1.595583,-0.105476,0.063792,0.048286,-0.648836,0.174101,-0.740743,0.002809,-0.104704,-0.042536,-6.895691,26.300880,-2.891846,,,,,,,
1523523790.499741,-0.716990,-0.176614,-1.596759,-0.044422,0.059632,0.011058,-0.646897,0.175697,-0.742061,0.021683,-0.128578,-0.031819,-6.974426,25.926231,-2.890381,,,,,,,
1523523790.529709,-0.715116,-0.174558,-1.595488,0.114543,0.030583,0.006937,-0.645740,0.173673,-0.743544,0.030582,-0.122297,-0.042772,-5.551285,25.919533,-3.189636,,,,,,,
1523523790.559673,-0.713730,-0.173436,-1.592939,-0.028014,0.008024,0.093157,-0.644836,0.172568,-0.744585,0.037323,-0.099188,-0.085784,-6.153351,25.622383,-3.038757,,,,,,,
1523523790.589643,-0.714296,-0.175618,-1.592608,-0.070641,-0.027680,0.047345,-0.645009,0.174717,-0.743933,0.023778,-0.085468,-0.007425,-6.464279,24.573723,-3.109741,,,,,,,
1523523790.619610,-0.713477,-0.174314,-1.591846,0.096369,0.015826,-0.002658,-0.644548,0.173433,-0.744633,0.062059,-0.134752,-0.008251,-5.041290,24.641869,-3.559265,,,,,,,
1523523790.649578,-0.711106,-0.170879,-1.589157,0.076123,0.052895,0.021798,-0.643166,0.170048,-0.746606,0.005272,-0.105412,-0.076438,-5.958771,23.295326,-4.229370,,,,,,,
1523523790.679546,-0.711489,-0.172426,-1.590075,-0.154010,-0.073005,0.024950,-0.643279,0.171572,-0.746159,0.024246,-0.103061,-0.072246,-5.294891,22.317116,-4.450134,,,,,,,
1523523790.709545,-0.713521,-0.173775,-1.591383,-0.017124,-0.038191,0.012231,-0.644643,0.172902,-0.744675,0.013234,-0.095769,0.000854,-4.569046,20.887199,-6.094055,,,,,,,
1523523790.739513,-0.712242,-0.170992,-1.590101,0.104121,0.046810,-0.029322,-0.644002,0.170160,-0.745860,-0.000575,-0.102670,-0.052984,-5.485352,20.064980,-7.441223,,,,,,,
1523523790.769482,-0.710894,-0.167732,-1.588837,0.037573,0.005283,0.004778,-0.643354,0.166947,-0.747144,0.022703,-0.119171,-0.090701,-6.538315,19.994347,-7.816467,,,,,,,
1523523790.799450,-0.711367,-0.171287,-1.589130,-0.199106,-0.024648,0.115438,-0.643316,0.170450,-0.746385,0.000600,-0.079890,-0.124022,-7.889633,20.449455,-8.793945,,,,,,,
1523523790.829418,-0.711351,-0.175811,-1.591018,-0.110773,0.027956,0.008891,-0.642794,0.174907,-0.745804,-0.055449,-0.092509,-0.088486,-9.527420,21.357338,-8.273438,,,,,,,
1523523790.859387,-0.711135,-0.173041,-1.591761,0.164956,-0.045270,-0.103767,-0.642946,0.172179,-0.746307,0.038958,-0.121642,-0.107712,-12.195831,23.396217,-6.407898,,,,,,,
1523523790.889355,-0.714628,-0.165704,-1.588766,0.245216,-0.176533,-0.050309,-0.646360,0.164947,-0.744991,0.050031,-0.061828,0.001079,-12.548630,24.449745,-4.462280,,,,,,,
1523523790.919323,-0.717592,-0.162086,-1.586282,0.025497,-0.051086,0.017604,-0.648954,0.161378,-0.743516,0.015531,-0.010560,0.012971,-14.536179,25.588036,-0.117859,,,,,,,
1523523790.949291,-0.714162,-0.165071,-1.589026,-0.213388,0.206902,-0.016931,-0.646081,0.164322,-0.745370,-0.023337,-0.089753,-0.076270,-14.141388,26.263435,2.054688,,,,,,,
1523523790.979260,-0.713036,-0.164673,-1.590919,0.119606,-0.116596,-0.068569,-0.645284,0.163930,-0.746147,0.032674,-0.111424,0.037116,-10.966614,27.076912,4.828003,,,,,,,
1523523791.009228,-0.716230,-0.156723,-1.588311,0.320747,-0.080601,-0.119609,-0.648499,0.156082,-0.745041,0.073349,-0.086212,0.134430,-8.860107,27.368034,5.427917,,,,,,,
1523523791.039196,-0.716546,-0.147459,-1.581734,0.383173,-0.022375,0.040211,-0.649656,0.146925,-0.745895,0.134962,-0.086973,0.152419,-5.939911,28.327492,3.025513,,,,,,,
1523523791.069165,-0.713658,-0.144182,-1.573301,0.102306,0.120800,0.178383,-0.647811,0.143683,-0.748128,0.027602,-0.057791,0.153005,-5.869705,27.802254,3.102661,,,,,,,
,,,,,,,,,,,,,,,,25.321064,51.459937,25.367123,20.360001,98.437500,1523523790.996280,
1523523791.099133,-0.707102,-0.149347,-1.571739,-0.100667,0.267257,0.123749,-0.642401,0.148793,-0.751785,0.148810,-0.181477,0.123474,-4.902985,26.972908,3.106445,,,,,,,
1523523791.129102,-0.699418,-0.149305,-1.566946,0.163860,0.225091,0.134636,-0.636610,0.148751,-0.756704,0.081159,-0.156518,0.029668,-5.126480,27.123909,3.105774,,,,,,,
1523523791.159069,-0.692084,-0.156528,-1.566833,-0.449195,0.213637,0.166162,-0.630341,0.155890,-0.760505,0.042756,-0.130911,-0.224877,-4.226532,27.344490,2.730347,,,,,,,
1523523791.189037,-0.694618,-0.169758,-1.572276,-0.328887,-0.185663,0.089931,-0.630891,0.168944,-0.757254,0.071687,-0.076476,-0.175333,-5.497421,27.350883,3.404663,,,,,,,
1523523791.219006,-0.697090,-0.171966,-1.575282,0.007965,-0.049169,-0.098551,-0.632519,0.171120,-0.755405,0.047742,-0.064904,-0.225232,-5.497543,26.976479,4.006104,,,,,,,
1523523791.248974,-0.702022,-0.166054,-1.576375,0.165961,-0.177356,-0.208065,-0.636880,0.165292,-0.753035,-0.059256,0.000129,-0.137987,-5.939697,26.455650,6.183044,,,,,,,
1523523791.278942,-0.706098,-0.161299,-1.583697,-0.212001,-0.059883,-0.309687,-0.640447,0.160601,-0.751022,-0.115214,0.016493,-0.148758,-5.266052,26.003136,6.710144,,,,,,,
1523523791.308910,-0.704991,-0.162539,-1.598375,-0.382324,0.209849,-0.377209,-0.639485,0.161825,-0.751579,-0.163890,-0.100774,-0.241234,-3.625076,24.421898,7.842285,,,,,,,
1523523791.338879,-0.705831,-0.161465,-1.609953,-0.078166,-0.115022,-0.223218,-0.640229,0.160764,-0.751173,-0.138214,-0.136472,-0.056825,-3.556198,23.447182,8.446289,,,,,,,
1523523791.368847,-0.708523,-0.158168,-1.610417,0.146037,-0.069492,0.023043,-0.642590,0.157509,-0.749846,-0.082401,-0.070961,-0.032106,-1.101944,20.961830,9.132446,,,,,,,
1523523791.398815,-0.711666,-0.157557,-1.601543,0.235249,-0.107693,0.286337,-0.645007,0.156906,-0.747894,-0.002393,0.018722,0.078262,0.751099,19.527214,7.864075,,,,,,,
1523523791.428783,-0.706846,-0.156930,-1.592305,0.216952,0.188644,0.160290,-0.641458,0.156287,-0.751070,0.034417,-0.047339,-0.032027,3.640869,18.609871,3.519165,,,,,,,
1523523791.458752,-0.702803,-0.151710,-1.584728,0.337561,0.017210,0.017764,-0.638935,0.151128,-0.754269,0.106601,-0.096853,-0.055408,2.660461,19.736504,0.739197,,,,,,,
1523523791.488720,-0.705780,-0.144415,-1.580522,0.188885,-0.185587,-0.104674,-0.641875,0.143914,-0.753183,0.081664,-0.036446,0.006097,1.224091,19.815941,-1.286804,,,,,,,
1523523791.518688,-0.710655,-0.140849,-1.584498,-0.133492,-0.067095,-0.219046,-0.645870,0.140384,-0.750429,0.030971,-0.043369,0.091249,-4.173325,20.439629,-1.892090,,,,,,,
1523523791.548657,-0.709077,-0.142125,-1.593758,-0.292983,0.153882,-0.155459,-0.644568,0.141647,-0.751310,0.006461,-0.071441,0.049284,-5.964981,20.823433,-1.144470,,,,,,,
1523523791.578633,-0.705579,-0.146634,-1.599378,-0.143851,0.074528,0.046116,-0.641516,0.146109,-0.753066,0.008993,-0.107794,0.021865,-6.027512,20.900673,0.805176,,,,,,,
1523523791.608601,-0.705299,-0.147369,-1.595382,0.203110,-0.045055,0.155184,-0.641234,0.146836,-0.753165,0.109328,-0.072709,0.099799,-7.295685,20.907494,1.929504,,,,,,,
1523523791.638569,-0.704223,-0.144346,-1.584715,0.335440,0.024248,0.226602,-0.640709,0.143846,-0.754188,0.107582,-0.027879,0.054283,-7.517197,19.860817,4.258606,,,,,,,
1523523791.668538,-0.699786,-0.143942,-1.576887,0.013011,0.150055,0.129274,-0.637393,0.143446,-0.757069,0.068240,-0.053755,-0.071880,-5.717682,19.178780,5.312256,,,,,,,
1523523791.698506,-0.697561,-0.147978,-1.580426,-0.263929,0.022770,-0.107355,-0.635330,0.147438,-0.758035,0.025696,-0.070641,-0.086951,-4.448380,17.300255,7.495361,,,,,,,
1523523791.728474,-0.699064,-0.149798,-1.592574,-0.346921,0.022626,-0.363127,-0.636295,0.149238,-0.756873,-0.046338,-0.060569,-0.125040,-2.945724,17.293938,7.946167,,,,,,,
1523523791.758442,-0.701113,-0.149201,-1.607797,-0.236287,-0.084809,-0.383201,-0.637902,0.148648,-0.755635,-0.010352,-0.078763,-0.110225,2.308243,17.645378,8.022400,,,,,,,
1523523791.788411,-0.705974,-0.143301,-1.615856,0.077799,-0.131130,-0.253988,-0.642126,0.142811,-0.753179,-0.054713,0.007336,-0.014322,5.678268,18.003777,6.597656,,,,,,,
1523523791.818379,-0.708970,-0.137269,-1.615584,0.218924,-0.076686,-0.037631,-0.644928,0.136839,-0.751893,0.018036,0.045855,0.028123,8.806503,17.986107,2.999268,,,,,,,
1523523791.848378,-0.707718,-0.130461,-1.609227,0.285393,0.068233,0.033657,-0.644577,0.130091,-0.753390,0.000519,0.052847,0.049487,9.656830,19.321770,-7.505676,,,,,,,
1523523791.878346,-0.702414,-0.129443,-1.608863,-0.164935,0.246390,-0.059551,-0.640657,0.129082,-0.756899,-0.034773,0.015770,-0.123197,5.437775,19.487312,-10.958496,,,,,,,
1523523791.908314,-0.700125,-0.132439,-1.616197,-0.159231,-0.056620,-0.188176,-0.638671,0.132052,-0.758065,0.016234,-0.053698,-0.088188,-4.833679,20.432549,-11.942383,,,,,,,
1523523791.938282,-0.704031,-0.129012,-1.623000,-0.000710,-0.026773,-0.258410,-0.641916,0.128654,-0.755904,-0.062109,-0.009956,0.027587,-7.892624,20.598717,-9.544556,,,,,,,
1523523791.968251,-0.704781,-0.124434,-1.625457,0.132756,-0.062308,-0.086729,-0.642857,0.124113,-0.755864,0.007344,0.004702,0.017659,-10.346283,19.265526,-3.765442,,,,,,,
1523523791.998219,-0.706634,-0.119211,-1.621723,0.218527,-0.053981,0.058245,-0.644669,0.118928,-0.755154,0.029679,0.033217,0.115551,-10.415115,18.892494,-2.113953,,,,,,,
1523523792.028187,-0.703137,-0.120169,-1.616571,-0.045601,0.236991,0.180276,-0.641951,0.119880,-0.757316,-0.001940,-0.018211,-0.047615,-8.980865,19.187080,-1.064453,,,,,,,
1523523792.058156,-0.696884,-0.127289,-1.614767,-0.137226,0.052248,0.189992,-0.636639,0.126945,-0.760642,0.055493,-0.029960,-0.099725,-9.720337,19.566536,0.058655,,,,,,,
,,,,,,,,,,,,,,,,25.321038,51.460131,24.794822,20.150000,99.140625,1523523791.996269,
1523523792.088124,-0.699803,-0.132293,-1.615250,-0.158264,-0.082436,0.010024,-0.638439,0.131908,-0.758285,-0.028599,0.002278,-0.085359,-9.619553,21.067879,1.852722,,,,,,,
1523523792.118092,-0.701786,-0.133457,-1.619900,-0.087649,0.002417,-0.146628,-0.639842,0.133061,-0.756900,-0.033910,-0.006169,-0.110028,-8.931091,21.740898,2.975342,,,,,,,
1523523792.148060,-0.702009,-0.132152,-1.624447,-0.082716,-0.044600,-0.110352,-0.640123,0.131768,-0.756888,-0.047835,-0.037560,-0.139733,-7.122421,21.210091,5.303406,,,,,,,
1523523792.178029,-0.705437,-0.133587,-1.626789,-0.085787,-0.119786,0.004801,-0.642590,0.133190,-0.754545,-0.090168,-0.019069,-0.093416,-6.444595,21.132637,5.904053,,,,,,,
1523523792.207997,-0.709928,-0.134541,-1.626376,0.054588,-0.189536,0.051860,-0.645889,0.134136,-0.751555,-0.001236,-0.006221,-0.014925,-5.471298,21.277733,5.378967,,,,,,,
1523523792.237965,-0.713070,-0.133606,-1.622184,0.105269,-0.030600,0.096504,-0.648329,0.133209,-0.749616,-0.046862,-0.010986,0.039396,-7.116714,21.061256,6.504028,,,,,,,
1523523792.267933,-0.710188,-0.136029,-1.621598,-0.159467,0.146908,0.033250,-0.645954,0.135610,-0.751235,-0.102078,-0.048010,-0.070909,-5.837708,21.280815,6.803772,,,,,,,
1523523792.297902,-0.707533,-0.140273,-1.626226,-0.167051,-0.002134,-0.075293,-0.643577,0.139814,-0.752503,-0.101067,-0.086362,-0.106430,-2.240433,21.413948,6.130066,,,,,,,
1523523792.327870,-0.710912,-0.138019,-1.630390,0.061379,-0.111578,-0.158118,-0.646320,0.137581,-0.750561,-0.067883,-0.095451,-0.004047,-3.152985,20.966713,4.781311,,,,,,,
1523523792.357838,-0.715651,-0.131941,-1.628158,0.275900,-0.184404,-0.001254,-0.650406,0.131558,-0.748107,0.005310,-0.035473,0.164993,-2.948380,19.689522,3.511597,,,,,,,
1523523792.387806,-0.718430,-0.126628,-1.620098,0.294841,-0.069695,0.151015,-0.652934,0.126289,-0.746812,0.072428,0.003487,0.204209,-1.754868,19.308693,3.063660,,,,,,,
1523523792.417775,-0.714569,-0.125220,-1.610563,0.191136,0.220178,0.220960,-0.650161,0.124893,-0.749461,0.046203,-0.035965,0.126308,-0.880112,18.177437,0.743652,,,,,,,
1523523792.447743,-0.704715,-0.127843,-1.604793,-0.063478,0.288078,0.173826,-0.642530,0.127496,-0.755579,0.037000,-0.074853,-0.018026,0.011444,18.097160,-0.530579,,,,,,,
1523523792.477711,-0.698992,-0.134769,-1.606390,-0.286573,0.138714,0.035291,-0.637612,0.134361,-0.758550,0.024453,-0.124046,-0.071223,-1.569977,18.627312,-2.483459,,,,,,,
1523523792.507679,-0.701675,-0.138321,-1.611408,-0.072787,-0.204053,-0.104858,-0.639333,0.137880,-0.756467,0.057637,-0.093126,0.069608,-2.760345,19.233269,-1.886536,,,,,,,
1523523792.537648,-0.706791,-0.134958,-1.612750,0.094369,-0.047356,-0.083577,-0.643492,0.134549,-0.753535,0.008009,-0.039578,0.119975,-2.970474,19.910561,-0.539307,,,,,,,
1523523792.567601,-0.704158,-0.134339,-1.612325,-0.052052,0.094326,0.068546,-0.641559,0.133936,-0.755290,-0.008175,-0.023096,-0.022603,-2.042328,21.558327,1.404541,,,,,,,
1523523792.597569,-0.702233,-0.138475,-1.613091,-0.168661,0.041518,0.065307,-0.639741,0.138032,-0.756094,-0.036712,-0.050813,-0.035944,-0.984146,22.378563,1.401794,,,,,,,
1523523792.627537,-0.704234,-0.139627,-1.613107,0.084107,-0.074629,0.019806,-0.641149,0.139174,-0.754690,0.039724,-0.093062,0.016440,0.954620,22.966988,-1.449585,,,,,,,
1523523792.657506,-0.704746,-0.137007,-1.610921,0.075827,-0.040452,-0.001548,-0.641770,0.136579,-0.754637,-0.013855,-0.046338,0.004851,0.276779,23.269066,-2.426147,,,,,,,
1523523792.687474,-0.705459,-0.137246,-1.612497,-0.159501,0.046506,-0.045492,-0.642286,0.136816,-0.754155,-0.075121,-0.017248,-0.017528,-3.697739,23.361870,-2.503479,,,,,,,
1523523792.717443,-0.705219,-0.138791,-1.617413,-0.091241,-0.010739,-0.085892,-0.641968,0.138346,-0.754147,-0.029969,-0.082850,0.006619,-4.820602,23.442146,-2.279419,,,,,,,
1523523792.747411,-0.705025,-0.136922,-1.618700,0.038885,0.034167,-0.020838,-0.641988,0.136495,-0.754467,-0.013270,-0.105520,-0.007008,-6.472778,23.449211,-2.655273,,,,,,,
1523523792.777380,-0.705842,-0.135824,-1.617132,0.043638,-0.027901,0.038902,-0.642700,0.135407,-0.754056,-0.065597,-0.028947,0.018415,-7.446991,23.303963,-2.280151,,,,,,,
1523523792.807348,-0.705749,-0.136381,-1.616655,-0.069309,0.021270,0.037702,-0.642582,0.135959,-0.754058,-0.047802,-0.020160,-0.017319,-9.088196,22.788673,0.046082,,,,,,,
1523523792.837316,-0.702528,-0.138079,-1.618718,-0.109989,0.158868,-0.024255,-0.639999,0.137640,-0.755947,-0.014145,-0.098807,-0.132084,-9.154907,22.266228,2.298157,,,,,,,
1523523792.867285,-0.704581,-0.137674,-1.619993,0.064864,-0.162263,-0.052582,-0.641586,0.137239,-0.754674,-0.035706,-0.044436,0.019506,-7.497299,22.035423,3.949951,,,,,,,
1523523792.897253,-0.707020,-0.134086,-1.620407,0.050652,-0.032373,-0.082563,-0.643740,0.133685,-0.753476,-0.000623,0.007962,-0.030535,-1.653976,21.633690,3.504456,,,,,,,
1523523792.927221,-0.707875,-0.131902,-1.621139,0.020640,-0.005016,-0.034656,-0.644572,0.131520,-0.753146,-0.008473,0.002498,0.025592,-0.320984,21.100731,1.557251,,,,,,,
1523523792.957220,-0.707832,-0.131291,-1.620715,0.008647,0.012625,0.029253,-0.644593,0.130914,-0.753234,-0.019470,-0.034814,0.051635,-1.637238,20.126411,-3.689514,,,,,,,
1523523792.987187,-0.704391,-0.132548,-1.620431,-0.046220,0.153048,0.025875,-0.641890,0.132160,-0.755322,-0.062242,-0.074649,-0.045871,-4.419464,19.987953,-4.665344,,,,,,,
1523523793.017155,-0.704116,-0.133824,-1.621018,-0.028043,-0.082843,0.019725,-0.641572,0.133425,-0.755369,-0.034651,-0.076220,-0.032183,-7.856674,19.556282,-1.815369,,,,,,,
1523523793.047124,-0.707164,-0.134756,-1.620542,0.001761,-0.076723,0.044256,-0.643791,0.134349,-0.753315,-0.018456,-0.080043,0.045384,-8.293167,20.009743,-0.317383,,,,,,,
1523523793.077092,-0.708511,-0.131900,-1.617330,0.185692,-0.017635,0.039003,-0.645052,0.131518,-0.752736,0.005861,-0.053179,0.089558,-6.758118,21.356422,3.277954,,,,,,,
,,,,,,,,,,,,,,,,25.321005,51.460340,24.692236,20.250000,99.843750,1523523792.996258,
1523523793.107060,-0.706099,-0.129468,-1.614189,-0.003704,0.140022,0.050424,-0.643440,0.129107,-0.754531,-0.016228,-0.026369,-0.008958,-6.819595,21.583580,5.152039,,,,,,,
1523523793.137028,-0.703065,-0.133260,-1.616022,-0.207081,0.025783,0.049315,-0.640827,0.132866,-0.756100,0.005222,-0.081337,-0.121585,-4.099335,22.622978,6.799255,,,,,,,
1523523793.166997,-0.707697,-0.136107,-1.619259,-0.097306,-0.146924,-0.061241,-0.644073,0.135687,-0.752834,-0.045517,0.000482,-0.019002,-0.866379,23.732903,6.271423,,,,,,,
1523523793.196965,-0.710827,-0.132658,-1.621895,0.150125,-0.107424,-0.177227,-0.646728,0.132269,-0.751164,0.033081,-0.036764,0.060978,0.331116,24.475868,4.619080,,,,,,,
1523523793.226933,-0.713571,-0.121333,-1.618007,0.450610,-0.111072,-0.066188,-0.649726,0.121036,-0.750471,0.044898,-0.022952,0.179457,-1.174911,26.353508,0.485779,,,,,,,
1523523793.256902,-0.710766,-0.119059,-1.612926,-0.213030,0.268275,0.171604,-0.647796,0.118778,-0.752497,-0.149933,-0.039341,-0.049368,-2.737396,27.335991,0.931091,,,,,,,
1523523793.286870,-0.698563,-0.140457,-1.624365,-1.001991,0.435432,0.101589,-0.636784,0.139996,-0.758226,-0.162150,-0.117779,-0.297057,-4.305389,26.370827,3.709167,,,,,,,
1523523793.316839,-0.698147,-0.153626,-1.638140,-0.193061,-0.185351,-0.156094,-0.635229,0.153023,-0.757013,-0.017222,-0.128212,-0.154212,-3.191345,24.866493,4.390686,,,,,,,
1523523793.346807,-0.711048,-0.141841,-1.633734,0.715691,-0.578905,-0.118800,-0.646074,0.141366,-0.750069,0.074831,-0.031503,0.098366,-0.309723,21.327187,3.056335,,,,,,,
1523523793.376776,-0.722664,-0.120224,-1.618218,0.895064,-0.283208,-0.071024,-0.656611,0.119935,-0.744632,0.067713,0.087112,0.214313,0.195312,19.599464,2.613464,,,,,,,
1523523793.406744,-0.719004,-0.110721,-1.609407,-0.086030,0.365435,0.060784,-0.654602,0.110495,-0.747855,-0.141632,0.132348,-0.014185,0.923065,19.442741,-0.835510,,,,,,,
1523523793.436712,-0.703477,-0.129252,-1.623946,-0.989279,0.523293,-0.007171,-0.641477,0.128893,-0.756236,-0.052431,-0.144121,-0.263753,0.165695,20.193672,-3.313904,,,,,,,
1523523793.466680,-0.701648,-0.138647,-1.635961,-0.078651,-0.132568,-0.145417,-0.639283,0.138204,-0.756450,-0.041534,-0.212026,0.027691,-6.799286,21.424629,-3.697327,,,,,,,
1523523793.496649,-0.712955,-0.130169,-1.631341,0.503011,-0.471996,0.015195,-0.648538,0.129802,-0.750033,0.018518,-0.081722,0.194644,-9.034927,21.736565,-1.824646,,,,,,,
1523523793.526617,-0.717103,-0.119566,-1.618086,0.542840,-0.000192,0.153258,-0.652512,0.119281,-0.748331,0.059922,0.061505,0.130503,-8.556152,22.637718,1.471985,,,,,,,
1523523793.556575,-0.711915,-0.115550,-1.605948,0.202744,0.207255,0.239109,-0.648928,0.115293,-0.752063,0.042651,-0.014326,0.079715,-6.529572,22.928368,1.246826,,,,,,,
1523523793.586543,-0.702934,-0.119030,-1.601670,-0.101642,0.284297,0.119464,-0.641885,0.118749,-0.757550,0.091195,-0.153204,-0.047915,-3.539459,22.613792,0.124573,,,,,,,
1523523793.616512,-0.700576,-0.123642,-1.603344,-0.187037,-0.071769,0.012137,-0.639737,0.123327,-0.758635,0.017025,-0.118673,-0.002626,-0.798096,22.670753,-5.574280,,,,,,,
1523523793.646480,-0.705122,-0.128105,-1.609935,-0.270890,-0.115264,-0.120007,-0.642816,0.127755,-0.755293,-0.020911,-0.047128,0.039030,-2.692093,22.526344,-8.499634,,,,,,,
1523523793.676448,-0.707562,-0.128264,-1.615871,-0.014334,-0.042596,-0.117760,-0.644643,0.127912,-0.753706,0.011739,-0.055021,0.062407,-7.511719,22.544731,-11.802124,,,,,,,
1523523793.706416,-0.706330,-0.125402,-1.613605,0.100531,0.128674,0.116575,-0.643950,0.125074,-0.754775,-0.030580,-0.036359,0.005050,-8.716614,22.324715,-12.251831,,,,,,,
1523523793.736385,-0.700154,-0.131637,-1.610627,-0.254586,0.153000,0.260125,-0.638761,0.131257,-0.758127,-0.035525,-0.091843,-0.199423,-12.380066,22.717461,-10.980286,,,,,,,
1523523793.766353,-0.700604,-0.141520,-1.611609,-0.220629,-0.076571,0.102687,-0.638235,0.141048,-0.756810,-0.061442,-0.061458,-0.097773,-13.199936,22.871758,-10.381287,,,,,,,
1523523793.796321,-0.706079,-0.140066,-1.613044,0.193183,-0.237327,-0.153629,-0.642501,0.139608,-0.753460,0.035903,-0.092444,0.020535,-15.594528,22.059776,-8.129211,,,,,,,
1523523793.826289,-0.712112,-0.126708,-1.609695,0.492561,-0.187842,-0.193950,-0.648196,0.126370,-0.750915,0.033938,-0.049862,0.131896,-16.487274,21.840370,-6.553772,,,,,,,
1523523793.856258,-0.712131,-0.120921,-1.608181,-0.241331,0.178205,-0.006267,-0.648677,0.120626,-0.751444,-0.158772,0.037699,0.018411,-16.833740,22.221062,-2.430481,,,,,,,
