timestamp(unix),attitude_roll(radians),attitude_pitch(radians),attitude_yaw(radians),rotation_rate_x(radians/s),rotation_rate_y(radians/s),rotation_rate_z(radians/s),gravity_x(G),gravity_y(G),gravity_z(G),user_acc_x(G),user_acc_y(G),user_acc_z(G),magnetic_field_x(microteslas),magnetic_field_y(microteslas),magnetic_field_z(microteslas),latitude(degree),longitude(degree),altitude(meter),speed(m/s),course(degree),timestamp(unix),User Mark
1522139750.128396,-0.046621,-0.037911,1.177642,0.002476,-0.016684,-0.006320,-0.046570,0.037901,-0.998196,0.078995,0.017488,0.100979,2.379333,15.524734,-0.262207,,,,,,,
,,,,,,,,,,,,,,,,25.312817,51.448851,18.933071,-1.000000,-1.000000,1522139741.085530,
1522139750.158333,-0.046873,-0.038060,1.177555,-0.023190,-0.022989,-0.005277,-0.046822,0.038051,-0.998178,0.003411,-0.066417,-0.101477,2.299286,13.802124,1.769592,,,,,,,
1522139750.188302,-0.047008,-0.038591,1.177552,-0.012594,-0.041081,-0.005250,-0.046956,0.038582,-0.998152,0.012486,-0.035255,0.020979,3.930603,9.673553,5.536926,,,,,,,
1522139750.218270,-0.047082,-0.038694,1.177593,-0.009191,0.010901,0.003236,-0.047029,0.038684,-0.998144,0.050692,-0.036029,-0.053843,6.322174,7.789520,7.270691,,,,,,,
1522139750.248238,-0.047170,-0.038897,1.177733,-0.008240,-0.011424,0.005385,-0.047117,0.038887,-0.998132,0.015989,0.037056,-0.023291,10.861420,2.896301,9.467529,,,,,,,
1522139750.278206,-0.047217,-0.038778,1.177772,0.014288,0.004501,-0.001005,-0.047164,0.038769,-0.998135,0.092269,-0.036648,0.008297,13.918335,1.082550,9.476318,,,,,,,
1522139750.308175,-0.046957,-0.038638,1.177850,-0.004892,0.022587,0.005343,-0.046905,0.038628,-0.998152,0.022750,-0.019677,-0.047441,19.421082,-2.618927,7.768860,,,,,,,
1522139750.338143,-0.046645,-0.038639,1.178049,0.005803,0.026778,0.007491,-0.046594,0.038629,-0.998167,0.017800,-0.046976,-0.077227,24.044495,-4.066757,5.751953,,,,,,,
1522139750.368111,-0.046253,-0.038361,1.178261,-0.007060,0.017260,0.007481,-0.046202,0.038352,-0.998196,0.033232,-0.001303,-0.035267,29.608994,-7.471191,1.343384,,,,,,,
1522139750.398080,-0.045820,-0.038183,1.178456,0.004739,0.027862,0.006415,-0.045771,0.038173,-0.998222,-0.006933,-0.005764,-0.019112,32.352554,-9.136017,-1.123596,,,,,,,
1522139750.428048,-0.045140,-0.037854,1.178559,0.013357,0.037431,0.001091,-0.045093,0.037845,-0.998266,0.072360,-0.035709,-0.029276,34.537384,-12.825546,-5.832764,,,,,,,
1522139750.458016,-0.044361,-0.037437,1.178708,0.006914,0.038463,0.008540,-0.044315,0.037428,-0.998316,0.001530,-0.026427,-0.094015,35.559326,-14.332321,-8.001221,,,,,,,
1522139750.487984,-0.044066,-0.036865,1.178691,0.021736,-0.004005,-0.003121,-0.044022,0.036857,-0.998350,0.058518,-0.007148,0.060332,36.584381,-15.389328,-10.396484,,,,,,,
1522139750.517953,-0.043408,-0.036401,1.178661,-0.000551,0.035322,0.004277,-0.043366,0.036393,-0.998396,-0.003677,-0.048707,-0.067369,37.516586,-17.197647,-14.513794,,,,,,,
1522139750.547921,-0.043406,-0.036262,1.178541,0.011046,-0.010312,-0.007392,-0.043364,0.036254,-0.998401,-0.020051,-0.078047,-0.084362,37.947510,-17.577133,-17.062073,,,,,,,
1522139750.577889,-0.043241,-0.035998,1.178287,-0.017676,0.011013,-0.008497,-0.043199,0.035990,-0.998418,0.032228,-0.011485,-0.078700,38.144516,-17.133423,-22.463745,,,,,,,
1522139750.607857,-0.043248,-0.036560,1.178008,-0.011192,0.023765,-0.011698,-0.043205,0.036552,-0.998397,-0.005730,-0.022529,-0.053788,37.837906,-16.084885,-25.318054,,,,,,,
1522139750.637826,-0.043703,-0.036403,1.177592,-0.012492,-0.031449,-0.015911,-0.043660,0.036395,-0.998383,0.029805,-0.041354,0.061448,36.098038,-14.731796,-30.049377,,,,,,,
1522139750.667794,-0.043843,-0.036921,1.177205,-0.021955,0.007860,-0.010634,-0.043799,0.036913,-0.998358,-0.030297,-0.010713,-0.152704,33.927124,-13.373596,-31.630920,,,,,,,
1522139750.697732,-0.044236,-0.036977,1.176791,-0.004928,-0.013402,-0.016985,-0.044191,0.036969,-0.998339,-0.039442,-0.007046,0.015123,29.584488,-12.005112,-32.688538,,,,,,,
1522139750.727696,-0.044436,-0.037118,1.176348,-0.003866,-0.010233,-0.013795,-0.044390,0.037109,-0.998325,0.034045,-0.012436,0.037540,28.236923,-11.848907,-32.539856,,,,,,,
1522139750.757664,-0.044462,-0.037315,1.176053,-0.002881,-0.023013,-0.009522,-0.044416,0.037306,-0.998316,0.028898,-0.004179,-0.033452,25.850815,-10.862503,-31.869995,,,,,,,
1522139750.787632,-0.044842,-0.037454,1.175731,-0.004925,-0.008121,-0.012726,-0.044796,0.037445,-0.998294,0.029308,0.002060,-0.011014,24.724670,-11.157135,-31.569397,,,,,,,
1522139750.817601,-0.044869,-0.037594,1.175389,-0.009250,-0.018743,-0.011654,-0.044822,0.037585,-0.998288,0.043723,-0.023730,-0.048954,23.754364,-11.226868,-30.669556,,,,,,,
1522139750.847569,-0.045118,-0.037897,1.175119,-0.005901,0.018426,-0.008499,-0.045070,0.037888,-0.998265,0.022869,0.000487,-0.040065,23.368027,-12.724533,-30.063782,,,,,,,
1522139750.877537,-0.045371,-0.037805,1.174819,0.007812,-0.023033,-0.011639,-0.045323,0.037796,-0.998257,0.013981,-0.047073,-0.106769,23.362946,-13.324341,-29.911377,,,,,,,
1522139750.907505,-0.045845,-0.037916,1.174567,0.004707,0.002473,-0.009543,-0.045796,0.037906,-0.998231,0.044026,0.002957,0.106950,25.218689,-14.533890,-31.105591,,,,,,,
1522139750.937474,-0.045909,-0.037697,1.174334,0.003544,-0.015617,-0.006325,-0.045861,0.037688,-0.998237,0.028771,-0.008269,0.074927,24.974045,-15.734055,-32.375977,,,,,,,
1522139750.967442,-0.046368,-0.037839,1.174078,-0.003903,-0.013451,-0.009530,-0.046319,0.037830,-0.998210,0.021828,0.006283,0.032726,24.337189,-17.309708,-35.894958,,,,,,,
1522139750.997410,-0.046514,-0.037958,1.173828,-0.006056,-0.019806,-0.011656,-0.046464,0.037949,-0.998199,0.090165,-0.064453,-0.018174,22.664139,-18.129654,-38.367554,,,,,,,
1522139751.027378,-0.046555,-0.037957,1.173557,-0.014467,0.014172,-0.006363,-0.046505,0.037948,-0.998197,0.004162,-0.013626,-0.064044,15.427994,-19.675537,-41.814941,,,,,,,
1522139751.057347,-0.046743,-0.038001,1.173312,0.004474,-0.048528,-0.009495,-0.046692,0.037992,-0.998187,0.033386,-0.013349,0.050616,9.796936,-19.875870,-42.492004,,,,,,,
1522139751.087315,-0.046690,-0.037762,1.173046,-0.002599,0.038595,-0.008508,-0.046640,0.037753,-0.998198,0.051477,-0.070346,-0.095354,-1.139526,-20.049118,-39.946716,,,,,,,
,,,,,,,,,,,,,,,,25.312499,51.447988,19.029469,3.915562,-1.000000,1522139751.085837,
1522139751.117283,-0.046705,-0.037764,1.172923,0.000257,-0.030506,-0.003117,-0.046655,0.037755,-0.998197,0.025095,-0.002339,0.027158,-7.121094,-20.094055,-36.799561,,,,,,,
1522139751.147252,-0.046562,-0.037259,1.172770,0.023922,0.003467,-0.007395,-0.046513,0.037251,-0.998223,0.038334,0.034267,-0.042884,-10.995102,-19.697952,-33.128113,,,,,,,
1522139751.177220,-0.046335,-0.036654,1.172579,0.001571,0.023679,-0.003168,-0.046288,0.036646,-0.998256,0.039543,-0.060099,-0.050267,-15.198975,-17.346100,-25.189575,,,,,,,
1522139751.207188,-0.046217,-0.036854,1.172517,0.001372,-0.022007,-0.004186,-0.046170,0.036845,-0.998254,-0.006443,0.004460,-0.034293,-17.192520,-16.133911,-21.970398,,,,,,,
1522139751.237126,-0.046006,-0.036394,1.172469,0.015455,0.026816,-0.001028,-0.045959,0.036386,-0.998280,0.000381,-0.001535,-0.038600,-17.431488,-12.903046,-17.183472,,,,,,,
1522139751.267094,-0.045857,-0.035747,1.172426,-0.003869,0.006667,0.001104,-0.045812,0.035739,-0.998311,0.040227,-0.077564,-0.034923,-17.400009,-10.876312,-15.316528,,,,,,,
1522139751.297062,-0.046072,-0.036067,1.172494,-0.007134,-0.009265,0.000057,-0.046025,0.036059,-0.998289,0.041600,0.026746,-0.000826,-19.977524,-8.685455,-11.051575,,,,,,,
1522139751.327031,-0.045822,-0.035966,1.172671,-0.004923,0.019342,0.010688,-0.045777,0.035958,-0.998304,0.063614,-0.043450,0.014967,-22.044434,-7.397781,-7.682739,,,,,,,
1522139751.356999,-0.045591,-0.036516,1.172916,-0.031639,0.020453,0.014921,-0.045545,0.036508,-0.998295,0.046460,0.023795,-0.010815,-24.693604,-5.954788,-1.614868,,,,,,,
1522139751.386967,-0.045767,-0.036895,1.173033,-0.011387,-0.000752,0.002165,-0.045720,0.036887,-0.998273,0.027623,-0.036414,-0.034381,-26.840286,-5.191681,1.830994,,,,,,,
1522139751.416935,-0.045482,-0.037002,1.173234,-0.016510,0.056564,0.011701,-0.045436,0.036993,-0.998282,-0.012121,0.019892,-0.161249,-27.752228,-3.155457,8.947449,,,,,,,
1522139751.446904,-0.045475,-0.036712,1.173421,0.021691,0.000185,0.007520,-0.045429,0.036704,-0.998293,-0.008236,0.001519,-0.066694,-26.963715,-1.505356,12.616150,,,,,,,
1522139751.476872,-0.045725,-0.036003,1.173525,0.009919,-0.008289,0.006461,-0.045679,0.035995,-0.998307,0.040293,0.004029,0.049958,-26.780563,-0.302643,16.136475,,,,,,,
1522139751.506840,-0.045327,-0.035839,1.173629,0.016517,0.031038,0.003227,-0.045283,0.035831,-0.998331,0.011469,-0.012439,-0.074941,-21.828247,3.431732,22.799011,,,,,,,
1522139751.536808,-0.045276,-0.035366,1.173708,0.005682,-0.004001,0.003254,-0.045233,0.035359,-0.998351,-0.021586,-0.055913,-0.056429,-18.195724,5.292709,25.118347,,,,,,,
1522139751.566777,-0.045181,-0.035047,1.173731,0.004674,0.006659,0.000041,-0.045138,0.035040,-0.998366,-0.030332,-0.041097,-0.007585,-11.932297,7.067963,28.564392,,,,,,,
1522139751.596745,-0.045114,-0.035073,1.173642,-0.004965,-0.010296,-0.006328,-0.045071,0.035066,-0.998368,0.045956,-0.061326,0.003281,-8.176300,7.351593,29.090149,,,,,,,
1522139751.626713,-0.045247,-0.035342,1.173649,-0.015659,-0.002898,0.003246,-0.045203,0.035335,-0.998353,0.043006,0.006291,-0.014877,-2.420212,5.001450,29.852417,,,,,,,
1522139751.656681,-0.045301,-0.035329,1.173703,0.005726,0.002400,0.000050,-0.045257,0.035322,-0.998351,0.043273,-0.037855,-0.017320,-0.034668,2.966705,30.836792,,,,,,,
1522139751.686650,-0.045427,-0.035368,1.173814,-0.013715,-0.041159,0.005408,-0.045383,0.035361,-0.998344,0.052768,-0.043952,0.007667,7.346786,-1.491364,31.008240,,,,,,,
1522139751.716604,-0.045440,-0.035811,1.173987,-0.004977,-0.000775,0.002175,-0.045395,0.035804,-0.998327,-0.023865,-0.054969,-0.061609,11.604385,-3.235504,31.017334,,,,,,,
1522139751.746572,-0.045595,-0.035434,1.174174,0.004368,-0.053972,0.007567,-0.045551,0.035427,-0.998334,0.058796,-0.064327,0.134961,20.027084,-7.400177,29.238220,,,,,,,
1522139751.776510,-0.045687,-0.035484,1.174380,0.006703,-0.018846,-0.000995,-0.045642,0.035477,-0.998328,0.026843,0.027008,0.002341,25.097031,-8.925476,26.771912,,,,,,,
1522139751.806479,-0.045619,-0.034696,1.174494,0.028193,0.010814,0.001139,-0.045575,0.034689,-0.998358,0.028226,-0.040258,-0.041223,35.445511,-11.680191,18.613098,,,,,,,
1522139751.836447,-0.045670,-0.034038,1.174645,0.019463,-0.023174,0.005413,-0.045628,0.034032,-0.998379,0.041432,-0.005849,0.072857,39.751968,-12.979660,13.520386,,,,,,,
1522139751.866416,-0.045690,-0.033273,1.174819,0.028048,-0.016795,0.002215,-0.045649,0.033267,-0.998403,-0.025335,-0.020770,0.001806,42.552048,-14.647812,7.978577,,,,,,,
1522139751.896384,-0.045246,-0.032562,1.174917,0.016519,0.034213,0.005354,-0.045206,0.032556,-0.998447,0.041910,-0.024103,-0.046154,46.956100,-17.453949,-3.333069,,,,,,,
1522139751.926352,-0.044768,-0.032167,1.175023,0.006866,0.019373,0.002172,-0.044729,0.032162,-0.998481,0.078177,-0.049984,-0.031106,46.459610,-18.732330,-8.953186,,,,,,,
1522139751.956321,-0.044649,-0.031993,1.175058,0.006719,-0.010375,0.003259,-0.044612,0.031988,-0.998492,0.065394,-0.029485,0.044009,43.233322,-20.377762,-18.923218,,,,,,,
1522139751.986289,-0.044158,-0.032044,1.175180,-0.016686,0.010905,0.006422,-0.044121,0.032039,-0.998512,0.015053,0.018590,-0.045677,38.330185,-21.034317,-22.523071,,,,,,,
1522139752.016257,-0.043644,-0.032109,1.175295,0.000371,0.004516,0.004301,-0.043607,0.032104,-0.998533,0.018034,-0.025573,-0.102221,29.745697,-21.825089,-26.949158,,,,,,,
1522139752.046225,-0.043598,-0.032033,1.175431,-0.011413,-0.008203,0.002181,-0.043561,0.032028,-0.998537,0.032728,-0.038116,0.119951,25.614410,-22.181961,-27.399841,,,,,,,
1522139752.076194,-0.043013,-0.032209,1.175581,-0.005901,0.036375,0.007469,-0.042978,0.032204,-0.998557,0.049035,-0.008888,0.044944,15.116287,-23.706879,-24.548950,,,,,,,
1522139752.106162,-0.042644,-0.032201,1.175746,-0.006196,-0.028422,0.006459,-0.042609,0.032195,-0.998573,0.075156,-0.050643,0.119850,10.244385,-25.107101,-21.695801,,,,,,,
,,,,,,,,,,,,,,,,25.312524,51.447849,19.033447,4.316437,-1.000000,1522139752.090284,
1522139752.136130,-0.042326,-0.032402,1.175913,-0.013538,-0.000788,0.006433,-0.042291,0.032396,-0.998580,0.042642,-0.021547,0.047774,7.188858,-27.486130,-14.487793,,,,,,,
1522139752.166098,-0.041909,-0.032570,1.176034,-0.012362,0.023670,0.005335,-0.041874,0.032564,-0.998592,0.050648,-0.032717,-0.050083,7.650314,-28.908936,-10.206848,,,,,,,
1522139752.196067,-0.041736,-0.032616,1.176167,-0.003931,-0.005041,0.003249,-0.041702,0.032610,-0.998598,0.050918,-0.039766,0.003648,9.675430,-30.116013,-8.176025,,,,,,,
1522139752.226035,-0.041630,-0.032351,1.176261,0.010974,-0.017804,0.000075,-0.041596,0.032346,-0.998611,0.044114,-0.002698,0.029403,18.298004,-31.353165,-6.516785,,,,,,,
1522139752.256003,-0.041473,-0.031950,1.176222,0.000326,-0.013509,-0.002071,-0.041440,0.031945,-0.998630,0.062498,-0.039681,-0.014904,22.486145,-32.047821,-7.336914,,,,,,,
1522139752.285971,-0.041526,-0.032031,1.176202,0.002459,-0.011421,0.001131,-0.041493,0.032026,-0.998625,0.039937,-0.005140,0.001052,27.846008,-33.501221,-11.603455,,,,,,,
1522139752.315909,-0.041710,-0.031842,1.176112,-0.002895,-0.021986,-0.005257,-0.041677,0.031836,-0.998624,0.018743,-0.049750,-0.007770,29.098633,-34.708572,-13.322937,,,,,,,
1522139752.345877,-0.041844,-0.031985,1.176006,-0.010296,-0.002835,-0.004225,-0.041811,0.031979,-0.998614,-0.002974,-0.001812,-0.064359,27.562866,-36.804123,-15.790344,,,,,,,
1522139752.375846,-0.042173,-0.031823,1.175871,-0.001744,-0.000748,-0.003149,-0.042139,0.031818,-0.998605,-0.017752,-0.021793,-0.038626,28.147568,-37.932434,-16.460571,,,,,,,
1522139752.405814,-0.042596,-0.031810,1.175889,-0.011530,-0.030541,0.005401,-0.042562,0.031805,-0.998587,-0.003321,-0.012472,-0.009362,28.806335,-38.836578,-17.656555,,,,,,,
1522139752.435781,-0.042991,-0.032065,1.175906,0.002375,-0.033711,-0.002044,-0.042956,0.032059,-0.998562,0.071078,0.058090,0.087720,28.649155,-39.061707,-18.480774,,,,,,,
1522139752.465750,-0.042992,-0.031983,1.175881,-0.003927,-0.010299,-0.003145,-0.042956,0.031978,-0.998565,0.009082,-0.004558,-0.058289,29.308319,-38.618042,-21.857178,,,,,,,
1522139752.495718,-0.043044,-0.032376,1.175824,-0.014539,0.004591,-0.002099,-0.043008,0.032371,-0.998550,0.008523,-0.017783,-0.035385,29.682800,-37.272064,-24.187439,,,,,,,
1522139752.525687,-0.043073,-0.032733,1.175794,-0.008203,-0.011367,-0.002076,-0.043037,0.032727,-0.998537,-0.012764,-0.013730,-0.068220,28.406006,-36.368118,-25.991638,,,,,,,
1522139752.555655,-0.042968,-0.032647,1.175761,0.005856,0.028981,-0.002109,-0.042932,0.032641,-0.998545,-0.025915,0.001386,-0.076437,26.627304,-33.286713,-27.579895,,,,,,,
1522139752.585624,-0.042677,-0.032311,1.175635,0.013152,-0.012461,-0.004195,-0.042642,0.032305,-0.998568,0.053796,-0.022829,0.072436,26.118774,-31.409805,-27.962646,,,,,,,
1522139752.615592,-0.042382,-0.032203,1.175468,0.003634,0.004558,-0.005275,-0.042347,0.032197,-0.998584,0.036472,-0.005357,0.014179,26.293900,-28.935516,-27.897461,,,,,,,
1522139752.645560,-0.041981,-0.032119,1.175374,0.005839,0.021567,-0.005299,-0.041947,0.032114,-0.998604,-0.010269,0.011480,-0.033043,28.256989,-27.444656,-28.202454,,,,,,,
1522139752.675528,-0.041576,-0.031673,1.175182,-0.001705,0.004572,-0.005280,-0.041543,0.031668,-0.998635,0.013848,-0.031867,-0.027809,32.542038,-24.092850,-32.113708,,,,,,,
1522139752.705497,-0.041199,-0.032064,1.174935,-0.024064,0.015281,-0.008507,-0.041167,0.032058,-0.998638,0.034041,-0.046631,-0.028706,34.117630,-22.003326,-35.496277,,,,,,,
1522139752.735484,-0.041148,-0.032723,1.174747,-0.015611,0.001406,-0.003157,-0.041115,0.032717,-0.998619,0.021400,-0.018038,0.054435,35.683578,-18.717361,-42.483704,,,,,,,
1522139752.765452,-0.040772,-0.033289,1.174638,-0.030571,0.005663,0.002150,-0.040738,0.033283,-0.998615,0.007596,-0.005908,-0.084499,34.252716,-17.588776,-45.338867,,,,,,,
1522139752.795420,-0.040982,-0.034036,1.174516,-0.032823,-0.027242,-0.003141,-0.040947,0.034029,-0.998582,0.004066,0.051588,0.012467,28.245743,-17.113693,-47.293823,,,,,,,
1522139752.825358,-0.041155,-0.034500,1.174245,-0.012372,-0.003864,-0.012729,-0.041119,0.034493,-0.998559,0.056561,-0.066780,0.076379,24.493652,-17.546448,-46.918945,,,,,,,
1522139752.855325,-0.041257,-0.035111,1.174160,-0.025192,0.004628,-0.005296,-0.041220,0.035104,-0.998533,-0.011514,0.023292,0.001982,22.697205,-17.687531,-46.094299,,,,,,,
1522139752.885295,-0.041546,-0.035107,1.173980,0.025949,-0.026285,-0.010549,-0.041509,0.035100,-0.998521,0.015874,0.019237,0.070894,16.783737,-18.108307,-43.470520,,,,,,,
1522139752.915262,-0.041565,-0.034410,1.173626,0.003581,-0.014540,-0.010578,-0.041529,0.034403,-0.998545,0.018579,-0.024683,0.005442,15.061691,-18.624207,-42.119385,,,,,,,
1522139752.945230,-0.041381,-0.034632,1.173375,0.010144,0.024743,-0.007420,-0.041345,0.034625,-0.998545,-0.036811,-0.017017,-0.112493,11.613083,-19.656723,-40.166931,,,,,,,
1522139752.975199,-0.041044,-0.033985,1.173152,0.014241,-0.010341,-0.005255,-0.041009,0.033978,-0.998581,-0.029105,0.016162,0.085480,9.225494,-19.494186,-38.368774,,,,,,,
1522139753.005167,-0.040420,-0.033972,1.172962,0.003642,0.003507,-0.007403,-0.040386,0.033966,-0.998607,0.018047,0.047089,0.056056,5.975601,-17.898865,-32.676819,,,,,,,
1522139753.035136,-0.039352,-0.033696,1.172613,0.001693,0.042864,-0.010649,-0.039320,0.033690,-0.998659,0.016218,-0.049055,-0.037200,4.360626,-16.912399,-28.481506,,,,,,,
1522139753.065104,-0.038579,-0.033920,1.172399,-0.010208,0.014166,-0.005302,-0.038547,0.033914,-0.998681,0.065036,-0.025094,0.088555,6.833237,-12.793304,-23.246765,,,,,,,
1522139753.095072,-0.037495,-0.034089,1.172381,0.004898,0.051283,-0.002122,-0.037464,0.034082,-0.998717,0.017201,0.078284,-0.067552,9.789261,-10.180786,-22.430725,,,,,,,
,,,,,,,,,,,,,,,,25.312527,51.447719,19.034895,4.659947,-1.000000,1522139753.108399,
1522139753.125041,-0.036841,-0.033395,1.172242,0.020826,0.031081,-0.004229,-0.036812,0.033389,-0.998764,0.011772,-0.070681,-0.057709,13.437469,-6.295639,-20.869446,,,,,,,
1522139753.155009,-0.036564,-0.033328,1.172196,-0.003956,-0.018798,-0.004199,-0.036536,0.033322,-0.998777,0.042914,-0.021893,0.157315,14.578568,-4.276443,-21.551941,,,,,,,
1522139753.184977,-0.035945,-0.033321,1.172151,0.021939,0.043799,-0.001039,-0.035918,0.033315,-0.998799,0.044585,-0.024541,-0.043483,15.785828,-3.007797,-22.456421,,,,,,,
1522139753.214946,-0.036010,-0.033043,1.172074,-0.013575,-0.019828,-0.004210,-0.035983,0.033037,-0.998806,0.017489,-0.004656,-0.030781,14.449646,-1.127609,-23.289612,,,,,,,
1522139753.244914,-0.036067,-0.033243,1.171899,-0.000643,0.004562,-0.004214,-0.036040,0.033237,-0.998798,0.080397,-0.005329,-0.076306,13.173019,-0.972397,-23.815918,,,,,,,
1522139753.274882,-0.036491,-0.033324,1.171656,-0.012411,-0.007061,-0.009537,-0.036462,0.033317,-0.998779,-0.016196,-0.038322,-0.068069,10.767914,-1.711197,-23.439148,,,,,,,
1522139753.304850,-0.037233,-0.033353,1.171473,0.001149,-0.075132,-0.006257,-0.037204,0.033347,-0.998751,-0.018277,-0.019248,0.046252,8.209930,-2.824158,-22.910950,,,,,,,
1522139753.334819,-0.038167,-0.033611,1.171178,-0.012531,-0.036787,-0.012707,-0.038137,0.033604,-0.998707,0.040425,-0.019063,-0.053997,6.521255,-6.791397,-22.745911,,,,,,,
1522139753.364756,-0.038890,-0.033698,1.170974,0.006703,-0.027311,-0.007374,-0.038859,0.033692,-0.998677,0.015864,0.008392,-0.024166,5.069824,-9.035522,-23.412720,,,,,,,
1522139753.394725,-0.039879,-0.033302,1.170623,-0.001842,-0.031516,-0.010573,-0.039846,0.033296,-0.998651,-0.014826,-0.010102,-0.097129,-1.518631,-15.755249,-22.789062,,,,,,,
1522139753.424693,-0.041070,-0.033438,1.170292,0.005625,-0.039986,-0.016955,-0.041036,0.033432,-0.998598,-0.011149,0.019882,0.009737,-5.296738,-19.336960,-21.501648,,,,,,,
1522139753.454661,-0.041961,-0.033312,1.169972,0.000432,0.003544,-0.008486,-0.041926,0.033306,-0.998565,0.031778,-0.051693,-0.026337,-10.967484,-25.908127,-18.178162,,,,,,,
1522139753.484629,-0.042581,-0.033530,1.169667,0.003463,-0.043200,-0.013751,-0.042544,0.033524,-0.998532,0.075152,-0.027924,-0.006076,-14.057739,-28.966660,-15.617493,,,,,,,
1522139753.514598,-0.043006,-0.033686,1.169385,-0.002850,-0.017711,-0.009520,-0.042968,0.033680,-0.998509,-0.021226,-0.012165,0.045597,-15.271393,-31.958481,-12.906128,,,,,,,
1522139753.544566,-0.042558,-0.033752,1.169176,-0.012258,0.027996,-0.008506,-0.042521,0.033746,-0.998526,0.015329,0.007987,-0.123499,-15.153000,-37.430176,-9.059143,,,,,,,
1522139753.574533,-0.042030,-0.033625,1.169036,0.001657,0.042790,-0.002116,-0.041994,0.033619,-0.998552,0.031893,0.013989,-0.089308,-15.327087,-40.203781,-8.448181,,,,,,,
1522139753.604501,-0.041543,-0.033131,1.168943,0.022812,-0.000827,-0.002058,-0.041509,0.033125,-0.998589,0.021215,-0.001859,0.010414,-16.048737,-45.150055,-7.978760,,,,,,,
1522139753.634470,-0.040402,-0.032681,1.168956,0.011310,0.056576,0.000001,-0.040369,0.032675,-0.998650,0.009089,0.004129,-0.030173,-16.439590,-46.873077,-7.747070,,,,,,,
1522139753.664438,-0.039688,-0.032165,1.168988,0.032415,0.004428,0.003270,-0.039657,0.032159,-0.998696,0.008224,0.001914,0.080941,-20.898926,-50.902023,-6.758118,,,,,,,
1522139753.694407,-0.038612,-0.031501,1.169111,0.011254,0.049075,0.006414,-0.038583,0.031495,-0.998759,0.007059,0.005385,-0.007253,-23.749817,-51.937607,-5.180481,,,,,,,
1522139753.724369,-0.037773,-0.031175,1.169168,0.020758,0.022529,0.002177,-0.037746,0.031170,-0.998801,0.016109,-0.033459,0.030143,-28.149200,-52.662338,0.295288,,,,,,,
1522139753.754338,-0.037018,-0.030638,1.169146,0.013291,0.018338,-0.003155,-0.036992,0.030633,-0.998846,0.005055,-0.048059,0.009558,-29.334427,-53.028931,3.371155,,,,,,,
1522139753.784306,-0.036440,-0.030328,1.169131,0.011109,0.007699,-0.002072,-0.036415,0.030324,-0.998877,0.003761,-0.025532,-0.028406,-29.125488,-50.549179,9.061279,,,,,,,
1522139753.814274,-0.036095,-0.029791,1.168999,0.012139,-0.006059,-0.008460,-0.036071,0.029787,-0.998905,0.039382,-0.015551,-0.002758,-27.741959,-48.677933,11.529480,,,,,,,
1522139753.844242,-0.036037,-0.029456,1.168856,0.006768,-0.009253,-0.005267,-0.036014,0.029452,-0.998917,0.013141,0.017011,0.025849,-27.406906,-46.651978,13.996521,,,,,,,
1522139753.874211,-0.036000,-0.029232,1.168719,0.004699,0.007704,-0.001010,-0.035977,0.029228,-0.998925,-0.024097,-0.043556,-0.028632,-23.256531,-40.064896,19.747253,,,,,,,
1522139753.904148,-0.036339,-0.029081,1.168583,-0.000818,-0.031562,-0.003120,-0.036316,0.029077,-0.998917,0.022476,-0.023233,0.047669,-19.895248,-35.502426,22.355713,,,,,,,
1522139753.934117,-0.036726,-0.028938,1.168364,-0.000703,-0.015578,-0.010590,-0.036702,0.028934,-0.998907,-0.006465,-0.036884,-0.000650,-12.116592,-25.632431,27.345093,,,,,,,
1522139753.964085,-0.037330,-0.029038,1.168138,-0.010326,-0.014510,-0.007404,-0.037305,0.029034,-0.998882,0.051603,-0.046352,-0.024006,-6.500061,-19.956070,28.975220,,,,,,,
1522139753.994053,-0.037929,-0.029080,1.167958,0.006642,-0.042163,-0.009496,-0.037904,0.029076,-0.998858,0.048296,0.032341,-0.048276,5.389069,-8.609467,29.085815,,,,,,,
1522139754.024022,-0.038633,-0.028869,1.167738,-0.002989,-0.046419,-0.007358,-0.038607,0.028865,-0.998837,0.022509,-0.006069,0.009946,10.681015,-3.684494,27.868713,,,,,,,
1522139754.053990,-0.038898,-0.029127,1.167554,-0.009054,0.034344,-0.004255,-0.038871,0.029122,-0.998820,-0.028832,0.020301,-0.139913,18.544357,4.152618,25.366272,,,,,,,
1522139754.083958,-0.039445,-0.029261,1.167349,-0.005119,-0.046406,-0.008425,-0.039418,0.029257,-0.998794,0.003178,-0.026190,0.052963,19.843857,6.921234,24.830872,,,,,,,
1522139754.113926,-0.039676,-0.029650,1.167078,-0.024209,-0.013433,-0.005281,-0.039648,0.029646,-0.998774,0.014395,-0.002531,0.011729,21.756653,10.213440,25.643677,,,,,,,
,,,,,,,,,,,,,,,,25.312489,51.447575,19.063286,5.051912,-1.000000,1522139754.086821,
1522139754.143895,-0.039554,-0.030322,1.166820,-0.013513,-0.012370,-0.008473,-0.039525,0.030318,-0.998759,0.018132,-0.003248,0.091028,22.672928,11.709534,25.863159,,,,,,,
1522139754.173863,-0.039297,-0.030854,1.166584,-0.030557,-0.002792,-0.006356,-0.039268,0.030849,-0.998752,0.030556,0.004353,-0.002682,26.353149,12.367752,25.637390,,,,,,,
1522139754.203831,-0.039180,-0.031487,1.166339,-0.005045,-0.031490,-0.011648,-0.039151,0.031482,-0.998737,0.049557,0.012921,0.060322,29.952499,13.249969,24.060608,,,,,,,
1522139754.233799,-0.038867,-0.031557,1.166143,-0.011300,0.008839,-0.004226,-0.038838,0.031552,-0.998747,-0.020168,-0.042950,-0.051469,31.668137,13.165833,22.636841,,,,,,,
1522139754.263768,-0.038762,-0.031912,1.165990,0.008935,-0.009244,-0.009516,-0.038733,0.031907,-0.998740,0.045126,0.050246,0.007331,34.101471,11.650467,18.219055,,,,,,,
1522139754.293736,-0.038498,-0.031446,1.165657,0.013344,0.016276,-0.013800,-0.038470,0.031440,-0.998765,0.021532,-0.041832,0.013337,33.932846,11.273743,15.745483,,,,,,,
1522139754.323704,-0.038302,-0.031368,1.165311,0.001621,0.027980,-0.009569,-0.038274,0.031363,-0.998775,0.026876,0.004831,0.015529,31.928040,9.251999,9.977539,,,,,,,
1522139754.353672,-0.038182,-0.031154,1.164960,0.022738,-0.031566,-0.013744,-0.038154,0.031149,-0.998786,0.053367,-0.021079,-0.002480,29.059860,8.288483,8.555054,,,,,,,
1522139754.383641,-0.038143,-0.030645,1.164490,0.012270,0.015219,-0.013802,-0.038116,0.030640,-0.998803,0.025863,-0.010026,0.016443,22.971191,7.190445,8.106384,,,,,,,
1522139754.413578,-0.038051,-0.030168,1.163997,0.013323,0.005689,-0.019118,-0.038025,0.030164,-0.998821,0.031738,0.013492,0.037564,19.304001,7.432831,9.003601,,,,,,,
1522139754.443547,-0.037892,-0.030046,1.163448,0.003756,0.017403,-0.018077,-0.037866,0.030041,-0.998831,0.042657,-0.020627,-0.012064,18.283447,8.265945,12.524719,,,,,,,
1522139754.473515,-0.037733,-0.030041,1.162996,-0.010203,-0.000647,-0.016995,-0.037707,0.030037,-0.998837,0.032137,0.061852,-0.017932,18.666229,8.639908,13.198425,,,,,,,
1522139754.503483,-0.037528,-0.029976,1.162400,0.005933,0.022731,-0.021277,-0.037502,0.029972,-0.998847,-0.007054,-0.005512,-0.054391,20.390549,9.156174,12.222168,,,,,,,
1522139754.533451,-0.037516,-0.030158,1.161955,-0.015665,-0.025084,-0.014847,-0.037491,0.030153,-0.998842,0.041183,0.019362,0.048372,19.556274,8.858871,11.172974,,,,,,,
1522139754.563420,-0.037389,-0.030577,1.161502,0.005917,0.025886,-0.015955,-0.037363,0.030572,-0.998834,0.002131,-0.012261,-0.040152,18.939499,8.259857,9.375122,,,,,,,
1522139754.593388,-0.037262,-0.030692,1.161133,-0.012515,-0.029370,-0.009519,-0.037236,0.030687,-0.998835,0.018193,-0.020814,0.036723,14.477493,6.177231,6.681213,,,,,,,
1522139754.623356,-0.037120,-0.030990,1.160744,0.001546,0.005690,-0.013805,-0.037094,0.030985,-0.998831,0.020965,0.009466,0.004294,10.641907,5.069565,6.758728,,,,,,,
1522139754.653325,-0.037135,-0.030827,1.160210,0.005676,-0.037813,-0.024413,-0.037109,0.030823,-0.998836,0.055099,-0.022201,0.139354,2.592453,1.357895,8.869507,,,,,,,
1522139754.683293,-0.036572,-0.030718,1.159731,0.004973,0.052464,-0.017050,-0.036547,0.030713,-0.998860,0.027377,0.029575,-0.096981,0.411453,-0.505173,10.975891,,,,,,,
1522139754.713261,-0.036383,-0.030616,1.159200,0.016436,-0.015546,-0.021232,-0.036358,0.030612,-0.998870,0.042233,0.036161,-0.023835,-2.390732,-5.663498,15.045105,,,,,,,
1522139754.743203,-0.035863,-0.029985,1.158651,0.010227,0.035445,-0.015965,-0.035839,0.029980,-0.998908,-0.039173,-0.040646,-0.040292,-1.887375,-8.963882,16.933533,,,,,,,
1522139754.773172,-0.035697,-0.030139,1.158180,-0.003871,-0.010242,-0.012728,-0.035673,0.030134,-0.998909,0.004316,-0.025786,-0.033791,2.257858,-15.580627,18.837097,,,,,,,
1522139754.803140,-0.035221,-0.030061,1.157743,0.009244,0.053474,-0.013838,-0.035198,0.030057,-0.998928,0.022823,-0.010953,-0.029484,4.778000,-18.891434,19.376587,,,,,,,
1522139754.833108,-0.035080,-0.029955,1.157281,-0.004947,-0.013420,-0.013792,-0.035057,0.029950,-0.998936,0.018166,0.069354,0.032735,12.593262,-24.926498,19.479614,,,,,,,
1522139754.863076,-0.034733,-0.029775,1.156833,0.004930,0.043954,-0.015975,-0.034711,0.029771,-0.998954,0.010022,-0.026063,-0.029061,17.968460,-26.826645,18.514954,,,,,,,
1522139754.893045,-0.034945,-0.029760,1.156475,-0.000835,-0.044297,-0.008420,-0.034922,0.029755,-0.998947,0.053385,0.022781,0.073578,21.840591,-28.720566,17.024414,,,,,,,
1522139754.923013,-0.035005,-0.029856,1.156170,0.005847,0.016284,-0.010617,-0.034982,0.029852,-0.998942,0.008050,-0.009542,-0.048986,31.845612,-30.345367,12.235962,,,,,,,
1522139754.952951,-0.035034,-0.029638,1.155829,-0.008176,-0.016631,-0.010588,-0.035012,0.029633,-0.998947,-0.025062,0.029845,-0.024933,38.049026,-30.301956,8.563965,,,,,,,
1522139754.982919,-0.035106,-0.029907,1.155540,-0.001700,-0.002830,-0.011660,-0.035083,0.029903,-0.998937,0.036807,-0.010250,-0.027949,45.598083,-28.842682,1.811890,,,,,,,
1522139755.012887,-0.035261,-0.029950,1.155176,-0.008032,0.015263,-0.011692,-0.035238,0.029945,-0.998930,0.009069,-0.012947,-0.002580,48.955063,-28.261765,-2.163818,,,,,,,
1522139755.042855,-0.035084,-0.029840,1.154921,0.003625,0.000324,-0.007403,-0.035061,0.029835,-0.998940,-0.005710,0.014415,-0.063118,54.403915,-26.194092,-9.969360,,,,,,,
1522139755.072824,-0.035035,-0.029707,1.154600,-0.004881,0.004619,-0.010611,-0.035013,0.029702,-0.998945,0.015237,-0.029580,-0.020052,55.824707,-24.404175,-13.650818,,,,,,,
1522139755.102792,-0.034964,-0.029705,1.154338,0.004774,0.020477,-0.004218,-0.034941,0.029701,-0.998948,-0.045045,-0.004890,-0.145492,58.063522,-21.870316,-19.734802,,,,,,,
,,,,,,,,,,,,,,,,25.312476,51.447459,19.079630,-1.000000,-1.000000,1522139755.094255,
1522139755.132760,-0.035022,-0.029074,1.154217,0.029256,0.004481,-0.004187,-0.035000,0.029070,-0.998964,-0.032550,0.032957,-0.130827,58.666321,-20.599686,-21.389648,,,,,,,
1522139755.162728,-0.035402,-0.028048,1.153926,0.025851,-0.048588,-0.011595,-0.035380,0.028045,-0.998980,-0.007756,-0.021712,-0.033597,60.791138,-16.262344,-24.480957,,,,,,,
1522139755.192697,-0.035405,-0.027697,1.153631,0.013390,0.032191,-0.009558,-0.035384,0.027693,-0.998990,0.022414,-0.020918,-0.064593,62.234299,-13.495422,-26.066223,,,,,,,
1522139755.222665,-0.035893,-0.026971,1.153405,0.021574,-0.047512,-0.010541,-0.035872,0.026968,-0.998992,0.029708,-0.056478,0.051071,66.220444,-11.115463,-28.173828,,,,,,,
1522139755.252633,-0.036056,-0.026872,1.153271,0.000384,-0.002883,-0.003142,-0.036036,0.026868,-0.998989,0.041224,0.045504,-0.034321,71.641327,-5.146332,-34.644958,,,,,,,
1522139755.282602,-0.036519,-0.026576,1.153068,0.010041,0.003487,-0.006335,-0.036498,0.026573,-0.998980,0.016234,-0.102089,-0.069959,74.117462,-2.461761,-38.929443,,,,,,,
1522139755.312570,-0.036714,-0.026491,1.152997,-0.011481,-0.025203,0.001137,-0.036693,0.026488,-0.998976,-0.030385,0.033632,-0.019976,74.774994,1.425888,-48.319702,,,,,,,
1522139755.342538,-0.036760,-0.026531,1.153104,0.009045,0.027859,0.002171,-0.036739,0.026528,-0.998973,0.022045,0.044776,-0.024556,72.216171,2.933426,-52.302002,,,,,,,
1522139755.372506,-0.036626,-0.026083,1.153114,0.003482,-0.015698,0.005395,-0.036605,0.026080,-0.998989,0.013580,-0.024265,0.037869,65.610031,5.657593,-57.866150,,,,,,,
1522139755.402475,-0.036370,-0.026151,1.153221,-0.003772,0.034240,0.007476,-0.036349,0.026148,-0.998997,-0.036054,-0.043055,-0.012691,61.038788,6.801880,-59.148010,,,,,,,
1522139755.432443,-0.035837,-0.026200,1.153297,0.001497,0.015104,0.005375,-0.035817,0.026197,-0.999015,0.028935,-0.032453,-0.028314,50.619110,8.421951,-60.959717,,,,,,,
1522139755.462411,-0.035198,-0.026065,1.153404,-0.008041,0.032140,0.005344,-0.035178,0.026062,-0.999041,0.051322,0.008500,0.034670,46.719864,9.038605,-61.864136,,,,,,,
1522139755.492349,-0.034601,-0.026058,1.153435,0.001483,0.005593,-0.001014,-0.034582,0.026055,-0.999062,0.010595,-0.009728,-0.054038,34.352737,9.245224,-60.896118,,,,,,,
1522139755.522317,-0.033846,-0.025615,1.153353,0.005929,0.043832,-0.001046,-0.033829,0.025612,-0.999099,0.038132,-0.043801,-0.012497,28.210205,9.274048,-59.699341,,,,,,,
1522139755.552285,-0.033229,-0.025143,1.153219,0.011113,0.006671,-0.005276,-0.033213,0.025140,-0.999132,0.018549,-0.016687,0.014498,21.617401,8.780746,-57.675598,,,,,,,
1522139755.582254,-0.032435,-0.024696,1.152980,0.002908,0.082127,-0.004291,-0.032420,0.024694,-0.999169,0.002619,-0.002233,-0.014899,9.424789,8.241913,-51.379639,,,,,,,
1522139755.612222,-0.032044,-0.024618,1.152696,0.010982,-0.036836,-0.015877,-0.032029,0.024615,-0.999184,0.037781,-0.003314,0.088417,4.573151,7.968094,-47.030945,,,,,,,
1522139755.642190,-0.031105,-0.024376,1.152346,-0.018405,0.086430,-0.006432,-0.031091,0.024373,-0.999219,-0.027427,-0.075048,-0.114214,-0.395462,8.074677,-37.808838,,,,,,,
1522139755.672158,-0.030905,-0.025515,1.152155,-0.038235,-0.045272,-0.005262,-0.030890,0.025512,-0.999197,0.009971,0.035401,0.122030,-1.937195,8.162018,-32.409973,,,,,,,
1522139755.702127,-0.030597,-0.026078,1.151931,-0.015461,0.030111,-0.006378,-0.030582,0.026075,-0.999192,0.013461,-0.078291,-0.049224,1.332901,8.079941,-24.757996,,,,,,,
1522139755.732107,-0.030483,-0.027254,1.151834,-0.051907,-0.000636,-0.004238,-0.030467,0.027251,-0.999164,0.014124,0.059373,-0.014157,5.247604,8.064804,-22.281006,,,,,,,
1522139755.762075,-0.030201,-0.027910,1.151764,-0.015519,0.025826,0.000013,-0.030184,0.027906,-0.999155,-0.012708,-0.066312,-0.126074,10.574860,6.169373,-18.745728,,,,,,,
1522139755.792043,-0.030744,-0.028850,1.151812,-0.036207,-0.061292,0.003290,-0.030727,0.028846,-0.999111,0.020412,0.033990,0.080578,14.542999,5.027267,-17.989197,,,,,,,
1522139755.822012,-0.031001,-0.029144,1.151924,0.005829,0.019408,-0.003153,-0.030983,0.029140,-0.999095,-0.035301,-0.047588,-0.055135,21.191208,2.746689,-18.651733,,,,,,,
1522139755.851980,-0.031906,-0.029294,1.151910,-0.022255,-0.043281,0.005417,-0.031887,0.029289,-0.999062,0.031520,-0.055748,-0.021446,22.680817,2.064392,-19.248291,,,,,,,
1522139755.881948,-0.032728,-0.029759,1.151937,0.002408,-0.028398,-0.003110,-0.032708,0.029755,-0.999022,0.002435,0.004684,-0.137498,23.482834,0.933838,-21.193298,,,,,,,
1522139755.911916,-0.033875,-0.029467,1.151729,0.002376,-0.037947,-0.005231,-0.033853,0.029463,-0.998992,-0.025122,-0.039655,-0.047226,23.234451,0.032547,-23.589844,,,,,,,
1522139755.941885,-0.034753,-0.029443,1.151612,-0.000877,-0.051739,-0.007350,-0.034731,0.029438,-0.998963,0.019609,0.010494,0.014710,21.578674,-0.410217,-23.813965,,,,,,,
1522139755.971853,-0.035891,-0.029084,1.151339,0.015310,-0.020935,-0.012691,-0.035868,0.029080,-0.998933,-0.038259,-0.047772,-0.114317,19.263519,-0.098679,-22.691345,,,,,,,
1522139756.001791,-0.036804,-0.029066,1.151162,-0.005189,-0.057062,-0.004152,-0.036781,0.029062,-0.998901,0.005073,-0.011164,0.053115,20.019928,0.273361,-22.242432,,,,,,,
1522139756.031759,-0.037502,-0.029067,1.151082,0.002424,-0.026267,-0.004177,-0.037477,0.029063,-0.998875,0.026582,0.007070,-0.035030,21.688431,1.541824,-21.271667,,,,,,,
1522139756.061727,-0.037898,-0.029249,1.150968,-0.017805,-0.013480,-0.003134,-0.037873,0.029244,-0.998855,0.012055,-0.034448,-0.010774,23.264404,2.358536,-22.474121,,,,,,,
1522139756.091696,-0.038043,-0.029397,1.150961,-0.001725,-0.000748,-0.005270,-0.038018,0.029392,-0.998845,0.035302,-0.010807,-0.008846,25.508514,3.844986,-25.928955,,,,,,,
,,,,,,,,,,,,,,,,25.312466,51.447326,19.087656,-1.000000,-1.000000,1522139756.088949,
1522139756.121664,-0.037607,-0.029625,1.150955,-0.011192,0.042783,0.004264,-0.037582,0.029621,-0.998854,-0.022446,-0.034763,-0.095582,23.634460,4.752060,-27.283508,,,,,,,
1522139756.151632,-0.037325,-0.029760,1.151033,-0.002907,-0.016731,0.002200,-0.037300,0.029755,-0.998861,0.021217,0.033233,0.079580,20.112717,6.116180,-29.015808,,,,,,,
1522139756.181600,-0.036337,-0.029796,1.151155,-0.006920,0.049093,0.010661,-0.036313,0.029791,-0.998896,0.051907,-0.038061,-0.014058,17.497574,6.429077,-27.893311,,,,,,,
1522139756.211569,-0.035410,-0.030100,1.151296,-0.005957,0.019372,0.005366,-0.035386,0.030096,-0.998920,0.047761,0.014918,-0.049847,14.657150,6.443420,-26.319824,,,,,,,
1522139756.241537,-0.034639,-0.029770,1.151404,0.017639,0.039509,0.003238,-0.034617,0.029766,-0.998957,0.019236,0.005512,-0.050344,14.309814,6.823959,-22.346436,,,,,,,
1522139756.271505,-0.033929,-0.029116,1.151416,0.011076,0.004508,0.000054,-0.033908,0.029112,-0.999001,0.054325,-0.045607,-0.085182,15.885941,6.667328,-21.895081,,,,,,,
1522139756.301473,-0.033602,-0.028756,1.151401,0.012257,0.028923,0.001106,-0.033582,0.028752,-0.999022,0.039502,-0.004674,0.011535,17.145172,5.311279,-22.264038,,,,,,,
1522139756.331442,-0.033423,-0.028277,1.151441,0.015208,-0.028443,-0.000970,-0.033403,0.028274,-0.999042,0.013033,-0.037841,0.026889,17.126572,4.260025,-23.609802,,,,,,,
1522139756.361410,-0.033518,-0.027867,1.151482,0.003684,0.020465,-0.001028,-0.033498,0.027863,-0.999050,-0.004893,-0.001969,-0.058506,13.793015,2.023163,-25.477539,,,,,,,
1522139756.391378,-0.033652,-0.027941,1.151490,-0.010364,-0.011421,0.004325,-0.033633,0.027937,-0.999044,0.079119,-0.047026,0.042394,10.482971,0.838348,-25.174500,,,,,,,
1522139756.421346,-0.034211,-0.028058,1.151516,-0.003989,-0.022057,0.002215,-0.034191,0.028055,-0.999021,-0.003025,0.036276,-0.086504,2.526352,-1.672760,-22.093384,,,,,,,
1522139756.451315,-0.034424,-0.027883,1.151577,0.000367,-0.002923,0.001127,-0.034404,0.027879,-0.999019,0.021373,-0.015977,-0.094380,-1.741928,-3.299713,-18.263977,,,,,,,
1522139756.481283,-0.034746,-0.028080,1.151575,-0.014592,-0.005040,0.003259,-0.034725,0.028077,-0.999002,0.051754,-0.042557,-0.035162,-4.345993,-5.755417,-10.680481,,,,,,,
1522139756.511251,-0.035238,-0.028587,1.151690,-0.019066,-0.045424,0.006488,-0.035216,0.028583,-0.998971,0.030028,-0.039829,0.016366,-3.661530,-6.655426,-7.601562,,,,,,,
1522139756.541189,-0.035158,-0.029096,1.151908,-0.020790,0.047021,0.007459,-0.035136,0.029092,-0.998959,0.004710,0.016471,-0.201419,-1.919998,-8.158005,-2.344666,,,,,,,
1522139756.571157,-0.035484,-0.029043,1.152045,0.003418,-0.037989,0.000099,-0.035461,0.029039,-0.998949,0.024445,-0.049928,-0.063475,-0.334854,-8.313187,-0.393250,,,,,,,
1522139756.601125,-0.035775,-0.029081,1.152093,-0.005899,0.027890,0.002165,-0.035752,0.029077,-0.998938,-0.005111,-0.020776,0.000677,1.321121,-8.843765,1.484680,,,,,,,
1522139756.631094,-0.035804,-0.028785,1.152125,0.017408,-0.013586,0.000086,-0.035781,0.028781,-0.998945,-0.001176,-0.038745,-0.096377,6.872879,-10.066406,3.817383,,,,,,,
1522139756.661062,-0.035800,-0.028611,1.152135,-0.000635,0.006655,-0.002073,-0.035778,0.028607,-0.998950,0.076946,-0.020749,0.022022,10.618240,-10.757889,4.197021,,,,,,,
1522139756.691030,-0.035791,-0.028571,1.152018,-0.001780,-0.015611,-0.007385,-0.035769,0.028567,-0.998952,0.052157,-0.042773,0.026006,18.844635,-11.322891,1.203369,,,,,,,
1522139756.720999,-0.035261,-0.029167,1.152008,-0.025178,0.013069,0.001100,-0.035238,0.029162,-0.998953,0.017996,-0.015552,0.051383,21.529068,-11.487305,-1.119629,,,,,,,
1522139756.750952,-0.034967,-0.029286,1.151998,-0.001783,-0.010319,-0.003134,-0.034944,0.029282,-0.998960,0.079576,0.033615,-0.067751,23.224976,-11.200256,-6.444946,,,,,,,
1522139756.780920,-0.034724,-0.029106,1.151760,-0.003673,0.041753,-0.004248,-0.034702,0.029102,-0.998974,0.050510,-0.049503,-0.081760,22.769272,-10.824783,-8.021606,,,,,,,
1522139756.810888,-0.034289,-0.029320,1.151763,-0.015519,0.028970,0.004282,-0.034267,0.029316,-0.998983,0.039989,0.020123,-0.123606,20.296616,-10.588669,-8.023804,,,,,,,
1522139756.840857,-0.034005,-0.029310,1.151743,0.006833,0.010862,0.002187,-0.033984,0.029306,-0.998993,0.014468,0.035773,-0.046265,20.231354,-10.062607,-7.275940,,,,,,,
1522139756.870825,-0.033591,-0.028905,1.151806,-0.009127,0.026820,0.005355,-0.033571,0.028901,-0.999018,0.074159,0.015197,-0.045247,24.672363,-8.956787,-6.453186,,,,,,,
1522139756.900793,-0.033508,-0.029310,1.151906,0.000246,-0.023163,0.007544,-0.033487,0.029306,-0.999009,0.040247,-0.023385,-0.002883,27.964752,-9.496964,-6.824402,,,,,,,
1522139756.930761,-0.033821,-0.029373,1.151962,-0.009334,-0.018888,0.006472,-0.033800,0.029369,-0.998997,0.079912,-0.033031,0.053028,30.879410,-9.362030,-8.773438,,,,,,,
1522139756.960730,-0.033343,-0.029498,1.152125,-0.001621,0.031062,0.003228,-0.033322,0.029494,-0.999009,0.038922,0.047090,-0.175673,35.788498,-10.214508,-14.167603,,,,,,,
1522139756.990698,-0.033380,-0.029401,1.152155,-0.011332,0.006649,0.002183,-0.033359,0.029397,-0.999011,-0.040279,-0.067804,-0.098203,34.860916,-11.263184,-17.013855,,,,,,,
1522139757.020666,-0.033046,-0.029626,1.152318,-0.017681,0.023633,0.006426,-0.033025,0.029622,-0.999015,0.031637,0.041011,0.045356,33.925705,-12.313095,-21.135132,,,,,,,
1522139757.050634,-0.033047,-0.029281,1.152428,0.028104,-0.006201,0.003286,-0.033027,0.029277,-0.999026,0.080070,-0.001368,0.141466,33.389923,-12.761734,-22.183655,,,,,,,
1522139757.080572,-0.032794,-0.028887,1.152514,0.003570,-0.000824,0.003260,-0.032775,0.028883,-0.999045,0.125289,-0.053159,-0.018426,31.876205,-13.505981,-23.231384,,,,,,,
1522139757.110540,-0.032369,-0.028746,1.152570,0.011088,0.009756,0.005395,-0.032350,0.028742,-0.999063,0.116090,-0.008982,0.058588,32.398911,-13.059464,-24.357910,,,,,,,
,,,,,,,,,,,,,,,,25.312406,51.447202,19.086821,-1.000000,-1.000000,1522139757.083732,
1522139757.140509,-0.031914,-0.028176,1.152573,0.003696,0.033142,0.008554,-0.031896,0.028173,-0.999094,0.093816,-0.010656,-0.016729,32.071426,-13.062561,-28.933105,,,,,,,
1522139757.170477,-0.031710,-0.027835,1.152605,0.002606,0.017257,0.000051,-0.031692,0.027831,-0.999110,0.073700,0.033158,-0.125997,31.162567,-12.460938,-31.410950,,,,,,,
1522139757.200445,-0.031638,-0.027359,1.152477,0.009002,0.017241,0.001116,-0.031620,0.027355,-0.999126,0.027974,-0.006909,-0.082921,25.960297,-12.666733,-35.612732,,,,,,,
1522139757.230413,-0.031588,-0.027200,1.152547,-0.013547,0.000229,0.010705,-0.031571,0.027196,-0.999131,0.056947,0.060908,0.036271,22.945740,-13.404358,-36.811279,,,,,,,
1522139757.260382,-0.031464,-0.027224,1.152507,0.023729,-0.038033,-0.003072,-0.031447,0.027221,-0.999135,0.109709,-0.005278,0.098851,17.610641,-14.505203,-36.659546,,,,,,,
1522139757.290350,-0.031332,-0.027087,1.152489,-0.023083,0.006690,0.002166,-0.031315,0.027084,-0.999143,0.050007,-0.026397,-0.072787,9.205963,-16.639603,-33.880249,,,,,,,
1522139757.320318,-0.031578,-0.027848,1.152504,-0.006130,-0.029435,-0.004179,-0.031560,0.027845,-0.999114,0.130681,0.037982,-0.021623,6.129059,-18.048737,-31.851074,,,,,,,
1522139757.350286,-0.031984,-0.027802,1.152422,-0.017819,-0.019830,-0.006326,-0.031966,0.027798,-0.999102,0.066863,-0.060238,-0.047818,1.703918,-21.622879,-25.914001,,,,,,,
1522139757.380255,-0.032772,-0.028468,1.152420,-0.014553,-0.004970,-0.005272,-0.032753,0.028464,-0.999058,0.061500,0.060784,-0.044903,1.402954,-22.894577,-23.959106,,,,,,,
1522139757.410223,-0.033464,-0.028241,1.152181,0.007791,-0.030475,-0.012690,-0.033444,0.028237,-0.999042,0.055188,-0.038888,0.021625,2.668701,-25.896805,-20.496399,,,,,,,
1522139757.440191,-0.034541,-0.028571,1.151928,-0.019957,-0.014568,0.000068,-0.034520,0.028567,-0.998996,-0.000758,0.009992,0.036334,3.636200,-27.100403,-19.741150,,,,,,,
1522139757.470160,-0.035457,-0.028743,1.151602,0.003403,-0.051749,-0.008407,-0.035435,0.028740,-0.998959,0.086735,0.011132,-0.034031,7.828857,-28.018967,-19.435364,,,,,,,
1522139757.500128,-0.036203,-0.028603,1.151180,-0.003914,-0.025125,-0.014830,-0.036181,0.028599,-0.998936,0.052019,0.047084,-0.033001,7.826767,-28.318802,-19.284119,,,,,,,
1522139757.530096,-0.036930,-0.028432,1.150655,0.003704,0.005679,-0.015921,-0.036907,0.028428,-0.998914,0.051540,-0.063859,-0.126894,10.013351,-27.428192,-18.836609,,,,,,,
1522139757.560064,-0.037268,-0.028466,1.150158,-0.008179,-0.019821,-0.011644,-0.037245,0.028462,-0.998901,0.065626,0.035976,-0.013123,12.348434,-26.239014,-19.140259,,,,,,,
1522139757.590033,-0.037929,-0.028242,1.149748,0.012057,-0.036836,-0.016939,-0.037905,0.028239,-0.998882,0.036471,0.017400,0.003277,14.311050,-24.972855,-19.144287,,,,,,,
1522139757.619970,-0.037934,-0.028209,1.149371,-0.010994,0.064133,-0.012791,-0.037910,0.028205,-0.998883,0.010612,-0.024802,-0.180499,16.590439,-22.207809,-18.854187,,,,,,,
1522139757.649939,-0.037683,-0.028408,1.149104,-0.006998,0.003539,-0.011657,-0.037659,0.028404,-0.998887,0.016312,-0.029701,-0.009475,17.583832,-20.636841,-18.410034,,,,,,,
1522139757.679907,-0.037445,-0.028626,1.148863,0.000377,-0.015585,-0.011647,-0.037421,0.028622,-0.998890,0.080466,0.035648,0.109592,20.543274,-17.499649,-17.896057,,,,,,,
1522139757.709875,-0.036548,-0.028398,1.148658,0.011474,0.075742,-0.010649,-0.036525,0.028394,-0.998929,-0.016835,0.011569,-0.141040,23.109467,-15.561722,-18.427551,,,,,,,
1522139757.739832,-0.035816,-0.027915,1.148376,0.017546,0.005607,-0.009522,-0.035795,0.027911,-0.998969,-0.001162,-0.017733,-0.023827,29.446136,-11.166458,-19.641907,,,,,,,
1522139757.769801,-0.034896,-0.027526,1.148190,0.013526,0.067210,-0.004258,-0.034875,0.027522,-0.999013,0.043496,-0.032543,0.096425,31.938675,-9.003357,-20.324402,,,,,,,
1522139757.799769,-0.033532,-0.027080,1.148053,0.014529,0.053380,-0.003174,-0.033513,0.027077,-0.999071,-0.006648,0.019524,-0.066297,36.912796,-5.053299,-22.887695,,,,,,,
1522139757.829737,-0.032385,-0.026681,1.147793,0.000534,0.023699,-0.007422,-0.032368,0.026678,-0.999120,0.042133,-0.036474,0.002645,39.774139,-2.967758,-24.469604,,,,,,,
1522139757.859705,-0.031072,-0.027038,1.147542,-0.012230,0.035409,-0.006376,-0.031056,0.027035,-0.999152,0.082799,0.029300,0.070441,43.601624,-0.513657,-28.152527,,,,,,,
1522139757.889674,-0.029641,-0.026816,1.147226,0.009106,0.027925,-0.008479,-0.029626,0.026812,-0.999201,0.082483,-0.032962,0.073466,44.202423,0.606903,-29.881653,,,,,,,
1522139757.919642,-0.028867,-0.026593,1.146894,-0.005866,0.013131,-0.015929,-0.028853,0.026590,-0.999230,0.031889,0.050986,-0.005439,45.026596,1.875946,-32.136353,,,,,,,
1522139757.949610,-0.028248,-0.026276,1.146519,0.004826,0.021577,-0.011668,-0.028235,0.026273,-0.999256,0.038016,-0.039563,-0.015011,48.844910,3.504929,-35.965942,,,,,,,
1522139757.979578,-0.028255,-0.026579,1.146276,-0.006091,-0.027293,-0.008434,-0.028241,0.026576,-0.999248,0.049054,0.011998,0.097926,50.194641,4.696823,-37.995056,,,,,,,
1522139758.009547,-0.028318,-0.026311,1.146016,0.022684,-0.044341,-0.012655,-0.028304,0.026308,-0.999253,0.042556,-0.018510,0.075776,51.311554,6.637222,-42.577271,,,,,,,
1522139758.039515,-0.028530,-0.026372,1.145645,-0.020927,-0.009174,-0.012717,-0.028517,0.026369,-0.999245,0.041502,-0.028657,0.000588,50.105881,7.240692,-44.530273,,,,,,,
1522139758.069483,-0.028724,-0.026866,1.145341,-0.008220,-0.029406,-0.010559,-0.028710,0.026863,-0.999227,-0.005882,-0.013146,-0.091441,48.591309,8.443085,-48.960876,,,,,,,
1522139758.099452,-0.028670,-0.027171,1.145024,-0.013435,0.003541,-0.007410,-0.028656,0.027167,-0.999220,-0.012207,0.029763,-0.087755,47.309296,9.046677,-51.138916,,,,,,,
,,,,,,,,,,,,,,,,25.312347,51.447104,19.078930,-1.000000,-1.000000,1522139758.098605,
1522139758.129420,-0.028875,-0.027105,1.144835,-0.008181,-0.016657,-0.008449,-0.028860,0.027102,-0.999216,0.026617,-0.000155,0.015726,42.652084,9.815155,-53.619324,,,,,,,
1522139758.159358,-0.029066,-0.027599,1.144599,-0.015639,-0.009220,-0.005268,-0.029051,0.027595,-0.999197,0.038099,-0.015526,0.009924,39.277496,10.354507,-54.448120,,,,,,,
1522139758.189326,-0.029164,-0.027811,1.144440,-0.000799,-0.031578,-0.004170,-0.029149,0.027807,-0.999188,0.061803,0.011301,0.063626,33.738037,11.953522,-55.357300,,,,,,,
1522139758.219294,-0.028746,-0.028049,1.144322,-0.010213,0.016231,0.000039,-0.028731,0.028045,-0.999194,0.051451,0.021683,-0.048032,28.789719,12.575043,-56.112244,,,,,,,
1522139758.249262,-0.028668,-0.028244,1.144178,0.000267,-0.033702,-0.005229,-0.028653,0.028241,-0.999190,0.077679,-0.007123,0.118133,24.739319,11.994171,-55.211914,,,,,,,
1522139758.279231,-0.028322,-0.028231,1.144015,-0.006988,0.016237,-0.003149,-0.028307,0.028227,-0.999201,0.105730,-0.036406,0.013208,15.299347,11.514114,-52.739807,,,,,,,
1522139758.309199,-0.027865,-0.028379,1.143940,0.001505,0.003499,-0.006335,-0.027850,0.028375,-0.999209,0.005908,0.019736,-0.102384,9.684967,11.091858,-50.265869,,,,,,,
1522139758.339167,-0.026980,-0.027794,1.143855,0.009123,0.038536,-0.004237,-0.026966,0.027790,-0.999250,0.023823,-0.057301,-0.079501,0.627563,8.664597,-43.285706,,,,,,,
1522139758.369135,-0.026509,-0.027822,1.143810,-0.006017,-0.005001,-0.004199,-0.026495,0.027818,-0.999262,0.037558,0.013411,0.064859,-1.980301,8.080154,-39.459656,,,,,,,
1522139758.399104,-0.025980,-0.028101,1.143714,0.002620,0.013053,-0.006339,-0.025967,0.028097,-0.999268,0.026516,-0.014639,0.018845,-5.395706,6.903244,-31.731689,,,,,,,
1522139758.429072,-0.025157,-0.028304,1.143655,-0.005927,0.018351,-0.001024,-0.025144,0.028300,-0.999283,0.068144,0.006246,-0.011856,-5.308823,6.380722,-28.879517,,,,,,,
1522139758.459040,-0.024496,-0.028222,1.143557,0.004762,0.021517,-0.001022,-0.024483,0.028218,-0.999302,0.012871,0.002056,-0.088467,-4.603500,6.307724,-23.703918,,,,,,,
1522139758.489008,-0.024327,-0.027682,1.143332,0.016334,-0.026302,-0.007347,-0.024316,0.027678,-0.999321,0.057259,0.025056,0.108666,-3.844940,5.856476,-21.526733,,,,,,,
1522139758.518977,-0.023719,-0.027444,1.143300,0.006966,0.040617,0.002156,-0.023708,0.027441,-0.999342,0.014278,0.014399,-0.142732,-1.344971,5.924286,-17.475708,,,,,,,
1522139758.548945,-0.023947,-0.026952,1.143167,0.018368,-0.043334,-0.003069,-0.023936,0.026948,-0.999350,0.014033,-0.036241,-0.046243,-0.796875,6.524658,-14.627808,,,,,,,
1522139758.578913,-0.023969,-0.026489,1.143006,0.003565,-0.012457,-0.005249,-0.023959,0.026486,-0.999362,0.060519,-0.022198,0.071826,1.256866,6.969467,-10.578613,,,,,,,
1522139758.608881,-0.023960,-0.026649,1.142826,-0.002803,-0.009209,-0.010590,-0.023949,0.026646,-0.999358,0.103386,0.011333,0.019225,3.292450,7.261581,-9.303711,,,,,,,
1522139758.638850,-0.024241,-0.026494,1.142596,0.002443,-0.034712,-0.013750,-0.024230,0.026491,-0.999355,0.059325,-0.014879,0.098766,6.080063,8.074783,-8.555603,,,,,,,
1522139758.668818,-0.024851,-0.026838,1.142439,-0.011433,-0.025182,-0.005240,-0.024840,0.026835,-0.999331,-0.002550,-0.019267,-0.090848,10.142639,9.106873,-8.182678,,,,,,,
1522139758.698756,-0.024912,-0.026981,1.142345,-0.007021,0.009868,-0.003148,-0.024901,0.026978,-0.999326,0.036573,-0.019745,-0.062228,11.937149,8.873276,-8.705872,,,,,,,
1522139758.728707,-0.025240,-0.026739,1.142247,0.009880,-0.031608,-0.004159,-0.025228,0.026736,-0.999324,0.067785,0.013837,0.061641,14.115784,9.463104,-9.082153,,,,,,,
1522139758.758675,-0.024965,-0.026571,1.142105,0.002654,0.022632,-0.006360,-0.024954,0.026567,-0.999336,-0.007532,0.016478,-0.102105,15.017410,9.534195,-8.931946,,,,,,,
1522139758.788644,-0.024842,-0.026060,1.141943,0.018670,0.025733,-0.002077,-0.024831,0.026057,-0.999352,0.036229,-0.008128,-0.041938,17.189774,8.999863,-8.478699,,,,,,,
1522139758.818612,-0.024351,-0.025507,1.141758,0.019600,-0.008230,-0.006313,-0.024341,0.025504,-0.999378,0.049792,0.029153,0.023930,18.169235,8.996216,-7.728210,,,,,,,
1522139758.848580,-0.023752,-0.024885,1.141547,0.016553,0.024705,-0.006340,-0.023743,0.024882,-0.999408,0.046097,0.036061,-0.021389,23.113342,8.224274,-7.422668,,,,,,,
1522139758.878548,-0.022760,-0.024597,1.141402,0.004843,0.037458,-0.002100,-0.022751,0.024594,-0.999439,0.028809,-0.051633,-0.117291,26.181778,8.059647,-8.245483,,,,,,,
1522139758.908517,-0.022060,-0.024927,1.141327,-0.023062,0.009884,0.001099,-0.022051,0.024924,-0.999446,-0.030027,0.014214,-0.032079,30.737366,7.736450,-10.941895,,,,,,,
1522139758.938485,-0.020936,-0.025506,1.141293,-0.026127,0.037514,0.000012,-0.020928,0.025503,-0.999456,0.025277,0.003458,-0.051097,31.692520,7.054977,-13.113708,,,,,,,
1522139758.968453,-0.020056,-0.026202,1.141249,-0.029443,0.013069,0.001103,-0.020048,0.026199,-0.999456,0.036177,-0.024643,0.028859,31.150436,6.380692,-14.836243,,,,,,,
1522139758.998421,-0.019118,-0.026847,1.141190,-0.011220,0.021586,-0.006356,-0.019110,0.026844,-0.999457,0.030890,0.021435,-0.010400,30.896530,4.430267,-16.403625,,,,,,,
1522139759.028390,-0.017793,-0.026551,1.141076,0.011313,0.052322,-0.002113,-0.017786,0.026548,-0.999489,0.042993,-0.044446,-0.079292,30.433823,3.381973,-16.774658,,,,,,,
1522139759.058358,-0.016678,-0.026345,1.140957,0.003632,0.003473,-0.004199,-0.016671,0.026342,-0.999514,0.048669,0.002482,-0.043867,31.168076,2.028305,-17.143860,,,,,,,
,,,,,,,,,,,,,,,,25.312291,51.447002,19.070768,-1.000000,-1.000000,1522139759.074059,
1522139759.088326,-0.017128,-0.025901,1.140802,0.014109,-0.044347,-0.007340,-0.017121,0.025898,-0.999518,0.014314,-0.025196,-0.006982,31.159668,1.502808,-17.666809,,,,,,,
1522139759.118294,-0.018132,-0.025577,1.140518,0.006872,0.002433,-0.010579,-0.018125,0.025574,-0.999509,0.041120,-0.008408,-0.090747,33.175415,1.791718,-19.691895,,,,,,,
