timestamp(unix),attitude_roll(radians),attitude_pitch(radians),attitude_yaw(radians),rotation_rate_x(radians/s),rotation_rate_y(radians/s),rotation_rate_z(radians/s),gravity_x(G),gravity_y(G),gravity_z(G),user_acc_x(G),user_acc_y(G),user_acc_z(G),magnetic_field_x(microteslas),magnetic_field_y(microteslas),magnetic_field_z(microteslas),latitude(degree),longitude(degree),altitude(meter),speed(m/s),course(degree),timestamp(unix),User Mark
1522139119.973539,-0.036494,0.062618,-0.999029,-0.018145,-0.003007,0.044055,-0.036414,-0.062577,-0.997376,-0.105325,-0.034622,0.035568,9.408722,2.938444,-46.542725,,,,,,,
,,,,,,,,,,,,,,,,25.305228,51.448068,10.998445,-1.000000,-1.000000,1522139118.354189,
1522139120.003507,-0.037013,0.062168,-0.997240,-0.017091,-0.005145,0.045126,-0.036933,-0.062127,-0.997385,-0.100015,-0.021369,-0.024878,9.933075,3.010847,-46.767700,,,,,,,
1522139120.033476,-0.037325,0.061593,-0.995665,-0.017034,0.008661,0.046177,-0.037245,-0.061554,-0.997409,-0.077242,-0.009704,0.001498,10.236679,3.234709,-46.543518,,,,,,,
1522139120.063444,-0.037800,0.061165,-0.994074,-0.017099,-0.004095,0.047254,-0.037720,-0.061127,-0.997417,-0.086181,-0.024185,0.001049,9.708084,2.787245,-46.391968,,,,,,,
1522139120.093412,-0.038271,0.060697,-0.992253,-0.012859,-0.007299,0.049385,-0.038192,-0.060660,-0.997428,-0.106095,-0.032709,0.028479,10.010925,3.160734,-46.543335,,,,,,,
1522139120.123381,-0.038746,0.060234,-0.990592,-0.011814,-0.012617,0.049392,-0.038666,-0.060198,-0.997437,-0.098511,0.020006,0.012482,10.837387,3.307005,-46.543457,,,,,,,
1522139120.153356,-0.038890,0.060140,-0.988820,-0.001030,0.005444,0.045125,-0.038809,-0.060103,-0.997437,-0.107110,-0.009538,-0.033858,9.936981,3.086363,-46.243042,,,,,,,
1522139120.183294,-0.039170,0.059929,-0.987296,-0.010609,0.010788,0.044047,-0.039090,-0.059893,-0.997439,-0.103930,0.004839,-0.011472,10.460312,3.008848,-46.392456,,,,,,,
1522139120.213262,-0.039379,0.059750,-0.985577,0.001172,0.017155,0.041914,-0.039299,-0.059714,-0.997442,-0.091255,-0.001626,-0.056056,10.610779,3.008253,-46.317383,,,,,,,
1522139120.243230,-0.039594,0.059762,-0.984158,-0.002003,0.020379,0.038708,-0.039513,-0.059726,-0.997432,-0.105339,0.007160,-0.071614,10.384415,3.009047,-46.542542,,,,,,,
1522139120.273198,-0.039902,0.059773,-0.982797,0.006407,-0.015741,0.033428,-0.039820,-0.059737,-0.997420,-0.099157,0.015670,0.005324,10.158691,2.935057,-46.542358,,,,,,,
1522139120.303167,-0.039949,0.059815,-0.981780,0.001199,0.010854,0.031266,-0.039867,-0.059779,-0.997415,-0.080647,0.004542,0.004297,10.984390,3.006346,-46.542175,,,,,,,
1522139120.333135,-0.040087,0.059729,-0.980751,0.000073,0.000232,0.032335,-0.040004,-0.059694,-0.997415,-0.089878,0.005907,-0.010688,10.984085,2.931425,-46.466919,,,,,,,
,,,,,,,,,,,,,,,,25.305217,51.448005,10.998793,-1.000000,-1.000000,1522139120.314411,
1522139120.363103,-0.040181,0.059546,-0.979831,-0.009463,0.009836,0.028065,-0.040099,-0.059511,-0.997422,-0.085573,-0.004652,0.011674,10.683502,2.782927,-46.316406,,,,,,,
1522139120.393071,-0.040215,0.059322,-0.978996,-0.002019,0.002390,0.027011,-0.040133,-0.059287,-0.997434,-0.096647,-0.000573,-0.048114,11.434219,3.079176,-46.692261,,,,,,,
1522139120.423040,-0.040327,0.059123,-0.978231,-0.010476,0.019433,0.024852,-0.040246,-0.059089,-0.997441,-0.091072,-0.014809,0.055180,10.529922,2.558393,-46.540649,,,,,,,
1522139120.453008,-0.040354,0.058810,-0.977328,-0.005156,0.011973,0.023809,-0.040274,-0.058776,-0.997458,-0.092798,0.002120,-0.007974,10.755936,2.707304,-46.616150,,,,,,,
1522139120.482976,-0.040313,0.058530,-0.976227,-0.013602,0.033280,0.021637,-0.040233,-0.058496,-0.997477,-0.088979,0.004160,0.028238,11.132874,2.855680,-46.541504,,,,,,,
1522139120.512944,-0.040547,0.058159,-0.975371,-0.006259,0.001380,0.020617,-0.040468,-0.058126,-0.997489,-0.055480,0.014974,0.029074,11.060745,3.006224,-46.317139,,,,,,,
1522139120.542913,-0.040385,0.057837,-0.974348,-0.012564,0.021619,0.017388,-0.040306,-0.057805,-0.997514,-0.044456,0.017278,-0.030394,10.755936,2.707304,-46.616150,,,,,,,
1522139120.572881,-0.040307,0.057402,-0.973577,-0.013685,0.008863,0.017405,-0.040230,-0.057371,-0.997542,-0.036736,0.005155,-0.017930,11.507568,3.003691,-46.841919,,,,,,,
1522139120.602849,-0.039991,0.056910,-0.972599,-0.012538,0.025874,0.016320,-0.039915,-0.056879,-0.997583,-0.041597,0.007837,-0.061514,10.908508,3.006544,-46.692200,,,,,,,
1522139120.632787,-0.039767,0.056591,-0.971830,-0.007288,0.006738,0.016340,-0.039693,-0.056561,-0.997610,-0.036372,0.005856,0.022115,11.131378,2.705687,-46.540955,,,,,,,
1522139120.662755,-0.039099,0.056259,-0.970924,-0.013468,0.053499,0.015235,-0.039027,-0.056229,-0.997655,-0.019033,0.012528,0.006062,11.057892,2.631392,-46.165649,,,,,,,
1522139120.692723,-0.038501,0.056026,-0.970285,-0.002958,0.016297,0.014209,-0.038431,-0.055997,-0.997691,0.004404,0.014279,-0.008428,10.985748,3.006559,-46.317139,,,,,,,
1522139120.722692,-0.037822,0.055944,-0.969713,-0.000754,0.026950,0.009935,-0.037754,-0.055915,-0.997721,0.024983,0.014701,0.027446,10.829147,2.482054,-46.540161,,,,,,,
1522139120.752660,-0.037143,0.055713,-0.968892,-0.008217,0.030163,0.009923,-0.037076,-0.055684,-0.997760,0.043256,0.024907,0.022433,11.806808,2.702726,-46.465576,,,,,,,
1522139120.782628,-0.036244,0.055523,-0.968272,0.001388,0.032218,0.014201,-0.036180,-0.055495,-0.997803,0.023546,0.017455,-0.011321,11.434219,2.854551,-46.316345,,,,,,,
1522139120.812597,-0.035418,0.055636,-0.967446,0.001410,0.036499,0.012055,-0.035355,-0.055607,-0.997827,0.022263,0.011342,0.010339,11.958298,2.852034,-46.466064,,,,,,,
1522139120.842565,-0.034692,0.055784,-0.966869,0.004572,0.024799,0.011011,-0.034631,-0.055755,-0.997844,0.063486,0.021713,0.001658,11.737656,3.153257,-46.242432,,,,,,,
1522139120.872533,-0.034044,0.055934,-0.966048,0.015197,0.013099,0.009959,-0.033985,-0.055905,-0.997858,0.044940,0.005582,0.024896,11.506821,2.704069,-46.465698,,,,,,,
1522139120.902501,-0.033503,0.056176,-0.965481,0.009891,0.019464,0.011026,-0.033444,-0.056147,-0.997862,0.040768,0.000116,-0.050554,11.359818,2.780104,-46.091125,,,,,,,
1522139120.932470,-0.033124,0.056321,-0.964704,0.006663,0.016286,0.012086,-0.033066,-0.056291,-0.997867,0.027191,0.027910,-0.037183,11.285446,2.930296,-46.241760,,,,,,,
1522139120.962438,-0.033036,0.056545,-0.964200,0.011933,-0.003888,0.007849,-0.032977,-0.056514,-0.997857,0.029285,-0.002980,-0.001731,11.279144,2.480024,-46.539978,,,,,,,
1522139120.992406,-0.032966,0.056728,-0.963450,0.007600,-0.018762,0.007866,-0.032907,-0.056697,-0.997849,0.068368,0.035884,0.000962,11.206375,2.705351,-46.540894,,,,,,,
1522139121.022374,-0.032868,0.056975,-0.962918,0.007708,0.008861,0.009963,-0.032809,-0.056944,-0.997838,0.043871,0.019301,-0.057902,11.203690,2.255659,-46.239075,,,,,,,
1522139121.052343,-0.033130,0.056989,-0.962365,-0.001993,-0.010266,0.012112,-0.033070,-0.056958,-0.997829,0.034474,0.025479,-0.021992,11.060287,2.556913,-45.640320,,,,,,,
1522139121.082280,-0.033366,0.057197,-0.961615,0.014983,-0.037900,0.007886,-0.033305,-0.057166,-0.997809,0.036845,0.011664,-0.047327,11.362228,2.930250,-45.941650,,,,,,,
1522139121.112249,-0.033571,0.057483,-0.961249,0.005491,-0.012359,0.006783,-0.033509,-0.057451,-0.997786,0.048661,0.028459,-0.021089,12.785385,2.698927,-45.865112,,,,,,,
1522139121.142201,-0.033784,0.057490,-0.961051,-0.000869,-0.000660,0.007830,-0.033721,-0.057458,-0.997778,0.049499,0.015207,-0.024393,11.733170,2.478651,-45.864746,,,,,,,
1522139121.172169,-0.034055,0.057319,-0.960870,-0.002979,0.002549,0.005694,-0.033992,-0.057287,-0.997779,0.046718,0.000036,0.013984,11.505035,2.254530,-46.013916,,,,,,,
1522139121.202137,-0.034339,0.057231,-0.960753,-0.002087,-0.042043,0.000410,-0.034276,-0.057200,-0.997774,0.053258,0.018900,-0.053373,11.508469,2.554594,-45.940125,,,,,,,
1522139121.232106,-0.034426,0.056967,-0.960711,-0.008341,-0.006983,0.002506,-0.034364,-0.056936,-0.997786,0.048173,0.027258,-0.026887,11.428986,2.329573,-46.314209,,,,,,,
1522139121.262074,-0.034732,0.056770,-0.960569,-0.000854,-0.006991,0.000384,-0.034669,-0.056740,-0.997787,0.075791,0.018501,-0.005906,11.736908,2.853636,-45.866211,,,,,,,
1522139121.292042,-0.034682,0.056582,-0.960364,-0.007283,-0.014397,-0.001746,-0.034619,-0.056552,-0.997799,0.052274,0.001025,-0.021671,11.583313,2.629103,-46.090393,,,,,,,
1522139121.322010,-0.034696,0.056238,-0.959954,-0.010378,0.010053,-0.001775,-0.034634,-0.056209,-0.997818,0.026410,0.000743,-0.045746,11.660278,2.554213,-45.640015,,,,,,,
1522139121.351979,-0.034685,0.055843,-0.959808,-0.011555,-0.013314,-0.001757,-0.034624,-0.055813,-0.997841,0.053453,0.034924,0.029533,11.960098,2.627714,-45.790222,,,,,,,
1522139121.381947,-0.034347,0.055541,-0.959702,-0.009269,0.017493,-0.002845,-0.034287,-0.055512,-0.997869,0.089036,0.006455,-0.037836,11.583618,2.704023,-46.165710,,,,,,,
1522139121.411915,-0.034253,0.055066,-0.959396,-0.016900,-0.017539,-0.003886,-0.034194,-0.055038,-0.997899,0.071914,0.038406,0.023274,11.281403,2.255766,-45.789062,,,,,,,
1522139121.441883,-0.033861,0.054729,-0.959327,-0.003952,0.010071,-0.006035,-0.033804,-0.054701,-0.997930,0.041601,0.037856,-0.052424,12.259338,2.775984,-46.165649,,,,,,,
1522139121.471852,-0.033562,0.054627,-0.959045,-0.000753,0.005821,-0.008154,-0.033506,-0.054600,-0.997946,0.065336,0.038959,-0.001825,11.282593,2.555464,-46.090210,,,,,,,
1522139121.501820,-0.033188,0.054519,-0.958972,-0.003934,0.012216,-0.008171,-0.033133,-0.054492,-0.997964,0.051382,0.026538,0.010889,11.729111,2.477995,-46.539734,,,,,,,
1522139121.531758,-0.032883,0.054487,-0.958668,0.007704,-0.008044,-0.003872,-0.032829,-0.054460,-0.997976,0.066428,0.033602,-0.035578,12.633865,2.774229,-46.240479,,,,,,,
1522139121.561726,-0.032600,0.054506,-0.958592,0.001311,-0.005909,-0.003875,-0.032546,-0.054479,-0.997984,0.079757,0.026983,-0.009172,11.734970,2.928190,-46.316467,,,,,,,
1522139121.591694,-0.032312,0.054474,-0.958294,0.005662,0.011093,-0.004956,-0.032259,-0.054447,-0.997995,0.069704,0.032978,-0.020834,11.955902,2.477278,-46.239624,,,,,,,
1522139121.621663,-0.032205,0.054403,-0.958278,-0.004021,-0.006943,-0.006009,-0.032152,-0.054376,-0.998003,0.037310,0.015665,-0.036009,11.807251,2.702803,-46.390564,,,,,,,
1522139121.651631,-0.031993,0.054127,-0.957998,-0.004988,0.017515,-0.006045,-0.031941,-0.054101,-0.998025,0.020375,0.051064,-0.009925,11.730301,2.553068,-46.465027,,,,,,,
1522139121.681599,-0.032036,0.054189,-0.958002,0.004532,-0.005862,-0.009212,-0.031984,-0.054162,-0.998020,0.049424,0.033334,-0.031414,11.730911,2.478285,-46.239746,,,,,,,
1522139121.711567,-0.032031,0.054201,-0.957719,0.001282,-0.015428,-0.008137,-0.031978,-0.054174,-0.998019,0.059139,0.033804,0.019427,11.360428,2.480711,-45.489929,,,,,,,
1522139121.741536,-0.032087,0.054176,-0.957612,0.005612,0.004719,-0.002831,-0.032035,-0.054150,-0.998019,0.070670,0.025585,-0.012403,11.505478,2.254606,-45.938904,,,,,,,
1522139121.771504,-0.032116,0.054267,-0.957486,0.011876,-0.030372,-0.003845,-0.032063,-0.054241,-0.998013,0.069142,0.023021,0.000927,11.734055,2.703428,-46.090576,,,,,,,
1522139121.801472,-0.031974,0.054333,-0.957149,-0.002902,0.007924,-0.003898,-0.031921,-0.054306,-0.998014,0.092041,0.031067,-0.042635,12.561874,2.849928,-45.865784,,,,,,,
1522139121.831440,-0.031776,0.054311,-0.957090,0.006718,0.010023,-0.003891,-0.031724,-0.054284,-0.998021,0.062669,0.035119,-0.021434,11.283646,2.480757,-45.789978,,,,,,,
1522139121.861409,-0.031493,0.054455,-0.956754,0.002416,0.001571,-0.007093,-0.031441,-0.054429,-0.998023,0.080102,0.024918,0.018469,11.733765,2.628508,-46.015320,,,,,,,
1522139121.891377,-0.030960,0.054425,-0.956749,0.002545,0.027066,-0.008174,-0.030909,-0.054398,-0.998041,0.080348,0.033173,0.032541,12.188995,2.926832,-45.641235,,,,,,,
1522139121.921345,-0.030519,0.054559,-0.956513,0.013033,-0.015453,-0.009192,-0.030469,-0.054532,-0.998047,0.111935,0.026776,-0.026916,11.507431,2.404676,-45.864563,,,,,,,
1522139121.951313,-0.029778,0.054837,-0.956549,0.018529,0.020655,-0.008159,-0.029728,-0.054810,-0.998054,0.126958,0.032181,0.045311,11.207291,2.480864,-46.014954,,,,,,,
1522139121.981251,-0.029072,0.055024,-0.956341,0.002459,0.012172,-0.004966,-0.029024,-0.054996,-0.998065,0.101717,0.015095,-0.026746,10.758957,2.558043,-45.865540,,,,,,,
1522139122.011219,-0.028491,0.055078,-0.956371,0.005639,0.000510,-0.010277,-0.028444,-0.055050,-0.998078,0.010683,0.033428,-0.032668,11.206543,2.405882,-46.014648,,,,,,,
1522139122.041188,-0.027683,0.055033,-0.956162,-0.010230,0.036656,-0.007129,-0.027638,-0.055005,-0.998103,0.150471,0.046994,-0.051335,12.333435,2.775511,-46.315552,,,,,,,
1522139122.071156,-0.026780,0.055037,-0.956139,0.014206,0.011101,-0.007091,-0.026737,-0.055009,-0.998128,0.115390,0.028307,0.050862,11.583160,2.703962,-46.240723,,,,,,,
1522139122.101124,-0.026183,0.055210,-0.956166,-0.000775,0.003700,-0.007094,-0.026140,-0.055182,-0.998134,0.110735,0.020331,0.039745,11.509064,2.704435,-46.090698,,,,,,,
1522139122.131092,-0.025213,0.055182,-0.955965,0.011010,0.010061,-0.009223,-0.025172,-0.055154,-0.998161,0.161921,0.059015,-0.012170,12.634476,2.924070,-46.391052,,,,,,,
1522139122.161054,-0.024484,0.055639,-0.955992,0.013199,0.019618,-0.010291,-0.024444,-0.055610,-0.998153,0.128707,0.037895,0.044982,12.560379,2.924559,-46.241089,,,,,,,
1522139122.191022,-0.023637,0.055971,-0.955800,0.012084,0.011118,-0.009221,-0.023598,-0.055941,-0.998155,0.148323,0.039935,0.059938,11.878357,2.402327,-46.539368,,,,,,,
1522139122.220989,-0.022542,0.056061,-0.955763,0.006786,0.020665,-0.007094,-0.022504,-0.056032,-0.998175,0.120664,0.036241,-0.031411,11.730759,2.553144,-46.390015,,,,,,,
1522139122.250959,-0.021728,0.056264,-0.955518,0.011070,0.025969,-0.006037,-0.021691,-0.056234,-0.998182,0.139505,0.034536,0.027235,11.881638,2.777235,-46.615845,,,,,,,
1522139122.280926,-0.020726,0.056401,-0.955552,0.005676,0.013244,-0.007097,-0.020692,-0.056371,-0.998195,0.158006,0.015905,-0.007633,11.806656,2.552946,-46.239990,,,,,,,
1522139122.310894,-0.019862,0.056398,-0.955330,0.004665,0.024928,-0.007105,-0.019829,-0.056368,-0.998213,0.175484,0.015048,0.000410,12.708862,2.998518,-46.616333,,,,,,,
1522139122.340863,-0.019216,0.056492,-0.955327,0.004511,-0.005895,-0.004948,-0.019184,-0.056462,-0.998220,0.121754,0.016881,-0.042841,12.109192,2.851515,-46.315979,,,,,,,
1522139122.370831,-0.018601,0.056538,-0.955168,0.003513,0.002640,-0.010281,-0.018570,-0.056508,-0.998229,0.154679,0.050908,-0.030152,11.657425,2.628614,-46.240356,,,,,,,
1522139122.400769,-0.018127,0.056703,-0.955211,0.003524,0.008995,-0.007092,-0.018097,-0.056672,-0.998229,0.142853,0.029573,0.000426,12.484482,2.700132,-46.015198,,,,,,,
1522139122.430737,-0.017869,0.056816,-0.955175,0.005564,-0.012247,-0.006842,-0.017840,-0.056785,-0.998227,0.153673,0.037788,-0.014255,11.882416,2.402983,-45.864380,,,,,,,
1522139122.460706,-0.017381,0.056943,-0.954897,0.002346,-0.013334,-0.003138,-0.017352,-0.056913,-0.998228,0.136981,0.015042,-0.015154,11.582718,2.479261,-45.939758,,,,,,,
1522139122.490674,-0.017221,0.056808,-0.954792,0.001318,-0.003779,-0.001284,-0.017192,-0.056778,-0.998239,0.144985,0.045593,0.006280,12.781937,2.623487,-46.314758,,,,,,,
1522139122.520642,-0.017065,0.056799,-0.954560,-0.006192,-0.014356,-0.004157,-0.017037,-0.056768,-0.998242,0.160378,-0.025934,-0.010196,11.584061,2.704100,-46.090698,,,,,,,
1522139122.550611,-0.016938,0.056335,-0.954381,-0.007269,-0.012246,-0.000439,-0.016911,-0.056305,-0.998270,0.128040,0.030090,-0.027364,12.109802,2.552107,-45.714783,,,,,,,
1522139122.580579,-0.016413,0.056518,-0.954086,0.013156,0.008983,-0.006616,-0.016386,-0.056488,-0.998269,0.138441,-0.002548,-0.030753,12.409348,2.999937,-46.541443,,,,,,,
1522139122.610547,-0.016127,0.056508,-0.954019,-0.010435,-0.007966,-0.003067,-0.016101,-0.056477,-0.998274,0.124804,0.026418,-0.016496,11.660431,2.703978,-45.865662,,,,,,,
1522139122.640515,-0.015608,0.056445,-0.953719,0.008829,-0.000547,-0.006104,-0.015582,-0.056415,-0.998286,0.125400,0.010425,-0.009832,11.430176,2.404646,-46.239563,,,,,,,
1522139122.670484,-0.015067,0.056527,-0.953629,0.000292,0.000537,-0.005831,-0.015042,-0.056497,-0.998289,0.165616,0.051095,0.008650,12.553940,2.324507,-46.313660,,,,,,,
1522139122.700452,-0.014461,0.056558,-0.953343,0.004561,-0.001595,-0.006765,-0.014438,-0.056528,-0.998297,0.139956,0.033319,-0.044626,11.431824,2.479780,-46.089844,,,,,,,
1522139122.730420,-0.013925,0.056386,-0.953240,-0.007133,0.015413,-0.002417,-0.013902,-0.056357,-0.998314,0.137132,0.014822,0.017982,12.031219,2.327238,-45.938904,,,,,,,
1522139122.760388,-0.013402,0.056185,-0.953113,-0.003980,0.001587,-0.003351,-0.013380,-0.056155,-0.998332,0.169462,0.023517,-0.000111,12.852707,2.472715,-46.764099,,,,,,,
1522139122.790357,-0.012676,0.055943,-0.952774,-0.009325,0.000525,-0.002096,-0.012656,-0.055914,-0.998355,0.131278,0.013372,-0.034009,11.807541,2.777723,-46.465881,,,,,,,
1522139122.820325,-0.012065,0.055658,-0.952631,-0.001831,0.003700,-0.003158,-0.012046,-0.055630,-0.998379,0.148383,0.023434,0.019787,11.431808,2.704405,-46.465759,,,,,,,
1522139122.850263,-0.011348,0.055470,-0.952298,-0.011473,0.000516,0.000200,-0.011331,-0.055442,-0.998398,0.136498,-0.008828,-0.002258,12.482224,2.699766,-46.390198,,,,,,,
1522139122.880231,-0.010876,0.055041,-0.952065,-0.000815,-0.004814,-0.000853,-0.010859,-0.055013,-0.998427,0.155405,0.046193,0.047682,12.183441,2.776182,-46.315674,,,,,,,
1522139122.910199,-0.010155,0.055084,-0.951688,0.000300,0.005809,-0.000863,-0.010140,-0.055057,-0.998432,0.156059,-0.010785,0.004154,11.884201,2.852522,-46.316101,,,,,,,
1522139122.940168,-0.009600,0.054763,-0.951447,-0.011528,-0.005899,0.005536,-0.009586,-0.054735,-0.998455,0.117862,0.057680,-0.037480,12.483719,2.849760,-46.390808,,,,,,,
1522139122.970136,-0.009281,0.054779,-0.951043,0.008765,-0.010143,-0.000846,-0.009267,-0.054752,-0.998457,0.134893,0.037418,0.011259,11.731216,2.553221,-46.315002,,,,,,,
1522139123.000103,-0.008837,0.054891,-0.950784,-0.004008,0.001550,0.002333,-0.008824,-0.054864,-0.998455,0.128865,0.029565,-0.009632,12.105133,2.626234,-46.615112,,,,,,,
1522139123.030071,-0.008624,0.054729,-0.950374,-0.001930,-0.015422,-0.001915,-0.008611,-0.054701,-0.998466,0.125982,0.033888,-0.031701,11.651428,2.253279,-46.613892,,,,,,,
1522139123.060040,-0.008264,0.054599,-0.950215,0.000205,-0.016497,-0.001907,-0.008251,-0.054571,-0.998476,0.133679,0.014899,-0.033980,11.953812,2.402067,-46.464294,,,,,,,
1522139123.090008,-0.007958,0.054422,-0.950038,-0.001884,-0.009041,-0.004045,-0.007947,-0.054396,-0.998488,0.144391,0.042326,-0.008562,12.255890,2.475920,-46.239441,,,,,,,
1522139123.119977,-0.007693,0.054275,-0.949660,0.000201,-0.017562,-0.001904,-0.007681,-0.054248,-0.998498,0.149954,0.005680,-0.055030,11.580475,2.254271,-45.938843,,,,,,,
1522139123.149919,-0.007324,0.053983,-0.949484,-0.009420,-0.016481,0.000212,-0.007313,-0.053957,-0.998516,0.123448,0.007128,-0.070179,11.959503,2.702482,-46.015503,,,,,,,
1522139123.179888,-0.007085,0.053674,-0.949105,-0.009348,-0.002666,-0.000863,-0.007074,-0.053648,-0.998535,0.111628,0.021864,-0.015335,12.557678,2.474867,-45.939270,,,,,,,
1522139123.209856,-0.006557,0.053353,-0.948941,-0.011497,-0.004779,-0.000867,-0.006548,-0.053327,-0.998556,0.129473,0.037687,-0.005000,12.855713,2.548079,-46.389404,,,,,,,
1522139123.239824,-0.006158,0.053113,-0.948568,-0.003954,0.007968,-0.003005,-0.006150,-0.053088,-0.998571,0.144074,0.012179,-0.020808,11.880920,2.252989,-45.863770,,,,,,,
1522139123.269792,-0.005891,0.052959,-0.948355,-0.004053,-0.012243,-0.000849,-0.005883,-0.052934,-0.998581,0.129021,0.029710,-0.007294,12.027176,2.101957,-46.238098,,,,,,,
1522139123.299730,-0.005563,0.052823,-0.947935,-0.002922,0.003691,0.000197,-0.005555,-0.052798,-0.998590,0.146028,0.031848,-0.055121,11.728668,2.253294,-46.238831,,,,,,,
1522139123.329698,-0.005339,0.052753,-0.947702,0.001314,-0.000595,0.003403,-0.005332,-0.052728,-0.998595,0.121360,0.049921,-0.045763,12.030319,2.327101,-46.088928,,,,,,,
1522139123.359667,-0.005175,0.052981,-0.947226,0.005589,-0.000595,0.002339,-0.005168,-0.052957,-0.998583,0.110286,0.004480,-0.006284,12.552292,2.249372,-46.463379,,,,,,,
1522139123.389635,-0.004963,0.052924,-0.946924,0.001258,-0.013347,0.003417,-0.004956,-0.052899,-0.998588,0.109631,0.031918,-0.013696,12.253052,2.101088,-46.087952,,,,,,,
1522139123.419603,-0.004526,0.053118,-0.946588,0.010972,0.014238,0.006590,-0.004519,-0.053093,-0.998579,0.129611,0.007973,-0.025926,12.180740,2.551115,-46.389771,,,,,,,
1522139123.449571,-0.004226,0.053200,-0.945967,0.005468,-0.021873,0.006620,-0.004220,-0.053175,-0.998576,0.138970,0.000242,-0.023701,13.076797,2.471556,-46.914001,,,,,,,
1522139123.479540,-0.003476,0.053232,-0.945580,0.004637,0.031231,0.008706,-0.003471,-0.053207,-0.998577,0.130745,0.002059,-0.028095,11.431366,2.704344,-46.540771,,,,,,,
1522139123.509508,-0.002993,0.053308,-0.944916,0.001327,0.009989,0.009784,-0.002989,-0.053283,-0.998575,0.131788,0.013793,-0.016455,12.103958,2.326536,-46.313904,,,,,,,
1522139123.539476,-0.002579,0.053398,-0.944387,0.002370,0.004658,0.010861,-0.002576,-0.053372,-0.998571,0.129453,0.021909,0.032034,12.780273,2.772963,-46.840332,,,,,,,
1522139123.569444,-0.002053,0.053619,-0.943591,0.007719,0.008875,0.012995,-0.002050,-0.053593,-0.998561,0.142920,0.015248,0.003749,11.578079,2.328749,-46.464172,,,,,,,
1522139123.599413,-0.001511,0.053833,-0.942950,0.005496,-0.005995,0.015129,-0.001509,-0.053807,-0.998550,0.096892,-0.003245,-0.030503,12.103043,2.551008,-46.839783,,,,,,,
1522139123.629381,-0.001253,0.053941,-0.942046,0.005514,-0.001759,0.016195,-0.001252,-0.053915,-0.998545,0.112793,0.022482,-0.031790,12.330429,2.700148,-46.690247,,,,,,,
1522139123.659349,-0.000891,0.054058,-0.941320,-0.000897,0.000357,0.019387,-0.000890,-0.054032,-0.998539,0.092641,0.002747,-0.068249,12.029556,2.701353,-46.840454,,,,,,,
1522139123.689318,-0.000750,0.053982,-0.940788,-0.005181,-0.004931,0.017258,-0.000749,-0.053956,-0.998543,0.128068,0.029466,0.037743,12.478470,2.549406,-46.764587,,,,,,,
1522139123.719286,-0.000443,0.053990,-0.940280,0.004481,0.005696,0.015116,-0.000442,-0.053964,-0.998543,0.135757,-0.016165,-0.012489,13.077850,2.621473,-46.989624,,,,,,,
1522139123.749224,-0.000395,0.053922,-0.939738,-0.004147,-0.012371,0.017266,-0.000394,-0.053896,-0.998546,0.113141,0.029100,0.005306,12.331772,2.700361,-46.465271,,,,,,,
1522139123.779192,-0.000354,0.054184,-0.939265,0.017227,-0.012392,0.013018,-0.000353,-0.054157,-0.998532,0.079592,0.010349,-0.016910,12.334641,2.401320,-45.489136,,,,,,,
1522139123.809160,-0.000436,0.054561,-0.938846,0.007624,-0.010237,0.013005,-0.000436,-0.054534,-0.998512,0.097116,0.010360,0.003654,13.077866,2.172224,-46.237854,,,,,,,
1522139123.839128,-0.000644,0.054942,-0.938160,0.017162,-0.021987,0.017291,-0.000643,-0.054915,-0.998491,0.073595,0.010039,0.015550,11.733170,2.478651,-45.864746,,,,,,,
1522139123.869097,-0.000668,0.055287,-0.937372,0.010762,-0.013499,0.022599,-0.000667,-0.055259,-0.998472,0.042949,0.031349,-0.066683,11.952316,2.027449,-46.087769,,,,,,,
1522139123.899065,-0.000783,0.055917,-0.936358,0.024650,-0.015639,0.019417,-0.000782,-0.055888,-0.998437,0.089512,-0.002523,0.010796,12.328644,2.250593,-46.238525,,,,,,,
1522139123.929033,-0.000831,0.056357,-0.935537,0.008616,-0.015633,0.023670,-0.000829,-0.056327,-0.998412,0.112432,-0.003564,0.000594,12.706482,2.399122,-46.013916,,,,,,,
1522139123.959001,-0.000739,0.056654,-0.934352,0.021477,0.001298,0.028991,-0.000737,-0.056623,-0.998395,0.113622,0.001798,-0.020617,11.730469,2.478224,-46.314697,,,,,,,
1522139123.988970,-0.000567,0.056942,-0.933223,0.005377,-0.009327,0.035379,-0.000566,-0.056912,-0.998379,0.081285,-0.000858,-0.038562,12.706772,2.474043,-46.089172,,,,,,,
1522139124.018938,-0.000265,0.057344,-0.931883,0.017293,0.023613,0.031094,-0.000264,-0.057313,-0.998356,0.102147,-0.007995,-0.029110,12.777740,2.248426,-46.388245,,,,,,,
1522139124.048906,0.000090,0.057867,-0.930631,0.012912,0.003417,0.034304,0.000090,-0.057835,-0.998326,0.103700,-0.025951,0.042989,12.628632,2.249250,-46.238342,,,,,,,
1522139124.078874,0.000558,0.058336,-0.929047,0.016124,0.008696,0.037500,0.000557,-0.058303,-0.998299,0.074287,-0.029984,0.018913,12.251709,1.876249,-45.937012,,,,,,,
1522139124.108843,0.001148,0.058755,-0.927655,0.009694,0.005507,0.039631,0.001146,-0.058721,-0.998274,0.086470,-0.007502,0.048475,12.549881,2.099226,-46.612793,,,,,,,
1522139124.138809,0.001919,0.059195,-0.926202,0.019261,0.002290,0.042826,0.001916,-0.059160,-0.998247,0.089072,-0.005034,-0.023345,12.400955,2.249830,-46.688416,,,,,,,
1522139124.168747,0.002715,0.059729,-0.924447,0.010819,0.026703,0.047070,0.002711,-0.059694,-0.998213,0.075796,-0.016646,-0.065355,12.553619,2.474211,-46.614319,,,,,,,
1522139124.198715,0.003222,0.060127,-0.922818,0.015023,0.010761,0.046023,0.003216,-0.060090,-0.998188,0.075565,-0.010527,-0.009136,12.848526,2.097670,-46.837646,,,,,,,
1522139124.228683,0.003862,0.060460,-0.920891,0.003327,0.025631,0.050266,0.003855,-0.060423,-0.998165,0.110083,-0.017260,-0.010853,12.922165,2.097105,-47.062561,,,,,,,
1522139124.258651,0.004201,0.060760,-0.919072,0.011731,0.002201,0.055619,0.004193,-0.060723,-0.998146,0.092624,-0.030250,-0.030602,13.376343,2.470137,-46.988892,,,,,,,
1522139124.288620,0.004523,0.061198,-0.916988,0.016023,0.010686,0.057738,0.004515,-0.061159,-0.998118,0.068789,-0.024137,-0.013830,13.070816,1.871595,-46.911621,,,,,,,
1522139124.318588,0.004692,0.061844,-0.915054,0.018185,0.017027,0.059874,0.004683,-0.061805,-0.998077,0.078950,-0.023095,0.036392,13.674835,2.318800,-46.988098,,,,,,,
1522139124.348556,0.004813,0.062385,-0.912856,0.013841,-0.001025,0.058827,0.004804,-0.062345,-0.998043,0.101306,-0.030093,0.009838,12.998962,2.097059,-46.762512,,,,,,,
1522139124.378525,0.004924,0.062962,-0.910844,0.016913,-0.027595,0.059915,0.004914,-0.062921,-0.998006,0.097838,-0.016135,0.068868,13.601929,2.394346,-46.763428,,,,,,,
1522139124.408493,0.005130,0.063435,-0.908568,0.013761,-0.013804,0.063101,0.005119,-0.063393,-0.997976,0.094093,-0.033256,0.006261,13.675583,2.393797,-46.988403,,,,,,,
1522139124.438461,0.005062,0.063820,-0.906450,0.006280,-0.012719,0.064152,0.005052,-0.063776,-0.997951,0.086699,-0.035009,0.008816,13.069016,1.871290,-47.211609,,,,,,,
1522139124.468429,0.005141,0.063979,-0.904347,0.002045,-0.002113,0.067341,0.005131,-0.063935,-0.997941,0.102993,-0.040450,-0.062911,13.528152,2.245131,-46.312866,,,,,,,
1522139124.498398,0.005037,0.064027,-0.901938,-0.009617,0.017017,0.069452,0.005026,-0.063983,-0.997938,0.041314,-0.034070,-0.011247,14.050140,1.942778,-46.311401,,,,,,,
1522139124.528366,0.004660,0.063950,-0.899681,-0.006524,-0.009507,0.065205,0.004651,-0.063906,-0.997945,0.053027,-0.024992,0.050390,12.548996,1.874464,-46.386841,,,,,,,
1522139124.558334,0.004495,0.063910,-0.897186,-0.004514,-0.036083,0.066298,0.004485,-0.063866,-0.997948,0.120835,-0.026344,0.061669,12.620697,1.723845,-46.686218,,,,,,,
1522139124.588302,0.004313,0.063783,-0.894878,-0.006639,-0.027614,0.071616,0.004305,-0.063739,-0.997957,0.099013,-0.027050,-0.026121,12.924866,2.097548,-46.612610,,,,,,,
1522139124.618240,0.004270,0.063542,-0.892351,-0.008596,0.009580,0.070518,0.004262,-0.063499,-0.997973,0.127361,-0.026360,-0.043211,13.671555,1.719267,-46.535706,,,,,,,
1522139124.648208,0.004145,0.063380,-0.890047,-0.008693,-0.014831,0.067341,0.004136,-0.063337,-0.997984,0.073684,-0.044466,-0.074938,13.224564,2.021269,-46.537170,,,,,,,
1522139124.678177,0.003955,0.063050,-0.887470,-0.016027,0.019163,0.070502,0.003947,-0.063009,-0.998005,0.052678,-0.026225,0.043843,14.421371,1.790739,-46.685608,,,,,,,
1522139124.708145,0.003806,0.062855,-0.885081,-0.007684,-0.022315,0.072681,0.003799,-0.062814,-0.998018,0.091081,-0.015784,-0.018202,14.198776,1.941893,-46.536316,,,,,,,
1522139124.738113,0.003828,0.062659,-0.882416,-0.011876,-0.002111,0.073715,0.003820,-0.062618,-0.998030,0.101221,-0.015965,-0.012697,14.123932,1.867369,-46.386047,,,,,,,
1522139124.768081,0.003862,0.062459,-0.879971,-0.007637,-0.011703,0.073740,0.003855,-0.062419,-0.998043,0.084341,-0.025320,0.022670,14.721359,1.789396,-46.685425,,,,,,,
1522139124.798050,0.003919,0.062206,-0.877502,-0.006585,-0.012785,0.075874,0.003912,-0.062166,-0.998058,0.112833,-0.039656,0.012157,13.674835,2.094175,-46.612244,,,,,,,
1522139124.828018,0.003995,0.061923,-0.874768,-0.007606,-0.000028,0.076920,0.003987,-0.061883,-0.998075,0.109843,-0.015723,-0.021151,13.746689,1.868696,-46.761230,,,,,,,
1522139124.857986,0.004061,0.061834,-0.872279,-0.009668,0.018021,0.079035,0.004054,-0.061794,-0.998081,0.023672,-0.038059,-0.073224,14.719406,1.639326,-46.759827,,,,,,,
1522139124.887954,0.003905,0.061762,-0.869549,-0.003369,-0.009567,0.073727,0.003897,-0.061722,-0.998086,0.070489,-0.011291,0.048638,14.568069,1.639784,-46.984985,,,,,,,
1522139124.917923,0.003931,0.061878,-0.867042,-0.001288,-0.018097,0.076935,0.003924,-0.061838,-0.998078,0.108610,-0.028188,0.015962,14.419266,1.715528,-46.910339,,,,,,,
1522139124.947891,0.003878,0.061804,-0.864273,-0.007662,-0.007480,0.080118,0.003871,-0.061765,-0.998083,0.101506,-0.019046,-0.020502,15.245270,2.086348,-47.361389,,,,,,,
1522139124.977859,0.003823,0.061761,-0.861738,0.000896,-0.008532,0.075861,0.003816,-0.061722,-0.998086,0.091307,-0.039734,-0.040519,13.741302,1.418577,-46.909485,,,,,,,
1522139125.007827,0.003821,0.061559,-0.858988,-0.012916,0.007432,0.076902,0.003814,-0.061520,-0.998099,0.065919,-0.022754,-0.025781,14.414932,1.415312,-47.134094,,,,,,,
1522139125.037765,0.003775,0.061338,-0.856400,-0.012950,0.003139,0.081177,0.003768,-0.061299,-0.998112,0.081895,-0.023601,-0.005321,15.017899,1.712599,-47.135010,,,,,,,
1522139125.067734,0.003866,0.060955,-0.853611,-0.019354,0.001078,0.076900,0.003859,-0.060917,-0.998135,0.126954,-0.019131,0.040936,15.097534,1.862776,-46.610596,,,,,,,
1522139125.097702,0.004212,0.060592,-0.851132,-0.011834,0.003190,0.072658,0.004204,-0.060555,-0.998156,0.132545,-0.033225,-0.031110,15.020889,1.787962,-46.760315,,,,,,,
1522139125.127670,0.004588,0.060110,-0.848766,-0.020352,0.005363,0.069450,0.004580,-0.060074,-0.998183,0.088529,-0.016480,-0.069093,15.994507,1.783354,-46.984802,,,,,,,
1522139125.157649,0.005286,0.059541,-0.846298,-0.022440,0.014960,0.067299,0.005276,-0.059506,-0.998214,0.137347,-0.021412,-0.024934,14.645035,1.340254,-46.158691,,,,,,,
1522139125.187618,0.006018,0.058814,-0.844138,-0.029804,0.034116,0.064085,0.006008,-0.058780,-0.998253,0.131184,0.002231,-0.009178,14.418243,1.116362,-46.082886,,,,,,,
1522139125.217586,0.006718,0.058131,-0.841917,-0.026683,0.007597,0.056655,0.006707,-0.058098,-0.998288,0.108558,-0.004905,0.007077,14.874069,1.564528,-45.859497,,,,,,,
1522139125.247554,0.007535,0.057366,-0.839886,-0.026711,0.006506,0.060917,0.007522,-0.057334,-0.998327,0.162064,-0.000542,0.018117,14.571976,1.490660,-46.084351,,,,,,,
1522139125.277522,0.008353,0.056720,-0.837732,-0.017026,0.018199,0.056651,0.008340,-0.056690,-0.998357,0.161689,-0.005657,-0.018031,15.396927,1.711576,-46.459778,,,,,,,
1522139125.307491,0.009032,0.056237,-0.835801,-0.020232,0.021374,0.059841,0.009018,-0.056208,-0.998378,0.118729,-0.002615,-0.032216,16.068741,1.483397,-46.608582,,,,,,,
1522139125.337459,0.009564,0.055928,-0.833649,-0.005327,0.007539,0.056673,0.009549,-0.055899,-0.998391,0.112232,0.017707,0.000115,15.246811,1.337858,-45.858398,,,,,,,
1522139125.367427,0.009991,0.055920,-0.831721,-0.005325,0.008607,0.056668,0.009975,-0.055891,-0.998387,0.163395,0.008360,0.024205,15.322098,1.637068,-46.309509,,,,,,,
1522139125.397395,0.010356,0.056158,-0.829459,0.020202,-0.006369,0.062029,0.010339,-0.056128,-0.998370,0.164862,-0.004983,-0.019818,15.767731,1.334837,-46.533142,,,,,,,
1522139125.427364,0.010635,0.056706,-0.827295,0.017037,0.009535,0.068403,0.010617,-0.056675,-0.998336,0.131289,-0.018260,-0.012635,15.694687,1.260618,-46.082825,,,,,,,
1522139125.457332,0.010817,0.057542,-0.824927,0.035062,-0.006495,0.076947,0.010799,-0.057510,-0.998287,0.109028,-0.006333,-0.057454,16.369965,1.332502,-46.157837,,,,,,,
1522139125.487270,0.010882,0.058753,-0.822170,0.037169,-0.007625,0.083355,0.010863,-0.058720,-0.998215,0.130494,-0.027905,-0.002471,16.898666,1.929747,-46.534912,,,,,,,
1522139125.517238,0.010984,0.060194,-0.819281,0.052121,0.005011,0.094011,0.010964,-0.060157,-0.998129,0.139396,-0.028572,0.018408,16.673676,1.930754,-46.535034,,,,,,,
1522139125.547206,0.011126,0.062001,-0.815816,0.057358,-0.001477,0.107875,0.011104,-0.061961,-0.998017,0.099980,-0.060186,0.016541,18.472397,2.072203,-46.984741,,,,,,,
1522139125.577174,0.010989,0.063970,-0.812157,0.062605,-0.006891,0.120669,0.010966,-0.063926,-0.997894,0.053228,-0.065560,0.007034,18.178848,2.448973,-46.536377,,,,,,,
1522139125.607143,0.010670,0.066195,-0.807918,0.068852,-0.021900,0.137736,0.010646,-0.066147,-0.997753,0.057576,-0.075836,0.024807,17.583954,3.051497,-46.689026,,,,,,,
1522139125.637111,0.010142,0.068382,-0.803469,0.065581,-0.024104,0.149459,0.010118,-0.068329,-0.997612,0.029768,-0.092835,0.031654,17.209564,3.203032,-46.839844,,,,,,,
1522139125.667079,0.009207,0.070421,-0.798460,0.056946,-0.031605,0.161183,0.009184,-0.070363,-0.997479,0.020525,-0.115779,-0.005252,16.459747,3.131559,-46.689941,,,,,,,
1522139125.697047,0.008148,0.072269,-0.793290,0.049401,-0.034846,0.171834,0.008127,-0.072206,-0.997357,0.017264,-0.110365,-0.003025,16.607361,2.980742,-46.839294,,,,,,,
1522139125.727016,0.006889,0.073897,-0.787599,0.036552,-0.032763,0.181417,0.006870,-0.073829,-0.997247,0.041973,-0.119240,0.026315,16.672913,2.305006,-47.286560,,,,,,,
1522139125.756984,0.005524,0.075110,-0.781758,0.031180,-0.025384,0.193119,0.005509,-0.075039,-0.997165,0.016143,-0.153385,-0.026165,15.771011,1.934370,-46.985535,,,,,,,
1522139125.786952,0.004354,0.076148,-0.775587,0.023650,-0.024385,0.204834,0.004342,-0.076074,-0.997093,-0.009942,-0.137473,-0.023690,15.690475,1.334806,-46.908142,,,,,,,
1522139125.816921,0.003357,0.077020,-0.768904,0.012998,-0.009545,0.213338,0.003347,-0.076944,-0.997030,0.029734,-0.130301,0.018621,16.812729,1.104673,-46.981689,,,,,,,
1522139125.846889,0.002442,0.077499,-0.762148,0.006481,-0.023396,0.221866,0.002435,-0.077421,-0.996996,0.047019,-0.147524,-0.024306,16.054520,0.507719,-47.354675,,,,,,,
1522139125.876857,0.001685,0.077670,-0.754959,0.002188,-0.018129,0.230380,0.001680,-0.077592,-0.996984,-0.004503,-0.150771,-0.053416,16.507217,0.506132,-46.904419,,,,,,,
1522139125.906825,0.001357,0.077646,-0.747747,-0.015823,0.019070,0.235657,0.001353,-0.077568,-0.996986,-0.001978,-0.127769,0.017738,17.627213,0.275648,-47.352966,,,,,,,
1522139125.936763,0.000984,0.077532,-0.740139,-0.018036,0.008399,0.242063,0.000981,-0.077454,-0.996995,0.019954,-0.125991,0.002626,17.550705,0.125990,-47.352417,,,,,,,
1522139125.966731,0.000954,0.077204,-0.732533,-0.015836,0.029597,0.248439,0.000952,-0.077127,-0.997021,0.024012,-0.130987,0.006054,17.624374,-0.099184,-47.201477,,,,,,,
1522139125.996700,0.000932,0.076885,-0.724507,-0.019137,0.015749,0.254842,0.000929,-0.076809,-0.997045,0.016756,-0.150455,0.031332,18.669525,-0.404192,-47.499695,,,,,,,
1522139126.026668,0.001257,0.076504,-0.716512,-0.019119,0.029519,0.262281,0.001253,-0.076429,-0.997074,0.002684,-0.134157,-0.016353,18.294693,-0.477358,-47.349609,,,,,,,
1522139126.056636,0.001475,0.076335,-0.708043,-0.015947,0.032625,0.271875,0.001471,-0.076261,-0.997087,0.027292,-0.144656,0.045579,18.069260,-0.476412,-47.424683,,,,,,,
1522139126.086604,0.001820,0.076164,-0.699561,-0.010689,0.027224,0.282540,0.001814,-0.076090,-0.997099,0.049516,-0.152532,-0.019655,19.270111,-0.257051,-47.650024,,,,,,,
1522139126.116573,0.002075,0.076148,-0.690742,-0.011789,0.031411,0.292123,0.002069,-0.076074,-0.997100,-0.005838,-0.147727,-0.023652,18.664581,-0.854250,-47.572937,,,,,,,
1522139126.146511,0.002300,0.076114,-0.681395,-0.019294,0.034561,0.300637,0.002294,-0.076040,-0.997102,0.011149,-0.154535,-0.001479,19.264572,-0.856951,-47.572571,,,,,,,
1522139126.176479,0.002476,0.075947,-0.671968,-0.017250,0.024921,0.310241,0.002469,-0.075874,-0.997114,0.051334,-0.164376,0.020628,19.788788,-0.709673,-47.947937,,,,,,,
1522139126.206447,0.002604,0.075712,-0.662059,-0.022629,0.025938,0.318759,0.002597,-0.075639,-0.997132,0.029630,-0.173674,0.007721,19.341354,-0.632372,-47.648499,,,,,,,
1522139126.236416,0.002696,0.075259,-0.652100,-0.028023,0.023768,0.327280,0.002688,-0.075188,-0.997166,0.006314,-0.163902,-0.013866,20.237579,-0.786776,-48.022400,,,,,,,
1522139126.266384,0.002705,0.074755,-0.641756,-0.034474,0.021619,0.333668,0.002697,-0.074686,-0.997203,0.029911,-0.170447,-0.001286,20.684570,-1.088778,-48.020996,,,,,,,
1522139126.296352,0.002592,0.074176,-0.631490,-0.033420,0.018393,0.335817,0.002585,-0.074108,-0.997247,0.049112,-0.195408,0.008020,20.460464,-1.087618,-47.871094,,,,,,,
1522139126.326320,0.002512,0.073547,-0.620874,-0.037741,0.015176,0.342207,0.002506,-0.073480,-0.997294,0.063321,-0.185675,0.014399,21.128418,-1.615923,-48.168579,,,,,,,
,,,,,,,,,,,,,,,,25.305208,51.447946,10.999090,-1.000000,-1.000000,1522139126.319515,
1522139126.356258,0.002293,0.072712,-0.610347,-0.038860,0.009844,0.346468,0.002287,-0.072648,-0.997355,0.053255,-0.193740,-0.004644,21.806076,-1.169283,-48.470093,,,,,,,
1522139126.386226,0.001960,0.071689,-0.599467,-0.050725,-0.011406,0.350740,0.001955,-0.071627,-0.997430,0.020018,-0.202039,-0.012580,21.581680,-1.467669,-47.868958,,,,,,,
1522139126.416195,0.001669,0.070320,-0.588661,-0.061270,0.022594,0.354960,0.001665,-0.070263,-0.997527,0.023512,-0.183903,-0.014924,21.581238,-1.692369,-47.568115,,,,,,,
1522139126.446163,0.001270,0.068865,-0.577529,-0.060293,0.006617,0.359243,0.001267,-0.068810,-0.997629,0.041640,-0.190223,-0.019690,22.180038,-1.770128,-47.642517,,,,,,,
1522139126.476131,0.000799,0.067203,-0.566481,-0.068874,0.002389,0.361361,0.000797,-0.067152,-0.997742,0.057613,-0.191789,-0.027007,22.325363,-2.145937,-47.790894,,,,,,,
1522139126.506100,0.000253,0.065362,-0.555295,-0.068927,-0.002994,0.368837,0.000252,-0.065316,-0.997865,0.035575,-0.183830,-0.019775,22.325806,-2.145861,-47.715942,,,,,,,
1522139126.536068,-0.000200,0.063511,-0.543769,-0.072075,0.014001,0.372009,-0.000199,-0.063468,-0.997984,0.043397,-0.188393,-0.019747,22.326279,-2.370409,-47.265015,,,,,,,
1522139126.566036,-0.000773,0.061793,-0.532294,-0.067857,0.009695,0.378410,-0.000772,-0.061754,-0.998091,0.034875,-0.185057,0.022627,22.401871,-2.445528,-47.039673,,,,,,,
1522139126.596004,-0.001299,0.060236,-0.520453,-0.059346,0.008570,0.383748,-0.001297,-0.060199,-0.998186,0.023025,-0.178280,0.058687,23.823364,-2.527376,-47.488647,,,,,,,
1522139126.625973,-0.001623,0.059026,-0.508611,-0.049747,0.012744,0.390149,-0.001620,-0.058991,-0.998257,0.033343,-0.182952,0.034115,23.821121,-2.752367,-47.487732,,,,,,,
1522139126.655941,-0.002076,0.057898,-0.496356,-0.045621,-0.009642,0.398700,-0.002072,-0.057866,-0.998322,-0.053744,-0.182918,-0.019393,23.519791,-2.975863,-47.337036,,,,,,,
1522139126.685909,-0.002373,0.057022,-0.484056,-0.040162,0.027498,0.406116,-0.002369,-0.056991,-0.998372,0.028385,-0.169343,0.067754,23.592560,-3.201189,-47.336060,,,,,,,
1522139126.715877,-0.002551,0.056720,-0.471522,-0.024297,0.001896,0.413617,-0.002547,-0.056690,-0.998389,-0.001955,-0.166577,0.024145,24.042068,-3.203279,-47.410828,,,,,,,
1522139126.745846,-0.002812,0.056492,-0.458980,-0.017880,0.010324,0.420014,-0.002807,-0.056462,-0.998401,-0.053727,-0.175304,0.030353,24.340897,-3.504320,-47.109436,,,,,,,
1522139126.775814,-0.002773,0.056604,-0.446100,-0.003985,0.018780,0.423205,-0.002769,-0.056574,-0.998395,0.022407,-0.169104,0.004101,25.088303,-3.582979,-47.408752,,,,,,,
1522139126.805752,-0.002852,0.057141,-0.433274,0.004485,0.010227,0.428542,-0.002847,-0.057110,-0.998364,-0.001700,-0.193271,0.031170,24.859879,-4.106661,-47.106812,,,,,,,
1522139126.835720,-0.002740,0.057559,-0.420292,0.000238,0.021875,0.434925,-0.002735,-0.057528,-0.998340,0.008869,-0.184599,0.026111,25.234863,-4.108355,-47.106567,,,,,,,
1522139126.865688,-0.002378,0.057966,-0.407193,0.003452,0.027168,0.437052,-0.002374,-0.057933,-0.998318,0.016076,-0.198918,0.034572,25.977158,-4.337587,-48.005310,,,,,,,
1522139126.895656,-0.001964,0.058257,-0.393964,-0.004000,0.036703,0.442371,-0.001960,-0.058224,-0.998302,0.030098,-0.222232,0.009868,25.750977,-4.636263,-47.704285,,,,,,,
1522139126.925625,-0.001372,0.058363,-0.380638,-0.007146,0.055819,0.446604,-0.001370,-0.058330,-0.998296,0.013683,-0.209477,-0.003748,26.497055,-4.939775,-47.852661,,,,,,,
1522139126.955593,-0.000794,0.058503,-0.367275,-0.010378,0.047310,0.446620,-0.000793,-0.058470,-0.998289,0.005096,-0.217531,-0.039156,26.950653,-4.941210,-47.252441,,,,,,,
1522139126.985561,-0.000286,0.058512,-0.353854,-0.012539,0.045200,0.447675,-0.000286,-0.058479,-0.998289,0.011638,-0.210183,-0.002184,26.641235,-5.839891,-47.323975,,,,,,,
1522139127.015529,0.000261,0.058599,-0.340422,-0.002937,0.043047,0.447687,0.000260,-0.058565,-0.998284,0.009353,-0.192289,-0.028847,26.565781,-5.839632,-47.398987,,,,,,,
1522139127.045498,0.000678,0.059012,-0.326978,0.005555,0.032402,0.447702,0.000677,-0.058977,-0.998259,-0.000875,-0.205763,-0.037248,27.986984,-5.996401,-47.772644,,,,,,,
1522139127.075466,0.000933,0.059468,-0.313534,0.005562,0.032390,0.447711,0.000931,-0.059433,-0.998232,0.004318,-0.177872,-0.007872,26.938995,-6.290850,-46.947021,,,,,,,
1522139127.105434,0.001062,0.060071,-0.300054,0.004438,0.024942,0.450907,0.001060,-0.060035,-0.998196,0.012261,-0.204278,0.020092,27.683273,-6.594652,-47.395386,,,,,,,
1522139127.135402,0.000922,0.060230,-0.286465,-0.014788,0.024970,0.453027,0.000921,-0.060194,-0.998186,0.006052,-0.196779,0.032473,28.275589,-7.047838,-47.918335,,,,,,,
1522139127.165365,0.000691,0.060219,-0.272838,-0.013772,0.016439,0.456237,0.000689,-0.060183,-0.998187,0.017499,-0.189192,0.037173,27.752716,-7.194887,-47.318054,,,,,,,
1522139127.195333,0.000361,0.060301,-0.259090,-0.018081,0.012181,0.459432,0.000360,-0.060264,-0.998182,0.013586,-0.179192,0.063887,28.052567,-7.570635,-46.716309,,,,,,,
1522139127.225301,-0.000050,0.060599,-0.245224,0.001133,0.015300,0.462638,-0.000050,-0.060562,-0.998164,0.020023,-0.166229,0.043086,29.020645,-7.950518,-47.239380,,,,,,,
1522139127.255239,-0.000544,0.061462,-0.231394,0.008563,0.006773,0.463718,-0.000543,-0.061423,-0.998112,0.012705,-0.168939,-0.058544,28.416489,-8.547503,-46.937256,,,,,,,
1522139127.285207,-0.001324,0.062254,-0.217638,0.012798,-0.005975,0.460543,-0.001322,-0.062213,-0.998062,0.020960,-0.195538,-0.066727,28.862274,-8.924578,-47.010498,,,,,,,
1522139127.315176,-0.002446,0.062856,-0.203895,0.008500,-0.015504,0.457352,-0.002441,-0.062814,-0.998022,0.024826,-0.209174,-0.093607,29.610443,-8.928240,-47.310181,,,,,,,
1522139127.345144,-0.004100,0.063344,-0.190147,0.013742,-0.035698,0.457370,-0.004092,-0.063301,-0.997986,-0.012647,-0.171272,-0.054886,29.009262,-9.225237,-47.009216,,,,,,,
1522139127.375112,-0.005857,0.064257,-0.176512,0.032990,-0.036767,0.450995,-0.005845,-0.064213,-0.997919,-0.006896,-0.170559,-0.044744,29.074371,-10.125673,-47.155640,,,,,,,
1522139127.405080,-0.007620,0.065339,-0.162970,0.024546,-0.015495,0.450968,-0.007603,-0.065292,-0.997837,-0.014812,-0.210251,0.005467,29.970596,-10.280077,-47.529541,,,,,,,
1522139127.435049,-0.009521,0.066250,-0.149370,0.027679,-0.027213,0.454178,-0.009500,-0.066202,-0.997761,-0.057058,-0.203421,-0.024990,29.145508,-10.650759,-46.928528,,,,,,,
1522139127.465017,-0.011311,0.067393,-0.135724,0.039426,-0.029355,0.452059,-0.011285,-0.067342,-0.997666,-0.050146,-0.169016,-0.001022,29.368256,-10.876772,-46.927490,,,,,,,
1522139127.494985,-0.012787,0.068842,-0.122104,0.036299,-0.009165,0.454163,-0.012756,-0.068787,-0.997550,-0.025482,-0.193191,-0.040109,30.192444,-10.730852,-47.302673,,,,,,,
1522139127.524953,-0.014120,0.069982,-0.108392,0.033067,-0.012389,0.458436,-0.014085,-0.069924,-0.997453,-0.032943,-0.182700,-0.063430,29.512863,-11.327562,-47.075562,,,,,,,
1522139127.554922,-0.015456,0.070993,-0.094609,0.036248,-0.011338,0.461621,-0.015417,-0.070934,-0.997362,-0.065806,-0.202610,-0.062407,29.658035,-11.628511,-47.374268,,,,,,,
1522139127.584890,-0.016934,0.072051,-0.080700,0.032999,-0.025139,0.459508,-0.016890,-0.071989,-0.997262,-0.069277,-0.215090,0.016214,29.500565,-12.153185,-47.747253,,,,,,,
1522139127.614858,-0.018153,0.072940,-0.066809,0.028900,0.019484,0.463714,-0.018103,-0.072876,-0.997177,-0.044015,-0.196976,-0.064118,29.952042,-12.005220,-47.747620,,,,,,,
1522139127.644826,-0.019798,0.074429,-0.052929,0.055488,-0.009267,0.460576,-0.019742,-0.074361,-0.997036,-0.057285,-0.203532,0.050640,30.625687,-12.457720,-47.220520,,,,,,,
1522139127.674795,-0.021306,0.075955,-0.039047,0.050034,-0.031576,0.462721,-0.021243,-0.075882,-0.996890,-0.078260,-0.250564,-0.036648,31.068771,-12.835238,-47.743774,,,,,,,
1522139127.704732,-0.022926,0.077098,-0.025170,0.033187,0.016318,0.458395,-0.022856,-0.077021,-0.996767,-0.058214,-0.196126,0.092440,29.635284,-13.728701,-47.665955,,,,,,,
1522139127.734701,-0.024393,0.078241,-0.011249,0.040543,-0.007091,0.460554,-0.024316,-0.078161,-0.996644,-0.034766,-0.226160,-0.052947,29.930786,-14.180040,-47.664001,,,,,,,
1522139127.764669,-0.025927,0.078863,0.002587,0.007414,-0.017628,0.458415,-0.025844,-0.078781,-0.996557,-0.054021,-0.251159,-0.079340,30.153229,-14.480959,-47.587646,,,,,,,
1522139127.794637,-0.027268,0.078452,0.016552,-0.011787,-0.006987,0.463715,-0.027181,-0.078372,-0.996554,-0.055720,-0.251111,-0.046644,30.522675,-14.857912,-47.885986,,,,,,,
1522139127.824605,-0.028430,0.077682,0.030608,-0.008600,-0.005965,0.467980,-0.028341,-0.077603,-0.996581,-0.055613,-0.216967,-0.045212,30.221359,-15.081408,-47.735229,,,,,,,
1522139127.854574,-0.029427,0.077273,0.044728,0.002008,-0.015596,0.473327,-0.029335,-0.077196,-0.996584,-0.072105,-0.233106,-0.077757,30.442307,-15.532335,-47.658325,,,,,,,
1522139127.884542,-0.030085,0.076795,0.058865,-0.004200,0.028002,0.472208,-0.029992,-0.076719,-0.996602,-0.053534,-0.239992,-0.030239,30.438568,-16.131929,-47.280945,,,,,,,
1522139127.914510,-0.030829,0.076247,0.073202,-0.012855,0.013072,0.481812,-0.030734,-0.076174,-0.996621,-0.061810,-0.245573,0.011239,30.736160,-16.283419,-47.430176,,,,,,,
1522139127.944479,-0.031496,0.075830,0.087674,-0.004252,0.030045,0.483927,-0.031401,-0.075757,-0.996632,-0.064699,-0.184405,0.039707,30.211349,-16.580538,-46.904236,,,,,,,
1522139127.974447,-0.032068,0.076010,0.102166,0.010623,0.008765,0.480772,-0.031970,-0.075936,-0.996600,-0.057232,-0.245826,0.024722,30.281555,-17.105776,-46.827087,,,,,,,
1522139128.004415,-0.032712,0.076090,0.116624,-0.004079,0.064082,0.479628,-0.032612,-0.076016,-0.996573,-0.067287,-0.239444,0.040671,30.874023,-17.409197,-47.575623,,,,,,,
1522139128.034383,-0.033406,0.076334,0.130971,0.021291,0.003468,0.476514,-0.033303,-0.076260,-0.996532,-0.107429,-0.223621,-0.022023,30.275131,-17.705828,-46.899719,,,,,,,
1522139128.064352,-0.033910,0.077036,0.145135,0.016214,0.047124,0.464750,-0.033803,-0.076959,-0.996461,-0.091319,-0.247687,0.071046,30.568085,-18.232439,-47.197449,,,,,,,
1522139128.094320,-0.034197,0.077303,0.159044,0.008769,0.047179,0.459417,-0.034088,-0.077226,-0.996431,-0.028320,-0.190932,0.027803,30.563278,-18.757341,-47.120361,,,,,,,
1522139128.124258,-0.034447,0.077821,0.172779,0.025773,0.020620,0.452000,-0.034336,-0.077742,-0.996382,-0.038799,-0.177538,-0.028551,29.807632,-19.279009,-47.193665,,,,,,,
1522139128.154227,-0.034565,0.078188,0.186205,0.010817,0.007975,0.442411,-0.034453,-0.078109,-0.996349,-0.056642,-0.211427,-0.080143,29.501663,-19.877626,-47.191406,,,,,,,
1522139128.184195,-0.034328,0.077962,0.199385,-0.015571,0.066553,0.433802,-0.034217,-0.077883,-0.996375,-0.014169,-0.207944,0.000770,30.326187,-20.106035,-46.890076,,,,,,,
1522139128.214163,-0.034222,0.077331,0.212187,-0.017803,0.030503,0.422122,-0.034113,-0.077254,-0.996428,-0.050116,-0.194856,-0.052767,29.726791,-20.178118,-46.665100,,,,,,,
1522139128.244132,-0.033742,0.076271,0.224584,-0.042164,0.057206,0.409299,-0.033638,-0.076197,-0.996525,-0.033013,-0.229070,0.028645,29.868423,-20.704271,-47.187927,,,,,,,
1522139128.274100,-0.033201,0.074684,0.236606,-0.052863,0.039288,0.395442,-0.033103,-0.074615,-0.996663,-0.021173,-0.128770,0.006169,30.542496,-20.707460,-47.337524,,,,,,,
1522139128.304068,-0.032560,0.073361,0.248318,-0.030324,0.055211,0.387993,-0.032466,-0.073295,-0.996782,-0.015401,-0.167382,-0.001906,30.087708,-21.454973,-46.884827,,,,,,,
1522139128.334036,-0.032097,0.071912,0.259587,-0.060193,0.040540,0.369868,-0.032008,-0.071850,-0.996902,0.005489,-0.122516,0.047469,29.859131,-21.679155,-47.109009,,,,,,,
1522139128.364005,-0.031391,0.070115,0.270409,-0.049449,0.041657,0.358155,-0.031309,-0.070058,-0.997051,-0.039721,-0.120158,-0.093555,30.310913,-21.456270,-47.184692,,,,,,,
1522139128.393973,-0.031264,0.068726,0.280701,-0.053655,0.029082,0.334722,-0.031185,-0.068672,-0.997152,-0.004368,-0.103783,0.063543,29.560959,-21.902132,-46.433289,,,,,,,
1522139128.423940,-0.030865,0.067096,0.290502,-0.051420,0.036605,0.321929,-0.030791,-0.067045,-0.997275,-0.007387,-0.031114,-0.059839,29.408112,-22.051668,-46.657715,,,,,,,
1522139128.453908,-0.031094,0.066007,0.299626,-0.033355,-0.012125,0.295348,-0.031021,-0.065959,-0.997340,-0.013031,-0.090458,0.030925,29.630112,-22.352678,-46.656433,,,,,,,
1522139128.483877,-0.031104,0.064642,0.308184,-0.046994,0.025198,0.281448,-0.031034,-0.064597,-0.997429,-0.032656,-0.052544,-0.031349,29.623535,-23.102495,-46.503479,,,,,,,
1522139128.513845,-0.031535,0.063576,0.316222,-0.028833,0.004041,0.261239,-0.031466,-0.063533,-0.997483,-0.054532,-0.034459,-0.017668,29.400192,-22.801714,-46.729736,,,,,,,
1522139128.543813,-0.031925,0.062827,0.323670,-0.024421,0.011591,0.242063,-0.031857,-0.062785,-0.997518,-0.041172,-0.038075,0.017462,29.996414,-23.179399,-46.727966,,,,,,,
1522139128.573751,-0.032545,0.062268,0.330681,-0.016965,-0.005343,0.230362,-0.032476,-0.062228,-0.997533,-0.039744,-0.059659,0.002432,29.695206,-23.253115,-46.802795,,,,,,,
1522139128.603719,-0.032899,0.061955,0.337322,0.004436,-0.009557,0.217595,-0.032830,-0.061915,-0.997541,-0.047416,-0.041310,-0.019518,29.322922,-23.250994,-46.352966,,,,,,,
1522139128.633688,-0.033338,0.062146,0.343675,0.002443,0.011773,0.207979,-0.033267,-0.062106,-0.997515,-0.031583,-0.046323,0.010348,29.472946,-23.251665,-46.352905,,,,,,,
1522139128.663656,-0.033674,0.062699,0.349673,0.029069,-0.015851,0.197374,-0.033601,-0.062658,-0.997469,-0.049635,-0.040186,0.007769,28.870270,-23.474031,-46.427368,,,,,,,
1522139128.693624,-0.034013,0.063275,0.355494,0.012220,0.028850,0.191995,-0.033938,-0.063232,-0.997422,-0.074064,-0.043747,-0.050308,29.687576,-23.928225,-46.950073,,,,,,,
1522139128.723593,-0.034486,0.063669,0.361182,0.031216,-0.030629,0.182474,-0.034409,-0.063626,-0.997380,-0.050125,-0.019748,0.063604,30.138031,-24.154802,-46.499023,,,,,,,
1522139128.753561,-0.034591,0.064290,0.366613,0.011160,0.015141,0.178152,-0.034513,-0.064246,-0.997337,-0.032534,-0.060785,-0.035927,29.017136,-23.924456,-46.200439,,,,,,,
1522139128.783530,-0.034904,0.064480,0.371941,0.015432,0.010913,0.173895,-0.034825,-0.064435,-0.997314,-0.012356,-0.044391,0.005172,29.315765,-24.150652,-46.049438,,,,,,,
1522139128.813498,-0.034877,0.064813,0.377114,0.015509,0.020520,0.167494,-0.034796,-0.064768,-0.997294,-0.054498,-0.010901,-0.043096,29.087494,-24.524553,-45.973022,,,,,,,
1522139128.843466,-0.035078,0.065340,0.382129,0.026009,-0.028324,0.159024,-0.034996,-0.065294,-0.997252,-0.048058,-0.032637,-0.017167,28.561325,-24.597246,-46.047974,,,,,,,
1522139128.873435,-0.034964,0.065779,0.386891,0.014498,0.016365,0.153648,-0.034881,-0.065731,-0.997227,-0.004730,-0.025775,-0.036128,28.784225,-24.898104,-45.896667,,,,,,,
1522139128.903403,-0.035084,0.066370,0.391388,0.028394,0.007888,0.144083,-0.034999,-0.066321,-0.997184,-0.036076,-0.010690,0.007423,29.080460,-25.049822,-46.270935,,,,,,,
1522139128.933371,-0.035270,0.066921,0.395634,0.016751,0.020748,0.134463,-0.035183,-0.066871,-0.997141,-0.120716,-0.013482,-0.010839,29.233002,-24.975206,-45.971130,,,,,,,
1522139128.963339,-0.035834,0.067288,0.399573,0.010331,0.008057,0.127018,-0.035745,-0.067237,-0.997097,-0.118552,-0.051766,-0.021672,29.605286,-24.977327,-46.420959,,,,,,,
1522139128.993308,-0.036774,0.067624,0.403229,0.015617,-0.012076,0.118511,-0.036682,-0.067572,-0.997040,-0.052109,-0.043130,0.027161,29.307236,-25.050539,-45.970825,,,,,,,
1522139129.023245,-0.038059,0.068109,0.406619,0.013380,-0.042831,0.111080,-0.037962,-0.068056,-0.996959,-0.098284,-0.039716,0.009822,28.776123,-25.573290,-46.119019,,,,,,,
1522139129.053214,-0.039858,0.068289,0.409725,0.012305,-0.058690,0.099377,-0.039754,-0.068236,-0.996877,-0.089656,-0.004762,0.037389,29.900024,-25.279024,-46.794617,,,,,,,
1522139129.083182,-0.041593,0.068622,0.412621,0.010306,-0.040562,0.089774,-0.041483,-0.068568,-0.996784,-0.106863,-0.014668,-0.048093,28.627640,-25.422625,-46.119690,,,,,,,
1522139129.113150,-0.043701,0.068730,0.415264,0.000660,-0.053239,0.084443,-0.043584,-0.068676,-0.996687,-0.098140,-0.008549,0.035352,28.777786,-25.498156,-45.969299,,,,,,,
1522139129.143128,-0.045726,0.068551,0.417737,-0.005797,-0.072308,0.078066,-0.045603,-0.068497,-0.996608,-0.122076,0.015534,0.010814,29.152466,-25.574770,-45.893799,,,,,,,
1522139129.173097,-0.047779,0.068256,0.419973,-0.006792,-0.064814,0.070598,-0.047650,-0.068203,-0.996533,-0.100299,0.031292,0.072751,27.797729,-25.868975,-46.193237,,,,,,,
1522139129.203065,-0.049317,0.067851,0.421966,-0.010918,-0.043516,0.063126,-0.049184,-0.067799,-0.996486,-0.098384,0.035343,-0.025014,28.769547,-26.098482,-46.341858,,,,,,,
1522139129.233033,-0.050800,0.067362,0.423776,-0.010842,-0.032835,0.056716,-0.050663,-0.067311,-0.996445,-0.097393,0.044041,0.039429,29.069962,-25.875139,-46.642639,,,,,,,
1522139129.263001,-0.051762,0.066816,0.425440,-0.012929,-0.026420,0.052443,-0.051623,-0.066766,-0.996432,-0.114942,0.045922,-0.054502,28.321060,-25.946474,-46.342712,,,,,,,
1522139129.292970,-0.052449,0.066226,0.427016,-0.012704,0.019290,0.049203,-0.052310,-0.066178,-0.996436,-0.084195,0.055252,0.093619,28.320465,-26.096315,-46.192078,,,,,,,
1522139129.322938,-0.052662,0.065805,0.428422,-0.006330,0.006564,0.043890,-0.052524,-0.065758,-0.996452,-0.094143,0.055168,-0.018135,28.919067,-26.099230,-46.416809,,,,,,,
1522139129.352906,-0.052710,0.065659,0.429630,-0.000833,0.033170,0.036408,-0.052572,-0.065612,-0.996459,-0.096323,0.051360,0.036361,28.240067,-26.321474,-46.716248,,,,,,,
1522139129.382875,-0.052259,0.065645,0.430718,0.010794,0.003410,0.033250,-0.052123,-0.065598,-0.996484,-0.102754,0.054550,-0.113105,28.320007,-26.096392,-46.267090,,,,,,,
1522139129.412843,-0.051712,0.065845,0.431590,0.011094,0.058713,0.024678,-0.051576,-0.065797,-0.996499,-0.114103,0.058854,-0.020408,28.766388,-26.099001,-46.866882,,,,,,,
1522139129.442811,-0.051187,0.066188,0.432251,0.016204,0.005618,0.020461,-0.051052,-0.066140,-0.996503,-0.100879,0.056359,-0.038348,28.241867,-26.321184,-46.416260,,,,,,,
1522139129.472749,-0.050515,0.066558,0.432663,0.015524,0.078996,0.010804,-0.050382,-0.066509,-0.996513,-0.099612,0.061717,-0.122704,28.242767,-26.321047,-46.266235,,,,,,,
1522139129.502717,-0.049993,0.067015,0.432876,0.017360,0.006757,0.006621,-0.049860,-0.066965,-0.996509,-0.095358,0.046182,-0.068799,29.069824,-26.024920,-46.417053,,,,,,,
1522139129.532685,-0.049547,0.067338,0.432858,0.013237,0.030209,-0.001933,-0.049415,-0.067287,-0.996509,-0.094918,0.078640,0.004078,28.015244,-26.619936,-46.190125,,,,,,,
1522139129.562654,-0.049303,0.067764,0.432741,0.015208,-0.010155,-0.005086,-0.049170,-0.067713,-0.996493,-0.107950,0.062204,-0.026625,28.017029,-26.395021,-46.266052,,,,,,,
1522139129.592622,-0.049226,0.068143,0.432501,0.018530,0.006869,-0.011484,-0.049092,-0.068090,-0.996471,-0.094539,0.065389,-0.032262,28.241867,-26.321184,-46.416260,,,,,,,
1522139129.622590,-0.049416,0.068514,0.432189,0.009935,-0.002654,-0.011494,-0.049280,-0.068461,-0.996436,-0.102072,0.035181,-0.082070,28.464005,-26.472414,-46.640503,,,,,,,
1522139129.652558,-0.050064,0.068694,0.431863,0.016335,-0.004785,-0.012554,-0.049925,-0.068640,-0.996391,-0.097673,0.053839,0.039925,28.238129,-26.696169,-46.414795,,,,,,,
1522139129.682527,-0.050663,0.069061,0.431489,0.017357,-0.015400,-0.013612,-0.050520,-0.069006,-0.996336,-0.090974,0.032324,-0.019914,28.388565,-26.696779,-46.339661,,,,,,,
1522139129.712495,-0.051479,0.069383,0.431178,0.014165,-0.011179,-0.010413,-0.051333,-0.069327,-0.996272,-0.093275,0.058768,0.040736,28.088730,-26.545641,-46.565430,,,,,,,
1522139129.742463,-0.052348,0.069832,0.430849,0.021561,-0.031376,-0.012515,-0.052197,-0.069775,-0.996196,-0.095111,0.031323,0.003612,27.413300,-26.542681,-46.640747,,,,,,,
1522139129.772431,-0.053230,0.070053,0.430546,0.005551,-0.028133,-0.012541,-0.053074,-0.069995,-0.996134,-0.074840,0.032794,-0.024114,28.464005,-26.472414,-46.640503,,,,,,,
1522139129.802400,-0.053795,0.070086,0.430267,0.005619,-0.014346,-0.011476,-0.053638,-0.070029,-0.996102,-0.093579,0.052207,-0.027717,27.788010,-26.843920,-46.189392,,,,,,,
1522139129.832368,-0.054627,0.069990,0.430025,-0.004032,-0.021745,-0.011486,-0.054467,-0.069933,-0.996064,-0.094047,0.037950,0.012406,27.638306,-26.768328,-46.264771,,,,,,,
1522139129.862336,-0.054854,0.069813,0.429837,-0.000813,-0.012212,-0.007236,-0.054693,-0.069757,-0.996064,-0.108210,0.036889,-0.063583,28.314911,-26.471590,-46.490662,,,,,,,
1522139129.892274,-0.055365,0.069848,0.429634,0.003448,-0.016489,-0.007218,-0.055201,-0.069791,-0.996033,-0.077062,0.061750,0.054612,27.938431,-26.619890,-46.490234,,,,,,,
1522139129.922242,-0.055318,0.069919,0.429402,0.007811,0.002633,-0.008298,-0.055155,-0.069862,-0.996031,-0.085440,0.056465,-0.072649,27.566757,-26.467928,-46.190979,,,,,,,
1522139129.952210,-0.055509,0.069949,0.429195,0.003481,-0.012228,-0.009350,-0.055345,-0.069892,-0.996018,-0.092528,0.032859,-0.012039,28.164322,-26.620760,-46.340088,,,,,,,
1522139129.982179,-0.055442,0.069777,0.428993,-0.001805,0.002653,-0.007242,-0.055279,-0.069720,-0.996034,-0.100468,0.060901,-0.078338,27.492661,-26.467440,-46.041077,,,,,,,
1522139130.012147,-0.055523,0.069750,0.428782,0.001387,0.000522,-0.007239,-0.055360,-0.069693,-0.996031,-0.084288,0.043372,-0.026552,28.613098,-26.473238,-46.790466,,,,,,,
1522139130.042115,-0.055474,0.069639,0.428528,0.000364,0.007978,-0.009379,-0.055311,-0.069583,-0.996042,-0.086672,0.038119,-0.051718,28.619095,-26.097887,-46.416992,,,,,,,
1522139130.072084,-0.055683,0.069588,0.428184,-0.007132,0.001645,-0.011515,-0.055519,-0.069532,-0.996034,-0.092598,0.022886,-0.010863,28.241562,-26.396105,-46.340942,,,,,,,
1522139130.102052,-0.055758,0.069446,0.427762,0.004696,0.014389,-0.015776,-0.055595,-0.069390,-0.996039,-0.083794,0.046517,0.017249,27.641891,-26.318483,-46.416565,,,,,,,
1522139130.132020,-0.055978,0.069298,0.427330,-0.011422,-0.007899,-0.014696,-0.055814,-0.069243,-0.996037,-0.073306,0.025175,-0.030391,28.014175,-26.545229,-46.490479,,,,,,,
1522139130.161965,-0.056043,0.069029,0.426822,0.003622,0.011207,-0.016836,-0.055880,-0.068974,-0.996052,-0.084165,0.075825,0.011937,28.018372,-26.170183,-46.416992,,,,,,,
1522139130.191934,-0.056305,0.068870,0.426317,-0.011327,0.012301,-0.015784,-0.056142,-0.068816,-0.996048,-0.059642,0.050871,0.020386,28.088882,-26.620501,-46.415161,,,,,,,
1522139130.221902,-0.056668,0.068503,0.425860,0.001344,-0.019597,-0.016811,-0.056505,-0.068449,-0.996053,-0.078490,0.053725,-0.002360,28.241867,-26.321184,-46.416260,,,,,,,
1522139130.251870,-0.057042,0.068281,0.425410,-0.008173,0.001669,-0.015772,-0.056878,-0.068228,-0.996047,-0.088813,0.060400,-0.006394,27.942780,-26.319689,-46.266418,,,,,,,
1522139130.281838,-0.057399,0.067962,0.425002,-0.003985,-0.014296,-0.013622,-0.057235,-0.067910,-0.996048,-0.053208,0.062401,0.008286,28.766846,-26.323549,-46.416016,,,,,,,
