timestamp(unix),attitude_roll(radians),attitude_pitch(radians),attitude_yaw(radians),rotation_rate_x(radians/s),rotation_rate_y(radians/s),rotation_rate_z(radians/s),gravity_x(G),gravity_y(G),gravity_z(G),user_acc_x(G),user_acc_y(G),user_acc_z(G),magnetic_field_x(microteslas),magnetic_field_y(microteslas),magnetic_field_z(microteslas),latitude(degree),longitude(degree),altitude(meter),speed(m/s),course(degree),timestamp(unix),User Mark
,,,,,,,,,,,,,,,,25.318841,51.455671,17.368044,6.600000,268.242188,1523523735.996871,
1523523736.944914,-0.622372,-0.122022,1.825406,-0.065858,0.206595,-0.036998,-0.578629,0.121720,-0.806457,0.098679,0.021270,-0.060624,-12.019531,-27.902199,-4.027649,,,,,,,
1523523736.974912,-0.616145,-0.125867,1.822832,-0.177208,0.204321,0.022598,-0.573322,0.125535,-0.809656,0.075733,0.016418,-0.131354,-12.094391,-27.752098,-4.253235,,,,,,,
1523523737.004881,-0.612748,-0.129176,1.821442,-0.047781,0.021219,0.023946,-0.570326,0.128817,-0.811255,0.056502,0.002301,-0.171747,-11.493073,-27.529945,-4.403870,,,,,,,
1523523737.034849,-0.614676,-0.128955,1.822972,0.075240,-0.139675,0.043377,-0.571905,0.128598,-0.810177,0.078726,0.003666,-0.127201,-12.240051,-27.451225,-4.029541,,,,,,,
,,,,,,,,,,,,,,,,25.318851,51.455629,17.514111,5.460000,266.835938,1523523736.996859,
1523523737.064817,-0.618719,-0.128021,1.826063,0.067549,-0.158952,0.067896,-0.575245,0.127672,-0.807956,0.082249,0.004805,-0.074674,-12.018188,-27.452736,-4.554382,,,,,,,
1523523737.094786,-0.621640,-0.127936,1.828001,0.016788,-0.093718,0.028358,-0.577609,0.127587,-0.806281,0.085040,-0.012673,-0.007562,-11.786331,-27.078255,-4.030823,,,,,,,
1523523737.124754,-0.621825,-0.127833,1.827998,-0.004794,0.032078,-0.022926,-0.577766,0.127485,-0.806185,0.091591,-0.049147,-0.001585,-11.789917,-27.303474,-4.254883,,,,,,,
1523523737.154722,-0.619657,-0.126793,1.826817,0.008389,0.043106,-0.084729,-0.576094,0.126454,-0.807543,0.041899,-0.050496,-0.040251,-12.312943,-27.375664,-3.804871,,,,,,,
1523523737.184690,-0.619244,-0.125603,1.823960,-0.063419,-0.046895,-0.107056,-0.575847,0.125273,-0.807903,0.036250,-0.022567,-0.060643,-12.241852,-27.451515,-4.329529,,,,,,,
1523523737.214659,-0.620476,-0.126092,1.820095,-0.103004,-0.033177,-0.079394,-0.576807,0.125758,-0.807142,0.031549,0.001943,-0.041750,-12.390488,-27.225990,-4.480469,,,,,,,
1523523737.244627,-0.620611,-0.125496,1.817798,0.013258,-0.024113,-0.049482,-0.576959,0.125166,-0.807126,0.043618,0.017488,-0.028110,-11.866272,-27.303352,-4.479919,,,,,,,
1523523737.274595,-0.620397,-0.123808,1.818524,0.059961,0.004991,0.027238,-0.576908,0.123492,-0.807420,0.054295,0.026655,-0.038116,-11.487686,-27.079826,-4.255615,,,,,,,
1523523737.304563,-0.619283,-0.125000,1.820379,-0.049223,0.020746,0.093197,-0.575923,0.124675,-0.807941,0.026561,0.022969,-0.080136,-12.315659,-27.151482,-4.630737,,,,,,,
1523523737.334532,-0.618192,-0.128599,1.821560,-0.063172,0.004839,0.093205,-0.574777,0.128245,-0.808198,0.025491,-0.000041,-0.063124,-12.015656,-27.152824,-4.630615,,,,,,,
1523523737.364500,-0.616245,-0.130943,1.822882,-0.030540,0.112239,0.070745,-0.573027,0.130569,-0.809068,0.025374,-0.038833,-0.072173,-11.639175,-27.004524,-4.630981,,,,,,,
1523523737.394468,-0.609309,-0.135736,1.823779,-0.192691,0.249056,0.164259,-0.567037,0.135319,-0.812501,0.071569,-0.088627,-0.292190,-12.614014,-26.850365,-4.857117,,,,,,,
1523523737.424436,-0.602607,-0.146437,1.825178,-0.326839,0.215749,0.265409,-0.560726,0.145914,-0.815043,-0.082264,0.017812,-0.420370,-12.765182,-26.924751,-4.931885,,,,,,,
1523523737.454405,-0.595184,-0.159781,1.821781,-0.437840,0.219606,0.057547,-0.553519,0.159102,-0.817498,0.016746,0.018434,-0.550117,-12.391724,-26.627190,-5.682861,,,,,,,
1523523737.484373,-0.600520,-0.160601,1.820142,0.243292,-0.435629,-0.089391,-0.557800,0.159911,-0.814425,0.176864,0.017243,-0.269636,-13.287933,-26.472786,-5.308960,,,,,,,
1523523737.514359,-0.611829,-0.150590,1.821949,0.238001,-0.258784,-0.151377,-0.567865,0.150022,-0.809335,0.080011,0.093981,-0.079704,-13.142715,-26.998360,-5.231750,,,,,,,
1523523737.544327,-0.616669,-0.145022,1.820534,0.112563,-0.136278,-0.150528,-0.572250,0.144514,-0.807245,0.171524,0.098086,-0.025442,-12.764893,-26.849846,-5.007202,,,,,,,
1523523737.574296,-0.620328,-0.138737,1.819808,0.166084,-0.095051,-0.139869,-0.575717,0.138292,-0.805869,0.117877,0.049833,0.108085,-13.514999,-26.996239,-4.781982,,,,,,,
1523523737.604264,-0.621996,-0.133823,1.818006,0.045833,-0.023460,-0.153882,-0.577449,0.133424,-0.805451,0.085017,0.036605,0.109863,-13.064590,-26.998192,-4.706787,,,,,,,
1523523737.634232,-0.624613,-0.128826,1.815195,0.128742,-0.127644,-0.175034,-0.579937,0.128470,-0.804467,0.134884,-0.037314,0.118127,-12.162674,-26.852180,-4.631897,,,,,,,
1523523737.664201,-0.629705,-0.123269,1.814636,0.115311,-0.158027,-0.081242,-0.584438,0.122957,-0.802068,0.117351,-0.051668,0.189291,-12.912781,-27.223198,-4.030823,,,,,,,
1523523737.694169,-0.633246,-0.121234,1.814901,0.042659,-0.083990,-0.006780,-0.587421,0.120937,-0.800194,0.104251,-0.032512,0.223442,-12.533752,-26.774971,-4.107361,,,,,,,
1523523737.724137,-0.636562,-0.119314,1.817321,0.159417,-0.162288,0.056248,-0.590208,0.119031,-0.798427,0.146864,-0.024259,0.237438,-11.929123,-26.851799,-3.206787,,,,,,,
1523523737.754105,-0.640421,-0.115234,1.824414,0.309729,-0.114393,0.142624,-0.593570,0.114979,-0.796526,0.146991,-0.031483,0.294374,-13.129807,-26.921394,-3.207092,,,,,,,
1523523737.784074,-0.639129,-0.108902,1.835873,0.456609,0.087800,0.200065,-0.592963,0.108686,-0.797861,0.140723,-0.041365,0.333933,-12.978165,-27.071541,-2.681396,,,,,,,
1523523737.814042,-0.631145,-0.100737,1.849810,0.498078,0.299094,0.209470,-0.587078,0.100567,-0.803259,0.124874,-0.073406,0.302862,-12.600479,-27.072792,-2.231201,,,,,,,
1523523737.844041,-0.619791,-0.093757,1.860973,0.295809,0.333121,0.126174,-0.578314,0.093619,-0.810424,0.057547,-0.051551,0.234222,-13.502518,-27.143959,-2.456421,,,,,,,
1523523737.874009,-0.611661,-0.093446,1.862728,-0.133075,0.224759,-0.028535,-0.571723,0.093310,-0.815123,0.081489,-0.046069,0.161986,-13.279785,-27.369957,-2.455383,,,,,,,
1523523737.903977,-0.607387,-0.097719,1.855480,-0.293973,0.135797,-0.166014,-0.568001,0.097564,-0.817225,0.033058,-0.031936,0.121348,-12.224304,-26.774788,-2.532227,,,,,,,
1523523737.933945,-0.605210,-0.102790,1.846935,-0.324489,0.090710,-0.088218,-0.565932,0.102609,-0.818041,-0.052461,-0.069422,0.062609,-12.230011,-26.850594,-3.356873,,,,,,,
1523523737.963914,-0.598378,-0.114638,1.839397,-0.608882,0.444025,0.088096,-0.559605,0.114387,-0.820827,-0.236720,-0.035911,-0.135243,-11.934525,-26.852684,-4.106750,,,,,,,
1523523737.993882,-0.581485,-0.135047,1.830351,-0.669677,0.536169,0.154013,-0.544264,0.134637,-0.828039,-0.245470,-0.025445,-0.525934,-12.018677,-26.778938,-5.757080,,,,,,,
1523523738.023850,-0.575719,-0.141788,1.829500,0.141095,0.010081,0.031547,-0.538974,0.141314,-0.830384,-0.251828,-0.018984,-0.522354,-11.865540,-26.554482,-5.607910,,,,,,,
,,,,,,,,,,,,,,,,25.318846,51.455593,17.459786,3.960000,265.781250,1523523737.996849,
1523523738.053818,-0.576704,-0.129737,1.836154,0.604283,-0.114870,-0.042575,-0.540682,0.129373,-0.831219,-0.115522,0.053076,-0.454288,-11.639038,-26.854744,-4.856567,,,,,,,
1523523738.083787,-0.579344,-0.114940,1.845502,0.487564,-0.140401,0.002121,-0.543862,0.114687,-0.831300,-0.054557,0.089170,-0.372572,-11.490555,-27.005424,-4.855896,,,,,,,
1523523738.113755,-0.582054,-0.110151,1.847770,-0.092335,-0.009937,-0.061310,-0.546409,0.109928,-0.830272,-0.101784,0.109066,-0.259632,-12.691681,-27.299706,-4.555359,,,,,,,
1523523738.143723,-0.580971,-0.119211,1.838075,-0.598648,0.105419,-0.119333,-0.544941,0.118929,-0.829997,-0.113903,0.064268,-0.281850,-12.090378,-26.852943,-5.081848,,,,,,,
1523523738.173691,-0.575636,-0.132566,1.821759,-0.674635,0.338480,-0.293309,-0.539592,0.132178,-0.831486,-0.277577,0.056726,-0.337093,-11.192978,-26.707664,-5.756958,,,,,,,
1523523738.203660,-0.570033,-0.138671,1.804280,-0.271392,0.137400,-0.401488,-0.534480,0.138227,-0.833801,-0.210409,0.038714,-0.311996,-11.127426,-27.158775,-6.580139,,,,,,,
1523523738.233628,-0.575894,-0.132403,1.796893,0.204981,-0.316714,-0.214201,-0.539818,0.132016,-0.831365,-0.105537,0.015552,-0.006953,-10.976532,-27.159309,-6.430054,,,,,,,
1523523738.263596,-0.583073,-0.126004,1.801156,0.270955,-0.173890,0.155439,-0.546227,0.125671,-0.828156,-0.038017,0.001908,0.183152,-11.196732,-26.858025,-6.131348,,,,,,,
1523523738.293565,-0.581280,-0.124652,1.813466,0.267888,0.141052,0.401256,-0.544834,0.124329,-0.829276,0.035252,-0.012101,0.204794,-11.194473,-26.857658,-5.756348,,,,,,,
1523523738.323533,-0.573409,-0.124486,1.829560,0.301876,0.179828,0.467299,-0.538301,0.124165,-0.833556,0.113405,-0.025044,0.169005,-11.263916,-26.482048,-5.457947,,,,,,,
1523523738.353501,-0.569825,-0.125699,1.844065,0.160334,-0.058290,0.378997,-0.535228,0.125368,-0.835352,0.168270,-0.030718,0.183421,-12.087677,-26.627892,-5.007751,,,,,,,
1523523738.383469,-0.574657,-0.127611,1.852752,0.094187,-0.247123,0.206522,-0.539127,0.127265,-0.832554,0.224674,-0.030158,0.261402,-12.839447,-26.624809,-5.308105,,,,,,,
1523523738.413438,-0.579622,-0.125580,1.858122,0.204483,-0.121947,0.046645,-0.543395,0.125250,-0.830081,0.246993,-0.037146,0.334674,-13.059189,-26.323433,-4.934448,,,,,,,
1523523738.443406,-0.581078,-0.118514,1.861819,0.284442,-0.042700,-0.068457,-0.545075,0.118237,-0.830008,0.244996,-0.028470,0.356375,-13.210373,-26.847084,-4.257446,,,,,,,
1523523738.473374,-0.581676,-0.112569,1.863297,0.068897,-0.000825,-0.054802,-0.545947,0.112331,-0.830255,0.180118,-0.017391,0.312173,-12.831787,-26.623558,-4.033142,,,,,,,
1523523738.503321,-0.580643,-0.117117,1.860020,-0.363606,0.074079,0.025772,-0.544804,0.116849,-0.830382,0.118550,-0.039426,0.213302,-13.433563,-26.621147,-4.333435,,,,,,,
1523523738.533290,-0.576765,-0.131711,1.853000,-0.601413,0.222914,0.100033,-0.540592,0.131330,-0.830971,0.047962,-0.065198,0.087654,-12.761749,-26.175453,-5.609863,,,,,,,
1523523738.563258,-0.571830,-0.144815,1.847491,-0.292002,0.120430,0.055627,-0.535507,0.144310,-0.832110,-0.046433,-0.079170,-0.077787,-12.913269,-26.100151,-5.985229,,,,,,,
1523523738.593226,-0.574204,-0.145518,1.847050,0.134080,-0.208303,-0.039626,-0.537426,0.145005,-0.830751,-0.072651,-0.063966,-0.009688,-12.163300,-25.878899,-6.360779,,,,,,,
1523523738.623194,-0.582317,-0.137108,1.850177,0.378273,-0.305418,-0.065988,-0.544800,0.136679,-0.827352,-0.029633,-0.060751,0.101782,-12.909363,-26.024635,-5.460571,,,,,,,
1523523738.653163,-0.588455,-0.126846,1.855541,0.324279,-0.140958,-0.011853,-0.550617,0.126507,-0.825116,0.002277,-0.063900,0.118222,-13.287170,-26.622414,-4.933350,,,,,,,
1523523738.683131,-0.589458,-0.121954,1.859051,0.112131,-0.031234,0.023047,-0.551781,0.121651,-0.825068,0.013146,-0.021935,0.043559,-12.226883,-25.951576,-4.335510,,,,,,,
1523523738.713099,-0.593945,-0.120515,1.860178,0.004695,-0.198712,0.003945,-0.555575,0.120224,-0.822728,-0.009855,0.012619,0.011236,-13.285370,-26.846748,-4.257446,,,,,,,
1523523738.743098,-0.600608,-0.124587,1.857122,-0.351357,-0.110516,-0.023036,-0.560763,0.124265,-0.818598,-0.152417,0.062487,-0.034292,-13.807953,-26.694252,-4.108337,,,,,,,
1523523738.773066,-0.597592,-0.137941,1.843467,-0.799919,0.327754,-0.233727,-0.557309,0.137504,-0.818840,-0.364322,0.131722,-0.251793,-12.610260,-26.250755,-5.234497,,,,,,,
1523523738.803034,-0.590779,-0.147142,1.820255,-0.410352,0.161164,-0.557193,-0.550989,0.146611,-0.821533,-0.306814,-0.010091,-0.469101,-12.615967,-26.551186,-5.683289,,,,,,,
1523523738.833003,-0.597790,-0.136257,1.808342,0.353505,-0.318653,-0.444248,-0.557601,0.135836,-0.818920,-0.256517,-0.032412,-0.218815,-11.867508,-26.704552,-5.682312,,,,,,,
1523523738.862971,-0.607830,-0.119021,1.813744,0.661700,-0.336473,0.018435,-0.567047,0.118740,-0.815082,-0.245636,0.055744,0.045444,-11.414810,-26.930748,-4.856140,,,,,,,
1523523738.892939,-0.609310,-0.107817,1.829328,0.514787,0.098568,0.311971,-0.568978,0.107609,-0.815281,-0.128135,0.098263,0.098744,-12.314301,-27.151253,-4.405762,,,,,,,
1523523738.922908,-0.596078,-0.107327,1.843113,0.074557,0.557282,0.364455,-0.558171,0.107122,-0.822782,-0.055767,0.058925,-0.073611,-12.608902,-26.924400,-3.881836,,,,,,,
1523523738.952876,-0.581174,-0.115203,1.848383,-0.195920,0.314549,0.222782,-0.545367,0.114948,-0.830278,0.015459,-0.006168,-0.145338,-12.011459,-27.002403,-4.181213,,,,,,,
1523523738.982844,-0.580150,-0.119561,1.848306,-0.026966,-0.146386,-0.021703,-0.544236,0.119276,-0.830409,0.003892,0.012850,-0.025944,-12.839890,-27.074120,-4.631348,,,,,,,
1523523739.012812,-0.587572,-0.115155,1.847131,0.173036,-0.235145,-0.164244,-0.550670,0.114900,-0.826777,-0.025898,0.059202,0.070826,-12.760818,-27.073799,-3.956299,,,,,,,
,,,,,,,,,,,,,,,,25.318847,51.455566,17.300460,3.690000,268.593750,1523523738.996838,
1523523739.042781,-0.591796,-0.107742,1.846957,0.195659,-0.100809,-0.085508,-0.554617,0.107534,-0.825128,0.011221,0.058985,0.085961,-12.083923,-26.926765,-3.881531,,,,,,,
1523523739.072749,-0.591948,-0.103583,1.851453,0.220657,0.007097,0.126437,-0.554988,0.103398,-0.825407,0.028545,0.025905,0.104109,-12.908875,-27.147682,-3.506042,,,,,,,
1523523739.102717,-0.591979,-0.100584,1.860811,0.298837,-0.050176,0.235235,-0.555184,0.100414,-0.825644,0.046852,-0.019467,0.094076,-13.206909,-26.996284,-3.431824,,,,,,,
1523523739.132685,-0.592697,-0.099265,1.871784,0.181201,-0.023723,0.293720,-0.555850,0.099102,-0.825354,0.022921,-0.035366,0.083579,-12.601532,-26.548851,-3.283325,,,,,,,
1523523739.162654,-0.591635,-0.101493,1.879534,0.018650,0.033708,0.191259,-0.554848,0.101319,-0.825759,-0.035484,-0.046113,0.037917,-13.726196,-26.468864,-3.359192,,,,,,,
1523523739.192622,-0.588940,-0.102740,1.880306,-0.020373,0.081291,-0.064545,-0.552551,0.102559,-0.827145,-0.043656,-0.050939,-0.007404,-13.424850,-26.469994,-3.134033,,,,,,,
1523523739.222590,-0.590792,-0.098529,1.875952,0.159313,-0.083509,-0.266692,-0.554317,0.098369,-0.826472,-0.041966,-0.044765,0.199213,-13.202118,-26.695992,-3.132996,,,,,,,
1523523739.252558,-0.590225,-0.085586,1.873465,0.309902,0.129926,-0.297702,-0.554510,0.085481,-0.827774,-0.099405,-0.003938,0.068573,-12.824570,-26.847023,-2.457214,,,,,,,
1523523739.282527,-0.588463,-0.073997,1.874430,0.353937,-0.051183,-0.095039,-0.553564,0.073929,-0.829518,-0.163157,0.042343,-0.027095,-12.748810,-26.996986,-2.081604,,,,,,,
1523523739.312495,-0.593583,-0.063832,1.881292,0.464849,-0.177697,0.025580,-0.558195,0.063789,-0.827254,-0.146593,-0.027381,0.029173,-11.998825,-27.224983,-1.705322,,,,,,,
