timestamp(unix),attitude_roll(radians),attitude_pitch(radians),attitude_yaw(radians),rotation_rate_x(radians/s),rotation_rate_y(radians/s),rotation_rate_z(radians/s),gravity_x(G),gravity_y(G),gravity_z(G),user_acc_x(G),user_acc_y(G),user_acc_z(G),magnetic_field_x(microteslas),magnetic_field_y(microteslas),magnetic_field_z(microteslas),latitude(degree),longitude(degree),altitude(meter),speed(m/s),course(degree),timestamp(unix),User Mark
1523523575.295284,-0.669623,-0.055304,-1.379526,0.461103,0.369231,-0.225407,-0.619741,0.055276,-0.782856,0.049413,-0.034097,0.292209,-3.243393,26.729942,-7.391724,,,,,,,
1523523575.325253,-0.648501,-0.043906,-1.376579,0.192856,0.905776,-0.120657,-0.603409,0.043892,-0.796221,-0.052643,-0.004143,-0.165998,-2.117386,26.650169,-7.090881,,,,,,,
,,,,,,,,,,,,,,,,25.316164,51.458093,14.175447,8.450000,85.781250,1523523574.998599,
1523523575.355221,-0.622828,-0.046354,-1.379385,-0.239087,0.710246,0.032663,-0.582708,0.046338,-0.811358,-0.090052,-0.011242,-0.503949,-1.972794,26.199379,-7.239014,,,,,,,
1523523575.385176,-0.614883,-0.048752,-1.379593,0.089601,-0.029094,0.035774,-0.576177,0.048733,-0.815869,-0.071909,-0.056133,-0.354236,-2.351517,25.826088,-7.237732,,,,,,,
1523523575.415145,-0.620771,-0.044312,-1.374585,0.261309,-0.263556,0.073429,-0.581091,0.044297,-0.812630,-0.000238,-0.033906,-0.167976,-1.897812,26.423668,-7.614868,,,,,,,
1523523575.445113,-0.628797,-0.040586,-1.367624,0.207547,-0.267094,0.142651,-0.587687,0.040575,-0.808069,0.023112,-0.010515,-0.072348,-2.575012,26.201714,-7.614319,,,,,,,
1523523575.475081,-0.633944,-0.040014,-1.360490,0.122480,-0.119616,0.204242,-0.591852,0.040004,-0.805052,0.081339,-0.080150,-0.056368,-2.950302,26.353096,-7.915100,,,,,,,
1523523575.505080,-0.635958,-0.042286,-1.353417,0.030800,-0.037871,0.247777,-0.593417,0.042273,-0.803783,0.071719,-0.186881,-0.058339,-1.746460,26.647835,-7.765686,,,,,,,
1523523575.535048,-0.636453,-0.049055,-1.349227,-0.188103,-0.067986,0.226330,-0.593631,0.049036,-0.803241,0.054828,-0.216653,-0.125516,-2.424591,26.650352,-8.291016,,,,,,,
1523523575.565017,-0.641180,-0.056924,-1.348917,-0.192496,-0.195951,0.140152,-0.597172,0.056893,-0.800092,0.051472,-0.203622,-0.025546,-2.572937,26.726173,-8.141418,,,,,,,
1523523575.594985,-0.644643,-0.060725,-1.349048,-0.169534,-0.125565,0.096407,-0.599804,0.060687,-0.797840,-0.022205,-0.207187,0.035527,-1.668030,27.172173,-8.067688,,,,,,,
1523523575.624954,-0.645252,-0.065172,-1.350362,-0.185086,-0.024585,0.096300,-0.600122,0.065126,-0.797251,-0.028876,-0.270311,0.001002,-1.968491,27.173454,-8.142883,,,,,,,
1523523575.654922,-0.647073,-0.066939,-1.348443,0.054589,-0.088238,0.147690,-0.601502,0.066889,-0.796064,-0.010283,-0.276026,0.083646,-2.037323,27.698906,-7.995056,,,,,,,
1523523575.684890,-0.648780,-0.063583,-1.340206,0.273191,-0.053204,0.227724,-0.602993,0.063540,-0.795210,0.043011,-0.239245,0.104521,-1.818024,27.172844,-8.067810,,,,,,,
1523523575.714859,-0.650039,-0.058318,-1.327900,0.383034,-0.049434,0.256575,-0.604188,0.058285,-0.794706,0.131822,-0.167126,0.109769,-1.666245,27.397087,-8.143616,,,,,,,
1523523575.744827,-0.648201,-0.053059,-1.314718,0.394450,0.109936,0.254299,-0.602903,0.053034,-0.796048,0.168974,-0.060389,0.105497,-1.749466,26.797096,-8.516235,,,,,,,
1523523575.774795,-0.643761,-0.049277,-1.303132,0.240936,0.096918,0.196651,-0.599479,0.049257,-0.798872,0.082877,0.030974,-0.024126,-1.373886,26.720634,-8.290771,,,,,,,
1523523575.804763,-0.642415,-0.051086,-1.301278,-0.206781,0.009190,-0.014568,-0.598349,0.051063,-0.799605,-0.026621,0.042564,-0.184541,-1.221359,27.019859,-8.366943,,,,,,,
1523523575.834732,-0.645105,-0.056838,-1.311459,-0.401551,-0.136326,-0.257505,-0.600311,0.056807,-0.797745,-0.112702,0.018312,-0.175003,-0.544876,26.942192,-7.991272,,,,,,,
1523523575.864700,-0.650011,-0.059529,-1.325698,-0.278178,-0.087251,-0.328855,-0.604123,0.059494,-0.794666,-0.142505,-0.077972,-0.097333,-0.619415,26.942604,-7.916321,,,,,,,
1523523575.894668,-0.650531,-0.057752,-1.334058,-0.003887,0.072489,-0.172182,-0.604599,0.057720,-0.794434,-0.142746,-0.175915,-0.056503,-1.516251,27.171791,-7.767639,,,,,,,
1523523575.924635,-0.646671,-0.053577,-1.332235,0.249219,0.125434,0.066636,-0.601667,0.053551,-0.796948,-0.133486,-0.143471,-0.035770,-1.363861,27.545876,-7.994080,,,,,,,
1523523575.954605,-0.645201,-0.048532,-1.321189,0.414208,0.000393,0.260817,-0.600650,0.048513,-0.798037,-0.024518,-0.104329,-0.042600,-0.697113,26.942513,-8.366333,,,,,,,
1523523575.984572,-0.646297,-0.043718,-1.306685,0.427059,-0.130883,0.340858,-0.601658,0.043704,-0.797555,0.029515,-0.127261,-0.019598,-0.846985,27.092949,-8.591980,,,,,,,
1523523576.014540,-0.648970,-0.041583,-1.291861,0.285420,-0.044546,0.350273,-0.603843,0.041571,-0.796017,0.014762,-0.159598,0.001583,-0.096420,27.239433,-8.742249,,,,,,,
1523523576.044509,-0.649054,-0.044226,-1.281755,-0.012196,-0.029706,0.310605,-0.603842,0.044212,-0.795876,-0.039652,-0.242088,-0.007591,-0.774094,27.242027,-9.192566,,,,,,,
,,,,,,,,,,,,,,,,25.316172,51.458167,13.749693,8.180000,80.859375,1523523575.998587,
1523523576.074477,-0.650095,-0.052931,-1.278084,-0.267311,-0.057501,0.274211,-0.604414,0.052906,-0.794910,-0.084231,-0.286137,-0.000912,0.054474,27.463524,-8.968018,,,,,,,
1523523576.104445,-0.653202,-0.061970,-1.275707,-0.131007,-0.149151,0.263750,-0.606565,0.061930,-0.792616,-0.091417,-0.284083,0.058257,0.504303,27.536354,-9.118103,,,,,,,
1523523576.134413,-0.656386,-0.063451,-1.268085,0.203414,-0.073611,0.283102,-0.609029,0.063408,-0.790608,-0.095271,-0.297844,0.059391,0.578094,27.460945,-9.192749,,,,,,,
1523523576.164382,-0.655613,-0.060546,-1.255105,0.343573,0.042623,0.326774,-0.608527,0.060509,-0.791221,-0.066903,-0.292335,-0.012032,-0.176086,27.313881,-9.642517,,,,,,,
1523523576.194350,-0.654140,-0.057829,-1.241255,0.297665,0.021624,0.307578,-0.607459,0.057796,-0.792244,-0.035562,-0.261959,-0.049492,0.948120,27.458458,-10.017578,,,,,,,
1523523576.224319,-0.654169,-0.055950,-1.230940,0.192223,-0.035888,0.210603,-0.607547,0.055921,-0.792311,-0.002408,-0.200285,-0.009157,1.021469,27.158348,-9.791321,,,,,,,
1523523576.254287,-0.655240,-0.054388,-1.225318,0.110402,-0.015087,0.152980,-0.608448,0.054361,-0.791728,0.025791,-0.159617,0.047938,0.721939,27.159767,-9.716492,,,,,,,
1523523576.284256,-0.653288,-0.053639,-1.222227,0.041451,0.076501,0.147514,-0.606926,0.053614,-0.792946,-0.036156,-0.140299,0.017006,1.473694,27.381310,-9.791992,,,,,,,
1523523576.314224,-0.652489,-0.054345,-1.218960,-0.001537,-0.021987,0.115612,-0.606269,0.054318,-0.793401,-0.054040,-0.135754,0.007100,0.869995,27.009026,-9.790833,,,,,,,
1523523576.344192,-0.652589,-0.052332,-1.215368,0.156854,0.037276,0.094358,-0.606413,0.052308,-0.793426,-0.039049,-0.127717,0.026687,1.239883,26.856758,-10.390015,,,,,,,
1523523576.374179,-0.650728,-0.046556,-1.208347,0.302249,0.085730,0.101885,-0.605108,0.046539,-0.794780,-0.046335,-0.113174,-0.007008,1.617859,27.155067,-10.390991,,,,,,,
1523523576.404148,-0.648393,-0.039654,-1.199856,0.334054,0.057901,0.120047,-0.603431,0.039644,-0.796427,-0.006326,-0.093629,-0.022405,1.683105,26.404396,-10.763000,,,,,,,
1523523576.434116,-0.648312,-0.033245,-1.190771,0.306844,-0.029328,0.143554,-0.603507,0.033238,-0.796663,0.002433,-0.094289,-0.011916,1.985504,26.553185,-10.613464,,,,,,,
1523523576.464084,-0.649653,-0.029229,-1.182130,0.238325,-0.029400,0.178662,-0.604650,0.029224,-0.795953,-0.001245,-0.087269,0.003960,2.433075,26.401024,-10.762573,,,,,,,
1523523576.494083,-0.649117,-0.026472,-1.173423,0.223490,0.020420,0.200980,-0.604271,0.026469,-0.796337,-0.025231,-0.113734,-0.003895,2.578125,26.174919,-11.211609,,,,,,,
1523523576.524051,-0.648735,-0.023351,-1.164321,0.272501,-0.009397,0.193583,-0.604013,0.023349,-0.796630,-0.031958,-0.146502,0.016875,2.573639,25.949562,-11.585754,,,,,,,
1523523576.554019,-0.648119,-0.020495,-1.154764,0.191347,0.027757,0.227582,-0.603560,0.020494,-0.797052,-0.053270,-0.174608,-0.034033,3.395767,25.795647,-11.809692,,,,,,,
1523523576.583988,-0.647248,-0.022266,-1.147586,0.014010,0.022760,0.244509,-0.602843,0.022264,-0.797547,-0.075181,-0.186250,-0.101577,3.096817,25.722282,-11.509521,,,,,,,
1523523576.613956,-0.648626,-0.024242,-1.140545,0.171583,-0.079637,0.242606,-0.603914,0.024239,-0.796679,-0.036208,-0.188912,-0.007062,3.545288,26.019524,-12.260498,,,,,,,
1523523576.643924,-0.651018,-0.020864,-1.127857,0.404983,-0.074391,0.323738,-0.605864,0.020862,-0.795293,-0.006441,-0.182025,0.077001,4.375046,26.316093,-11.961304,,,,,,,
1523523576.673893,-0.651420,-0.017460,-1.111567,0.365459,0.008020,0.402489,-0.606223,0.017459,-0.795101,-0.032250,-0.189090,0.021114,3.764908,25.568382,-12.408630,,,,,,,
1523523576.703861,-0.650837,-0.016370,-1.097140,0.255762,0.004444,0.345934,-0.605771,0.016369,-0.795469,-0.018360,-0.241589,-0.030611,3.910538,25.267509,-12.632324,,,,,,,
1523523576.733829,-0.650220,-0.015918,-1.086663,0.121854,0.048942,0.262666,-0.605284,0.015918,-0.795849,-0.030840,-0.224414,-0.090946,4.508728,25.039894,-12.556091,,,,,,,
1523523576.763797,-0.650546,-0.018471,-1.081727,-0.026677,-0.062831,0.191284,-0.605517,0.018470,-0.795616,-0.057111,-0.181022,-0.113213,4.284317,25.415382,-13.082764,,,,,,,
1523523576.793766,-0.653743,-0.020812,-1.077763,0.078806,-0.133066,0.170113,-0.608029,0.020811,-0.793640,-0.055301,-0.176771,-0.037094,4.509628,25.264656,-12.782043,,,,,,,
1523523576.823734,-0.656507,-0.020012,-1.070936,0.252939,-0.059447,0.215994,-0.610230,0.020011,-0.791969,-0.045470,-0.159751,0.032814,5.262573,25.561272,-12.782837,,,,,,,
1523523576.853702,-0.656855,-0.017193,-1.059254,0.349998,0.015150,0.301241,-0.610538,0.017192,-0.791798,-0.008099,-0.160853,0.060857,5.255524,25.260628,-13.456604,,,,,,,
1523523576.883670,-0.655305,-0.015565,-1.046250,0.270730,0.050882,0.384267,-0.609326,0.015565,-0.792765,0.022336,-0.173966,0.016886,5.325562,25.034859,-13.905701,,,,,,,
1523523576.913639,-0.654458,-0.015715,-1.032634,0.282272,0.012576,0.388570,-0.608654,0.015715,-0.793279,0.009822,-0.184965,0.001927,5.850693,24.957649,-13.755127,,,,,,,
1523523576.943607,-0.655135,-0.012849,-1.018494,0.343128,-0.009692,0.364108,-0.609215,0.012849,-0.792899,0.012337,-0.204163,0.007560,6.140640,24.355675,-14.427551,,,,,,,
1523523576.973575,-0.654813,-0.010361,-1.005042,0.261056,-0.010391,0.339552,-0.608977,0.010360,-0.793118,-0.007325,-0.225570,-0.019824,5.912949,24.131630,-14.501770,,,,,,,
1523523577.003543,-0.656499,-0.008493,-0.993997,0.244883,-0.089790,0.302330,-0.610325,0.008493,-0.792104,-0.002834,-0.227060,0.047811,6.736862,24.202614,-14.801636,,,,,,,
1523523577.033512,-0.657841,-0.006423,-0.982146,0.238646,0.002371,0.346975,-0.611397,0.006423,-0.791297,-0.019615,-0.245986,0.050116,6.808578,23.827370,-14.725159,,,,,,,
,,,,,,,,,,,,,,,,25.316181,51.458240,13.294849,7.590000,69.257812,1523523576.998577,
1523523577.063480,-0.656227,-0.006481,-0.969876,0.175700,0.071211,0.400146,-0.610118,0.006481,-0.792282,-0.060613,-0.264248,-0.041000,7.706879,23.972801,-15.250244,,,,,,,
1523523577.093448,-0.654803,-0.008350,-0.957801,0.176646,0.024587,0.382075,-0.608981,0.008350,-0.793139,-0.068814,-0.259418,-0.053892,7.780228,23.672707,-15.024048,,,,,,,
1523523577.123416,-0.655486,-0.008242,-0.945137,0.252281,-0.027579,0.369396,-0.609523,0.008242,-0.792724,-0.038747,-0.267672,-0.002030,7.548203,23.373070,-15.697937,,,,,,,
1523523577.153385,-0.656071,-0.008906,-0.931887,0.208324,-0.043572,0.391761,-0.609984,0.008906,-0.792362,-0.004030,-0.241862,-0.011028,7.694443,23.222038,-16.072266,,,,,,,
1523523577.183353,-0.657296,-0.011626,-0.918533,0.199739,-0.015067,0.422618,-0.610937,0.011625,-0.791593,-0.010279,-0.239592,-0.041064,8.972397,23.291664,-15.696899,,,,,,,
1523523577.213321,-0.656656,-0.014532,-0.904296,0.227570,0.020862,0.440720,-0.610407,0.014532,-0.791953,-0.041693,-0.253515,-0.074273,9.113388,22.615654,-16.069153,,,,,,,
1523523577.243290,-0.655272,-0.017585,-0.889479,0.193407,0.042059,0.459857,-0.609280,0.017584,-0.792759,-0.081897,-0.275900,-0.109127,9.110992,22.465523,-16.218567,,,,,,,
1523523577.273258,-0.654959,-0.021849,-0.876087,0.162278,-0.039417,0.421558,-0.608980,0.021847,-0.792883,-0.081312,-0.283871,-0.044611,9.256912,22.464180,-16.893433,,,,,,,
1523523577.303226,-0.656942,-0.023182,-0.862212,0.331019,-0.073549,0.381221,-0.610534,0.023180,-0.791650,-0.035081,-0.287035,0.080239,9.329834,22.388634,-17.118103,,,,,,,
1523523577.333194,-0.657381,-0.019460,-0.844690,0.526667,0.004476,0.398338,-0.610929,0.019459,-0.791444,0.032652,-0.290013,0.117494,10.520187,21.782677,-17.715088,,,,,,,
1523523577.363163,-0.655282,-0.014289,-0.825384,0.447912,0.106370,0.440810,-0.609320,0.014289,-0.792794,0.037680,-0.269721,0.083459,10.363449,21.108391,-17.712524,,,,,,,
1523523577.393107,-0.651842,-0.013593,-0.809812,0.175783,0.114643,0.420342,-0.606595,0.013592,-0.794893,0.017407,-0.283856,-0.020094,10.808502,20.880943,-18.161316,,,,,,,
1523523577.423075,-0.652724,-0.013918,-0.798207,0.163330,-0.117582,0.355569,-0.607293,0.013917,-0.794355,0.006799,-0.258332,-0.003558,11.857254,20.801140,-18.235474,,,,,,,
1523523577.453043,-0.656272,-0.011847,-0.785541,0.294823,-0.084939,0.351372,-0.610124,0.011847,-0.792216,-0.004317,-0.247778,0.060359,11.629730,20.502251,-18.159363,,,,,,,
1523523577.483042,-0.656718,-0.008008,-0.771424,0.300563,-0.004154,0.344905,-0.610500,0.008008,-0.791974,-0.007206,-0.247769,0.056882,11.395874,19.977699,-18.757446,,,,,,,
1523523577.513010,-0.655621,-0.005614,-0.758783,0.178010,0.072515,0.366043,-0.609642,0.005614,-0.792656,0.001396,-0.220000,-0.001701,12.293747,19.898430,-18.981628,,,,,,,
1523523577.542979,-0.653642,-0.006535,-0.746510,0.162756,0.058410,0.412930,-0.608068,0.006535,-0.793857,-0.019832,-0.208180,-0.060086,12.072647,20.199577,-18.833008,,,,,,,
1523523577.572947,-0.652488,-0.008007,-0.733403,0.201153,0.024457,0.391684,-0.607145,0.008007,-0.794549,-0.029376,-0.208828,-0.095023,12.065002,19.749092,-19.356201,,,,,,,
1523523577.602915,-0.653311,-0.006113,-0.720285,0.331537,-0.054917,0.299162,-0.607807,0.006113,-0.794060,-0.002194,-0.177088,-0.010429,13.709686,19.441307,-19.729126,,,,,,,
1523523577.632883,-0.653906,-0.002533,-0.707516,0.312715,0.015392,0.282021,-0.608288,0.002533,-0.793711,0.001294,-0.152161,0.029611,13.484711,19.442329,-19.729248,,,,,,,
1523523577.662852,-0.652068,0.000276,-0.695065,0.295771,0.075812,0.308590,-0.606831,-0.000276,-0.794829,-0.020992,-0.171721,0.029998,13.178711,19.068321,-20.102905,,,,,,,
1523523577.692820,-0.649984,0.000457,-0.681737,0.196946,0.063636,0.412951,-0.605173,-0.000457,-0.796093,-0.058569,-0.193207,-0.044087,14.302307,19.063042,-20.327332,,,,,,,
1523523577.722788,-0.647694,-0.004006,-0.668813,0.099585,0.058328,0.446980,-0.603344,0.004006,-0.797470,-0.075520,-0.206826,-0.126297,14.295578,18.388084,-20.324646,,,,,,,
1523523577.752756,-0.648032,-0.005708,-0.655358,0.310949,-0.047887,0.364141,-0.603608,0.005708,-0.797260,-0.059112,-0.220522,-0.055844,14.669815,18.311394,-20.324158,,,,,,,
1523523577.782725,-0.650238,-0.002148,-0.639713,0.443395,-0.069256,0.334422,-0.605373,0.002148,-0.795937,-0.004322,-0.231519,0.040505,15.336853,17.782951,-20.771667,,,,,,,
1523523577.812693,-0.650744,0.001244,-0.623666,0.367669,-0.002421,0.376920,-0.605778,-0.001244,-0.795632,0.035496,-0.240990,0.036308,14.960388,17.410027,-20.395386,,,,,,,
1523523577.842661,-0.650694,0.000815,-0.609038,0.192391,0.011486,0.424730,-0.605738,-0.000815,-0.795663,0.032038,-0.213068,0.001580,15.025925,16.958900,-21.218506,,,,,,,
1523523577.872630,-0.650186,-0.002143,-0.596307,0.167896,-0.007374,0.395958,-0.605333,0.002143,-0.795968,-0.026229,-0.202613,-0.066413,16.149399,16.579216,-20.841431,,,,,,,
1523523577.902598,-0.652823,-0.000233,-0.582922,0.320216,-0.150820,0.340810,-0.607430,0.000233,-0.794371,-0.044547,-0.195088,0.052459,15.320694,16.432579,-21.216309,,,,,,,
1523523577.932566,-0.656321,0.003576,-0.568123,0.360987,-0.089394,0.355696,-0.610201,-0.003576,-0.792237,-0.040861,-0.209300,0.073243,15.915863,16.129601,-21.514771,,,,,,,
1523523577.962534,-0.656818,0.006992,-0.553078,0.348597,0.012594,0.363044,-0.610584,-0.006992,-0.791919,-0.003704,-0.208081,0.030093,16.511337,15.901543,-21.888550,,,,,,,
1523523577.992503,-0.657907,0.008892,-0.538104,0.284182,-0.021504,0.400318,-0.611437,-0.008892,-0.791241,-0.019789,-0.192158,-0.021579,16.202667,15.077858,-21.960449,,,,,,,
1523523578.022471,-0.658732,0.008438,-0.523747,0.229788,-0.007575,0.402399,-0.612092,-0.008438,-0.790740,-0.078918,-0.209717,-0.099366,16.427353,15.001930,-21.885010,,,,,,,
,,,,,,,,,,,,,,,,25.316207,51.458281,13.282968,6.130000,40.078125,1523523577.998566,
1523523578.052439,-0.661540,0.009395,-0.509839,0.337261,-0.157229,0.340822,-0.614304,-0.009395,-0.789012,-0.057967,-0.201329,-0.000799,17.021637,14.698799,-22.333496,,,,,,,
1523523578.082407,-0.665985,0.013170,-0.494516,0.405718,-0.100187,0.365320,-0.617779,-0.013170,-0.786239,-0.020663,-0.179625,0.062790,16.715530,14.175026,-22.481567,,,,,,,
1523523578.112376,-0.666446,0.014399,-0.478101,0.303280,0.019491,0.457826,-0.618132,-0.014398,-0.785941,-0.060289,-0.196967,-0.063043,17.155914,13.347832,-22.703003,,,,,,,
1523523578.142344,-0.666557,0.011080,-0.462830,0.186790,-0.007842,0.456704,-0.618245,-0.011080,-0.785906,-0.080242,-0.235380,-0.160749,17.608276,13.945198,-23.305237,,,,,,,
1523523578.172312,-0.668717,0.010466,-0.448662,0.372819,-0.110428,0.320562,-0.619945,-0.010466,-0.784574,-0.082127,-0.201753,-0.171100,17.224762,12.822380,-22.850891,,,,,,,
1523523578.202280,-0.674599,0.016659,-0.434640,0.483008,-0.210746,0.191816,-0.624497,-0.016658,-0.780848,-0.040268,-0.184605,-0.066366,16.996475,12.673103,-23.150391,,,,,,,
1523523578.232249,-0.680054,0.023975,-0.420730,0.465975,-0.145162,0.239689,-0.628654,-0.023973,-0.777314,-0.028542,-0.181899,0.057069,17.967834,12.443504,-23.373962,,,,,,,
1523523578.262217,-0.683492,0.028726,-0.405645,0.418877,-0.072330,0.325889,-0.631243,-0.028722,-0.775051,-0.049192,-0.180537,0.105282,17.061157,11.772591,-23.371765,,,,,,,
1523523578.292185,-0.684720,0.029705,-0.389760,0.303276,-0.005874,0.437610,-0.632176,-0.029701,-0.774254,-0.091503,-0.236824,-0.053749,17.580582,11.394951,-23.670044,,,,,,,
1523523578.322153,-0.685520,0.024795,-0.374835,0.108433,-0.036728,0.512084,-0.632880,-0.024793,-0.773851,-0.127481,-0.246890,-0.196715,18.025024,11.017662,-23.968323,,,,,,,
1523523578.352122,-0.689871,0.017920,-0.360285,0.227237,-0.217644,0.507037,-0.636334,-0.017919,-0.771203,-0.106052,-0.240259,-0.116919,17.422058,10.720360,-23.967407,,,,,,,
1523523578.382091,-0.698568,0.020188,-0.340405,0.649111,-0.273383,0.428546,-0.642990,-0.020187,-0.765607,-0.015885,-0.250565,0.102170,17.638336,10.343575,-24.790833,,,,,,,
1523523578.412059,-0.705236,0.030652,-0.314749,0.890961,-0.140169,0.438186,-0.647908,-0.030647,-0.761100,0.071980,-0.281090,0.171882,18.081894,9.741508,-24.863098,,,,,,,
1523523578.442027,-0.706794,0.039441,-0.287903,0.671437,0.063718,0.534782,-0.648893,-0.039431,-0.759855,0.070417,-0.291502,0.104551,17.470398,8.319710,-24.407776,,,,,,,
1523523578.471996,-0.702459,0.037526,-0.267270,0.234187,0.215458,0.569462,-0.645641,-0.037517,-0.762717,0.039897,-0.356190,-0.022302,17.912125,7.941978,-25.156067,,,,,,,
1523523578.501995,-0.698548,0.031520,-0.251866,0.158109,0.086442,0.508794,-0.642786,-0.031515,-0.765395,-0.018530,-0.366587,-0.096772,18.733505,7.488426,-25.003784,,,,,,,
1523523578.531963,-0.701004,0.028431,-0.237201,0.266315,-0.138703,0.450507,-0.644723,-0.028427,-0.763885,-0.044974,-0.334839,-0.057373,18.805817,7.263023,-25.077881,,,,,,,
1523523578.561931,-0.707566,0.030529,-0.218837,0.507098,-0.247710,0.453991,-0.649682,-0.030524,-0.759591,-0.032004,-0.345804,0.050087,19.246811,6.585670,-25.449951,,,,,,,
1523523578.591899,-0.714166,0.032809,-0.197902,0.448681,-0.102483,0.523069,-0.654634,-0.032804,-0.755232,-0.019027,-0.347995,0.099608,18.417801,6.139473,-25.373596,,,,,,,
1523523578.621868,-0.710955,0.028478,-0.180209,0.131081,0.280761,0.537351,-0.652292,-0.028474,-0.757431,-0.071509,-0.395873,-0.042633,18.416458,5.914635,-25.222656,,,,,,,
1523523578.651836,-0.701868,0.017287,-0.167962,-0.038936,0.238578,0.551123,-0.645548,-0.017286,-0.763522,-0.073858,-0.428118,-0.187467,19.910110,5.457619,-25.520142,,,,,,,
1523523578.681804,-0.703024,0.011833,-0.153888,0.328300,-0.144072,0.435646,-0.646481,-0.011833,-0.762836,0.006665,-0.306664,0.012348,19.826736,4.707848,-25.667114,,,,,,,
1523523578.711772,-0.706338,0.014692,-0.135043,0.534861,-0.037230,0.431428,-0.648981,-0.014691,-0.760661,0.053476,-0.187869,0.047572,18.995636,4.186440,-25.815491,,,,,,,
1523523578.741741,-0.704475,0.014698,-0.114925,0.313963,0.164165,0.582358,-0.647563,-0.014697,-0.761868,0.053691,-0.171612,-0.174106,19.593353,3.734123,-25.438354,,,,,,,
1523523578.771709,-0.696518,0.003817,-0.098772,-0.046979,0.260028,0.677890,-0.641545,-0.003817,-0.767074,0.007924,-0.179578,-0.403825,19.668503,3.658943,-25.288025,,,,,,,
1523523578.801677,-0.694981,-0.009303,-0.083843,0.053987,-0.122503,0.641056,-0.640342,0.009303,-0.768032,0.006263,-0.255290,-0.321202,19.736923,3.133400,-25.510925,,,,,,,
1523523578.831645,-0.704826,-0.015279,-0.067727,0.328862,-0.433412,0.482803,-0.647824,0.015279,-0.761634,0.056394,-0.274495,-0.008049,20.555435,2.978905,-26.334839,,,,,,,
1523523578.861614,-0.713706,-0.013227,-0.047908,0.586336,-0.195824,0.452925,-0.654582,0.013226,-0.755874,0.063151,-0.332684,0.233428,19.574783,2.458244,-26.408264,,,,,,,
1523523578.891582,-0.713152,-0.005693,-0.024385,0.657285,0.107064,0.419651,-0.654209,0.005693,-0.756290,0.089039,-0.333863,0.066257,19.573761,1.859077,-25.580872,,,,,,,
1523523578.921550,-0.707887,-0.006721,-0.007740,0.079895,0.193291,0.451098,-0.650214,0.006721,-0.759719,0.042640,-0.262305,-0.103089,20.023300,1.856972,-25.655640,,,,,,,
1523523578.951518,-0.704989,-0.019335,-0.002019,-0.280494,0.005392,0.400942,-0.647903,0.019334,-0.761475,0.089905,-0.175767,-0.216766,20.696930,1.629097,-25.504395,,,,,,,
