timestamp(unix),attitude_roll(radians),attitude_pitch(radians),attitude_yaw(radians),rotation_rate_x(radians/s),rotation_rate_y(radians/s),rotation_rate_z(radians/s),gravity_x(G),gravity_y(G),gravity_z(G),user_acc_x(G),user_acc_y(G),user_acc_z(G),magnetic_field_x(microteslas),magnetic_field_y(microteslas),magnetic_field_z(microteslas),latitude(degree),longitude(degree),altitude(meter),speed(m/s),course(degree),timestamp(unix),User Mark
1522137804.537195,-0.252157,-0.008253,2.203471,-0.105070,-0.116578,-0.071766,-0.249484,0.008253,-0.968343,0.142658,0.009341,0.083791,-9.026367,-54.455475,1.602600,,,,,,,
,,,,,,,,,,,,,,,,25.304967,51.448382,-21.155766,-1.000000,-1.000000,1522137783.093351,
1522137804.567163,-0.256906,-0.003386,2.199689,0.263759,-0.173870,-0.214220,-0.254088,0.003386,-0.967175,0.054869,0.018098,0.067547,-7.902618,-54.535599,1.528564,,,,,,,
1522137804.597131,-0.258913,0.003635,2.195670,0.113428,-0.060213,-0.155837,-0.256029,-0.003635,-0.966662,0.038789,0.094486,-0.035489,-8.273544,-54.308624,1.827454,,,,,,,
1522137804.627100,-0.257647,0.004725,2.192947,0.009783,0.027614,-0.065438,-0.254803,-0.004725,-0.966981,0.071941,0.126780,-0.021544,-7.822662,-54.535126,2.353516,,,,,,,
1522137804.657068,-0.258409,0.009211,2.192447,0.220797,-0.055796,-0.064136,-0.255532,-0.009211,-0.966756,0.113351,0.080454,0.008184,-7.595856,-54.535858,2.653687,,,,,,,
1522137804.687036,-0.260076,0.015045,2.192068,0.142796,-0.071559,-0.064166,-0.257124,-0.015045,-0.966261,0.114714,0.022964,-0.030230,-7.900497,-54.909622,2.505005,,,,,,,
1522137804.717004,-0.262838,0.014721,2.191221,-0.044647,-0.143694,-0.013097,-0.259794,-0.014720,-0.965552,0.097410,0.033504,0.015906,-7.671738,-54.760284,2.879517,,,,,,,
1522137804.746973,-0.266668,0.013227,2.190631,0.004353,-0.179879,-0.022613,-0.263495,-0.013226,-0.964570,0.084983,0.072674,0.052674,-7.071777,-54.762985,2.879822,,,,,,,
1522137804.776941,-0.270998,0.015410,2.188608,0.091488,-0.168668,-0.137634,-0.267662,-0.015409,-0.963389,0.077171,0.116850,-0.006627,-7.224594,-55.137146,3.031311,,,,,,,
1522137804.806909,-0.276457,0.020533,2.183868,0.163270,-0.220277,-0.229161,-0.272892,-0.020531,-0.961825,0.069446,0.118767,-0.043973,-7.072525,-55.062607,3.256042,,,,,,,
1522137804.836877,-0.281089,0.027500,2.179642,0.233959,-0.118752,-0.184461,-0.277297,-0.027497,-0.960390,0.099731,0.104417,-0.072447,-6.470428,-54.990082,3.481018,,,,,,,
1522137804.866846,-0.280035,0.034163,2.176635,0.201558,0.067104,-0.158037,-0.276228,-0.034157,-0.960485,0.090147,0.072853,-0.106074,-6.923538,-55.437820,3.707642,,,,,,,
1522137804.896814,-0.278553,0.038289,2.173101,0.068708,-0.038808,-0.161223,-0.274763,-0.038280,-0.960749,0.055098,0.052974,-0.054555,-6.698730,-55.363983,3.557434,,,,,,,
1522137804.926782,-0.281254,0.038401,2.168530,-0.083319,-0.124549,-0.154854,-0.277356,-0.038391,-0.959999,0.050565,0.061813,0.011864,-5.346970,-55.369766,3.858093,,,,,,,
1522137804.956751,-0.282133,0.037892,2.163390,0.013403,-0.015137,-0.182602,-0.278205,-0.037883,-0.959774,0.034934,0.114817,-0.033436,-6.170441,-54.991440,3.481201,,,,,,,
1522137804.986719,-0.279976,0.042122,2.159854,0.159961,0.127440,-0.112300,-0.276087,-0.042109,-0.960209,0.036112,0.099528,-0.082119,-5.869415,-55.067490,3.781677,,,,,,,
1522137805.016687,-0.274707,0.046111,2.158858,0.071172,0.165467,-0.047412,-0.270977,-0.046094,-0.961481,0.062221,0.067640,-0.141867,-5.413879,-54.694244,4.080383,,,,,,,
1522137805.046655,-0.272125,0.046423,2.158694,0.007119,0.007888,0.019828,-0.268489,-0.046406,-0.962164,0.085277,0.025440,-0.114145,-5.944412,-55.067154,3.781616,,,,,,,
1522137805.076624,-0.275286,0.045687,2.160648,-0.010100,-0.171115,0.095645,-0.271539,-0.045671,-0.961343,0.091989,0.024309,-0.040687,-5.643677,-54.993500,3.781494,,,,,,,
1522137805.106592,-0.282040,0.044164,2.162747,-0.038012,-0.251518,0.055214,-0.278044,-0.044149,-0.959553,0.053542,0.048437,-0.025829,-6.543625,-54.989456,3.781006,,,,,,,
,,,,,,,,,,,,,,,,25.306261,51.447992,-20.845003,-1.000000,-1.000000,1522137805.094870,
1522137805.136553,-0.288926,0.043088,2.162265,-0.019113,-0.207257,-0.050305,-0.284658,-0.043075,-0.957660,0.028524,0.071059,0.009281,-6.169250,-54.916367,3.555908,,,,,,,
1522137805.166520,-0.289758,0.043103,2.160292,-0.001857,0.066864,-0.051635,-0.285455,-0.043090,-0.957422,0.091821,0.084746,-0.042364,-6.541977,-54.914307,3.930725,,,,,,,
1522137805.196490,-0.286309,0.045371,2.159316,0.140209,0.056028,-0.072825,-0.282122,-0.045355,-0.958305,0.070376,0.059226,-0.107216,-5.794113,-54.992905,3.706421,,,,,,,
1522137805.226457,-0.288504,0.050936,2.158401,0.179908,-0.161739,-0.094960,-0.284149,-0.050914,-0.957427,0.033386,0.037334,-0.060578,-6.390945,-54.989700,4.231079,,,,,,,
1522137805.256425,-0.293851,0.054337,2.156530,0.051439,-0.234790,-0.089645,-0.289212,-0.054310,-0.955723,0.065809,0.032353,0.022983,-5.863724,-54.767059,4.230408,,,,,,,
1522137805.286393,-0.300252,0.054146,2.154524,-0.044852,-0.220032,-0.038587,-0.295328,-0.054120,-0.953862,0.060876,0.049618,0.067280,-5.409531,-54.618668,4.680054,,,,,,,
1522137805.316362,-0.305574,0.051555,2.151780,-0.136065,-0.182035,-0.121801,-0.300441,-0.051533,-0.952407,-0.006810,0.096912,0.087035,-5.789154,-54.992096,4.531433,,,,,,,
1522137805.346330,-0.307813,0.050710,2.147223,0.011887,-0.019945,-0.101623,-0.302586,-0.050688,-0.951773,-0.001064,0.138197,0.039908,-6.016098,-55.141159,4.456909,,,,,,,
1522137805.376298,-0.304337,0.053871,2.145500,0.135389,0.157067,-0.084649,-0.299225,-0.053845,-0.952662,0.088410,0.113217,-0.078360,-5.861465,-54.766693,4.605408,,,,,,,
1522137805.406266,-0.302829,0.057496,2.145215,0.071235,-0.036558,-0.029094,-0.297728,-0.057464,-0.952919,0.087050,0.047866,-0.067604,-5.632874,-54.542511,4.829712,,,,,,,
1522137805.436235,-0.305614,0.055425,2.144474,-0.107599,-0.131878,-0.009955,-0.300416,-0.055397,-0.952198,0.042970,0.065467,-0.000836,-5.184113,-54.394974,4.379333,,,,,,,
1522137805.466203,-0.309508,0.050987,2.142920,-0.125762,-0.138202,-0.012087,-0.304194,-0.050965,-0.951245,0.058924,0.096467,0.034787,-5.033951,-54.470505,4.529724,,,,,,,
1522137805.496171,-0.310558,0.047829,2.139834,-0.113079,-0.040862,-0.108074,-0.305240,-0.047810,-0.951074,0.009967,0.083943,0.019113,-5.785110,-54.542191,4.454590,,,,,,,
1522137805.526140,-0.310042,0.045650,2.134794,-0.076105,0.027551,-0.178443,-0.304781,-0.045634,-0.951328,0.005937,0.124202,-0.022778,-4.964066,-54.621414,3.930298,,,,,,,
1522137805.556108,-0.307242,0.047200,2.129883,0.107672,0.090661,-0.150670,-0.302094,-0.047183,-0.952109,0.075653,0.107409,-0.106667,-4.360489,-54.623535,4.530640,,,,,,,
1522137805.586076,-0.305967,0.052066,2.129203,0.168581,0.003600,-0.031198,-0.300807,-0.052042,-0.952264,0.073100,0.071253,-0.120933,-4.964355,-54.920959,4.381531,,,,,,,
1522137805.616045,-0.306184,0.053431,2.128308,-0.019201,-0.031685,-0.085640,-0.300992,-0.053406,-0.952129,-0.024554,0.045212,-0.094822,-4.434891,-54.473358,4.380005,,,,,,,
1522137805.646013,-0.308290,0.053198,2.124968,-0.004515,-0.101779,-0.096214,-0.303000,-0.053173,-0.951505,0.036597,0.071437,-0.064760,-4.285919,-54.623932,4.455688,,,,,,,
1522137805.675982,-0.310958,0.055628,2.122313,0.072462,-0.094417,-0.111089,-0.305498,-0.055599,-0.950568,0.025072,0.046246,-0.072534,-3.908539,-54.475494,4.605225,,,,,,,
1522137805.705950,-0.314640,0.057629,2.119910,0.015690,-0.137826,-0.113220,-0.308960,-0.057597,-0.949329,-0.029251,0.106899,-0.063550,-3.611877,-54.402496,3.930115,,,,,,,
1522137805.735918,-0.317999,0.059491,2.115602,0.009682,-0.104565,-0.159065,-0.312113,-0.059456,-0.948182,-0.018041,0.116585,-0.085936,-3.388535,-54.478653,3.780579,,,,,,,
1522137805.765887,-0.320239,0.060127,2.112502,-0.031219,-0.061579,-0.060052,-0.314224,-0.060091,-0.947445,0.041794,0.069368,-0.052983,-3.843307,-54.776901,3.481506,,,,,,,
1522137805.795855,-0.321726,0.058311,2.111550,-0.082798,-0.060834,0.003839,-0.315667,-0.058278,-0.947078,0.023384,0.052433,-0.021306,-2.941406,-54.630890,3.556335,,,,,,,
1522137805.825822,-0.324773,0.055715,2.110037,-0.064815,-0.146683,-0.036540,-0.318599,-0.055686,-0.946252,-0.027974,0.075187,0.021234,-3.920090,-55.001480,3.557373,,,,,,,
1522137805.855790,-0.329559,0.055061,2.109550,0.008608,-0.144033,0.013594,-0.323135,-0.055033,-0.944751,0.001281,0.102000,0.069217,-4.066498,-54.775604,3.781433,,,,,,,
1522137805.885759,-0.331670,0.053188,2.110810,-0.089525,-0.030647,0.093320,-0.325162,-0.053163,-0.944162,0.058087,0.081087,0.053217,-3.987000,-54.550598,4.155579,,,,,,,
1522137805.915727,-0.330066,0.045723,2.111406,-0.287383,0.104972,0.069588,-0.323767,-0.045707,-0.945032,0.004858,0.075965,0.022729,-4.136856,-54.400131,3.929871,,,,,,,
1522137805.945695,-0.327820,0.034738,2.108763,-0.422856,0.063209,0.010930,-0.321785,-0.034731,-0.946175,0.031716,0.048419,0.090431,-3.763382,-54.327194,3.554749,,,,,,,
1522137805.975663,-0.324548,0.021910,2.104184,-0.450112,0.126276,-0.031779,-0.318804,-0.021909,-0.947567,0.059862,0.033643,0.102413,-2.944717,-54.331924,2.505188,,,,,,,
1522137806.005632,-0.321159,0.011809,2.098570,-0.300443,0.090265,-0.100894,-0.315644,-0.011809,-0.948804,0.049592,0.058974,0.068799,-3.472397,-54.554642,2.430786,,,,,,,
1522137806.035600,-0.317982,0.008586,2.093994,-0.056854,0.118411,-0.108207,-0.312638,-0.008585,-0.949833,0.056108,0.092722,0.040653,-3.100555,-54.781448,2.281921,,,,,,,
1522137806.065568,-0.314734,0.009785,2.091872,0.050685,0.102924,-0.062279,-0.309549,-0.009784,-0.950833,0.059305,0.111637,0.031796,-1.978302,-54.786942,1.832520,,,,,,,
1522137806.095536,-0.310723,0.011807,2.090071,0.036122,0.153125,-0.093245,-0.305725,-0.011807,-0.952046,0.023041,0.096890,0.025715,-2.428726,-55.009628,2.133118,,,,,,,
,,,,,,,,,,,,,,,,25.306186,51.447720,-20.850470,-1.000000,-1.000000,1522137806.094403,
1522137806.125508,-0.306161,0.013327,2.087058,0.015966,0.138559,-0.130537,-0.301374,-0.013326,-0.953412,0.015577,0.076162,0.010633,-2.202682,-54.860718,2.057678,,,,,,,
1522137806.155476,-0.302211,0.015789,2.083190,0.081237,0.131200,-0.164580,-0.297595,-0.015789,-0.954561,0.014041,0.072475,-0.025129,-1.600159,-54.788116,2.357666,,,,,,,
1522137806.185444,-0.297533,0.020089,2.079449,0.157223,0.167157,-0.167753,-0.293103,-0.020088,-0.955869,0.020856,0.105964,-0.086947,-2.881104,-55.157730,1.983459,,,,,,,
1522137806.215413,-0.293121,0.026515,2.076769,0.221951,0.111537,-0.138879,-0.288840,-0.026512,-0.957010,0.037803,0.112175,-0.132743,-2.502670,-55.084000,2.433411,,,,,,,
1522137806.245381,-0.291149,0.033026,2.075303,0.169003,0.028443,-0.089821,-0.286896,-0.033020,-0.957392,0.056122,0.095184,-0.137670,-1.522614,-54.713181,2.657410,,,,,,,
1522137806.275349,-0.292751,0.036154,2.073847,0.014556,-0.108374,-0.072747,-0.288398,-0.036146,-0.956828,-0.002038,0.090361,-0.071127,-2.575256,-55.158142,2.958679,,,,,,,
1522137806.305317,-0.295981,0.034085,2.070545,-0.177445,-0.096030,-0.097412,-0.291509,-0.034079,-0.955960,-0.015285,0.089575,-0.038577,-2.276459,-55.234558,2.884094,,,,,,,
1522137806.335286,-0.296585,0.028296,2.065361,-0.228057,0.027462,-0.112491,-0.292139,-0.028292,-0.955957,-0.002859,0.099673,-0.031699,-1.749237,-55.011932,2.883484,,,,,,,
1522137806.365254,-0.294716,0.025729,2.061394,-0.032602,0.068270,-0.091077,-0.290372,-0.025726,-0.956568,0.007092,0.119522,-0.094885,-2.280518,-55.459839,2.585022,,,,,,,
1522137806.395222,-0.293001,0.027793,2.059992,0.089765,0.045233,-0.031294,-0.288715,-0.027789,-0.957011,0.031375,0.092639,-0.129354,-1.756592,-55.387497,2.285034,,,,,,,
1522137806.425190,-0.292105,0.029772,2.061212,0.033706,0.021411,0.051800,-0.287841,-0.029767,-0.957215,0.027832,0.051358,-0.089324,-2.201035,-54.785568,2.207397,,,,,,,
1522137806.455159,-0.292849,0.027776,2.062661,-0.107686,-0.064389,0.064561,-0.288569,-0.027773,-0.957056,0.007152,0.034532,-0.011527,-2.205078,-55.235474,2.284180,,,,,,,
1522137806.485127,-0.295566,0.023326,2.063941,-0.112328,-0.116638,0.091252,-0.291202,-0.023324,-0.956377,0.026019,0.047295,0.029680,-1.901199,-54.712067,2.057190,,,,,,,
1522137806.515095,-0.299167,0.020376,2.064955,-0.064005,-0.122706,0.031618,-0.294663,-0.020374,-0.955383,-0.002105,0.070392,0.014694,-2.052841,-54.786530,1.907471,,,,,,,
1522137806.545063,-0.301617,0.017837,2.064267,-0.099816,-0.072341,-0.017466,-0.297017,-0.017836,-0.954705,0.012486,0.068129,0.010064,-2.656723,-55.083969,1.758301,,,,,,,
1522137806.575032,-0.301633,0.014630,2.062421,-0.109912,0.049954,-0.025067,-0.297048,-0.014630,-0.954750,0.016927,0.066586,0.030479,-2.133087,-55.086548,1.533630,,,,,,,
1522137806.605000,-0.299962,0.010784,2.061723,-0.114555,0.043103,0.042076,-0.295466,-0.010783,-0.955292,0.031947,0.045787,0.041412,-1.683716,-54.789169,0.932617,,,,,,,
1522137806.634968,-0.299767,0.007158,2.062576,-0.083911,-0.005992,0.061330,-0.295290,-0.007158,-0.955380,0.033434,0.045686,0.064755,-2.659424,-54.859787,0.932434,,,,,,,
1522137806.664936,-0.300285,0.004464,2.063394,-0.072089,-0.002738,0.048546,-0.295789,-0.004464,-0.955242,0.037931,0.073403,0.076611,-3.035767,-54.858322,0.707275,,,,,,,
1522137806.694905,-0.297212,0.000770,2.064763,-0.117629,0.148899,0.109097,-0.292855,-0.000770,-0.956156,0.060982,0.080482,0.032145,-2.663025,-55.084991,0.708313,,,,,,,
1522137806.724873,-0.293076,-0.003207,2.068542,-0.059415,0.125908,0.185877,-0.288896,0.003207,-0.957354,0.070116,0.077741,0.010226,-3.336502,-54.931961,0.707397,,,,,,,
1522137806.754841,-0.289786,-0.006435,2.072778,-0.065666,0.099723,0.133689,-0.285741,0.006435,-0.958285,0.055227,0.038151,0.015871,-2.586990,-54.935410,0.632751,,,,,,,
1522137806.784810,-0.287641,-0.010751,2.073746,-0.158184,0.056087,0.024979,-0.283674,0.010751,-0.958860,0.047987,0.014960,0.041929,-3.488449,-55.081360,0.632874,,,,,,,
1522137806.814778,-0.284840,-0.015557,2.071693,-0.150093,0.102315,-0.053913,-0.280969,0.015556,-0.959590,0.071955,0.038155,0.016597,-3.416595,-55.082199,0.107910,,,,,,,
1522137806.844746,-0.281883,-0.017354,2.068963,-0.019786,0.084089,-0.078298,-0.278123,0.017353,-0.960388,0.065324,0.067226,-0.044449,-2.585342,-54.635635,0.406616,,,,,,,
1522137806.874714,-0.278740,-0.015268,2.066807,0.091539,0.109547,-0.111273,-0.275112,0.015268,-0.961290,0.050076,0.084830,-0.096663,-2.290009,-54.787491,-0.117676,,,,,,,
1522137806.904683,-0.274990,-0.010141,2.063859,0.194172,0.095747,-0.149543,-0.271524,0.010141,-0.962378,0.059945,0.045004,-0.124307,-2.883667,-54.783768,0.932007,,,,,,,
1522137806.934651,-0.273376,-0.002106,2.061803,0.292918,0.000776,-0.127000,-0.269983,0.002106,-0.962862,0.072885,0.029556,-0.113264,-2.208694,-54.786804,0.932373,,,,,,,
1522137806.964619,-0.275610,0.006890,2.060948,0.252756,-0.127805,-0.111984,-0.272128,-0.006890,-0.962236,0.012453,0.043023,-0.047499,-2.656265,-55.083893,1.833313,,,,,,,
1522137806.994587,-0.279770,0.012335,2.058603,0.071389,-0.110296,-0.121718,-0.276114,-0.012334,-0.961045,-0.033716,0.070943,-0.000808,-2.206284,-55.085922,1.833557,,,,,,,
1522137807.024556,-0.280482,0.014069,2.055624,0.024995,0.041642,-0.102728,-0.276791,-0.014069,-0.960826,0.009930,0.102753,-0.050328,-1.608414,-55.163834,1.609131,,,,,,,
1522137807.054524,-0.278533,0.015922,2.053836,0.053659,0.065676,-0.052662,-0.274911,-0.015921,-0.961337,0.043816,0.050757,-0.106717,-1.831146,-55.162460,1.984009,,,,,,,
1522137807.084492,-0.277081,0.016307,2.053460,-0.006592,0.026110,0.002748,-0.273513,-0.016307,-0.961729,0.049087,0.038493,-0.088564,-1.681152,-55.163132,1.984131,,,,,,,
,,,,,,,,,,,,,,,,25.306136,51.447507,-20.852041,-1.000000,-1.000000,1522137807.092217,
1522137807.114440,-0.277915,0.015585,2.054168,-0.007255,-0.077236,0.041214,-0.274318,-0.015585,-0.961512,0.050731,0.028051,-0.024053,-1.378326,-54.789642,1.832825,,,,,,,
1522137807.144409,-0.280038,0.013764,2.055137,-0.074502,-0.066471,0.046475,-0.276366,-0.013764,-0.960953,0.035765,0.042801,-0.002655,-1.832947,-55.162750,1.684021,,,,,,,
1522137807.174377,-0.280989,0.010804,2.055090,-0.091165,-0.026779,-0.000464,-0.277290,-0.010804,-0.960725,0.020606,0.071289,-0.022979,-2.132034,-55.161255,1.833923,,,,,,,
1522137807.204345,-0.281583,0.009408,2.053891,-0.021573,-0.026721,-0.035564,-0.277864,-0.009408,-0.960574,0.050386,0.060632,-0.043104,-1.307526,-54.940414,1.383423,,,,,,,
1522137807.234313,-0.281001,0.009041,2.052858,-0.021386,0.024238,-0.028162,-0.277306,-0.009040,-0.960739,0.056023,0.028831,-0.056534,-2.285172,-55.385712,1.684692,,,,,,,
1522137807.264282,-0.281680,0.007372,2.052362,-0.061540,-0.073694,0.011329,-0.277962,-0.007372,-0.960563,0.059563,0.015749,-0.014016,-1.981003,-55.012009,1.758362,,,,,,,
1522137807.294250,-0.283321,0.003760,2.051920,-0.146815,-0.053236,0.002723,-0.279543,-0.003760,-0.960125,0.037844,0.013541,0.044186,-1.308289,-54.790787,1.007812,,,,,,,
1522137807.324219,-0.283927,-0.000733,2.050422,-0.144565,-0.045687,-0.013269,-0.280127,0.000733,-0.959962,0.026343,0.021148,0.059495,-2.283386,-54.936172,1.232910,,,,,,,
1522137807.354187,-0.284701,-0.003880,2.049754,-0.075381,-0.042962,0.029396,-0.280868,0.003880,-0.959738,0.045303,0.040447,0.041647,-2.137451,-54.937515,0.557983,,,,,,,
1522137807.384156,-0.284856,-0.005558,2.051053,-0.024005,0.036286,0.074110,-0.281015,0.005558,-0.959687,0.041467,0.057934,0.000168,-1.160553,-54.791824,0.632935,,,,,,,
1522137807.414124,-0.282137,-0.007804,2.053317,-0.086864,0.105256,0.109163,-0.278400,0.007804,-0.960433,0.075123,0.002206,-0.002122,-2.660645,-54.710236,0.481812,,,,,,,
1522137807.444092,-0.277436,-0.015041,2.054597,-0.290393,0.173894,0.091892,-0.273859,0.015040,-0.961652,0.080683,-0.015742,0.009152,-2.514832,-55.085968,0.408447,,,,,,,
1522137807.474061,-0.272864,-0.023908,2.053171,-0.254852,0.119299,-0.014581,-0.269414,0.023905,-0.962727,0.077046,-0.012492,0.010808,-1.766388,-54.790070,-0.342407,,,,,,,
1522137807.504029,-0.270351,-0.026533,2.050633,-0.005093,0.028789,-0.077166,-0.266976,0.026530,-0.963337,0.094063,0.012746,-0.033473,-2.888931,-54.859497,0.182312,,,,,,,
1522137807.533996,-0.269973,-0.022363,2.049017,0.192359,-0.008747,-0.097230,-0.266638,0.022361,-0.963537,0.082221,0.065866,-0.077250,-1.990021,-54.788849,-0.117493,,,,,,,
1522137807.563964,-0.270484,-0.013589,2.047452,0.288485,-0.055416,-0.143993,-0.267173,0.013588,-0.963552,0.064246,0.059089,-0.073923,-1.311295,-54.641525,0.257202,,,,,,,
1522137807.593933,-0.271033,-0.006488,2.045248,0.136977,-0.019005,-0.131352,-0.267721,0.006488,-0.963474,0.056158,0.030088,-0.036083,-1.911423,-54.788589,0.482483,,,,,,,
1522137807.623870,-0.270868,-0.004415,2.041782,0.020575,-0.021881,-0.131451,-0.267566,0.004415,-0.963529,0.023028,0.043605,-0.022967,-1.611435,-54.789948,0.482666,,,,,,,
1522137807.653839,-0.270112,-0.002764,2.038476,0.056096,0.053378,-0.119768,-0.266838,0.002764,-0.963737,0.021202,0.057096,-0.047768,-0.708176,-54.643707,0.782593,,,,,,,
1522137807.683807,-0.267732,0.000790,2.036391,0.131688,0.068745,-0.065384,-0.264545,-0.000790,-0.964372,0.051914,0.057232,-0.113615,-1.305588,-54.565735,1.081970,,,,,,,
1522137807.713775,-0.266527,0.004890,2.037052,0.126740,0.010814,0.014586,-0.263379,-0.004890,-0.964679,0.071561,0.038978,-0.102810,-1.683716,-55.013794,1.308533,,,,,,,
1522137807.743743,-0.267298,0.005804,2.038781,-0.012563,-0.049724,0.059298,-0.264121,-0.005804,-0.964471,0.063453,0.026358,-0.060767,-1.610062,-55.238983,1.459473,,,,,,,
1522137807.773712,-0.268931,0.002727,2.039762,-0.125721,-0.052576,0.052817,-0.265700,-0.002727,-0.964051,0.057067,0.032360,-0.018661,-1.611710,-55.314117,1.309753,,,,,,,
1522137807.803680,-0.269049,-0.001527,2.039224,-0.128399,-0.003288,-0.004771,-0.265814,0.001527,-0.964022,0.069037,0.044524,-0.047284,-0.939301,-55.167816,0.634521,,,,,,,
1522137807.833648,-0.269634,-0.003837,2.037868,-0.049500,-0.051148,-0.025979,-0.266377,0.003837,-0.963861,0.077458,0.036812,-0.038764,-0.560577,-54.794525,0.633240,,,,,,,
1522137807.863616,-0.270685,-0.004218,2.037225,0.006042,-0.032238,-0.014237,-0.267389,0.004218,-0.963579,0.055932,0.028345,-0.016234,-1.161301,-54.866837,0.633179,,,,,,,
1522137807.893585,-0.270052,-0.004133,2.037028,0.008406,0.028247,-0.004700,-0.266779,0.004133,-0.963748,0.060190,0.009005,-0.018124,-1.834305,-54.938354,1.083191,,,,,,,
1522137807.923553,-0.268324,-0.004156,2.036837,0.012769,0.032583,-0.018552,-0.265113,0.004156,-0.964208,0.060691,0.002162,-0.034236,-1.163544,-55.091812,0.634094,,,,,,,
1522137807.953521,-0.267658,-0.002846,2.036480,0.065017,0.003860,-0.031276,-0.264472,0.002846,-0.964389,0.053733,0.014168,-0.046079,-1.536133,-54.939987,0.783325,,,,,,,
1522137807.983490,-0.267080,-0.000606,2.035980,0.060689,-0.001503,-0.023809,-0.263916,0.000606,-0.964545,0.074768,0.010639,-0.062677,-1.836258,-55.088409,1.008728,,,,,,,
1522137808.013458,-0.267320,0.000475,2.036488,0.027209,-0.023034,0.029456,-0.264148,-0.000475,-0.964482,0.076892,0.019457,-0.046032,-1.682068,-54.714035,1.082336,,,,,,,
1522137808.043427,-0.267772,0.000358,2.037444,-0.000615,-0.037846,0.029453,-0.264584,-0.000358,-0.964362,0.068020,0.024238,-0.032952,-1.381485,-54.790161,1.307800,,,,,,,
1522137808.073395,-0.268997,-0.000157,2.037242,-0.043080,-0.057510,-0.032350,-0.265765,0.000157,-0.964037,0.054034,0.009975,-0.013868,-0.562363,-55.019440,0.709106,,,,,,,
1522137808.103364,-0.268686,-0.001363,2.034677,-0.049840,0.034314,-0.091059,-0.265464,0.001363,-0.964119,0.065009,0.010173,-0.032585,-1.832809,-54.788361,1.082581,,,,,,,
,,,,,,,,,,,,,,,,25.306104,51.447333,-20.857697,-1.000000,-1.000000,1522137808.093277,
1522137808.133338,-0.268029,-0.000463,2.032384,0.059842,-0.011769,-0.074945,-0.264831,0.000463,-0.964294,0.088348,0.022471,-0.052201,-1.534775,-54.939774,1.008301,,,,,,,
1522137808.163306,-0.268247,0.002146,2.031605,0.075559,-0.034383,-0.037618,-0.265041,-0.002146,-0.964234,0.073177,0.018030,-0.050842,-1.534775,-54.939774,1.008301,,,,,,,
1522137808.193274,-0.269461,0.004733,2.030318,0.085196,-0.084016,-0.085508,-0.266209,-0.004733,-0.963903,0.029346,0.024326,-0.008066,-0.707397,-55.017960,1.534058,,,,,,,
1522137808.223243,-0.271403,0.007359,2.028558,0.063845,-0.063894,-0.068495,-0.268076,-0.007359,-0.963369,0.060389,0.026799,0.002813,-1.086578,-55.166718,1.084473,,,,,,,
1522137808.253211,-0.270329,0.008046,2.028265,-0.009727,0.052601,0.013379,-0.267040,-0.008046,-0.963651,0.059017,0.041158,-0.063281,-0.336609,-55.170090,1.084839,,,,,,,
1522137808.283179,-0.268986,0.005439,2.027528,-0.122806,0.037174,-0.018659,-0.265750,-0.005439,-0.964026,0.026432,0.012839,-0.052515,-1.309174,-55.015564,1.233704,,,,,,,
1522137808.313147,-0.267839,0.001449,2.025209,-0.142998,0.020460,-0.051693,-0.264648,-0.001449,-0.964343,0.076507,0.006286,-0.019376,-1.159927,-55.091232,1.234070,,,,,,,
1522137808.343116,-0.266322,-0.000207,2.023388,0.002133,0.031605,-0.027082,-0.263185,0.000207,-0.964745,0.083543,0.000159,-0.064842,-0.184692,-54.796066,0.783447,,,,,,,
1522137808.373084,-0.266399,0.001036,2.023754,0.058194,-0.037870,0.012446,-0.263259,-0.001036,-0.964724,0.065123,0.006361,-0.065214,-0.783157,-54.868011,1.158447,,,,,,,
1522137808.403052,-0.267967,0.001420,2.024190,-0.023044,-0.074776,-0.000358,-0.264771,-0.001420,-0.964310,0.057679,0.020128,-0.010879,-0.937637,-55.317307,1.160156,,,,,,,
1522137808.433020,-0.269462,-0.000417,2.022988,-0.099715,-0.065851,-0.032396,-0.266212,0.000417,-0.963914,0.058891,0.010249,0.001878,-0.257126,-54.720444,1.083069,,,,,,,
1522137808.462989,-0.269708,-0.003822,2.020891,-0.132452,0.004407,-0.039944,-0.266448,0.003822,-0.963841,0.057082,0.011207,0.000661,-1.384644,-54.790665,0.782837,,,,,,,
1522137808.492957,-0.267655,-0.005955,2.019255,-0.024310,0.083767,-0.030355,-0.264466,0.005955,-0.964376,0.052460,0.024181,-0.014368,-0.711166,-54.943695,0.783752,,,,,,,
1522137808.522925,-0.264984,-0.004207,2.018816,0.088853,0.071859,-0.038784,-0.261892,0.004207,-0.965088,0.063787,0.006077,-0.058091,0.042236,-54.422394,0.481995,,,,,,,
1522137808.552893,-0.262030,-0.000791,2.018675,0.130402,0.063155,-0.027012,-0.259042,0.000791,-0.965865,0.085183,-0.028394,-0.072312,-0.633759,-54.793900,0.933167,,,,,,,
1522137808.582862,-0.261608,0.003406,2.019675,0.152194,-0.043332,-0.000261,-0.258632,-0.003406,-0.965969,0.065700,-0.003109,-0.069401,-0.781952,-54.792938,1.233093,,,,,,,
1522137808.612830,-0.263186,0.006197,2.020481,0.054911,-0.064392,0.006084,-0.260153,-0.006197,-0.965547,0.058280,0.003099,-0.061461,0.191208,-54.797607,0.933594,,,,,,,
1522137808.642798,-0.264770,0.006476,2.020757,-0.017756,-0.082250,0.002850,-0.261681,-0.006476,-0.965132,0.066567,-0.008248,-0.038301,-0.557556,-54.943787,1.383789,,,,,,,
1522137808.672766,-0.267717,0.004914,2.019819,-0.076491,-0.118029,-0.025928,-0.264527,-0.004914,-0.964365,0.042451,-0.009918,-0.023474,-0.705307,-54.718124,1.382812,,,,,,,
1522137808.702735,-0.270977,0.002178,2.017655,-0.134909,-0.093194,-0.062222,-0.267673,-0.002178,-0.963507,0.034167,-0.001087,0.021292,-0.030197,-54.571396,1.157593,,,,,,,
1522137808.732703,-0.271740,-0.000978,2.014702,-0.111092,-0.011499,-0.053757,-0.268408,0.000978,-0.963304,0.028540,-0.009934,0.032884,-1.007843,-54.792068,1.083008,,,,,,,
1522137808.762671,-0.270544,-0.002151,2.013345,-0.001006,0.063424,-0.014346,-0.267254,0.002151,-0.963623,0.031582,-0.003631,0.003067,-1.381638,-54.715317,1.157532,,,,,,,
1522137808.792640,-0.267458,-0.000588,2.014476,0.091691,0.105157,0.060280,-0.264280,0.000588,-0.964445,0.077116,-0.009179,-0.036013,-1.005753,-54.492233,0.931763,,,,,,,
1522137808.822608,-0.264414,0.002370,2.018176,0.136217,0.089845,0.107209,-0.261343,-0.002370,-0.965242,0.085394,-0.024593,-0.066526,-0.858307,-54.792816,1.008057,,,,,,,
1522137808.852576,-0.262482,0.004340,2.021599,0.066694,0.020138,0.071001,-0.259476,-0.004340,-0.965739,0.091339,-0.043603,-0.087193,-0.703369,-54.343445,1.081360,,,,,,,
1522137808.882544,-0.263771,0.005252,2.022662,0.017405,-0.109904,-0.006682,-0.260720,-0.005252,-0.965400,0.090584,-0.050611,-0.031060,-0.477936,-54.344376,1.156494,,,,,,,
1522137808.912513,-0.267217,0.005686,2.021059,-0.011122,-0.134784,-0.085527,-0.264044,-0.005686,-0.964493,0.073233,-0.011496,0.004914,-1.153351,-54.566040,1.457031,,,,,,,
1522137808.942481,-0.270015,0.007461,2.017819,0.047925,-0.105964,-0.123876,-0.266738,-0.007460,-0.963739,0.044189,0.049346,-0.014318,-0.629715,-54.793243,1.608154,,,,,,,
1522137808.972449,-0.271091,0.011101,2.015118,0.108108,-0.008426,-0.114336,-0.267766,-0.011100,-0.963419,0.022008,0.046730,-0.032644,0.045853,-54.421814,1.082031,,,,,,,
1522137809.002417,-0.268844,0.014528,2.013475,0.083754,0.103858,-0.055861,-0.265589,-0.014527,-0.963976,0.036357,0.000977,-0.065458,-0.474167,-54.418640,1.906799,,,,,,,
1522137809.032386,-0.265075,0.016395,2.013166,0.061202,0.124873,-0.013282,-0.261946,-0.016394,-0.964943,0.052153,-0.041086,-0.081368,-1.000488,-54.641113,2.057373,,,,,,,
1522137809.062354,-0.261793,0.017225,2.014075,0.032912,0.069319,0.040026,-0.258774,-0.017224,-0.965784,0.066224,-0.044284,-0.105078,-0.553497,-54.943130,2.058777,,,,,,,
1522137809.092322,-0.261856,0.017791,2.016446,0.047014,-0.059657,0.091316,-0.258833,-0.017790,-0.965758,0.081236,-0.024843,-0.104143,-0.778046,-54.942047,2.133728,,,,,,,
1522137809.122282,-0.265301,0.017163,2.018871,-0.054713,-0.155928,0.065768,-0.262161,-0.017162,-0.964871,0.056198,-0.010975,-0.073398,-1.754807,-54.937958,1.833191,,,,,,,
,,,,,,,,,,,,,,,,25.306059,51.447113,-20.867159,-1.000000,-1.000000,1522137809.102510,
1522137809.152251,-0.270559,0.012926,2.019472,-0.186004,-0.156587,0.057136,-0.267248,-0.012926,-0.963540,0.062383,-0.009078,0.007165,-0.403961,-54.943878,1.983887,,,,,,,
1522137809.182219,-0.272657,0.005476,2.018685,-0.282417,-0.027558,0.026037,-0.269287,-0.005476,-0.963044,0.068054,0.000609,0.015000,-1.155594,-54.791031,1.457947,,,,,,,
1522137809.212187,-0.271088,-0.002135,2.016273,-0.232587,0.059868,-0.034742,-0.267779,0.002135,-0.963477,0.040301,-0.021727,-0.021432,-1.006363,-54.417450,0.706482,,,,,,,
1522137809.242155,-0.270019,-0.004356,2.013165,0.009891,0.007680,-0.102708,-0.266747,0.004356,-0.963756,0.035348,-0.018638,-0.026448,-0.105042,-54.645905,1.307861,,,,,,,
1522137809.272124,-0.269555,0.001259,2.011398,0.264913,-0.004769,-0.084393,-0.266302,-0.001259,-0.963888,0.070929,-0.048943,-0.040247,-0.482559,-54.944122,1.383850,,,,,,,
1522137809.302092,-0.269398,0.011068,2.014037,0.323968,-0.017502,0.044588,-0.266135,-0.011068,-0.963872,0.095450,-0.036998,-0.048641,-0.554855,-54.943359,1.833801,,,,,,,
1522137809.332060,-0.270139,0.016754,2.017376,0.114447,-0.070160,0.049821,-0.266828,-0.016753,-0.963598,0.038236,-0.016587,-0.031000,-1.002426,-55.015808,2.358887,,,,,,,
1522137809.362028,-0.273345,0.016228,2.017847,-0.119372,-0.137153,-0.009964,-0.269918,-0.016227,-0.962746,0.036565,-0.009697,0.044380,-1.231155,-55.389771,2.360229,,,,,,,
1522137809.391997,-0.275213,0.011135,2.015278,-0.211679,-0.047437,-0.043151,-0.271734,-0.011135,-0.962307,0.069891,0.009563,0.036389,0.118912,-55.021469,1.759460,,,,,,,
1522137809.421965,-0.274521,0.006609,2.012822,-0.138751,0.040459,-0.028258,-0.271080,-0.006609,-0.962533,0.076713,0.021990,-0.017981,-1.008575,-55.316315,1.835083,,,,,,,
1522137809.451933,-0.272529,0.002934,2.011335,-0.138771,0.063694,-0.005915,-0.269167,-0.002934,-0.963088,0.072893,0.001897,-0.037232,-1.156937,-55.015869,1.608765,,,,,,,
1522137809.481902,-0.270965,-0.000095,2.010439,-0.049330,0.024062,0.006980,-0.267661,0.000095,-0.963512,0.084098,-0.024296,0.005550,-0.032440,-54.796371,1.158508,,,,,,,
1522137809.511870,-0.270375,0.000539,2.010454,0.058429,-0.011177,-0.007816,-0.267093,-0.000539,-0.963670,0.091342,-0.029918,-0.009932,-0.703064,-54.717773,1.757812,,,,,,,
1522137809.541838,-0.270718,0.001993,2.011110,0.022876,-0.044264,0.025224,-0.267422,-0.001993,-0.963577,0.095746,-0.009695,-0.022324,-0.779709,-54.792572,1.608093,,,,,,,
1522137809.571806,-0.270974,0.000664,2.010703,-0.084584,-0.020244,-0.027096,-0.267670,-0.000664,-0.963510,0.059968,0.013588,-0.011023,-0.329285,-54.345276,0.931519,,,,,,,
1522137809.601775,-0.271732,-0.001134,2.008191,-0.088718,-0.045400,-0.075023,-0.268400,0.001134,-0.963306,0.085341,0.024134,0.011982,-0.706055,-54.793121,1.383118,,,,,,,
1522137809.631743,-0.270742,-0.002432,2.004975,-0.048648,0.053474,-0.097465,-0.267445,0.002432,-0.963569,0.094670,0.025919,-0.023964,-0.408325,-54.794830,1.008301,,,,,,,
1522137809.661711,-0.267727,-0.001158,2.002203,0.062702,0.106389,-0.109142,-0.264540,0.001158,-0.964373,0.078459,0.025819,-0.064847,0.265289,-54.573471,0.407776,,,,,,,
1522137809.691679,-0.264081,0.002838,2.000570,0.154216,0.081475,-0.072827,-0.261021,-0.002838,-0.965328,0.103107,0.014038,-0.095951,-0.483322,-54.794495,1.008240,,,,,,,
1522137809.721648,-0.261478,0.007828,1.999619,0.156173,0.034778,-0.080244,-0.258501,-0.007828,-0.965979,0.085390,-0.002273,-0.081293,-0.556061,-54.793793,1.383240,,,,,,,
1522137809.751616,-0.262373,0.012041,1.998756,0.110652,-0.087483,-0.055647,-0.259354,-0.012041,-0.965706,0.083527,0.005327,-0.042701,0.571136,-54.573868,1.382874,,,,,,,
1522137809.781584,-0.264875,0.014041,1.997609,0.015597,-0.093596,-0.056789,-0.261763,-0.014041,-0.965029,0.062956,0.026050,-0.040555,-0.480606,-55.018692,1.834167,,,,,,,
1522137809.811552,-0.266110,0.012970,1.995806,-0.103660,-0.013690,-0.047355,-0.262958,-0.012970,-0.964719,0.052372,0.040070,-0.029604,0.040924,-55.096481,1.384705,,,,,,,
1522137809.841521,-0.264882,0.009322,1.993084,-0.144972,0.048114,-0.057039,-0.261784,-0.009322,-0.965081,0.061726,0.010848,-0.024253,1.017822,-54.726181,1.083740,,,,,,,
1522137809.871489,-0.262302,0.006593,1.990976,-0.062694,0.088161,-0.036783,-0.259298,-0.006593,-0.965774,0.084844,0.000947,-0.054978,0.267700,-54.647949,0.933044,,,,,,,
1522137809.901457,-0.259546,0.007177,1.990869,0.081142,0.079965,0.016626,-0.256635,-0.007177,-0.966481,0.096281,-0.007548,-0.097286,0.189713,-54.947601,0.934204,,,,,,,
1522137809.931425,-0.257764,0.009742,1.993485,0.090143,0.023156,0.083817,-0.254907,-0.009742,-0.966916,0.101769,-0.021218,-0.093265,0.871414,-54.500305,1.307739,,,,,,,
1522137809.961394,-0.258160,0.008471,1.996072,-0.100358,-0.062477,0.093329,-0.255293,-0.008471,-0.966826,0.081007,-0.038145,-0.046434,-0.034973,-55.096298,1.234680,,,,,,,
1522137809.991362,-0.260567,0.002952,1.996579,-0.199537,-0.103333,0.040044,-0.257627,-0.002952,-0.966239,0.076628,-0.026284,0.003898,-0.408768,-54.794907,0.933289,,,,,,,
1522137810.021330,-0.262280,-0.002469,1.995533,-0.184099,-0.046709,-0.006895,-0.259282,0.002469,-0.965798,0.097905,-0.023664,0.005791,-0.110596,-54.571930,0.257568,,,,,,,
1522137810.051299,-0.262103,-0.006282,1.993632,-0.110051,0.003263,-0.036728,-0.259107,0.006282,-0.965827,0.085813,-0.000316,-0.018746,-0.934967,-54.642990,0.482422,,,,,,,
1522137810.081267,-0.260823,-0.006680,1.992282,0.015975,0.020978,-0.030265,-0.257870,0.006679,-0.966156,0.090756,-0.002041,-0.037537,-0.336029,-54.795609,0.558350,,,,,,,
1522137810.111235,-0.259060,-0.004306,1.992407,0.102420,0.039690,-0.004633,-0.256169,0.004306,-0.966622,0.096211,-0.029010,-0.042656,-0.631241,-54.269348,0.481079,,,,,,,
,,,,,,,,,,,,,,,,25.306029,51.446933,-20.881134,-1.000000,-1.000000,1522137810.095962,
1522137810.141217,-0.257351,-0.000894,1.993287,0.120597,0.042862,-0.007825,-0.254519,0.000894,-0.967067,0.077670,-0.026513,-0.052572,-0.783020,-54.493607,0.556885,,,,,,,
1522137810.171186,-0.255717,0.003119,1.993883,0.149346,0.010987,-0.019487,-0.252938,-0.003119,-0.967477,0.091439,-0.021280,-0.078177,-0.179611,-54.196243,0.631042,,,,,,,
1522137810.201154,-0.255762,0.007692,1.994238,0.136408,-0.033501,-0.034372,-0.252975,-0.007692,-0.967442,0.107452,0.000032,-0.088604,-0.029297,-54.346619,0.931702,,,,,,,
1522137810.231122,-0.256743,0.011049,1.993588,0.075672,-0.038485,-0.061045,-0.253916,-0.011049,-0.967163,0.083124,0.014772,-0.085267,-0.328690,-54.420044,1.156860,,,,,,,
1522137810.261090,-0.259050,0.013655,1.992880,0.066541,-0.131142,-0.027926,-0.256139,-0.013654,-0.966543,0.094517,0.007932,-0.055659,0.042999,-54.572021,0.857605,,,,,,,
1522137810.291059,-0.263247,0.013936,1.992291,-0.051036,-0.154245,-0.023736,-0.260192,-0.013936,-0.965456,0.070250,-0.007793,-0.000151,0.194336,-54.347855,0.706848,,,,,,,
1522137810.321027,-0.265924,0.010098,1.989980,-0.200955,-0.059036,-0.061238,-0.262787,-0.010098,-0.964800,0.053803,0.021084,0.037203,-0.030640,-54.571472,1.082581,,,,,,,
1522137810.350995,-0.264620,0.005125,1.986432,-0.147014,0.060929,-0.064516,-0.261539,-0.005125,-0.965179,0.059131,0.028867,0.009673,-0.108200,-54.646408,0.782898,,,,,,,
1522137810.380963,-0.261496,0.004097,1.984451,0.005714,0.104972,-0.035674,-0.258524,-0.004097,-0.965995,0.088144,0.020684,-0.061638,-0.331528,-54.570267,0.932434,,,,,,,
1522137810.410932,-0.257696,0.006249,1.984323,0.116774,0.125834,-0.020689,-0.254849,-0.006249,-0.966960,0.074871,0.020944,-0.095845,0.265594,-54.723175,0.708374,,,,,,,
1522137810.440900,-0.255496,0.011129,1.985902,0.195962,-0.004406,0.037039,-0.252709,-0.011129,-0.967478,0.117074,-0.026316,-0.112158,0.641937,-54.724640,0.933533,,,,,,,
1522137810.470868,-0.256720,0.013800,1.989407,0.036105,-0.082146,0.117978,-0.253885,-0.013799,-0.967135,0.117395,-0.019709,-0.041745,-0.331528,-54.794876,1.308350,,,,,,,
1522137810.500836,-0.259477,0.010333,1.991609,-0.183693,-0.101484,0.074149,-0.256561,-0.010333,-0.966472,0.059769,-0.000211,0.007701,-0.255188,-54.570374,1.157471,,,,,,,
1522137810.530805,-0.262051,0.002473,1.990093,-0.318825,-0.096289,-0.011206,-0.259061,-0.002473,-0.965857,0.076001,0.008302,0.039206,0.641769,-54.649780,0.783264,,,,,,,
1522137810.560773,-0.262461,-0.006545,1.986371,-0.294708,-0.011009,-0.058158,-0.259453,0.006545,-0.965733,0.079780,0.035294,-0.003872,-0.487381,-54.795151,0.333252,,,,,,,
1522137810.590741,-0.261248,-0.010519,1.982983,-0.055199,0.040601,-0.079335,-0.258272,0.010518,-0.966014,0.097185,0.029689,-0.055089,-0.483780,-54.569962,0.557373,,,,,,,
1522137810.620709,-0.259990,-0.008130,1.981828,0.131417,0.030337,-0.045092,-0.257063,0.008130,-0.966360,0.096113,-0.008099,-0.046137,0.416626,-54.349304,0.256897,,,,,,,
1522137810.650678,-0.257766,-0.002657,1.982406,0.232787,0.057444,-0.008806,-0.254920,0.002657,-0.966958,0.078559,-0.028323,-0.035072,-0.407440,-54.570068,0.782410,,,,,,,
1522137810.680646,-0.256280,0.004017,1.985088,0.238593,-0.000390,0.055182,-0.253482,-0.004017,-0.967331,0.088336,-0.038464,-0.040802,-0.329727,-54.569977,1.232422,,,,,,,
1522137810.710614,-0.257373,0.008110,1.988401,0.071577,-0.078732,0.074309,-0.254532,-0.008110,-0.967030,0.080567,-0.052040,-0.022732,-0.255920,-54.869995,1.533691,,,,,,,
1522137810.740583,-0.259733,0.005794,1.989365,-0.150283,-0.097970,0.016628,-0.256818,-0.005794,-0.966442,0.061109,-0.009480,0.026882,-1.009781,-55.166748,1.384460,,,,,,,
1522137810.770551,-0.261190,-0.000263,1.987170,-0.254467,-0.045374,-0.022921,-0.258230,0.000263,-0.966083,0.089254,0.008007,0.026507,-1.465622,-55.390305,0.785156,,,,,,,
1522137810.800519,-0.261011,-0.006937,1.984597,-0.229716,0.000259,-0.021890,-0.258051,0.006937,-0.966106,0.115274,-0.001672,-0.002461,-0.715790,-55.543442,1.011108,,,,,,,
1522137810.830487,-0.260169,-0.010861,1.982410,-0.083181,0.024528,-0.050569,-0.257228,0.010861,-0.966289,0.069240,0.020389,0.006679,-1.174316,-56.216690,0.713623,,,,,,,
1522137810.860456,-0.259061,-0.008901,1.980551,0.136916,0.021023,-0.083433,-0.256163,0.008901,-0.966592,0.105818,-0.008581,-0.017844,-1.177017,-56.441757,0.639526,,,,,,,
1522137810.890424,-0.258422,-0.002487,1.980548,0.225201,0.001363,-0.037536,-0.255554,0.002487,-0.966791,0.100204,-0.010864,-0.005576,-0.355331,-56.820358,0.716431,,,,,,,
1522137810.920392,-0.257186,0.003851,1.981584,0.214584,0.039478,-0.015200,-0.254358,-0.003851,-0.967102,0.074594,0.019323,-0.019532,-1.105438,-57.191391,1.317505,,,,,,,
1522137810.950330,-0.256100,0.009142,1.982334,0.149213,-0.029341,-0.027965,-0.253299,-0.009142,-0.967344,0.069873,0.025362,-0.035814,-0.581345,-57.418518,1.543701,,,,,,,
1522137810.980298,-0.256446,0.011514,1.982255,0.013625,-0.011028,-0.014237,-0.253628,-0.011513,-0.967233,0.076244,0.036202,-0.029853,0.619339,-57.124298,1.168152,,,,,,,
1522137811.010266,-0.254902,0.009361,1.981970,-0.105938,0.043124,0.031449,-0.252140,-0.009361,-0.967645,0.094287,0.028862,-0.070243,0.090622,-57.496933,1.169373,,,,,,,
1522137811.040235,-0.253765,0.004837,1.982621,-0.154359,0.004742,0.068736,-0.251047,-0.004837,-0.967962,0.101572,-0.004196,-0.060465,0.393005,-57.123520,0.942993,,,,,,,
1522137811.070203,-0.253003,-0.000787,1.982834,-0.177635,0.017781,0.037797,-0.250313,0.000787,-0.968164,0.077644,-0.007242,-0.028037,1.138168,-57.202545,0.268677,,,,,,,
1522137811.100171,-0.252785,-0.005081,1.982503,-0.115773,-0.022618,0.016583,-0.250098,0.005081,-0.968206,0.080680,-0.006088,-0.027811,0.765579,-57.050720,0.417908,,,,,,,
1522137811.130114,-0.252670,-0.007946,1.981913,-0.090016,-0.005605,0.005930,-0.249982,0.007946,-0.968217,0.085172,-0.032833,-0.042586,0.838928,-57.126190,0.268250,,,,,,,
,,,,,,,,,,,,,,,,25.306012,51.446775,-20.892176,-1.000000,-1.000000,1522137811.093606,
1522137811.160083,-0.251497,-0.009522,1.981080,-0.018044,0.046548,-0.032425,-0.248842,0.009522,-0.968496,0.071551,-0.023026,-0.029932,1.215561,-57.052734,0.418152,,,,,,,
1522137811.190051,-0.250088,-0.007166,1.980750,0.119464,0.010020,-0.022704,-0.247483,0.007166,-0.968865,0.071335,-0.013407,-0.053062,1.593231,-56.829361,0.492432,,,,,,,
1522137811.220019,-0.249477,-0.003050,1.981110,0.114103,0.001523,-0.023753,-0.246896,0.003050,-0.969036,0.068170,-0.037595,-0.055912,3.103958,-55.935867,0.789612,,,,,,,
1522137811.249987,-0.248961,-0.001126,1.981124,0.025439,0.005922,-0.012110,-0.246396,0.001126,-0.969168,0.087003,-0.019574,-0.038111,2.658295,-55.408997,0.637268,,,,,,,
1522137811.279956,-0.248961,-0.000038,1.981029,0.045560,-0.031325,-0.012053,-0.246397,0.000038,-0.969168,0.079405,0.005623,-0.049417,2.363724,-55.182159,1.161255,,,,,,,
1522137811.309924,-0.250002,0.000654,1.981002,-0.014455,-0.061045,0.004978,-0.247406,-0.000654,-0.968911,0.083145,-0.001314,-0.042472,2.295456,-54.506851,1.158508,,,,,,,
1522137811.339892,-0.251638,-0.001307,1.980502,-0.097506,-0.042578,-0.022807,-0.248990,0.001307,-0.968504,0.042737,0.020650,0.018889,2.826279,-54.059021,1.381958,,,,,,,
1522137811.369861,-0.250564,-0.002197,1.978565,0.016130,0.028515,-0.049428,-0.247950,0.002197,-0.968770,0.112757,0.035752,-0.053981,2.377182,-53.832214,1.155884,,,,,,,
1522137811.399829,-0.251322,-0.000666,1.979571,0.029866,-0.107281,0.065798,-0.248684,0.000666,-0.968584,0.145505,-0.033290,-0.091216,1.700119,-53.904404,0.930786,,,,,,,
1522137811.429797,-0.254879,-0.005926,1.980188,-0.305021,-0.099594,0.000529,-0.252124,0.005926,-0.967676,0.036517,-0.050405,0.054117,1.250870,-53.378128,0.178467,,,,,,,
1522137811.459765,-0.256008,-0.015050,1.973925,-0.285615,-0.064185,-0.208328,-0.253192,0.015049,-0.967298,0.007205,-0.009098,0.155302,0.047318,-53.373322,-0.422180,,,,,,,
1522137811.489734,-0.257265,-0.015359,1.964740,0.114126,-0.026934,-0.054637,-0.254407,0.015359,-0.966974,0.144788,0.081779,0.102137,-0.023209,-52.698380,-0.799866,,,,,,,
1522137811.519702,-0.252763,-0.010068,1.965394,0.174686,0.286580,0.068695,-0.250067,0.010068,-0.968175,0.141211,0.110355,-0.122447,-0.398911,-53.220932,-0.047974,,,,,,,
1522137811.549670,-0.243760,-0.007262,1.966004,0.107293,0.259096,0.070811,-0.241346,0.007261,-0.970411,0.027861,0.014971,-0.176226,-0.770142,-53.293518,0.702148,,,,,,,
1522137811.579638,-0.239534,-0.002505,1.968078,0.232163,0.065086,0.115843,-0.237249,0.002505,-0.971445,0.129766,-0.008257,-0.051504,-0.318665,-53.145538,0.701782,,,,,,,
1522137811.609607,-0.238991,0.001631,1.975927,0.113473,-0.031345,0.271420,-0.236722,-0.001631,-0.971575,0.195783,-0.076616,-0.095777,-1.143921,-53.441391,1.152527,,,,,,,
1522137811.639575,-0.242574,-0.004350,1.982490,-0.345981,-0.155327,0.232849,-0.240200,0.004350,-0.970713,0.012233,-0.040040,0.055338,-1.372208,-53.590652,0.852966,,,,,,,
1522137811.669543,-0.244008,-0.020199,1.979749,-0.580263,0.042205,-0.122346,-0.241544,0.020197,-0.970179,-0.080645,-0.014948,0.120310,-1.749756,-53.664261,0.553101,,,,,,,
1522137811.699511,-0.241639,-0.030565,1.973366,-0.212196,0.072606,-0.042189,-0.239182,0.030560,-0.970493,0.190812,0.035862,0.003269,-1.230026,-53.517715,-0.572266,,,,,,,
1522137811.729480,-0.236638,-0.030109,1.974131,0.159894,0.270936,0.028227,-0.234329,0.030104,-0.971690,0.210129,0.039522,-0.190251,-0.634415,-53.820618,-0.795715,,,,,,,
1522137811.759448,-0.226625,-0.022845,1.975927,0.301080,0.270967,-0.022829,-0.224631,0.022843,-0.974175,0.069251,-0.071824,-0.224204,-0.184570,-53.972427,-0.569885,,,,,,,
1522137811.789416,-0.224574,-0.012162,1.977583,0.389128,-0.053581,0.010594,-0.222674,0.012162,-0.974817,0.071978,-0.095811,-0.030234,-1.082565,-54.267548,0.255859,,,,,,,
1522137811.819384,-0.227516,-0.002141,1.980502,0.304622,-0.092682,0.008446,-0.225558,0.002141,-0.974227,0.069552,-0.050221,0.013427,-0.481232,-54.494659,0.857056,,,,,,,
1522137811.849353,-0.229891,0.003547,1.981655,0.093127,-0.110224,0.010431,-0.227870,-0.003547,-0.973684,0.080623,-0.058769,-0.077005,0.115891,-54.647568,0.632996,,,,,,,
1522137811.879321,-0.233710,0.000256,1.982433,-0.227319,-0.091668,0.053861,-0.231588,-0.000256,-0.972813,0.056066,-0.020008,-0.031703,-0.857117,-54.493118,0.706848,,,,,,,
1522137811.909289,-0.232941,-0.007554,1.981086,-0.247605,0.086184,0.003591,-0.230834,0.007554,-0.972963,0.101714,-0.004319,-0.053740,-1.011902,-54.792725,0.408020,,,,,,,
1522137811.939257,-0.230682,-0.011560,1.979640,-0.088797,0.005146,-0.013256,-0.228626,0.011559,-0.973445,0.135669,-0.073541,-0.115773,-0.258347,-54.346268,0.256592,,,,,,,
1522137811.969226,-0.233484,-0.013493,1.980473,-0.067517,-0.156962,0.064702,-0.231347,0.013493,-0.972777,0.094827,-0.065571,-0.000932,-0.931976,-54.343002,0.481201,,,,,,,
1522137811.999194,-0.237557,-0.015350,1.981532,-0.034361,-0.163298,0.047682,-0.235302,0.015349,-0.971801,0.115871,-0.023436,0.031859,-0.558487,-54.494690,0.481995,,,,,,,
1522137812.029162,-0.242308,-0.015450,1.982073,-0.013893,-0.195868,-0.014062,-0.239915,0.015450,-0.970670,0.089967,0.002968,0.020002,-0.858032,-54.268631,0.180969,,,,,,,
1522137812.059131,-0.247129,-0.015606,1.980459,-0.047605,-0.157158,-0.067402,-0.244591,0.015605,-0.969500,0.087151,0.012883,0.068102,-1.011459,-54.792648,0.482971,,,,,,,
1522137812.089099,-0.248867,-0.014599,1.977239,0.064443,-0.018769,-0.142048,-0.246280,0.014599,-0.969088,0.081043,0.039906,0.036379,-0.560577,-54.569916,0.257324,,,,,,,
,,,,,,,,,,,,,,,,25.306076,51.446669,-20.904732,-1.000000,-1.000000,1522137812.078251,
1522137812.119067,-0.247378,-0.008091,1.973964,0.269817,0.047781,-0.157949,-0.244855,0.008090,-0.969525,0.090924,0.051480,-0.037036,0.411987,-54.724442,0.108398,,,,,,,
1522137812.149035,-0.246027,0.002486,1.973260,0.363251,0.036264,-0.066222,-0.243552,-0.002486,-0.969884,0.106207,0.012053,-0.038508,0.120544,-54.497070,1.157410,,,,,,,
1522137812.179004,-0.244697,0.012037,1.975509,0.304003,0.031497,0.029631,-0.242245,-0.012036,-0.970140,0.084194,0.002377,-0.026854,0.497025,-54.348770,1.156982,,,,,,,
1522137812.208972,-0.242942,0.016923,1.979032,0.119022,0.045345,0.092336,-0.240525,-0.016922,-0.970495,0.079926,-0.011032,-0.037028,0.123993,-54.421646,1.607056,,,,,,,
1522137812.238940,-0.241634,0.015691,1.981824,-0.107620,-0.009434,0.102886,-0.239260,-0.015690,-0.970828,0.095415,-0.032085,-0.043866,-0.628372,-54.568405,1.457275,,,,,,,
1522137812.268909,-0.241725,0.008602,1.982835,-0.287908,-0.014077,0.070794,-0.239369,-0.008602,-0.970890,0.094730,-0.027302,-0.023495,-0.248611,-53.820557,1.004456,,,,,,,
1522137812.298877,-0.240967,-0.001007,1.981409,-0.330162,0.014100,0.007866,-0.238642,0.001007,-0.971106,0.094340,-0.014007,0.002509,-0.034103,-54.422272,0.257019,,,,,,,
1522137812.328846,-0.239860,-0.007847,1.978301,-0.196258,0.021776,-0.071965,-0.237560,0.007847,-0.971341,0.078044,-0.004856,-0.009113,-0.561478,-54.794678,0.483215,,,,,,,
1522137812.358814,-0.238232,-0.009224,1.975813,0.009767,0.025433,-0.061156,-0.235974,0.009224,-0.971715,0.105313,-0.002922,-0.039058,-0.480347,-54.045273,0.255249,,,,,,,
1522137812.388781,-0.236836,-0.004311,1.975921,0.256127,0.027589,-0.004487,-0.234626,0.004311,-0.972075,0.105430,-0.007882,-0.053742,0.193268,-54.048523,0.030640,,,,,,,
1522137812.418751,-0.235306,0.004021,1.978671,0.289022,0.027275,0.031751,-0.233139,-0.004021,-0.972434,0.078003,-0.025536,-0.058053,-0.255783,-54.495605,0.932190,,,,,,,
1522137812.448718,-0.235152,0.009927,1.981555,0.135806,-0.055454,0.063688,-0.232980,-0.009926,-0.972430,0.091073,-0.041191,-0.008985,-0.404129,-54.419785,1.081787,,,,,,,
1522137812.478686,-0.235569,0.009727,1.982982,-0.065579,-0.017464,0.019819,-0.233386,-0.009727,-0.972335,0.066424,-0.021126,0.000396,-0.558762,-54.794235,0.933228,,,,,,,
1522137812.508654,-0.235267,0.006517,1.982041,-0.144382,-0.010647,-0.014347,-0.233098,-0.006517,-0.972431,0.099156,0.001634,-0.043103,-0.707870,-54.568787,0.707275,,,,,,,
1522137812.538623,-0.234940,0.002161,1.980286,-0.171991,0.008645,-0.027177,-0.232784,-0.002161,-0.972525,0.091442,0.008997,-0.036264,-0.932724,-54.417999,0.481506,,,,,,,
1522137812.568591,-0.232676,-0.001458,1.977912,-0.084979,0.069323,-0.075115,-0.230582,0.001458,-0.973051,0.054785,0.016608,-0.051210,-0.109695,-54.571793,0.407593,,,,,,,
1522137812.598559,-0.231079,0.001433,1.975134,0.188219,-0.006512,-0.116392,-0.229028,-0.001433,-0.973418,0.064859,0.011687,-0.092912,-0.409378,-54.720139,0.708008,,,,,,,
1522137812.628528,-0.231779,0.010669,1.974740,0.337293,-0.032770,-0.061910,-0.229696,-0.010668,-0.973203,0.056722,0.001208,-0.087832,-0.340378,-55.095810,0.334534,,,,,,,
1522137812.658496,-0.234171,0.021223,1.975444,0.336940,-0.113513,-0.063960,-0.231984,-0.021221,-0.972487,0.017202,-0.003193,-0.059678,-0.553818,-54.568817,1.382324,,,,,,,
1522137812.688464,-0.236896,0.029333,1.975418,0.211981,-0.111158,-0.053396,-0.234585,-0.029329,-0.971652,-0.015308,0.002977,-0.049420,0.198395,-54.571823,1.757690,,,,,,,
1522137812.718432,-0.240683,0.033282,1.975616,0.060057,-0.128103,-0.007674,-0.238234,-0.033275,-0.970637,0.029493,0.008541,-0.026449,-0.177475,-54.794907,1.983398,,,,,,,
1522137812.748401,-0.243492,0.030827,1.975194,-0.180041,-0.074520,0.013402,-0.240979,-0.030822,-0.970040,0.008603,-0.019624,-0.006675,-0.399017,-54.493835,2.057068,,,,,,,
1522137812.778369,-0.244726,0.022379,1.973577,-0.348446,-0.014605,0.012163,-0.242229,-0.022377,-0.969960,-0.008869,-0.016976,0.068379,-0.474625,-54.418716,1.831787,,,,,,,
1522137812.808337,-0.242917,0.012003,1.971121,-0.335127,0.083231,-0.001785,-0.240517,-0.012002,-0.970570,-0.014289,-0.010535,0.029927,0.718109,-54.425278,0.632385,,,,,,,
1522137812.838305,-0.240301,0.005535,1.968884,-0.170612,0.075554,-0.026161,-0.237991,-0.005535,-0.971251,0.037872,-0.037343,-0.042146,0.189987,-54.648056,0.482971,,,,,,,
1522137812.868274,-0.238316,0.003311,1.967595,-0.043614,0.072031,-0.020748,-0.236065,-0.003311,-0.971731,0.019589,-0.051224,-0.058573,0.113342,-54.722870,0.333252,,,,,,,
1522137812.898242,-0.236483,0.004311,1.967242,0.072712,0.058975,-0.020639,-0.234283,-0.004311,-0.972158,-0.016877,-0.021263,-0.026575,0.565720,-54.350128,0.106995,,,,,,,
1522137812.928210,-0.234929,0.008664,1.968414,0.166284,0.041324,0.038056,-0.232765,-0.008664,-0.972494,0.038383,-0.016223,-0.025736,-0.029755,-54.346695,0.856689,,,,,,,
1522137812.958179,-0.234015,0.011191,1.971737,0.022671,0.013499,0.117888,-0.231870,-0.011190,-0.972682,0.075315,-0.036158,-0.070913,-0.030365,-54.271912,0.631409,,,,,,,
1522137812.988147,-0.234999,0.006819,1.974707,-0.215842,-0.064625,0.130573,-0.232836,-0.006819,-0.972491,0.034533,-0.039079,-0.025159,-0.033356,-54.347275,0.256714,,,,,,,
1522137813.018116,-0.237483,-0.001675,1.975290,-0.278548,-0.091538,0.051700,-0.235257,0.001675,-0.971931,0.003125,-0.025464,0.066566,-0.706985,-54.119400,0.105408,,,,,,,
1522137813.048083,-0.237534,-0.008855,1.973757,-0.220036,0.030911,-0.005912,-0.235298,0.008855,-0.971882,0.038169,-0.015615,0.056599,-0.635452,-54.195160,-0.344177,,,,,,,
1522137813.078051,-0.236658,-0.011844,1.972025,-0.041593,0.003181,-0.055825,-0.234438,0.011844,-0.972058,0.056582,-0.013034,-0.014270,0.564346,-54.125717,-0.493896,,,,,,,
1522137813.108020,-0.236486,-0.008848,1.970361,0.150754,0.012442,-0.080202,-0.234278,0.008847,-0.972129,0.024760,-0.019849,-0.011514,-0.639786,-54.495377,-0.568054,,,,,,,
,,,,,,,,,,,,,,,,25.306114,51.446550,-20.908804,-1.000000,-1.000000,1522137813.094330,
1522137813.137980,-0.235253,-0.001058,1.969655,0.305733,0.049247,-0.080124,-0.233089,0.001058,-0.972454,0.023845,-0.005483,0.005718,-0.181107,-54.121613,0.255737,,,,,,,
1522137813.167948,-0.234642,0.010114,1.970662,0.373454,-0.020385,-0.023532,-0.232483,-0.010114,-0.972547,0.052734,-0.003116,-0.040545,0.269028,-54.198486,0.406250,,,,,,,
1522137813.197916,-0.233837,0.016796,1.972689,0.116240,0.052198,0.020957,-0.231679,-0.016795,-0.972646,0.045537,0.014735,-0.059687,-1.005157,-54.567001,1.157104,,,,,,,
1522137813.227885,-0.232717,0.016218,1.973047,-0.088941,-0.002460,0.009135,-0.230591,-0.016218,-0.972915,0.025406,0.026929,-0.017304,-0.705170,-54.568359,1.157288,,,,,,,
1522137813.257853,-0.233265,0.012072,1.971426,-0.166790,-0.032793,-0.033506,-0.231138,-0.012072,-0.972845,0.022795,0.023287,-0.002496,0.197632,-54.197571,1.006226,,,,,,,
1522137813.287821,-0.232592,0.007518,1.969235,-0.156826,0.050047,-0.030388,-0.230494,-0.007518,-0.973044,0.044093,0.007518,-0.047510,-0.183487,-54.721008,0.858093,,,,,,,
1522137813.317790,-0.230795,0.004645,1.968181,-0.049178,0.041087,-0.002598,-0.228749,-0.004645,-0.973474,0.049351,-0.019463,-0.057547,-0.262085,-54.945862,0.633972,,,,,,,
1522137813.347758,-0.230481,0.004327,1.968637,0.014451,-0.023060,0.027365,-0.228444,-0.004327,-0.973547,0.035527,-0.025458,-0.031016,0.418274,-54.498795,0.782532,,,,,,,
1522137813.377726,-0.232213,0.004531,1.969498,0.004539,-0.079390,0.034862,-0.230130,-0.004531,-0.973149,0.019039,-0.008561,0.013203,-0.334366,-54.945099,1.083923,,,,,,,
1522137813.407694,-0.232760,0.002637,1.970632,-0.109400,0.015290,0.059192,-0.230663,-0.002637,-0.973029,0.043239,0.001935,0.010337,0.184006,-55.248032,0.485352,,,,,,,
1522137813.437663,-0.231568,-0.001814,1.971680,-0.145728,0.014290,0.063427,-0.229503,0.001814,-0.973305,0.056179,0.001924,-0.035224,0.711670,-54.800690,0.183838,,,,,,,
1522137813.467631,-0.231933,-0.005025,1.972348,-0.059284,-0.012379,0.047535,-0.229857,0.005025,-0.973211,0.043562,0.001918,0.015539,-0.035156,-54.572189,0.332581,,,,,,,
1522137813.497599,-0.230885,-0.005740,1.973176,-0.001223,0.046117,0.019814,-0.228835,0.005740,-0.973448,0.052001,-0.012057,-0.018847,-0.114182,-55.021759,0.409363,,,,,,,
1522137813.527567,-0.228632,-0.005886,1.974159,-0.003379,0.068271,0.043233,-0.226642,0.005886,-0.973960,0.069720,-0.022991,-0.021386,-0.036346,-54.647263,0.257874,,,,,,,
1522137813.557536,-0.227048,-0.005667,1.975576,0.050782,0.009686,0.046518,-0.225099,0.005667,-0.974319,0.087266,-0.017050,-0.015946,0.039246,-54.497757,0.107300,,,,,,,
1522137813.587504,-0.227402,-0.003973,1.977133,0.046435,-0.028484,0.031657,-0.225445,0.003973,-0.974247,0.072094,-0.016638,-0.017376,0.120071,-54.047897,0.330566,,,,,,,
1522137813.617472,-0.226984,-0.003443,1.977680,0.003124,0.026142,-0.012129,-0.225038,0.003443,-0.974343,0.032747,0.001607,0.015572,0.343262,-54.049194,0.030701,,,,,,,
1522137813.647440,-0.224560,-0.002009,1.977059,0.080261,0.070657,-0.023835,-0.222677,0.002009,-0.974890,0.080511,0.007985,-0.020258,-0.777634,-54.043472,0.705139,,,,,,,
1522137813.677409,-0.221430,0.002194,1.978511,0.176136,0.098657,0.041203,-0.219624,-0.002194,-0.975581,0.108250,0.017499,-0.085286,-0.778992,-54.043701,0.480103,,,,,,,
1522137813.707377,-0.217828,0.007244,1.981500,0.187773,0.115383,0.076357,-0.216104,-0.007244,-0.976343,0.094888,0.008801,-0.115149,-0.628082,-54.268845,1.006104,,,,,,,
1522137813.737345,-0.215784,0.011070,1.984558,0.109412,0.016783,0.072138,-0.214100,-0.011070,-0.976748,0.099094,-0.033470,-0.085156,-0.852615,-54.267761,1.080994,,,,,,,
1522137813.767313,-0.216306,0.011303,1.986753,-0.036025,-0.050781,0.059317,-0.214609,-0.011302,-0.976634,0.111826,-0.043217,-0.025533,-1.154251,-54.341568,0.931091,,,,,,,
1522137813.797282,-0.217746,0.007919,1.987246,-0.148105,-0.081086,0.027293,-0.216022,-0.007919,-0.976356,0.099140,-0.003342,-0.018502,-0.927628,-54.042801,0.705017,,,,,,,
1522137813.827250,-0.219124,0.001738,1.986107,-0.263067,-0.044437,-0.006923,-0.217375,-0.001738,-0.976086,0.095243,0.010832,-0.028095,-1.157410,-54.342072,0.406128,,,,,,,
1522137813.857218,-0.219835,-0.006049,1.983245,-0.251027,-0.044069,-0.063388,-0.218065,0.006049,-0.975915,0.101289,0.006921,-0.026389,-0.410461,-54.196182,-0.344055,,,,,,,
1522137813.887186,-0.221123,-0.008963,1.979738,-0.020366,-0.072054,-0.095150,-0.219316,0.008963,-0.975612,0.113207,0.025155,-0.032216,-0.790680,-54.719467,-0.342163,,,,,,,
1522137813.917155,-0.221515,-0.004629,1.977708,0.228664,-0.015304,-0.095014,-0.219706,0.004629,-0.975555,0.090067,0.035547,-0.050691,-0.782578,-54.268906,0.255981,,,,,,,
1522137813.947123,-0.220199,0.005447,1.978415,0.374716,0.030524,-0.013975,-0.218420,-0.005447,-0.975839,0.098364,0.032150,-0.081534,0.492523,-54.349503,0.406982,,,,,,,
1522137813.977091,-0.219060,0.014513,1.982045,0.266204,0.013017,0.098897,-0.217289,-0.014513,-0.975999,0.099003,-0.015349,-0.090636,-1.004257,-54.566864,1.307068,,,,,,,
1522137814.007060,-0.219575,0.016692,1.987072,-0.009928,-0.047402,0.175471,-0.217785,-0.016691,-0.975853,0.096966,-0.042818,-0.056083,-0.776566,-54.342804,1.381287,,,,,,,
1522137814.037028,-0.220901,0.009463,1.991854,-0.321969,-0.057596,0.222143,-0.219099,-0.009463,-0.975656,0.098280,-0.049970,-0.020728,-0.029922,-54.047211,0.330505,,,,,,,
1522137814.066996,-0.222504,-0.005106,1.994658,-0.519336,-0.081190,0.171938,-0.220669,0.005106,-0.975335,0.090481,-0.056940,0.011040,-1.532257,-54.190613,0.180298,,,,,,,
1522137814.096964,-0.225105,-0.021251,1.994966,-0.522293,-0.097731,0.109077,-0.223158,0.021250,-0.974550,0.107267,-0.058817,0.033449,-1.612503,-54.265991,-0.569458,,,,,,,
,,,,,,,,,,,,,,,,25.306144,51.446438,-20.912153,-1.000000,-1.000000,1522137814.085599,
1522137814.126948,-0.226283,-0.034594,1.993827,-0.408545,-0.051830,0.038792,-0.224222,0.034587,-0.973923,0.117319,-0.052211,0.046586,-1.237396,-53.893280,-1.170715,,,,,,,
1522137814.156916,-0.226517,-0.041340,1.992616,-0.101790,-0.019395,0.002757,-0.224393,0.041328,-0.973621,0.126218,-0.029457,-0.005962,-1.766113,-54.265900,-1.169495,,,,,,,
1522137814.186884,-0.226077,-0.037348,1.992897,0.259484,0.039352,-0.020459,-0.224000,0.037339,-0.973873,0.110734,-0.038392,-0.021397,-1.390686,-54.042892,-1.470154,,,,,,,
1522137814.216852,-0.223348,-0.026333,1.995059,0.433601,0.069668,-0.010771,-0.221419,0.026330,-0.974823,0.123335,-0.019678,-0.035050,-0.863739,-54.119812,-1.019653,,,,,,,
1522137814.246821,-0.221401,-0.012499,1.997811,0.458022,0.049373,-0.003280,-0.219579,0.012499,-0.975514,0.120717,-0.001833,-0.054653,-0.931229,-54.043381,0.104980,,,,,,,
1522137814.276789,-0.218424,-0.001864,2.000937,0.283870,0.065484,0.033869,-0.216691,0.001864,-0.976238,0.132829,0.002683,-0.093480,-1.235107,-54.342163,-0.043945,,,,,,,
1522137814.306757,-0.215961,0.002819,2.002324,0.091848,0.057724,-0.003560,-0.214285,-0.002819,-0.976767,0.100134,0.001629,-0.102335,-0.784378,-54.493820,0.331909,,,,,,,
1522137814.336725,-0.215133,0.003866,2.002499,0.015704,-0.009051,0.001766,-0.213476,-0.003866,-0.976940,0.129949,-0.011743,-0.055851,-1.006073,-54.342529,0.631165,,,,,,,
1522137814.366694,-0.214678,0.003651,2.002394,-0.019419,0.019693,0.005976,-0.213031,-0.003651,-0.977038,0.127749,-0.013637,-0.083494,-1.012955,-54.718018,0.107666,,,,,,,
1522137814.396662,-0.214750,0.002415,2.002774,-0.050845,-0.059034,0.028418,-0.213103,-0.002415,-0.977026,0.125395,-0.010646,-0.077585,-0.714478,-54.644730,-0.267456,,,,,,,
1522137814.426630,-0.217781,-0.000373,2.003741,-0.131385,-0.117545,0.066775,-0.216064,0.000373,-0.976379,0.124786,-0.024772,-0.014710,-1.462784,-54.790848,0.257751,,,,,,,
1522137814.456599,-0.220185,-0.006277,2.004088,-0.207913,-0.074666,0.038978,-0.218406,0.006277,-0.975837,0.106910,-0.001226,0.015129,-1.840027,-54.789520,-0.117432,,,,,,,
1522137814.486567,-0.219806,-0.011703,2.003456,-0.149646,0.027415,0.009080,-0.218025,0.011703,-0.975872,0.120460,0.016465,-0.026966,-1.239166,-54.342819,-0.718933,,,,,,,
1522137814.516536,-0.218693,-0.013239,2.002949,-0.000118,0.000705,-0.023811,-0.216935,0.013239,-0.976096,0.119278,-0.000116,-0.080957,-2.144073,-54.788834,-0.792603,,,,,,,
1522137814.546503,-0.217956,-0.011113,2.001968,0.097201,-0.008822,-0.063155,-0.216220,0.011113,-0.976281,0.116932,-0.029454,-0.071632,-2.062790,-54.338898,-0.494385,,,,,,,
1522137814.576473,-0.217824,-0.006769,2.000518,0.161356,-0.012016,-0.084417,-0.216100,0.006769,-0.976347,0.102926,-0.016840,-0.034044,-1.685394,-54.415070,0.031189,,,,,,,
1522137814.606440,-0.216859,-0.001246,1.999126,0.184945,0.022920,-0.073781,-0.215163,0.001246,-0.976577,0.103210,0.012365,-0.079316,-2.135818,-54.637741,0.331787,,,,,,,
1522137814.636408,-0.217022,0.005303,1.999504,0.201281,-0.071080,-0.010803,-0.215320,-0.005303,-0.976529,0.113254,-0.003348,-0.102451,-1.761734,-54.639572,0.182007,,,,,,,
1522137814.666376,-0.220174,0.008406,2.000613,0.026794,-0.126157,0.027473,-0.218392,-0.008406,-0.975824,0.100365,-0.016543,-0.047751,-1.011307,-54.642868,0.257385,,,,,,,
1522137814.696345,-0.224232,0.005834,2.001401,-0.131453,-0.155653,0.046566,-0.222354,-0.005834,-0.974948,0.108218,0.001089,0.020434,-1.914261,-54.938812,0.258118,,,,,,,
1522137814.726313,-0.227863,-0.000542,2.001296,-0.260536,-0.131968,0.047516,-0.225896,0.000542,-0.974151,0.109319,0.000816,0.039687,-1.764130,-54.789719,0.032593,,,,,,,
1522137814.756281,-0.229588,-0.009411,2.000347,-0.307035,-0.053038,0.022889,-0.227566,0.009411,-0.973716,0.110043,0.028355,0.011238,-1.315048,-54.791885,-0.117188,,,,,,,
1522137814.786249,-0.229711,-0.016485,1.998692,-0.188190,-0.018059,-0.009014,-0.227665,0.016485,-0.973599,0.108220,0.028544,-0.008472,-1.767426,-54.940002,-0.266846,,,,,,,
