timestamp(unix),attitude_roll(radians),attitude_pitch(radians),attitude_yaw(radians),rotation_rate_x(radians/s),rotation_rate_y(radians/s),rotation_rate_z(radians/s),gravity_x(G),gravity_y(G),gravity_z(G),user_acc_x(G),user_acc_y(G),user_acc_z(G),magnetic_field_x(microteslas),magnetic_field_y(microteslas),magnetic_field_z(microteslas),latitude(degree),longitude(degree),altitude(meter),speed(m/s),course(degree),timestamp(unix),User Mark
1522139227.195076,-0.042283,0.032743,2.037593,-0.011390,0.022692,-0.001036,-0.042248,-0.032737,-0.998571,-0.041645,-0.012643,0.041188,-32.013596,-48.767715,-39.081604,,,,,,,
,,,,,,,,,,,,,,,,25.306101,51.445722,10.999988,-1.000000,-1.000000,1522139222.974338,
1522139227.225044,-0.041007,0.032716,2.037437,-0.001557,0.068397,-0.005341,-0.040974,-0.032710,-0.998625,-0.023434,0.022563,0.061430,-31.709869,-48.394073,-39.082947,,,,,,,
1522139227.255013,-0.038717,0.033214,2.037206,0.014605,0.097086,-0.009626,-0.038686,-0.033208,-0.998699,-0.051875,-0.007366,0.032955,-32.462524,-48.615753,-39.157410,,,,,,,
1522139227.284981,-0.036204,0.033509,2.036958,0.008252,0.110896,-0.007510,-0.036176,-0.033503,-0.998784,-0.017291,0.009806,-0.060222,-32.614151,-48.690231,-39.307251,,,,,,,
1522139227.314949,-0.033931,0.033908,2.036720,0.006919,0.056675,-0.003194,-0.033905,-0.033901,-0.998850,-0.022233,-0.024708,-0.079763,-31.418442,-48.846069,-39.755981,,,,,,,
1522139227.344917,-0.032380,0.033923,2.036472,-0.008987,0.079033,-0.004291,-0.032356,-0.033916,-0.998901,-0.016487,0.012020,-0.009003,-31.865387,-48.768677,-39.381470,,,,,,,
1522139227.374886,-0.031351,0.033862,2.036216,-0.009301,0.006805,-0.007420,-0.031328,-0.033856,-0.998936,-0.014586,-0.009220,-0.090969,-32.315079,-48.691727,-39.457031,,,,,,,
1522139227.404854,-0.031044,0.033606,2.035954,-0.005151,-0.018731,-0.005254,-0.031022,-0.033599,-0.998954,0.033814,-0.010315,-0.024713,-31.559875,-48.394745,-39.082825,,,,,,,
1522139227.434822,-0.032578,0.033583,2.035888,0.005250,-0.079323,-0.005187,-0.032554,-0.033577,-0.998906,0.006218,0.021797,0.101643,-32.390091,-48.466766,-39.832947,,,,,,,
1522139227.464790,-0.035158,0.033604,2.035839,0.005103,-0.106979,-0.000899,-0.035131,-0.033598,-0.998818,0.025854,0.018202,-0.069633,-32.018402,-48.618744,-40.132141,,,,,,,
1522139227.494759,-0.038084,0.033768,2.035831,-0.000265,-0.114395,-0.001962,-0.038053,-0.033761,-0.998705,-0.000430,-0.008048,-0.183195,-31.865555,-48.469193,-39.907715,,,,,,,
1522139227.524727,-0.041523,0.034136,2.035809,-0.006655,-0.104871,0.004424,-0.041487,-0.034130,-0.998556,0.020842,-0.022603,0.042639,-32.771225,-49.214813,-39.605164,,,,,,,
1522139227.554695,-0.044540,0.033889,2.035910,0.006266,-0.079390,0.004401,-0.044500,-0.033882,-0.998435,-0.048991,-0.026237,-0.078973,-32.694275,-49.065094,-39.530762,,,,,,,
1522139227.584633,-0.047280,0.034141,2.035996,0.009485,-0.077267,0.003337,-0.047235,-0.034134,-0.998300,-0.039664,-0.009705,-0.130819,-32.388885,-48.616318,-39.382385,,,,,,,
1522139227.614601,-0.048928,0.034648,2.035886,0.019367,-0.025187,-0.003095,-0.048879,-0.034641,-0.998204,-0.045344,-0.026424,-0.232723,-32.915207,-48.838806,-39.231750,,,,,,,
1522139227.644570,-0.049995,0.035515,2.035703,0.027938,-0.026226,-0.009481,-0.049943,-0.035508,-0.998121,-0.053130,0.011231,-0.049533,-33.362778,-48.686646,-39.082581,,,,,,,
1522139227.674538,-0.049857,0.035977,2.035525,0.011019,0.017353,-0.004215,-0.049804,-0.035969,-0.998111,-0.006715,0.000294,-0.031064,-32.388123,-48.765945,-39.006775,,,,,,,
1522139227.704506,-0.049064,0.036380,2.035371,0.006710,0.005684,-0.006334,-0.049012,-0.036372,-0.998136,-0.033767,-0.024647,-0.010363,-33.439438,-48.986069,-38.856445,,,,,,,
1522139227.734474,-0.047876,0.036534,2.035133,0.002604,0.042891,-0.006378,-0.047826,-0.036526,-0.998188,-0.016520,-0.004764,0.057117,-32.759827,-48.389343,-39.083435,,,,,,,
1522139227.764443,-0.046334,0.036338,2.034943,-0.017601,0.066294,-0.002157,-0.046287,-0.036330,-0.998267,-0.022972,-0.033220,-0.034188,-32.685577,-48.464691,-39.083130,,,,,,,
1522139227.794411,-0.045228,0.036193,2.034806,-0.005987,0.037576,-0.002121,-0.045183,-0.036185,-0.998323,-0.003569,0.025870,0.054491,-33.212204,-48.537460,-39.233093,,,,,,,
1522139227.824379,-0.044277,0.036341,2.034640,0.004695,0.031218,-0.008500,-0.044234,-0.036333,-0.998360,0.008726,0.007540,0.078881,-33.213089,-48.762238,-39.007202,,,,,,,
1522139227.854347,-0.043457,0.036413,2.034508,-0.002837,0.025880,-0.002108,-0.043414,-0.036405,-0.998394,0.030063,0.003141,0.055126,-32.161942,-48.467255,-39.307861,,,,,,,
1522139227.884316,-0.043096,0.036517,2.034431,0.005555,-0.007098,-0.000997,-0.043053,-0.036509,-0.998405,-0.015769,-0.018773,-0.018837,-32.838409,-48.614212,-39.307617,,,,,,,
1522139227.914284,-0.043216,0.036721,2.034331,0.009831,-0.007101,-0.002059,-0.043173,-0.036713,-0.998393,-0.015955,0.011384,-0.008458,-32.614609,-48.690308,-39.382202,,,,,,,
1522139227.944252,-0.043760,0.037182,2.034173,0.012931,-0.035776,-0.006285,-0.043716,-0.037173,-0.998352,-0.007752,0.016971,-0.001724,-33.061310,-48.537994,-39.083008,,,,,,,
1522139227.974220,-0.044386,0.037656,2.033979,0.011958,-0.016626,-0.008440,-0.044340,-0.037647,-0.998307,-0.028841,-0.027767,0.004883,-33.209961,-48.312469,-39.234009,,,,,,,
1522139228.004189,-0.045114,0.038142,2.033769,0.020443,-0.030455,-0.009484,-0.045065,-0.038132,-0.998256,-0.025354,0.012955,0.049114,-33.960983,-48.234390,-39.534668,,,,,,,
1522139228.034157,-0.045892,0.038187,2.033632,0.010833,-0.028323,-0.007362,-0.045842,-0.038178,-0.998219,-0.012370,-0.028244,0.017018,-31.714355,-48.619431,-39.457031,,,,,,,
1522139228.064095,-0.046440,0.038207,2.033465,-0.006191,-0.014476,-0.006321,-0.046389,-0.038198,-0.998193,-0.026075,0.017583,-0.053565,-33.213394,-48.612534,-39.307861,,,,,,,
1522139228.094063,-0.046869,0.038244,2.033358,-0.004065,-0.010251,-0.002068,-0.046818,-0.038235,-0.998171,-0.008785,0.009091,-0.060987,-33.133163,-48.087891,-39.309875,,,,,,,
1522139228.124031,-0.047213,0.037993,2.033274,-0.008323,-0.002834,0.002184,-0.047161,-0.037984,-0.998165,-0.035862,-0.012431,-0.089711,-33.137802,-48.687653,-39.082458,,,,,,,
1522139228.153999,-0.047490,0.037830,2.033221,-0.009374,-0.004916,-0.003144,-0.047438,-0.037821,-0.998158,-0.049943,-0.022482,-0.112361,-32.987045,-48.613327,-39.082703,,,,,,,
1522139228.183968,-0.047789,0.037466,2.033093,-0.025374,-0.000618,-0.003165,-0.047737,-0.037457,-0.998157,-0.017540,0.000836,-0.073467,-32.762512,-48.614410,-39.157593,,,,,,,
1522139228.213936,-0.048063,0.037159,2.032974,-0.011509,-0.013393,-0.008452,-0.048011,-0.037150,-0.998156,-0.030358,-0.019841,-0.148832,-32.612961,-48.615158,-39.232483,,,,,,,
1522139228.243903,-0.048435,0.037125,2.032766,-0.004001,-0.003850,-0.007395,-0.048383,-0.037116,-0.998139,-0.014056,-0.026269,-0.007781,-33.061752,-48.762680,-38.782104,,,,,,,
1522139228.273872,-0.048660,0.036905,2.032564,-0.005150,-0.017663,-0.005259,-0.048608,-0.036896,-0.998136,0.003564,-0.046356,0.010557,-32.681839,-48.089706,-39.084595,,,,,,,
1522139228.303840,-0.048807,0.036647,2.032389,0.010887,-0.012387,-0.005254,-0.048755,-0.036639,-0.998139,-0.029843,-0.022580,-0.019470,-33.432251,-48.086395,-39.160034,,,,,,,
1522139228.333808,-0.048639,0.036511,2.032192,-0.005051,-0.000649,-0.008466,-0.048588,-0.036503,-0.998152,-0.059521,0.015430,-0.071978,-32.838257,-48.689072,-39.157288,,,,,,,
1522139228.363775,-0.048182,0.036327,2.031996,-0.019957,0.011063,-0.006359,-0.048132,-0.036319,-0.998180,-0.010721,0.000324,-0.011112,-32.685425,-48.314911,-39.308777,,,,,,,
1522139228.393745,-0.047555,0.036085,2.031787,-0.004974,0.015316,-0.010621,-0.047506,-0.036077,-0.998219,-0.015070,0.008001,0.052586,-33.510239,-48.386047,-39.158875,,,,,,,
1522139228.423712,-0.046736,0.035923,2.031608,0.002496,0.014216,-0.009541,-0.046688,-0.035916,-0.998264,-0.035556,-0.005558,0.044315,-33.506348,-48.085907,-39.010010,,,,,,,
1522139228.453681,-0.045928,0.035695,2.031387,-0.008145,0.024873,-0.008502,-0.045883,-0.035687,-0.998309,0.001525,-0.005847,0.033008,-32.605774,-47.940109,-39.160217,,,,,,,
1522139228.483649,-0.045130,0.035616,2.031164,0.009964,0.012083,-0.010601,-0.045087,-0.035608,-0.998348,0.045575,0.011011,0.005535,-33.212051,-48.387695,-39.458679,,,,,,,
1522139228.513618,-0.044573,0.035460,2.030958,-0.008292,-0.007017,-0.007401,-0.044530,-0.035452,-0.998379,-0.025081,0.003958,-0.020496,-33.208008,-48.162399,-39.159607,,,,,,,
1522139228.543555,-0.044206,0.035368,2.030793,-0.003958,0.013125,-0.002091,-0.044164,-0.035360,-0.998398,-0.017649,0.033926,0.010560,-32.460739,-48.390839,-39.233337,,,,,,,
1522139228.573524,-0.043966,0.035502,2.030661,-0.006148,-0.002806,-0.004200,-0.043924,-0.035494,-0.998404,-0.018897,-0.011610,-0.016626,-33.061005,-48.463058,-39.158325,,,,,,,
1522139228.603492,-0.044144,0.035398,2.030491,0.005566,-0.007065,-0.004200,-0.044102,-0.035391,-0.998400,-0.013546,0.005987,-0.004835,-33.131210,-48.162445,-38.859558,,,,,,,
1522139228.633460,-0.044476,0.035607,2.030342,0.005567,-0.011316,-0.006316,-0.044433,-0.035600,-0.998378,-0.021653,-0.021575,-0.024175,-32.306564,-47.791840,-39.535645,,,,,,,
1522139228.663428,-0.044934,0.035765,2.030218,0.007678,-0.014510,-0.005251,-0.044891,-0.035757,-0.998352,-0.033707,0.004477,-0.040619,-32.763870,-48.614624,-39.382568,,,,,,,
1522139228.693397,-0.045494,0.035966,2.030018,0.006635,-0.012374,-0.007380,-0.045448,-0.035958,-0.998319,-0.003319,-0.009925,-0.002230,-33.061005,-48.463058,-39.158325,,,,,,,
1522139228.723365,-0.046042,0.036285,2.029892,0.007703,-0.009198,-0.005255,-0.045995,-0.036277,-0.998283,-0.011408,-0.015542,-0.023553,-33.738358,-48.610168,-39.308105,,,,,,,
1522139228.753333,-0.046759,0.036179,2.029658,-0.004115,-0.029338,-0.008439,-0.046711,-0.036171,-0.998253,-0.018948,0.027580,-0.068275,-32.988693,-48.688477,-39.232422,,,,,,,
1522139228.783301,-0.047357,0.036067,2.029491,-0.006169,-0.010214,-0.007394,-0.047308,-0.036059,-0.998229,-0.032450,-0.005323,-0.032136,-32.912964,-48.389191,-39.608582,,,,,,,
1522139228.813270,-0.047944,0.035709,2.029213,-0.008342,-0.021871,-0.010316,-0.047895,-0.035701,-0.998214,-0.007052,-0.000050,-0.034196,-32.685425,-48.314911,-39.308777,,,,,,,
1522139228.843238,-0.048248,0.035465,2.028950,-0.011467,0.000439,-0.006901,-0.048199,-0.035458,-0.998208,-0.046604,0.025967,-0.099891,-33.062057,-48.612991,-39.082703,,,,,,,
1522139228.873206,-0.048800,0.035660,2.028603,0.016242,-0.019771,-0.014316,-0.048749,-0.035652,-0.998175,-0.018054,-0.007805,0.033850,-32.990204,-48.838470,-39.231812,,,,,,,
1522139228.903174,-0.048995,0.035567,2.028200,-0.017832,0.003664,-0.011166,-0.048944,-0.035559,-0.998168,-0.023077,-0.019998,-0.017930,-32.835266,-48.389084,-39.158508,,,,,,,
1522139228.933143,-0.049028,0.035450,2.027816,0.008830,-0.004900,-0.012200,-0.048977,-0.035442,-0.998171,-0.034672,0.013454,-0.023726,-32.835571,-48.464005,-39.083191,,,,,,,
1522139228.963111,-0.048847,0.035647,2.027320,-0.001790,0.001556,-0.018613,-0.048797,-0.035639,-0.998173,-0.023027,0.028895,-0.001888,-33.134354,-48.387589,-39.008667,,,,,,,
1522139228.993049,-0.048461,0.035531,2.026737,-0.007082,0.011128,-0.018624,-0.048412,-0.035524,-0.998196,-0.012623,-0.003081,-0.075459,-33.135712,-48.387802,-39.233704,,,,,,,
1522139229.023017,-0.048216,0.034942,2.026168,-0.019990,-0.003735,-0.014364,-0.048168,-0.034935,-0.998228,-0.000141,-0.010918,-0.049105,-33.511581,-48.610886,-39.007935,,,,,,,
1522139229.052985,-0.047947,0.034546,2.025599,-0.013449,0.018590,-0.019702,-0.047900,-0.034540,-0.998255,-0.019697,0.052804,0.017969,-32.833008,-48.613342,-38.407593,,,,,,,
1522139229.082954,-0.047738,0.034164,2.024945,-0.014648,-0.012218,-0.020735,-0.047692,-0.034157,-0.998278,-0.030601,-0.013954,-0.093427,-32.914001,-48.539108,-39.532959,,,,,,,
1522139229.112922,-0.047880,0.033542,2.024331,-0.021072,-0.017509,-0.021799,-0.047834,-0.033536,-0.998292,-0.017534,0.021176,0.009919,-33.285233,-48.387054,-39.158752,,,,,,,
1522139229.142889,-0.048166,0.033313,2.023728,-0.001867,-0.017569,-0.019656,-0.048121,-0.033307,-0.998286,-0.019766,0.004575,-0.025228,-33.661118,-48.385513,-39.308960,,,,,,,
1522139229.172858,-0.048660,0.033121,2.023170,-0.006138,-0.017559,-0.019659,-0.048614,-0.033115,-0.998269,-0.035767,0.054233,0.002831,-32.911148,-48.388885,-39.308594,,,,,,,
1522139229.202826,-0.049112,0.032970,2.022556,0.005619,-0.020737,-0.024975,-0.049065,-0.032964,-0.998251,-0.030296,-0.021098,0.024390,-33.135849,-48.537582,-39.008057,,,,,,,
1522139229.232795,-0.049564,0.032652,2.021920,-0.016872,-0.028174,-0.017524,-0.049518,-0.032646,-0.998240,-0.008878,0.045387,-0.026022,-33.059814,-48.388000,-39.083618,,,,,,,
,,,,,,,,,,,,,,,,25.306101,51.445722,10.999991,-1.000000,-1.000000,1522139229.214304,
1522139229.262748,-0.049965,0.032421,2.021350,0.005632,-0.014385,-0.021784,-0.049918,-0.032415,-0.998227,-0.005762,0.016806,-0.039309,-33.659622,-48.460159,-38.933655,,,,,,,
1522139229.292716,-0.050298,0.032467,2.020728,-0.008164,0.001603,-0.023942,-0.050250,-0.032462,-0.998209,-0.024762,0.010428,-0.087805,-33.208908,-48.387177,-38.933716,,,,,,,
1522139229.322685,-0.050653,0.032510,2.020021,0.009979,-0.002663,-0.027125,-0.050604,-0.032504,-0.998190,-0.034631,0.007739,-0.029993,-32.391144,-48.616684,-39.757385,,,,,,,
1522139229.352653,-0.050718,0.032574,2.019314,-0.008095,0.015422,-0.025019,-0.050669,-0.032568,-0.998184,-0.024786,0.001333,0.005036,-33.061600,-48.612915,-39.007690,,,,,,,
1522139229.382621,-0.050799,0.032553,2.018625,0.007799,-0.004841,-0.019662,-0.050750,-0.032547,-0.998181,-0.027069,0.056275,0.020718,-33.360825,-48.761200,-38.632263,,,,,,,
1522139229.412589,-0.050574,0.032613,2.017908,-0.004877,0.019655,-0.023954,-0.050526,-0.032608,-0.998190,-0.026241,0.008819,0.003531,-32.908447,-48.388458,-38.858582,,,,,,,
1522139229.442558,-0.050212,0.032476,2.017218,0.001457,0.006879,-0.021810,-0.050165,-0.032470,-0.998213,-0.029029,0.000274,-0.040788,-33.506195,-48.160767,-38.859802,,,,,,,
1522139229.472495,-0.049703,0.032262,2.016501,-0.004838,0.029242,-0.025040,-0.049657,-0.032256,-0.998245,-0.027079,0.023574,0.026764,-33.512634,-48.536179,-39.308289,,,,,,,
1522139229.502464,-0.048957,0.032329,2.015930,0.005785,0.024888,-0.016492,-0.048912,-0.032323,-0.998280,-0.014717,0.030309,-0.032192,-32.461639,-48.390991,-39.383301,,,,,,,
1522139229.532432,-0.048065,0.032184,2.015235,-0.003770,0.029222,-0.023967,-0.048021,-0.032178,-0.998328,0.020632,0.017545,0.014639,-33.138550,-48.762650,-39.082153,,,,,,,
1522139229.562400,-0.047008,0.032173,2.014593,0.002760,0.060013,-0.021867,-0.046966,-0.032168,-0.998378,-0.035660,0.012865,-0.061131,-33.443192,-49.136429,-39.230835,,,,,,,
1522139229.592368,-0.046131,0.032223,2.013958,0.002605,0.027067,-0.020769,-0.046091,-0.032218,-0.998418,-0.024679,0.005728,0.023167,-32.837967,-48.614151,-39.232605,,,,,,,
1522139229.622337,-0.045325,0.032117,2.013301,-0.005951,0.022829,-0.020766,-0.045286,-0.032111,-0.998458,-0.007220,0.032111,0.061934,-33.362030,-48.611649,-39.082886,,,,,,,
1522139229.652305,-0.044463,0.032123,2.012705,0.009018,0.031270,-0.017567,-0.044425,-0.032117,-0.998496,-0.039574,0.017087,-0.033456,-33.213394,-48.612534,-39.307861,,,,,,,
1522139229.682273,-0.043998,0.032330,2.012073,0.002528,0.005817,-0.022870,-0.043961,-0.032325,-0.998510,-0.036194,0.024878,0.028539,-32.910553,-48.463669,-39.083252,,,,,,,
1522139229.712242,-0.043620,0.032508,2.011445,0.011077,0.012156,-0.019679,-0.043583,-0.032502,-0.998521,-0.023785,0.009812,0.054505,-33.587784,-48.685623,-39.082703,,,,,,,
1522139229.742210,-0.043499,0.032694,2.010873,0.004679,0.013229,-0.019681,-0.043462,-0.032688,-0.998520,-0.022853,0.010365,0.034119,-33.289124,-48.687195,-39.307556,,,,,,,
1522139229.772178,-0.043484,0.032823,2.010276,0.008879,-0.002706,-0.020732,-0.043447,-0.032817,-0.998517,-0.028178,0.022014,-0.042560,-32.912506,-48.389114,-39.533569,,,,,,,
1522139229.802146,-0.043720,0.033021,2.009640,-0.001764,0.005812,-0.019682,-0.043682,-0.033015,-0.998500,-0.038746,-0.002660,0.001750,-33.361588,-48.386948,-39.383789,,,,,,,
1522139229.832115,-0.044266,0.032931,2.009023,0.001341,-0.019676,-0.022851,-0.044227,-0.032925,-0.998479,-0.017510,0.012173,-0.018275,-33.439301,-48.836288,-39.082031,,,,,,,
1522139229.862083,-0.044930,0.032794,2.008428,-0.002922,-0.015446,-0.019656,-0.044891,-0.032788,-0.998454,-0.015870,0.010113,-0.014516,-32.688873,-48.614975,-39.382507,,,,,,,
1522139229.892051,-0.045985,0.032707,2.007810,-0.010412,-0.017558,-0.018595,-0.045944,-0.032701,-0.998409,-0.004013,-0.007369,0.026347,-33.513840,-48.835876,-39.007019,,,,,,,
1522139229.921989,-0.047142,0.032297,2.007166,-0.010640,-0.068568,-0.018540,-0.047100,-0.032292,-0.998368,-0.001713,0.010289,-0.134170,-33.436142,-48.611160,-38.932922,,,,,,,
1522139229.951957,-0.048360,0.032031,2.006609,-0.006169,-0.026055,-0.020714,-0.048317,-0.032026,-0.998318,-0.031929,0.006238,-0.036502,-32.462677,-48.540909,-39.307739,,,,,,,
1522139229.981925,-0.049641,0.031889,2.006052,-0.005191,-0.044141,-0.018561,-0.049595,-0.031883,-0.998260,-0.022884,0.000542,-0.055969,-33.739273,-48.834946,-39.082153,,,,,,,
1522139230.011894,-0.050667,0.031663,2.005473,-0.014729,-0.027105,-0.018592,-0.050619,-0.031658,-0.998216,-0.033395,0.036739,-0.018507,-33.588989,-48.985321,-38.781494,,,,,,,
1522139230.041862,-0.051211,0.031387,2.004913,-0.001820,-0.003781,-0.016471,-0.051164,-0.031382,-0.998197,-0.046370,0.021341,-0.053286,-33.812485,-48.834305,-38.782227,,,,,,,
1522139230.071830,-0.051336,0.031209,2.004352,-0.013534,0.002656,-0.018629,-0.051288,-0.031204,-0.998196,-0.033276,-0.018021,-0.009769,-33.887024,-48.833908,-38.707275,,,,,,,
1522139230.101798,-0.050868,0.031095,2.003800,0.020655,0.006813,-0.018602,-0.050822,-0.031090,-0.998224,-0.027288,0.068581,-0.052954,-33.583435,-48.385422,-38.858887,,,,,,,
1522139230.131767,-0.050295,0.032299,2.003163,0.048514,0.019525,-0.024977,-0.050248,-0.032293,-0.998215,-0.013168,0.043447,-0.018784,-33.211304,-48.537323,-39.083069,,,,,,,
1522139230.161735,-0.049244,0.033610,2.002447,0.034597,0.014270,-0.024998,-0.049197,-0.033603,-0.998224,-0.031019,0.001850,-0.174567,-33.359482,-48.536346,-38.783203,,,,,,,
1522139230.191703,-0.048690,0.033708,2.001777,-0.008140,0.009040,-0.022887,-0.048643,-0.033701,-0.998248,-0.030687,-0.008153,0.011202,-33.366669,-49.211395,-38.855530,,,,,,,
1522139230.221671,-0.048079,0.033588,2.001236,0.003638,0.021735,-0.018631,-0.048033,-0.033581,-0.998281,-0.031648,0.006939,0.080434,-32.686325,-48.539688,-39.082825,,,,,,,
1522139230.251641,-0.047575,0.033112,2.000662,-0.032658,0.021818,-0.018654,-0.047531,-0.033106,-0.998321,-0.017929,0.028605,0.123519,-34.258713,-48.457306,-38.783936,,,,,,,
1522139230.281609,-0.046784,0.032360,2.000095,-0.017848,-0.004805,-0.015420,-0.046743,-0.032355,-0.998383,0.043233,0.011053,-0.091385,-33.362930,-48.611786,-39.232910,,,,,,,
1522139230.311577,-0.046239,0.032638,1.999754,0.017485,0.027994,-0.006906,-0.046198,-0.032633,-0.998399,0.013926,0.114237,0.024370,-33.736710,-48.535019,-39.158386,,,,,,,
1522139230.341545,-0.045973,0.033472,1.999468,0.022564,-0.030452,-0.007911,-0.045931,-0.033465,-0.998384,0.032077,-0.028867,0.014039,-33.289886,-48.986816,-38.931396,,,,,,,
1522139230.371514,-0.045622,0.033352,1.999168,-0.008149,0.019594,-0.012245,-0.045581,-0.033345,-0.998404,0.023577,0.044316,0.045996,-33.967117,-48.984146,-39.306702,,,,,,,
1522139230.401452,-0.045432,0.033458,1.998685,0.013048,-0.026101,-0.020700,-0.045391,-0.033452,-0.998409,-0.033527,-0.054424,-0.084400,-33.440323,-49.210831,-38.630493,,,,,,,
1522139230.431420,-0.046021,0.033501,1.998090,-0.003042,-0.042011,-0.019629,-0.045979,-0.033494,-0.998381,-0.026271,0.079393,0.142057,-33.138550,-48.762650,-39.082153,,,,,,,
1522139230.461388,-0.046377,0.033410,1.997406,-0.000755,-0.009048,-0.021800,-0.046334,-0.033404,-0.998367,-0.012870,-0.047346,-0.196243,-33.136459,-48.462799,-39.233398,,,,,,,
1522139230.491356,-0.047509,0.033520,1.996625,-0.003947,-0.010112,-0.022855,-0.047465,-0.033514,-0.998311,-0.044042,-0.032343,-0.048687,-33.436737,-48.761002,-38.782349,,,,,,,
1522139230.521325,-0.048585,0.034078,1.995924,0.002433,-0.015437,-0.022848,-0.048538,-0.034072,-0.998240,-0.050385,-0.011369,0.037516,-33.289429,-48.986740,-38.856384,,,,,,,
1522139230.551293,-0.049365,0.033635,1.995419,-0.016705,0.013249,-0.014372,-0.049317,-0.033629,-0.998217,-0.052490,-0.011263,0.003405,-32.612808,-48.690018,-39.082214,,,,,,,
1522139230.581261,-0.050054,0.033219,1.994904,-0.019010,-0.026057,-0.015398,-0.050006,-0.033213,-0.998197,-0.041806,0.017801,-0.081561,-33.814575,-48.909515,-39.006897,,,,,,,
1522139230.611228,-0.050522,0.033144,1.994359,0.006739,-0.000620,-0.016464,-0.050473,-0.033138,-0.998176,-0.040836,0.010189,0.032996,-33.508591,-48.310898,-39.009155,,,,,,,
1522139230.641198,-0.050694,0.033163,1.993777,-0.001833,-0.008024,-0.017532,-0.050645,-0.033157,-0.998166,-0.037643,0.026092,-0.018054,-32.612961,-48.615158,-39.232483,,,,,,,
1522139230.671165,-0.050613,0.033226,1.993214,0.003670,0.028122,-0.019706,-0.050563,-0.033220,-0.998168,-0.015782,0.036928,0.024871,-32.984650,-48.463196,-38.933289,,,,,,,
1522139230.701133,-0.050473,0.033500,1.992672,0.007823,0.000455,-0.018595,-0.050423,-0.033494,-0.998166,-0.017204,0.026566,-0.029483,-33.740768,-48.984940,-39.081543,,,,,,,
1522139230.731102,-0.050431,0.033640,1.992184,0.000434,0.023835,-0.015432,-0.050381,-0.033634,-0.998164,-0.002292,0.023258,-0.042501,-32.613403,-48.615234,-39.307495,,,,,,,
1522139230.761070,-0.050388,0.033632,1.991810,0.002397,-0.009139,-0.011137,-0.050339,-0.033626,-0.998166,-0.041016,0.008723,-0.059085,-33.437042,-48.611298,-39.082886,,,,,,,
1522139230.791039,-0.050482,0.033560,1.991411,-0.000657,0.020649,-0.014368,-0.050432,-0.033554,-0.998164,0.002519,0.031524,-0.033285,-33.059662,-48.462845,-38.933350,,,,,,,
1522139230.821007,-0.050774,0.033704,1.990953,0.008818,-0.009130,-0.014330,-0.050723,-0.033698,-0.998144,-0.018124,-0.003778,-0.032709,-32.612808,-48.690018,-39.082214,,,,,,,
1522139230.850945,-0.051199,0.033832,1.990506,0.006719,-0.002760,-0.014331,-0.051148,-0.033826,-0.998118,-0.030182,-0.001209,0.007167,-33.215195,-49.062073,-38.856018,,,,,,,
1522139230.880913,-0.051625,0.034054,1.990011,0.007864,0.013217,-0.017555,-0.051572,-0.034048,-0.998089,-0.040439,-0.009989,-0.040653,-33.665314,-48.985199,-39.006531,,,,,,,
1522139230.910881,-0.052054,0.034297,1.989505,0.001404,-0.000595,-0.017536,-0.052000,-0.034291,-0.998058,-0.031908,-0.025295,-0.071232,-32.311935,-48.466583,-39.307983,,,,,,,
1522139230.940850,-0.052577,0.034405,1.988938,0.002455,-0.009067,-0.021790,-0.052522,-0.034399,-0.998027,-0.018813,-0.009608,0.050823,-33.435684,-48.611084,-38.857910,,,,,,,
1522139230.970818,-0.052751,0.034504,1.988325,0.001538,0.023873,-0.021822,-0.052695,-0.034497,-0.998015,-0.022897,0.001706,0.040754,-33.289886,-48.986816,-38.931396,,,,,,,
1522139231.000786,-0.052622,0.034628,1.987731,0.006780,0.005803,-0.020744,-0.052566,-0.034621,-0.998017,-0.029282,0.020797,-0.013641,-32.911438,-48.688446,-38.857361,,,,,,,
1522139231.030754,-0.052367,0.034737,1.987027,-0.007009,0.024957,-0.020769,-0.052311,-0.034730,-0.998027,0.004994,-0.012862,0.033336,-33.512634,-48.985443,-38.556519,,,,,,,
1522139231.060723,-0.051843,0.034434,1.986432,-0.005978,0.022790,-0.015437,-0.051789,-0.034427,-0.998064,-0.022551,0.029102,0.017641,-33.586578,-48.610550,-39.007996,,,,,,,
1522139231.090691,-0.051198,0.034151,1.985851,-0.002737,0.023891,-0.021830,-0.051146,-0.034145,-0.998107,-0.034517,-0.012868,-0.001359,-32.983444,-48.388123,-38.858582,,,,,,,
1522139231.120659,-0.050369,0.033793,1.985323,-0.008117,0.020678,-0.016502,-0.050319,-0.033786,-0.998162,-0.022740,0.029285,-0.003441,-33.211151,-48.612167,-38.932861,,,,,,,
1522139231.150628,-0.049509,0.033625,1.984798,-0.005950,0.027042,-0.016503,-0.049461,-0.033619,-0.998210,-0.028313,0.001148,0.018779,-33.585541,-48.460632,-39.083618,,,,,,,
1522139231.180596,-0.048892,0.033576,1.984282,-0.000660,0.019599,-0.015437,-0.048845,-0.033569,-0.998242,-0.003355,0.044586,0.079831,-32.761612,-48.614258,-39.007568,,,,,,,
1522139231.210564,-0.048163,0.033695,1.983767,0.011113,0.021697,-0.017552,-0.048117,-0.033689,-0.998273,-0.014780,-0.001376,-0.019167,-33.062805,-48.687988,-39.082397,,,,,,,
1522139231.240508,-0.047799,0.033787,1.983253,-0.002824,0.005802,-0.019674,-0.047754,-0.033781,-0.998288,0.005304,0.025983,0.016797,-32.987045,-48.613327,-39.082703,,,,,,,
1522139231.270477,-0.047534,0.033858,1.982725,0.016415,0.011071,-0.019668,-0.047489,-0.033851,-0.998298,-0.023220,0.025520,-0.013573,-32.610413,-48.315247,-39.308716,,,,,,,
1522139231.300445,-0.047609,0.034097,1.982261,-0.006116,-0.008044,-0.014333,-0.047564,-0.034090,-0.998286,0.004488,0.006167,-0.007527,-33.061157,-48.612839,-38.932739,,,,,,,
1522139231.330383,-0.047727,0.034069,1.981769,0.016311,-0.010184,-0.018584,-0.047681,-0.034062,-0.998282,0.002012,0.057622,0.004751,-33.361130,-48.611496,-38.932922,,,,,,,
1522139231.360351,-0.048058,0.034551,1.981246,0.002447,-0.002713,-0.016479,-0.048011,-0.034544,-0.998249,-0.024758,0.013563,-0.022152,-33.211151,-48.612167,-38.932861,,,,,,,
1522139231.390319,-0.048638,0.034590,1.980723,0.002346,-0.028224,-0.017509,-0.048590,-0.034583,-0.998220,-0.002908,0.005805,-0.046198,-33.363525,-48.761642,-39.082275,,,,,,,
1522139231.420287,-0.049032,0.034533,1.980252,-0.002926,-0.012279,-0.016463,-0.048983,-0.034526,-0.998203,-0.024397,-0.015584,-0.043118,-33.134064,-48.312668,-39.083984,,,,,,,
1522139231.450256,-0.049454,0.034743,1.979774,0.011996,-0.020788,-0.019645,-0.049404,-0.034736,-0.998175,-0.034229,0.020484,-0.069300,-32.383484,-48.390823,-38.858276,,,,,,,
1522139231.480224,-0.049963,0.034841,1.979234,0.000263,-0.017565,-0.019661,-0.049912,-0.034834,-0.998146,-0.022094,-0.015794,-0.022301,-33.206497,-48.461670,-38.408386,,,,,,,
1522139231.510192,-0.050394,0.034808,1.978666,0.002343,-0.029272,-0.018578,-0.050342,-0.034801,-0.998126,-0.030011,0.021617,0.051455,-32.987793,-48.688324,-39.082397,,,,,,,
1522139231.540160,-0.050629,0.034744,1.978140,-0.003989,-0.010142,-0.016472,-0.050577,-0.034737,-0.998116,-0.031866,-0.032508,-0.024345,-33.207260,-48.312027,-38.783997,,,,,,,
1522139231.570129,-0.050717,0.034484,1.977611,-0.016775,-0.003747,-0.015419,-0.050665,-0.034478,-0.998120,-0.056467,-0.012809,-0.043887,-33.436142,-48.386520,-39.308838,,,,,,,
1522139231.600097,-0.050878,0.034314,1.977095,-0.005053,-0.014378,-0.019658,-0.050826,-0.034307,-0.998118,-0.025148,0.031897,0.007121,-33.210693,-48.612091,-38.857849,,,,,,,
1522139231.630065,-0.050737,0.034468,1.976576,0.012067,-0.003811,-0.017524,-0.050685,-0.034461,-0.998120,-0.006612,0.024924,-0.006595,-33.662018,-48.834915,-38.707153,,,,,,,
1522139231.660033,-0.050732,0.034447,1.976048,-0.007078,0.006906,-0.022063,-0.050680,-0.034440,-0.998121,0.023260,0.002458,0.081526,-32.760422,-48.539200,-38.932922,,,,,,,
1522139231.690002,-0.050499,0.034389,1.975565,0.010985,-0.011228,-0.018469,-0.050448,-0.034382,-0.998135,-0.026151,0.038120,-0.067875,-32.834824,-48.389008,-39.083496,,,,,,,
1522139231.719970,-0.050368,0.034469,1.975105,-0.002814,0.008979,-0.015742,-0.050317,-0.034463,-0.998139,-0.038459,-0.011680,0.037750,-33.133011,-48.387360,-38.783691,,,,,,,
1522139231.749938,-0.050074,0.034210,1.974660,-0.010300,0.003717,-0.017834,-0.050023,-0.034204,-0.998162,-0.019862,0.004373,-0.068610,-33.437042,-48.611298,-39.082886,,,,,,,
1522139231.779876,-0.050004,0.034133,1.974341,0.003608,0.021684,-0.007761,-0.049954,-0.034127,-0.998168,-0.031314,-0.021522,0.022521,-32.685272,-48.389755,-39.158447,,,,,,,
1522139231.809844,-0.049707,0.034073,1.974076,-0.016610,0.038701,-0.004131,-0.049657,-0.034066,-0.998185,-0.022501,0.033120,0.002488,-32.910553,-48.463669,-39.083252,,,,,,,
1522139231.839813,-0.049635,0.033971,1.973773,-0.006102,0.000431,-0.005152,-0.049586,-0.033964,-0.998192,-0.014059,-0.017351,-0.044883,-33.440933,-49.136063,-38.855835,,,,,,,
1522139231.869781,-0.049744,0.033650,1.973522,-0.006102,-0.004837,-0.010479,-0.049695,-0.033644,-0.998198,0.001035,0.085920,0.006529,-32.161346,-48.542038,-39.082581,,,,,,,
1522139231.899749,-0.049896,0.033755,1.973207,0.016387,0.007857,-0.011535,-0.049847,-0.033749,-0.998186,-0.003803,-0.034809,0.018191,-33.056366,-48.087936,-39.009827,,,,,,,
1522139231.929717,-0.049883,0.033605,1.972905,-0.018977,-0.016528,-0.007273,-0.049834,-0.033599,-0.998192,-0.029787,-0.001542,-0.055183,-33.058762,-48.462692,-38.783325,,,,,,,
1522139231.959686,-0.049934,0.033410,1.972568,0.000305,-0.005910,-0.011538,-0.049885,-0.033403,-0.998196,-0.037044,0.009951,-0.041294,-32.389786,-48.841095,-39.156494,,,,,,,
1522139231.989654,-0.050030,0.033810,1.972161,-0.005006,-0.002697,-0.013674,-0.049980,-0.033804,-0.998178,-0.026955,-0.012736,0.012201,-33.133896,-48.612137,-38.557800,,,,,,,
1522139232.019622,-0.049848,0.033610,1.971744,-0.003904,0.005809,-0.013687,-0.049799,-0.033604,-0.998194,-0.002065,0.025852,-0.047216,-33.586731,-48.535706,-39.158325,,,,,,,
1522139232.049590,-0.049668,0.033509,1.971397,-0.002916,-0.011191,-0.013672,-0.049620,-0.033503,-0.998206,-0.043596,-0.008230,-0.089715,-32.686020,-48.464752,-39.158142,,,,,,,
1522139232.079559,-0.049282,0.033253,1.970974,-0.006014,0.010037,-0.012614,-0.049235,-0.033247,-0.998234,-0.035863,0.015089,-0.091045,-33.436737,-48.761002,-38.782349,,,,,,,
1522139232.109527,-0.048944,0.033187,1.970597,-0.002799,0.013237,-0.013689,-0.048897,-0.033181,-0.998253,-0.017844,-0.022758,-0.001168,-33.212646,-48.762161,-38.932251,,,,,,,
1522139232.139495,-0.048730,0.032967,1.970154,-0.006015,0.005823,-0.016876,-0.048685,-0.032961,-0.998270,-0.010138,0.040240,0.039499,-32.688126,-48.989227,-38.631042,,,,,,,
1522139232.169463,-0.048532,0.032733,1.969771,0.004614,-0.001652,-0.014733,-0.048487,-0.032727,-0.998287,-0.019552,-0.023898,-0.028904,-33.062515,-48.837677,-38.781860,,,,,,,
1522139232.199432,-0.048515,0.032509,1.969424,-0.009319,-0.010109,-0.013681,-0.048470,-0.032503,-0.998296,-0.013343,-0.007963,-0.039165,-32.988541,-48.763321,-39.082092,,,,,,,
1522139232.229369,-0.048762,0.031922,1.969155,-0.013728,-0.041986,-0.013645,-0.048718,-0.031917,-0.998302,-0.027789,0.027995,-0.067219,-32.463135,-48.540985,-39.382690,,,,,,,
1522139232.259321,-0.049066,0.031650,1.968903,-0.003956,0.000441,-0.007282,-0.049022,-0.031644,-0.998296,-0.023182,0.021192,0.038427,-33.441696,-48.986435,-39.231445,,,,,,,
1522139232.289289,-0.049568,0.031795,1.968647,0.006630,-0.023974,-0.012586,-0.049523,-0.031790,-0.998267,-0.015098,-0.003153,0.023963,-33.287170,-48.761749,-38.857239,,,,,,,
1522139232.319257,-0.049911,0.031767,1.968420,-0.002880,0.003620,-0.006219,-0.049865,-0.031762,-0.998251,-0.028932,0.006814,-0.081721,-32.162537,-48.617111,-39.157288,,,,,,,
1522139232.349225,-0.050386,0.031850,1.968288,0.021549,-0.024082,-0.005104,-0.050339,-0.031845,-0.998224,-0.037658,-0.035477,-0.010321,-33.586136,-48.610489,-38.933044,,,,,,,
1522139232.379194,-0.050713,0.032224,1.968149,0.008729,-0.026177,-0.005110,-0.050665,-0.032218,-0.998196,-0.015116,0.024924,0.091717,-33.135559,-48.462662,-39.083374,,,,,,,
1522139232.409162,-0.050406,0.032703,1.968070,0.020631,0.015217,-0.000889,-0.050358,-0.032697,-0.998196,-0.002544,0.036115,0.004437,-32.912338,-48.688583,-39.007324,,,,,,,
1522139232.439130,-0.050150,0.033205,1.967997,0.017385,0.000376,-0.005136,-0.050101,-0.033199,-0.998192,-0.024347,0.013653,-0.020958,-33.140808,-48.987640,-39.081238,,,,,,,
1522139232.469098,-0.049825,0.033651,1.967900,0.004588,0.006788,-0.004096,-0.049776,-0.033644,-0.998194,-0.014021,-0.013124,0.002161,-32.238419,-48.616913,-39.307312,,,,,,,
1522139232.499067,-0.049242,0.033856,1.967877,0.016404,0.022682,-0.003031,-0.049194,-0.033850,-0.998215,-0.012726,0.019491,-0.011825,-32.538406,-48.615570,-39.307495,,,,,,,
1522139232.529035,-0.048736,0.034035,1.967782,-0.012443,0.018505,-0.003050,-0.048689,-0.034029,-0.998234,0.013075,-0.001875,-0.009334,-33.739105,-48.685165,-39.307800,,,,,,,
1522139232.559003,-0.048338,0.034003,1.967726,0.000289,0.004621,0.001242,-0.048292,-0.033997,-0.998255,-0.022067,-0.017212,-0.044440,-33.138245,-48.687714,-39.157471,,,,,,,
1522139232.588972,-0.048119,0.034015,1.967739,-0.002858,0.019490,0.003355,-0.048072,-0.034009,-0.998265,0.017448,-0.000263,0.028920,-32.237671,-48.541916,-39.307617,,,,,,,
1522139232.618940,-0.048020,0.034132,1.967671,0.012002,-0.005995,-0.003008,-0.047974,-0.034125,-0.998266,-0.006714,0.000205,-0.046260,-33.661255,-48.759918,-38.707458,,,,,,,
1522139232.648908,-0.048311,0.034408,1.967498,0.015196,-0.016575,-0.010454,-0.048263,-0.034401,-0.998242,0.000015,-0.012809,0.010220,-33.512482,-48.611038,-39.157959,,,,,,,
1522139232.678876,-0.048418,0.034344,1.967330,-0.007095,0.016367,-0.005165,-0.048371,-0.034337,-0.998239,0.017762,-0.011439,-0.068106,-33.288834,-48.612274,-39.382812,,,,,,,
1522139232.708814,-0.048979,0.034438,1.967192,0.004445,-0.030411,-0.006174,-0.048931,-0.034431,-0.998209,-0.032338,-0.022270,-0.083090,-32.985397,-48.538193,-38.933044,,,,,,,
1522139232.738782,-0.049683,0.034612,1.967101,-0.002940,-0.008073,-0.005144,-0.049633,-0.034605,-0.998168,-0.002628,-0.023867,0.035399,-32.616714,-48.990143,-39.231018,,,,,,,
1522139232.768751,-0.050025,0.034437,1.966903,-0.001768,0.017394,-0.001965,-0.049975,-0.034430,-0.998157,-0.022322,-0.001138,-0.038800,-32.911896,-48.688522,-38.932373,,,,,,,
1522139232.798719,-0.050493,0.034647,1.966759,-0.006121,0.001465,-0.000892,-0.050442,-0.034640,-0.998126,-0.024509,-0.036939,-0.019483,-33.436142,-48.611160,-38.932922,,,,,,,
1522139232.828687,-0.050845,0.034633,1.966632,0.003524,0.009929,0.000176,-0.050792,-0.034627,-0.998109,0.003276,0.018254,0.070313,-32.535706,-48.615128,-38.857483,,,,,,,
1522139232.858655,-0.050997,0.034499,1.966532,-0.000637,0.028059,-0.006245,-0.050944,-0.034492,-0.998106,-0.018178,-0.019860,0.073728,-33.364288,-48.836639,-39.081970,,,,,,,
1522139232.888624,-0.051027,0.034315,1.966426,-0.005027,0.005719,-0.001960,-0.050975,-0.034308,-0.998110,-0.021917,0.012045,-0.031659,-33.210251,-48.612015,-38.782837,,,,,,,
1522139232.918592,-0.050958,0.034166,1.966340,-0.009203,0.029126,-0.001999,-0.050906,-0.034160,-0.998119,-0.011213,-0.027104,0.022640,-33.362930,-48.836411,-38.856995,,,,,,,
1522139232.948560,-0.051051,0.034093,1.966246,-0.009193,0.031232,-0.000928,-0.051000,-0.034086,-0.998117,-0.013942,0.017469,0.008798,-33.441238,-48.986359,-39.156433,,,,,,,
1522139232.978528,-0.051162,0.034147,1.966133,-0.001781,0.016346,-0.001974,-0.051110,-0.034140,-0.998109,-0.019019,-0.010034,0.029787,-33.664719,-48.835358,-39.157166,,,,,,,
1522139233.008497,-0.051190,0.034176,1.966035,-0.009199,0.031226,0.000136,-0.051137,-0.034169,-0.998107,-0.000468,0.001439,0.087295,-32.466736,-48.766190,-39.606812,,,,,,,
1522139233.038465,-0.051196,0.034393,1.965931,0.007854,0.022684,-0.000904,-0.051143,-0.034386,-0.998099,-0.026707,0.010277,0.000205,-33.288528,-48.986603,-38.706360,,,,,,,
1522139233.068433,-0.051134,0.034783,1.965770,0.013186,0.012075,-0.007273,-0.051081,-0.034776,-0.998089,-0.016180,-0.005981,0.024334,-33.811569,-48.834167,-38.632202,,,,,,,
1522139233.098401,-0.050859,0.034982,1.965570,0.005755,0.024854,-0.006236,-0.050806,-0.034975,-0.998096,-0.036383,-0.001204,-0.024685,-33.587036,-48.610626,-39.083008,,,,,,,
1522139233.128370,-0.050556,0.035204,1.965439,0.004612,0.009961,-0.004088,-0.050504,-0.035197,-0.998103,-0.034488,-0.031682,-0.038334,-33.062500,-48.613052,-39.157715,,,,,,,
1522139233.158307,-0.050406,0.035209,1.965267,0.003515,-0.001697,-0.008338,-0.050354,-0.035202,-0.998111,0.001465,0.010575,0.029132,-33.286575,-48.836533,-38.631897,,,,,,,
1522139233.188276,-0.050229,0.035091,1.965166,0.013060,-0.011300,-0.005130,-0.050177,-0.035084,-0.998124,-0.016641,-0.026836,-0.057235,-32.615219,-48.840149,-39.231628,,,,,,,
1522139233.218244,-0.050384,0.035233,1.965024,0.005563,-0.014488,-0.002998,-0.050332,-0.035226,-0.998111,0.018044,0.024895,0.022434,-33.513840,-48.835876,-39.007019,,,,,,,
1522139233.248227,-0.050485,0.035127,1.964914,-0.001894,-0.013393,-0.005135,-0.050433,-0.035120,-0.998110,-0.019132,-0.007956,-0.080000,-33.134201,-48.462433,-38.858398,,,,,,,
1522139233.278196,-0.050993,0.035222,1.964783,-0.000886,-0.027197,-0.006190,-0.050939,-0.035214,-0.998081,-0.004573,0.001538,-0.023907,-32.764771,-48.614777,-39.532593,,,,,,,
1522139233.308164,-0.051472,0.035060,1.964648,-0.007259,-0.021866,-0.007262,-0.051418,-0.035052,-0.998062,0.020137,-0.009793,-0.023056,-33.510986,-48.685669,-38.782654,,,,,,,
1522139233.338132,-0.051972,0.034750,1.964508,-0.009422,-0.025078,-0.004059,-0.051917,-0.034743,-0.998047,0.007392,-0.015840,-0.062088,-33.593628,-49.135818,-39.305908,,,,,,,
1522139233.368100,-0.052605,0.034505,1.964378,-0.006289,-0.038885,-0.004052,-0.052550,-0.034498,-0.998022,0.029509,0.027937,-0.052210,-32.537811,-48.690353,-39.082153,,,,,,,
1522139233.398069,-0.052793,0.034056,1.964256,-0.016851,-0.013390,-0.001780,-0.052738,-0.034049,-0.998028,-0.002361,-0.022637,-0.087910,-34.037903,-48.833374,-38.857361,,,,,,,
1522139233.428037,-0.052963,0.034057,1.964083,-0.006142,-0.008067,-0.004694,-0.052908,-0.034050,-0.998019,0.032385,0.007714,0.018343,-33.436295,-48.536301,-39.083191,,,,,,,
1522139233.458005,-0.052706,0.033772,1.963918,-0.005041,-0.001685,-0.005632,-0.052651,-0.033766,-0.998042,0.022317,-0.018374,-0.025335,-33.060699,-48.612762,-38.857727,,,,,,,
1522139233.487972,-0.052172,0.033586,1.963791,0.001369,-0.003833,-0.006435,-0.052119,-0.033580,-0.998076,0.022456,0.010569,-0.046205,-33.362320,-48.686569,-39.007568,,,,,,,
1522139233.517942,-0.051299,0.033552,1.963628,-0.011362,0.014282,-0.007421,-0.051247,-0.033545,-0.998122,0.032250,0.023291,-0.044633,-33.364288,-48.836639,-39.081970,,,,,,,
1522139233.547909,-0.050268,0.033388,1.963437,-0.015567,0.030208,-0.005304,-0.050219,-0.033381,-0.998180,-0.015379,0.025584,-0.080876,-33.064896,-48.763199,-39.307129,,,,,,,
1522139233.577878,-0.049124,0.033497,1.963205,-0.000592,0.031280,-0.010627,-0.049077,-0.033490,-0.998233,0.031407,-0.018237,-0.033871,-33.665176,-48.835434,-39.232178,,,,,,,
1522139233.607846,-0.047958,0.033362,1.962968,-0.000578,0.037628,-0.007434,-0.047913,-0.033356,-0.998294,0.021958,0.021790,0.070774,-33.213394,-48.612534,-39.307861,,,,,,,
1522139233.637784,-0.046836,0.033273,1.962733,0.011070,0.012116,-0.010594,-0.046793,-0.033266,-0.998351,0.041147,0.009859,-0.012346,-32.685867,-48.539612,-39.007812,,,,,,,
1522139233.667752,-0.045655,0.033436,1.962519,0.010030,0.022711,-0.006341,-0.045613,-0.033430,-0.998400,0.039235,0.021879,0.003969,-33.066406,-49.137817,-38.930664,,,,,,,
1522139233.697721,-0.044457,0.033485,1.962277,-0.013386,0.037671,-0.008511,-0.044418,-0.033479,-0.998452,0.087142,-0.024108,0.024743,-33.287033,-48.611984,-39.082825,,,,,,,
1522139233.727689,-0.043399,0.033348,1.962043,0.006838,0.024860,-0.007416,-0.043362,-0.033342,-0.998503,0.080410,0.029924,-0.004396,-33.135254,-48.387726,-39.158691,,,,,,,
1522139233.757657,-0.042388,0.033056,1.961909,-0.010272,0.024880,-0.003172,-0.042352,-0.033050,-0.998556,0.025186,0.005019,-0.024943,-32.911743,-48.538742,-39.157959,,,,,,,
1522139233.787625,-0.041616,0.032861,1.961652,-0.015626,0.014297,-0.008488,-0.041581,-0.032855,-0.998595,0.071916,0.000934,-0.019136,-32.389786,-48.616470,-39.532410,,,,,,,
1522139233.817594,-0.041179,0.032852,1.961461,0.002498,0.011051,-0.006341,-0.041145,-0.032846,-0.998613,0.069328,0.001505,-0.028731,-32.161346,-48.542038,-39.082581,,,,,,,
1522139233.847562,-0.041093,0.032961,1.961240,-0.000702,0.011071,-0.007412,-0.041059,-0.032955,-0.998613,0.076154,0.007290,-0.070051,-33.065659,-48.838196,-39.306885,,,,,,,
1522139233.877530,-0.041493,0.033246,1.960955,0.017238,-0.036784,-0.008416,-0.041458,-0.033240,-0.998587,0.057800,-0.007013,-0.058572,-33.064896,-48.763199,-39.307129,,,,,,,
1522139233.907499,-0.042240,0.033448,1.960642,-0.007199,-0.009119,-0.006325,-0.042204,-0.033442,-0.998549,0.025770,-0.002447,-0.085466,-33.286728,-48.537048,-39.158142,,,,,,,
1522139233.937467,-0.043388,0.033282,1.960331,-0.006263,-0.035701,-0.004167,-0.043350,-0.033276,-0.998506,0.052597,-0.015217,-0.077788,-33.138992,-48.762711,-39.157166,,,,,,,
1522139233.967435,-0.044833,0.033203,1.960050,-0.004212,-0.062230,-0.010530,-0.044793,-0.033197,-0.998445,0.014932,0.026834,-0.064361,-33.593338,-49.060898,-39.381165,,,,,,,
1522139233.997403,-0.046187,0.033167,1.959775,-0.001991,-0.043107,-0.010548,-0.046145,-0.033161,-0.998384,0.049868,0.009434,-0.052244,-33.363525,-48.761642,-39.082275,,,,,,,
1522139234.027372,-0.047375,0.032996,1.959490,0.004344,-0.055869,-0.009474,-0.047331,-0.032990,-0.998334,0.026335,0.003220,-0.104601,-33.739853,-48.760162,-39.307495,,,,,,,
1522139234.057340,-0.048439,0.033045,1.959254,0.000151,-0.042053,-0.010546,-0.048393,-0.033039,-0.998282,0.029717,0.009189,-0.054315,-32.612518,-48.390457,-39.533386,,,,,,,
1522139234.087278,-0.049000,0.032723,1.959015,-0.012566,-0.013374,-0.004192,-0.048954,-0.032718,-0.998265,0.027546,0.000705,-0.081508,-33.737473,-48.834641,-38.782166,,,,,,,
1522139234.117246,-0.049421,0.032540,1.958747,0.001298,-0.025024,-0.012703,-0.049375,-0.032534,-0.998250,0.000180,-0.016813,-0.032618,-33.435684,-48.611084,-38.857910,,,,,,,
1522139234.147214,-0.049185,0.032495,1.958424,0.003607,0.013205,-0.011666,-0.049139,-0.032489,-0.998263,0.064764,0.030185,0.045856,-32.838104,-48.763916,-39.007019,,,,,,,
1522139234.177182,-0.048538,0.032601,1.958078,0.025022,0.022751,-0.015926,-0.048493,-0.032595,-0.998291,0.017091,0.001818,-0.025375,-33.736710,-48.759644,-38.782471,,,,,,,
1522139234.207151,-0.047413,0.032695,1.957708,0.002585,0.025945,-0.009550,-0.047370,-0.032689,-0.998342,0.049003,0.020742,-0.013910,-33.812180,-48.534760,-39.233459,,,,,,,
1522139234.237119,-0.046286,0.032782,1.957280,0.005832,0.029176,-0.015948,-0.046245,-0.032776,-0.998392,0.017253,0.006562,0.006846,-33.136307,-48.537659,-39.083069,,,,,,,
1522139234.267066,-0.045007,0.032928,1.956918,-0.003687,0.052553,-0.012781,-0.044968,-0.032922,-0.998446,0.080490,0.005929,0.065981,-32.987946,-48.838104,-38.856812,,,,,,,
1522139234.297034,-0.043567,0.032895,1.956536,0.013348,0.038706,-0.014881,-0.043530,-0.032889,-0.998511,0.075070,0.027610,0.115607,-33.136444,-48.687424,-38.857483,,,,,,,
1522139234.327003,-0.042337,0.032807,1.956194,-0.010231,0.020698,-0.013819,-0.042302,-0.032801,-0.998566,0.034947,0.003123,-0.017883,-32.609818,-48.165405,-39.459290,,,,,,,
1522139234.356971,-0.041430,0.032650,1.955868,-0.000600,0.032313,-0.007427,-0.041397,-0.032645,-0.998609,0.050277,0.019202,0.016050,-33.436142,-48.611160,-38.932922,,,,,,,
1522139234.386939,-0.040747,0.032329,1.955544,-0.026228,0.033455,-0.007457,-0.040715,-0.032323,-0.998648,0.022923,-0.021815,-0.038126,-32.835724,-48.389160,-39.233521,,,,,,,
1522139234.416907,-0.040650,0.031998,1.955248,-0.024186,0.015354,-0.004235,-0.040618,-0.031993,-0.998662,0.071182,0.028300,0.079870,-32.388428,-48.616241,-39.307434,,,,,,,
1522139234.446876,-0.040568,0.031657,1.955025,-0.000755,-0.000634,-0.006329,-0.040537,-0.031651,-0.998677,0.053552,0.023473,0.006138,-33.658417,-48.385086,-38.858948,,,,,,,
1522139234.476844,-0.040917,0.031709,1.954735,0.001363,-0.012304,-0.011635,-0.040885,-0.031704,-0.998661,0.039466,0.008388,0.004795,-33.208908,-48.162552,-39.309631,,,,,,,
1522139234.506812,-0.041288,0.031897,1.954389,0.010974,-0.013351,-0.014835,-0.041256,-0.031891,-0.998640,0.017620,-0.001312,-0.007708,-32.905472,-47.863846,-39.235657,,,,,,,
1522139234.536780,-0.041733,0.032239,1.954050,0.005638,-0.008056,-0.010581,-0.041699,-0.032233,-0.998610,0.034985,0.045188,0.030104,-33.433746,-48.236389,-39.159424,,,,,,,
1522139234.566718,-0.042087,0.032452,1.953683,0.006666,-0.020788,-0.013763,-0.042053,-0.032447,-0.998588,0.057998,-0.009744,0.000114,-33.211151,-48.387543,-39.308716,,,,,,,
1522139234.596686,-0.042319,0.032682,1.953273,0.014155,-0.018674,-0.014825,-0.042284,-0.032676,-0.998571,0.010821,0.025154,0.052786,-32.456390,-48.090637,-39.009521,,,,,,,
1522139234.626655,-0.042360,0.032933,1.952832,0.005677,-0.004841,-0.014844,-0.042324,-0.032927,-0.998561,0.031429,0.002058,-0.017415,-33.279999,-48.086700,-38.784973,,,,,,,
1522139234.656623,-0.042263,0.033319,1.952411,0.028091,-0.003832,-0.013770,-0.042227,-0.033312,-0.998553,0.040853,0.045825,-0.020841,-33.355148,-48.011536,-38.935303,,,,,,,
1522139234.686591,-0.041978,0.033994,1.952032,0.024904,-0.003835,-0.014825,-0.041941,-0.033987,-0.998542,0.041498,0.032934,-0.011102,-32.605042,-47.640503,-39.536377,,,,,,,
1522139234.716560,-0.041391,0.034356,1.951647,0.008960,0.018485,-0.009534,-0.041355,-0.034349,-0.998554,0.042164,0.039705,-0.047741,-33.733429,-48.160110,-39.234863,,,,,,,
1522139234.746528,-0.040842,0.034685,1.951336,0.006842,0.023799,-0.008477,-0.040806,-0.034679,-0.998565,0.025715,-0.012151,-0.042618,-33.131073,-48.012680,-39.085144,,,,,,,
1522139234.776496,-0.040567,0.034810,1.951010,-0.004960,0.008986,-0.011675,-0.040531,-0.034802,-0.998572,0.063053,0.039807,0.066184,-33.352600,-47.711609,-39.011475,,,,,,,
1522139234.806464,-0.040095,0.034628,1.950683,0.001562,0.031276,-0.012748,-0.040061,-0.034621,-0.998597,0.043768,-0.010178,-0.022002,-33.203217,-47.862137,-38.860840,,,,,,,
1522139234.836433,-0.040065,0.035209,1.950370,0.001428,0.007879,-0.008469,-0.040029,-0.035202,-0.998578,0.075842,0.035842,0.068891,-32.374969,-47.490936,-38.936890,,,,,,,
1522139234.866401,-0.040212,0.034671,1.950064,-0.021118,-0.020729,-0.010596,-0.040177,-0.034664,-0.998591,0.040344,-0.020024,-0.001546,-32.302963,-47.791260,-38.935669,,,,,,,
1522139234.896369,-0.040451,0.033388,1.949794,-0.042467,-0.013289,-0.004221,-0.040418,-0.033382,-0.998625,0.005139,-0.060643,0.015745,-32.903366,-47.788620,-39.010925,,,,,,,
1522139234.926337,-0.040313,0.032127,1.949517,-0.032739,0.002681,-0.012751,-0.040281,-0.032121,-0.998672,-0.002230,0.016924,0.050659,-32.755493,-47.864517,-39.235596,,,,,,,
1522139234.956306,-0.039669,0.031674,1.949083,-0.014463,0.024976,-0.017019,-0.039639,-0.031669,-0.998712,0.006741,0.019111,0.025400,-33.203674,-47.862213,-38.935852,,,,,,,
1522139234.986274,-0.038665,0.031771,1.948495,0.012220,0.017497,-0.021251,-0.038636,-0.031766,-0.998748,0.076111,0.063733,-0.063645,-32.753250,-47.639526,-39.236511,,,,,,,
1522139235.016242,-0.037740,0.032876,1.948012,0.060222,0.009921,-0.019075,-0.037711,-0.032870,-0.998748,0.004111,0.026553,-0.028855,-32.526291,-47.715103,-38.786072,,,,,,,
1522139235.046180,-0.037024,0.033883,1.947428,0.024964,0.000483,-0.023358,-0.036995,-0.033877,-0.998741,0.044395,-0.024275,-0.106758,-32.530472,-48.090149,-38.859558,,,,,,,
1522139235.076148,-0.036877,0.033522,1.946686,-0.044485,-0.013126,-0.026600,-0.036848,-0.033515,-0.998759,0.034651,-0.042275,-0.050115,-32.603973,-47.939819,-38.860229,,,,,,,
1522139235.106116,-0.037962,0.032126,1.945873,-0.028720,-0.065260,-0.023336,-0.037933,-0.032120,-0.998764,0.088790,0.090333,0.107269,-31.551346,-47.494858,-39.161438,,,,,,,
1522139235.136085,-0.039515,0.031910,1.945219,0.022555,-0.062186,-0.025431,-0.039484,-0.031905,-0.998711,0.030726,0.074507,0.131630,-32.226761,-47.491898,-39.236816,,,,,,,
1522139235.166053,-0.041054,0.032421,1.944647,-0.008268,-0.014401,-0.010582,-0.041021,-0.032415,-0.998632,0.012441,0.150365,0.036215,-31.707321,-48.094162,-39.159119,,,,,,,
1522139235.196021,-0.042205,0.034417,1.944005,0.098423,-0.053868,-0.028569,-0.042167,-0.034411,-0.998518,0.099906,0.127321,-0.087588,-31.344635,-48.696838,-40.206543,,,,,,,
1522139235.225989,-0.043248,0.036194,1.943653,0.009736,-0.043141,-0.008415,-0.043206,-0.036186,-0.998411,-0.029120,-0.092247,-0.155398,-32.694733,-49.065170,-39.605774,,,,,,,
1522139235.255968,-0.043708,0.036374,1.943477,0.048292,-0.019868,-0.009465,-0.043665,-0.036366,-0.998384,-0.032492,0.126988,-0.179091,-33.147858,-49.288269,-39.755066,,,,,,,
1522139235.285936,-0.043628,0.037608,1.943321,0.038818,0.012032,-0.008442,-0.043583,-0.037599,-0.998342,0.014302,-0.049376,-0.105280,-33.291229,-48.762405,-39.532227,,,,,,,
1522139235.315904,-0.042814,0.037928,1.942808,0.024069,0.042971,-0.020208,-0.042770,-0.037919,-0.998365,0.044555,0.148179,0.161024,-33.512039,-48.610962,-39.082947,,,,,,,
1522139235.345873,-0.041641,0.040890,1.942339,0.139393,0.045867,-0.020122,-0.041594,-0.040879,-0.998298,0.030196,0.074555,0.143348,-33.212051,-48.612320,-39.082825,,,,,,,
1522139235.375841,-0.039989,0.044618,1.942069,0.133221,0.098990,-0.018043,-0.039938,-0.044603,-0.998206,0.083014,0.086122,0.076148,-32.610413,-48.539871,-38.932800,,,,,,,
1522139235.405809,-0.038275,0.047497,1.941783,0.147784,0.011837,-0.020078,-0.038223,-0.047479,-0.998141,-0.067353,-0.096351,0.041338,-33.514893,-48.985809,-38.931519,,,,,,,
1522139235.435777,-0.035342,0.050739,1.941301,0.034904,0.079080,-0.020241,-0.035290,-0.050717,-0.998089,0.004742,-0.106311,0.194607,-32.915924,-49.363037,-38.479675,,,,,,,
1522139235.465746,-0.033817,0.049858,1.941014,0.028045,-0.009176,-0.009501,-0.033769,-0.049837,-0.998186,0.098557,0.076205,0.333941,-32.387543,-48.840729,-38.781494,,,,,,,
,,,,,,,,,,,,,,,,25.306101,51.445722,10.999994,-1.000000,-1.000000,1522139235.430437,
1522139235.495683,-0.031947,0.049658,1.940789,0.014818,0.133248,-0.010715,-0.031902,-0.049638,-0.998258,0.030529,-0.030273,0.194394,-32.765671,-49.064163,-38.930786,,,,,,,
1522139235.525652,-0.030551,0.049441,1.940266,0.004632,-0.009042,-0.022295,-0.030509,-0.049421,-0.998312,0.059226,0.027555,0.166449,-33.138840,-49.062180,-38.630920,,,,,,,
1522139235.555620,-0.029759,0.050551,1.939661,0.068796,0.011033,-0.026541,-0.029716,-0.050530,-0.998280,0.071281,0.052223,0.262196,-31.715256,-49.068817,-38.855225,,,,,,,
1522139235.585588,-0.028737,0.052842,1.938916,0.063461,0.012078,-0.024404,-0.028693,-0.052817,-0.998192,0.071860,-0.018716,-0.126793,-33.289734,-49.061661,-38.781067,,,,,,,
1522139235.615556,-0.028609,0.054020,1.938270,0.015226,-0.032400,-0.027598,-0.028564,-0.053993,-0.998133,0.040344,-0.066505,-0.080511,-32.765671,-49.064163,-38.930786,,,,,,,
1522139235.645525,-0.028742,0.052662,1.937646,-0.040380,-0.046117,-0.022295,-0.028699,-0.052638,-0.998201,-0.038867,-0.036230,-0.123060,-31.868240,-49.143509,-39.230042,,,,,,,
1522139235.675493,-0.029617,0.050594,1.937086,-0.053302,-0.068417,-0.020149,-0.029575,-0.050572,-0.998282,0.023090,-0.054668,-0.102120,-32.537659,-48.989822,-38.555969,,,,,,,
1522139235.705461,-0.030733,0.048427,1.936452,-0.079843,-0.031182,-0.017010,-0.030692,-0.048408,-0.998356,0.059562,0.020469,0.082340,-32.467026,-49.290359,-38.779724,,,,,,,
1522139235.735429,-0.031795,0.046911,1.935818,-0.024374,-0.048284,-0.022280,-0.031755,-0.046894,-0.998395,0.034440,0.059437,-0.050815,-32.018982,-49.442459,-38.853882,,,,,,,
1522139235.765398,-0.033128,0.046292,1.935153,-0.039328,-0.045090,-0.018031,-0.033087,-0.046276,-0.998381,0.040030,-0.028401,-0.064592,-32.540192,-49.289734,-38.479797,,,,,,,
1522139235.795366,-0.033906,0.045188,1.934665,-0.016751,-0.012200,-0.019111,-0.033865,-0.045173,-0.998405,0.049368,0.006736,-0.086525,-32.617157,-49.214844,-38.930115,,,,,,,
1522139235.825334,-0.034503,0.044148,1.934373,-0.024237,-0.007980,-0.012724,-0.034463,-0.044134,-0.998431,0.018563,0.034933,0.009051,-32.165222,-49.291412,-38.479553,,,,,,,
1522139235.855302,-0.034657,0.043407,1.933983,-0.014745,-0.031395,-0.010564,-0.034617,-0.043394,-0.998458,0.027522,-0.002398,0.028610,-32.396515,-49.740677,-38.777893,,,,,,,
1522139235.885271,-0.034360,0.042807,1.933697,-0.012548,-0.019711,-0.011635,-0.034322,-0.042794,-0.998494,0.037221,0.068963,0.090322,-32.615051,-49.139633,-38.705383,,,,,,,
1522139235.915239,-0.033652,0.043094,1.933305,0.017579,0.028053,-0.014857,-0.033615,-0.043081,-0.998506,0.003830,0.017248,-0.066420,-31.637115,-48.844025,-38.706055,,,,,,,
1522139235.945207,-0.033226,0.043343,1.932876,0.000339,0.000457,-0.010592,-0.033188,-0.043329,-0.998509,-0.012771,-0.017798,-0.095637,-32.236618,-48.841248,-38.631409,,,,,,,
1522139235.975145,-0.032840,0.043286,1.932489,0.012112,0.002555,-0.012708,-0.032803,-0.043272,-0.998525,0.012326,0.054075,0.003972,-32.161636,-48.841583,-38.631348,,,,,,,
1522139236.005113,-0.032580,0.043590,1.932150,0.012088,-0.001688,-0.012709,-0.032544,-0.043577,-0.998520,0.039074,0.004713,0.064850,-31.640259,-49.069153,-38.855225,,,,,,,
1522139236.035081,-0.032337,0.043614,1.931910,-0.001774,0.004690,-0.009522,-0.032301,-0.043600,-0.998527,-0.000719,0.055838,-0.020562,-32.158340,-48.466675,-38.707825,,,,,,,
1522139236.065050,-0.032307,0.043789,1.931773,0.003480,-0.003830,-0.004203,-0.032270,-0.043775,-0.998520,0.036863,0.033307,-0.031723,-32.236618,-48.841248,-38.631409,,,,,,,
1522139236.095018,-0.032342,0.043600,1.931590,-0.006150,-0.016568,-0.007372,-0.032306,-0.043587,-0.998527,0.038577,0.003090,0.028236,-32.160294,-48.616745,-38.782288,,,,,,,
1522139236.124986,-0.032495,0.043394,1.931429,0.004500,-0.018709,-0.006309,-0.032458,-0.043380,-0.998531,-0.009336,-0.012909,-0.088581,-32.609802,-48.614655,-38.707458,,,,,,,
1522139236.154955,-0.032093,0.043311,1.931296,-0.002792,0.022744,-0.005290,-0.032057,-0.043298,-0.998548,0.030867,0.005654,-0.020449,-32.008499,-48.392502,-38.858093,,,,,,,
1522139236.184923,-0.031805,0.043078,1.931044,-0.006135,-0.013348,-0.009518,-0.031770,-0.043065,-0.998567,0.019548,0.000523,0.041963,-32.233017,-48.616043,-38.407288,,,,,,,
1522139236.214891,-0.031253,0.043001,1.930743,-0.001775,0.007854,-0.006328,-0.031219,-0.042988,-0.998588,0.043060,0.011479,0.038505,-33.137955,-48.837418,-38.856873,,,,,,,
1522139236.244859,-0.030342,0.043640,1.930479,0.030642,0.084345,-0.014907,-0.030308,-0.043626,-0.998588,0.042637,0.057161,0.115806,-32.538559,-48.765350,-39.081848,,,,,,,
1522139236.274825,-0.029035,0.044598,1.929947,0.012349,0.047242,-0.020215,-0.029002,-0.044584,-0.998585,-0.007085,-0.013491,0.015507,-32.690216,-49.064438,-38.855774,,,,,,,
1522139236.304793,-0.027420,0.044844,1.929406,0.006965,0.039804,-0.018082,-0.027389,-0.044829,-0.998619,-0.019547,0.041396,0.019951,-32.915649,-49.063492,-38.930908,,,,,,,
1522139236.334761,-0.025791,0.044965,1.928792,-0.008920,0.073836,-0.014939,-0.025762,-0.044950,-0.998657,0.031209,-0.099108,0.080230,-32.911606,-48.838211,-38.631714,,,,,,,
1522139236.364729,-0.024174,0.043306,1.928323,-0.070966,0.045304,-0.016019,-0.024149,-0.043292,-0.998771,-0.019903,-0.011181,0.022513,-32.535400,-48.764832,-38.556885,,,,,,,
1522139236.394698,-0.022785,0.041547,1.927888,-0.028393,0.014372,-0.015950,-0.022763,-0.041535,-0.998878,0.024335,0.018540,-0.019112,-33.287033,-48.611984,-39.082825,,,,,,,
1522139236.424666,-0.021740,0.040736,1.927431,-0.040167,0.013313,-0.011698,-0.021720,-0.040725,-0.998934,0.084632,-0.001008,0.041583,-31.636215,-48.394623,-39.307922,,,,,,,
1522139236.454604,-0.021493,0.040477,1.927081,0.018466,-0.009152,-0.012690,-0.021474,-0.040466,-0.998950,0.008778,0.081802,-0.004758,-31.863434,-48.618607,-39.307129,,,,,,,
1522139236.484572,-0.021792,0.040834,1.926808,0.002350,-0.028231,-0.011627,-0.021772,-0.040823,-0.998929,0.002821,-0.024897,-0.026599,-31.941162,-48.843338,-39.381226,,,,,,,
1522139236.514540,-0.022512,0.040530,1.926471,-0.013582,-0.015414,-0.015911,-0.022491,-0.040519,-0.998926,0.055389,0.037848,0.081766,-33.287033,-48.611984,-39.082825,,,,,,,
1522139236.544508,-0.024018,0.039712,1.926091,-0.023569,-0.097230,-0.013703,-0.023996,-0.039702,-0.998923,0.070673,-0.026033,0.068412,-33.138550,-48.762650,-39.082153,,,,,,,
1522139236.574477,-0.025632,0.038733,1.925833,-0.025499,-0.049440,-0.010549,-0.025610,-0.038723,-0.998922,0.011358,0.042538,-0.102961,-32.465073,-48.691055,-39.457092,,,,,,,
1522139236.604445,-0.027455,0.038341,1.925401,-0.012755,-0.068579,-0.013715,-0.027432,-0.038331,-0.998888,0.008801,0.041292,-0.080701,-31.711212,-48.394287,-39.307983,,,,,,,
1522139236.634413,-0.029131,0.038289,1.925087,0.011786,-0.069703,-0.012635,-0.029106,-0.038279,-0.998843,0.006920,0.040278,0.012210,-32.987640,-48.538544,-39.308044,,,,,,,
1522139236.664381,-0.030424,0.038569,1.924769,0.003438,-0.024001,-0.010559,-0.030397,-0.038559,-0.998794,0.021333,-0.006531,-0.025071,-32.835266,-48.613708,-38.782593,,,,,,,
1522139236.694350,-0.031359,0.038118,1.924535,-0.025418,-0.026072,-0.007384,-0.031331,-0.038108,-0.998782,-0.020900,0.009880,-0.076657,-32.464172,-48.690903,-39.307129,,,,,,,
1522139236.724318,-0.031870,0.037377,1.924375,-0.029639,-0.013331,-0.005265,-0.031842,-0.037369,-0.998794,0.006848,-0.030335,-0.032090,-32.984787,-48.612961,-38.707703,,,,,,,
1522139236.754286,-0.031950,0.036254,1.924047,-0.034947,-0.013285,-0.010594,-0.031923,-0.036246,-0.998833,-0.045225,-0.026528,-0.049278,-32.457428,-48.465179,-38.558044,,,,,,,
1522139236.784255,-0.031358,0.035628,1.923682,-0.015413,0.053638,-0.013846,-0.031333,-0.035621,-0.998874,-0.030266,0.041312,0.057773,-31.707779,-48.094238,-39.234131,,,,,,,
1522139236.814223,-0.030544,0.035776,1.923202,0.015344,0.002582,-0.018031,-0.030519,-0.035768,-0.998894,0.003008,0.010301,-0.013740,-32.983444,-48.388123,-38.858582,,,,,,,
1522139236.844191,-0.029287,0.036207,1.922638,0.010231,0.050430,-0.020216,-0.029264,-0.036199,-0.998916,-0.003497,0.010061,0.053497,-32.459229,-48.465469,-38.858032,,,,,,,
1522139236.874159,-0.027963,0.035863,1.922144,-0.027257,0.034530,-0.011708,-0.027941,-0.035855,-0.998966,0.012789,-0.039981,-0.049221,-31.856705,-48.168259,-38.933960,,,,,,,
1522139236.904097,-0.026891,0.033913,1.921664,-0.080626,0.035743,-0.013882,-0.026872,-0.033907,-0.999064,-0.023726,-0.040449,0.031733,-31.930511,-48.092850,-38.859253,,,,,,,
1522139236.934065,-0.025975,0.031558,1.921200,-0.073191,0.027224,-0.013868,-0.025959,-0.031553,-0.999165,0.013233,0.035871,0.031834,-31.483231,-47.870697,-39.684937,,,,,,,
1522139236.964034,-0.025335,0.029882,1.920696,-0.048598,0.032489,-0.015985,-0.025321,-0.029878,-0.999233,-0.007592,0.039522,0.143566,-30.512634,-48.175278,-39.908203,,,,,,,
1522139236.994002,-0.024517,0.029379,1.920120,0.011327,0.048357,-0.027674,-0.024504,-0.029375,-0.999268,0.036513,0.135423,0.079819,-31.344635,-48.696838,-40.206543,,,,,,,
1522139237.023970,-0.023829,0.030527,1.919304,0.043144,0.002579,-0.026540,-0.023816,-0.030522,-0.999250,0.017117,-0.065044,0.008375,-31.652573,-49.220901,-40.654602,,,,,,,
1522139237.053938,-0.023334,0.030532,1.918696,-0.027144,0.047356,-0.022376,-0.023321,-0.030527,-0.999262,0.022390,0.007105,-0.017172,-32.030853,-49.369507,-40.954163,,,,,,,
1522139237.083907,-0.022800,0.030163,1.918091,0.020728,0.008966,-0.021230,-0.022788,-0.030159,-0.999285,-0.000344,0.036430,-0.042951,-32.999496,-49.139481,-40.280579,,,,,,,
1522139237.113875,-0.022348,0.029860,1.917418,-0.051772,0.028299,-0.024502,-0.022336,-0.029855,-0.999305,0.019224,-0.019660,0.075034,-33.600082,-49.511246,-39.754395,,,,,,,
1522139237.143843,-0.022163,0.028503,1.916786,-0.015644,-0.005813,-0.021247,-0.022152,-0.028499,-0.999348,-0.016987,0.131450,-0.037822,-33.589279,-48.610992,-39.458008,,,,,,,
1522139237.173811,-0.022600,0.028831,1.916197,0.025887,-0.026128,-0.017999,-0.022589,-0.028827,-0.999329,0.018835,0.045306,0.121491,-33.886871,-48.684128,-38.932861,,,,,,,
1522139237.203780,-0.022862,0.029258,1.915745,0.013099,-0.017605,-0.015890,-0.022850,-0.029253,-0.999311,-0.003502,0.102236,-0.079043,-32.387985,-48.840805,-38.856506,,,,,,,
1522139237.233748,-0.023102,0.029567,1.915344,0.027055,-0.000636,-0.015898,-0.023090,-0.029563,-0.999296,-0.000790,0.007819,-0.047426,-32.234360,-48.616257,-38.632263,,,,,,,
1522139237.263701,-0.023224,0.030358,1.914930,0.019717,0.027008,-0.016990,-0.023211,-0.030354,-0.999270,0.030901,0.085423,0.133913,-32.611618,-48.839569,-38.631592,,,,,,,
1522139237.293669,-0.023307,0.031511,1.914559,0.047288,-0.008144,-0.012681,-0.023294,-0.031506,-0.999232,-0.007102,-0.001117,-0.092748,-32.165848,-48.992020,-39.080750,,,,,,,
1522139237.323638,-0.023273,0.032714,1.914108,0.052724,0.000412,-0.023337,-0.023258,-0.032708,-0.999194,0.020023,0.082452,0.070041,-32.160736,-48.616821,-38.857300,,,,,,,
