timestamp(unix),attitude_roll(radians),attitude_pitch(radians),attitude_yaw(radians),rotation_rate_x(radians/s),rotation_rate_y(radians/s),rotation_rate_z(radians/s),gravity_x(G),gravity_y(G),gravity_z(G),user_acc_x(G),user_acc_y(G),user_acc_z(G),magnetic_field_x(microteslas),magnetic_field_y(microteslas),magnetic_field_z(microteslas),latitude(degree),longitude(degree),altitude(meter),speed(m/s),course(degree),timestamp(unix),User Mark
1522137350.078952,-0.254955,0.044703,1.209735,-0.283086,0.201742,-0.005856,-0.251950,-0.044688,-0.966708,0.041913,-0.002553,-0.080518,-20.344772,-48.663086,-31.951172,,,,,,,
,,,,,,,,,,,,,,,,25.312842,51.448529,-21.109928,-1.000000,-1.000000,1522137346.086734,
1522137350.108920,-0.254043,0.039710,1.209368,-0.071240,-0.125305,0.036191,-0.251121,-0.039700,-0.967141,0.095664,-0.007602,-0.029364,-20.408371,-48.061905,-31.053650,,,,,,,
,,,,,,,,,,,,,,,,25.312722,51.448297,-21.054905,-1.000000,-1.000000,1522137350.128100,
1522137350.138888,-0.263350,0.044217,1.210494,0.283542,-0.358479,-0.021923,-0.260062,-0.044203,-0.964580,0.046836,-0.040194,0.061152,-20.838577,-46.708923,-30.009216,,,,,,,
1522137350.168857,-0.273216,0.054708,1.212086,0.346974,-0.301039,-0.054955,-0.269426,-0.054681,-0.961467,0.016680,-0.063636,0.081127,-20.145920,-45.211594,-29.564880,,,,,,,
1522137350.198825,-0.276502,0.061761,1.211495,0.099749,-0.004739,-0.094862,-0.272472,-0.061722,-0.960182,-0.025303,-0.060135,0.011253,-22.595535,-42.800354,-29.350708,,,,,,,
1522137350.228793,-0.271022,0.057384,1.207219,-0.369933,0.258843,-0.089077,-0.267276,-0.057352,-0.961912,-0.071927,-0.035116,-0.026614,-23.103607,-40.923386,-29.658508,,,,,,,
1522137350.258761,-0.263171,0.046158,1.201742,-0.425768,0.209994,-0.072029,-0.259866,-0.046141,-0.964542,-0.060706,-0.026353,-0.039441,-25.530777,-36.037628,-29.829285,,,,,,,
1522137350.288730,-0.258454,0.037317,1.197538,-0.271443,0.138184,-0.039872,-0.255408,-0.037308,-0.966113,-0.018594,-0.025756,-0.035214,-27.898499,-33.251236,-29.091614,,,,,,,
1522137350.318698,-0.256534,0.032496,1.194425,-0.112792,-0.018067,-0.090735,-0.253595,-0.032491,-0.966765,0.006418,-0.011516,-0.043978,-30.755203,-28.435015,-25.737366,,,,,,,
1522137350.348666,-0.258972,0.033209,1.190344,0.041008,-0.083847,-0.158753,-0.255946,-0.033203,-0.966121,-0.007726,0.021377,-0.056417,-30.940933,-26.031649,-23.197083,,,,,,,
1522137350.378634,-0.264127,0.038965,1.186302,0.219083,-0.154275,-0.177738,-0.260868,-0.038955,-0.964588,-0.048153,-0.003602,0.048527,-33.579056,-22.939608,-18.035767,,,,,,,
1522137350.408603,-0.268868,0.045402,1.184193,0.141644,-0.189710,-0.098906,-0.265366,-0.045387,-0.963079,-0.018066,0.013633,-0.004374,-34.232101,-22.184282,-15.639099,,,,,,,
1522137350.438571,-0.276026,0.048242,1.181603,-0.016310,-0.226214,-0.141604,-0.272217,-0.048223,-0.961027,-0.034744,0.019048,0.000272,-34.134613,-21.282473,-13.392639,,,,,,,
1522137350.468539,-0.273730,0.045873,1.176070,-0.123323,0.222296,-0.116562,-0.270040,-0.045857,-0.961756,0.000234,0.095311,-0.118810,-32.685638,-21.359865,-9.266602,,,,,,,
1522137350.498507,-0.269793,0.046601,1.175712,0.129114,0.033566,0.039376,-0.266242,-0.046584,-0.962780,0.045264,0.082152,-0.108494,-31.483383,-22.263399,-7.387390,,,,,,,
1522137350.528476,-0.276165,0.051831,1.180861,0.235535,-0.371392,0.166667,-0.272302,-0.051807,-0.960816,0.026910,0.004978,-0.032348,-27.517487,-24.079729,-5.878113,,,,,,,
1522137350.558444,-0.288080,0.053921,1.187232,0.025384,-0.326250,0.169655,-0.283699,-0.053895,-0.957398,0.008949,-0.019454,0.051392,-26.632492,-25.808336,-5.495789,,,,,,,
1522137350.588412,-0.292509,0.047505,1.188672,-0.299301,-0.003770,0.060406,-0.288031,-0.047487,-0.956443,-0.039316,-0.052016,0.123679,-25.843307,-28.588228,-6.834229,,,,,,,
1522137350.618381,-0.285857,0.039613,1.187604,-0.172989,0.290347,0.047419,-0.281759,-0.039602,-0.958668,-0.015650,-0.023310,0.035038,-24.883621,-29.718218,-7.504272,,,,,,,
1522137350.648349,-0.282939,0.039303,1.189301,0.093255,-0.069652,0.071426,-0.278963,-0.039293,-0.959498,0.005160,-0.037566,-0.018270,-27.383240,-31.508089,-8.623352,,,,,,,
1522137350.678317,-0.288268,0.041408,1.191877,0.016172,-0.152111,0.039480,-0.284048,-0.041396,-0.957916,-0.027384,-0.009569,0.030121,-28.434250,-31.653276,-8.548279,,,,,,,
1522137350.708293,-0.288045,0.039254,1.190797,-0.131559,0.141029,-0.040835,-0.283860,-0.039244,-0.958062,-0.005401,-0.029664,0.028207,-30.598663,-31.267412,-7.425903,,,,,,,
1522137350.738262,-0.281274,0.036398,1.189406,-0.078118,0.207525,0.004952,-0.277396,-0.036390,-0.960066,0.023841,-0.021608,-0.072786,-30.810318,-30.290865,-6.829895,,,,,,,
1522137350.768230,-0.278725,0.035526,1.189858,-0.012040,-0.029761,0.027617,-0.274957,-0.035518,-0.960800,-0.006507,-0.028203,-0.101303,-31.763092,-29.010012,-5.260559,,,,,,,
1522137350.798198,-0.282174,0.034246,1.190976,-0.075500,-0.091490,0.063860,-0.278281,-0.034240,-0.959889,-0.045022,0.009032,0.007054,-31.720535,-26.232729,-2.796570,,,,,,,
1522137350.828166,-0.280903,0.029145,1.191387,-0.209116,0.108636,0.061424,-0.277106,-0.029141,-0.960397,-0.025201,-0.010425,0.051523,-32.897858,-24.501543,-1.904175,,,,,,,
1522137350.858135,-0.276730,0.023321,1.191867,-0.142952,0.108404,0.068942,-0.273137,-0.023319,-0.961692,0.019918,-0.045331,0.060600,-32.548615,-20.826036,0.181335,,,,,,,
1522137350.888103,-0.275659,0.020732,1.192737,-0.064122,0.035118,0.038165,-0.272123,-0.020730,-0.962039,0.039625,-0.064063,0.058124,-31.617798,-18.503954,1.447510,,,,,,,
1522137350.918071,-0.274512,0.018723,1.193261,-0.050144,0.043636,0.028588,-0.271029,-0.018722,-0.962389,0.022494,-0.048631,0.014132,-31.577042,-15.277727,2.859680,,,,,,,
1522137350.948039,-0.272671,0.019502,1.193187,0.060307,0.076787,-0.037442,-0.269254,-0.019501,-0.962872,-0.000964,-0.018311,-0.037296,-30.735596,-14.305391,3.981201,,,,,,,
1522137350.978008,-0.270867,0.022872,1.192184,0.098672,0.030122,-0.064003,-0.267497,-0.022870,-0.963287,-0.034123,-0.013186,-0.041825,-29.279953,-12.135439,5.473267,,,,,,,
1522137351.007976,-0.271047,0.026037,1.191327,0.049277,-0.010286,-0.043748,-0.267649,-0.026034,-0.963165,-0.044805,0.025454,-0.018189,-27.998245,-11.915468,6.223022,,,,,,,
1522137351.037944,-0.270409,0.024870,1.189941,-0.119298,0.043103,-0.020487,-0.267043,-0.024867,-0.963364,-0.016038,0.034511,0.007782,-24.760208,-10.654970,6.294556,,,,,,,
1522137351.067912,-0.269254,0.021784,1.189831,-0.053511,0.046607,0.061609,-0.265949,-0.021782,-0.963741,0.024662,0.006065,0.028667,-23.407135,-10.211275,6.068481,,,,,,,
1522137351.097881,-0.268568,0.022587,1.191888,0.108879,0.043169,0.039359,-0.265283,-0.022585,-0.963906,0.007440,-0.029677,-0.006828,-21.155762,-9.622164,5.317261,,,,,,,
,,,,,,,,,,,,,,,,25.312719,51.448270,-21.052891,0.225797,-1.000000,1522137351.099897,
1522137351.127849,-0.267499,0.025566,1.192994,0.087706,0.028688,-0.008596,-0.264233,-0.025564,-0.964120,0.002377,-0.037135,-0.021918,-20.258331,-9.476885,4.642090,,,,,,,
1522137351.157817,-0.266654,0.026742,1.192334,0.005768,0.041907,-0.048086,-0.263411,-0.026739,-0.964313,-0.025026,-0.032328,-0.039792,-18.455261,-9.259844,4.792114,,,,,,,
1522137351.187785,-0.265154,0.026905,1.190704,-0.033793,0.034541,-0.043848,-0.261963,-0.026902,-0.964703,-0.007125,-0.027755,-0.066669,-17.122559,-10.541582,4.047913,,,,,,,
1522137351.217754,-0.264285,0.024453,1.189564,-0.138812,0.010004,0.008304,-0.261141,-0.024451,-0.964991,-0.009962,0.007101,-0.029898,-15.703903,-10.998262,3.750427,,,,,,,
1522137351.247722,-0.264631,0.019428,1.189276,-0.165781,-0.002969,0.049851,-0.261504,-0.019427,-0.965007,-0.002168,0.008899,0.033809,-13.852493,-12.732637,2.708313,,,,,,,
1522137351.277721,-0.264061,0.015476,1.189798,-0.093094,0.028623,0.062670,-0.260971,-0.015475,-0.965222,0.033646,-0.037732,0.048734,-13.116623,-13.786547,2.112915,,,,,,,
1522137351.307689,-0.263108,0.014185,1.191332,0.021239,0.023199,0.039313,-0.260056,-0.014185,-0.965489,0.051987,-0.027426,0.043599,-10.969421,-15.897326,0.997437,,,,,,,
1522137351.337657,-0.262307,0.016136,1.191180,0.075240,0.040775,-0.062949,-0.259276,-0.016135,-0.965668,0.005431,-0.026590,-0.034530,-10.687088,-17.399035,0.553589,,,,,,,
1522137351.367626,-0.260594,0.019379,1.188962,0.066986,0.049637,-0.110916,-0.257606,-0.019377,-0.966056,-0.022850,-0.018434,-0.084680,-8.321182,-20.185717,-0.484070,,,,,,,
1522137351.397594,-0.259416,0.020758,1.185997,-0.035938,-0.019317,-0.089619,-0.256461,-0.020756,-0.966332,-0.032372,0.011067,-0.088631,-6.685364,-20.794436,-1.830872,,,,,,,
1522137351.427562,-0.262102,0.018321,1.184464,-0.137227,-0.104810,0.014816,-0.259068,-0.018320,-0.965685,-0.022960,0.025797,0.002596,-5.526169,-23.127565,-4.745911,,,,,,,
1522137351.457530,-0.264033,0.013446,1.184808,-0.142566,-0.038270,0.073354,-0.260953,-0.013446,-0.965258,0.019788,-0.014417,0.055849,-5.543137,-23.429811,-7.069763,,,,,,,
1522137351.487499,-0.263161,0.011880,1.186020,0.048236,0.071051,0.023309,-0.260115,-0.011880,-0.965504,0.048247,-0.029990,-0.000789,-4.739029,-24.260530,-9.166016,,,,,,,
1522137351.517467,-0.262071,0.014967,1.186473,0.116563,0.005399,-0.033050,-0.259053,-0.014967,-0.965747,0.036931,-0.012682,-0.061002,-5.369934,-24.786959,-13.439270,,,,,,,
1522137351.547435,-0.263351,0.017938,1.185410,0.060975,-0.063198,-0.079910,-0.260276,-0.017937,-0.965368,-0.027200,0.037057,-0.050914,-7.035751,-25.156481,-15.463562,,,,,,,
1522137351.577403,-0.264174,0.020795,1.182765,0.093441,-0.015139,-0.123631,-0.261056,-0.020794,-0.965100,-0.053138,0.052364,-0.020939,-10.793167,-24.092577,-18.469727,,,,,,,
1522137351.607372,-0.263929,0.025755,1.180273,0.160716,-0.005793,-0.117194,-0.260789,-0.025752,-0.965052,-0.000915,0.026652,-0.008520,-13.868530,-23.404955,-19.674011,,,,,,,
1522137351.637340,-0.264911,0.031415,1.179122,0.171828,-0.063722,-0.044663,-0.261694,-0.031409,-0.964639,0.012289,-0.008584,0.002039,-17.219574,-21.139650,-19.459778,,,,,,,
1522137351.667308,-0.267138,0.034552,1.180676,0.086119,-0.040670,0.031969,-0.263814,-0.034545,-0.963955,-0.015437,0.024444,0.021129,-19.380554,-20.004488,-19.015381,,,,,,,
1522137351.697265,-0.266260,0.035778,1.180901,0.035747,0.082089,-0.029993,-0.262957,-0.035770,-0.964144,-0.036863,0.012012,-0.019331,-22.493286,-17.438540,-17.077148,,,,,,,
1522137351.727234,-0.263449,0.037574,1.180043,0.059235,0.065136,-0.044878,-0.260229,-0.037565,-0.964816,-0.008982,-0.022310,-0.061948,-23.524643,-16.382555,-15.731934,,,,,,,
1522137351.757202,-0.264055,0.038786,1.180397,0.017738,-0.050084,0.034062,-0.260801,-0.038776,-0.964613,-0.028429,0.014179,-0.030244,-23.130157,-15.332827,-14.235962,,,,,,,
1522137351.787170,-0.264899,0.037052,1.181236,-0.088848,0.004297,0.045646,-0.261632,-0.037044,-0.964456,-0.031154,0.029002,0.028131,-23.797943,-14.879381,-13.788086,,,,,,,
1522137351.817138,-0.262931,0.033906,1.181567,-0.094735,0.103232,0.031690,-0.259763,-0.033899,-0.965077,0.012128,-0.019705,0.029530,-24.242264,-13.903063,-14.467163,,,,,,,
1522137351.847107,-0.259354,0.031358,1.181641,-0.072109,0.126689,0.012503,-0.256330,-0.031353,-0.966080,0.053297,-0.053547,-0.004791,-24.693619,-13.901247,-14.692444,,,,,,,
1522137351.877075,-0.257504,0.029503,1.181505,-0.046981,0.026682,0.021145,-0.254557,-0.029498,-0.966608,0.045771,-0.054471,-0.010291,-26.575104,-14.418016,-14.916321,,,,,,,
1522137351.907043,-0.258001,0.028430,1.181656,-0.025747,-0.023155,-0.000105,-0.255045,-0.028426,-0.966511,-0.007955,-0.033220,0.003697,-30.549911,-15.074007,-13.790649,,,,,,,
1522137351.937012,-0.257658,0.029084,1.181045,0.006564,0.010925,-0.023552,-0.254709,-0.029080,-0.966580,-0.013434,-0.055164,-0.019290,-32.795578,-15.587313,-12.214722,,,,,,,
1522137351.966980,-0.256192,0.028059,1.180753,-0.104401,0.070431,0.014670,-0.253299,-0.028055,-0.966981,-0.015393,-0.041266,-0.071624,-36.313446,-17.891451,-7.182312,,,,,,,
1522137351.996948,-0.254978,0.022483,1.179985,-0.245779,-0.006928,0.033826,-0.252160,-0.022482,-0.967424,-0.011237,-0.018870,-0.045088,-37.129501,-18.709932,-4.329407,,,,,,,
1522137352.026916,-0.256187,0.014607,1.179399,-0.256795,-0.051686,0.058359,-0.253367,-0.014606,-0.967260,0.022013,-0.010327,0.035116,-37.714386,-20.576662,1.302795,,,,,,,
1522137352.056885,-0.256740,0.009436,1.179376,-0.113319,0.012916,0.037097,-0.253918,-0.009436,-0.967180,0.038861,-0.044123,0.069551,-35.382965,-21.559450,4.007874,,,,,,,
1522137352.086853,-0.256148,0.008043,1.179399,-0.017067,0.010784,0.004138,-0.253348,-0.008043,-0.967342,0.009360,-0.036558,0.029521,-34.103134,-23.735781,8.442261,,,,,,,
1522137352.116821,-0.255292,0.009231,1.178869,0.065579,0.031216,-0.060813,-0.252517,-0.009231,-0.967548,-0.012589,0.006225,-0.019253,-32.003464,-24.718645,10.022217,,,,,,,
,,,,,,,,,,,,,,,,25.312715,51.448216,-20.724834,0.618312,-1.000000,1522137352.094982,
1522137352.146789,-0.255218,0.013496,1.176918,0.128452,-0.037743,-0.097994,-0.252433,-0.013495,-0.967520,-0.026848,0.018134,-0.047739,-30.139862,-27.798800,13.260437,,,,,,,
1522137352.176758,-0.257095,0.017629,1.175546,0.098257,-0.068718,-0.066013,-0.254233,-0.017628,-0.966982,-0.023111,0.027424,-0.045118,-27.819839,-29.382433,15.067932,,,,,,,
1522137352.206726,-0.258759,0.019280,1.175166,0.023318,-0.033921,0.001015,-0.255833,-0.019278,-0.966529,0.001225,0.010734,-0.033670,-24.455429,-31.121431,16.201599,,,,,,,
1522137352.236694,-0.259858,0.018664,1.175372,-0.042912,-0.040138,0.002036,-0.256898,-0.018663,-0.966258,-0.004820,-0.013655,-0.003865,-18.330795,-34.747177,18.019165,,,,,,,
1522137352.266662,-0.259076,0.016949,1.173905,-0.054929,0.063422,-0.062014,-0.256150,-0.016948,-0.966488,-0.005324,-0.012502,-0.017536,-15.507843,-37.010620,17.279602,,,,,,,
1522137352.296631,-0.258030,0.018024,1.171460,0.067774,0.003847,-0.097019,-0.255135,-0.018023,-0.966737,-0.000404,0.002505,-0.018477,-9.777725,-40.787582,16.097595,,,,,,,
1522137352.326599,-0.259322,0.022007,1.169343,0.118719,-0.059007,-0.092653,-0.256363,-0.022005,-0.966330,-0.016983,0.028323,-0.017481,-7.252853,-42.450363,14.680481,,,,,,,
1522137352.356567,-0.260936,0.024632,1.168688,0.031870,-0.048715,-0.013881,-0.257906,-0.024629,-0.965856,-0.025694,0.073854,-0.015406,-1.242706,-45.932419,9.672424,,,,,,,
1522137352.386535,-0.261566,0.023352,1.168644,-0.081210,0.012939,0.022204,-0.258523,-0.023350,-0.965723,-0.018714,0.050419,0.023996,0.453415,-47.067978,6.752869,,,,,,,
1522137352.416504,-0.260347,0.020560,1.168896,-0.068280,0.054262,0.034956,-0.257361,-0.020558,-0.966096,-0.001382,-0.020900,0.025239,1.054169,-50.901657,0.768494,,,,,,,
1522137352.446472,-0.258446,0.019207,1.169595,0.002272,0.056319,0.020088,-0.255532,-0.019205,-0.966610,-0.003349,-0.047704,-0.006504,2.299728,-52.409653,-1.624878,,,,,,,
1522137352.476440,-0.257017,0.019522,1.169240,0.018594,0.052457,-0.041694,-0.254148,-0.019521,-0.966968,-0.012057,-0.051799,-0.027798,2.171951,-54.813873,-6.415344,,,,,,,
1522137352.506409,-0.255975,0.020472,1.168132,0.006687,0.022697,-0.036346,-0.253136,-0.020470,-0.967214,-0.004372,-0.023933,-0.043086,1.696762,-55.714432,-9.112000,,,,,,,
1522137352.536377,-0.255940,0.019415,1.167317,-0.104627,0.018382,0.012588,-0.253107,-0.019414,-0.967243,-0.007986,0.012380,-0.017010,1.153320,-55.939682,-11.811340,,,,,,,
1522137352.566345,-0.254435,0.014979,1.167630,-0.152850,0.047853,0.071121,-0.251670,-0.014978,-0.967697,0.015891,0.007868,0.015518,-0.670670,-55.411346,-16.689392,,,,,,,
1522137352.596313,-0.253668,0.011116,1.169329,-0.082635,0.009302,0.087202,-0.250941,-0.011116,-0.967938,0.030009,-0.020989,0.034574,-2.481903,-54.731216,-19.693054,,,,,,,
1522137352.626282,-0.253391,0.009161,1.170645,-0.042716,0.036165,0.030731,-0.250677,-0.009161,-0.968027,0.022513,-0.050471,0.038279,-6.086777,-53.143448,-23.151184,,,,,,,
1522137352.656250,-0.251007,0.008852,1.170117,0.019760,0.076880,-0.039588,-0.248370,-0.008852,-0.968625,0.041979,-0.072431,-0.028735,-7.505905,-52.012970,-24.056396,,,,,,,
1522137352.686220,-0.250959,0.011747,1.169371,0.126908,-0.071124,-0.035094,-0.248315,-0.011746,-0.968608,0.020044,-0.039493,-0.062596,-13.124695,-50.938431,-24.813477,,,,,,,
1522137352.716188,-0.253919,0.015855,1.169484,0.097894,-0.099798,-0.025504,-0.251167,-0.015855,-0.967814,-0.034523,-0.017409,-0.064337,-14.545578,-50.706741,-24.515137,,,,,,,
1522137352.746157,-0.256151,0.016528,1.169681,-0.059191,-0.070038,0.027633,-0.253324,-0.016527,-0.967240,-0.041766,-0.013960,-0.011428,-15.737579,-50.400558,-23.691956,,,,,,,
1522137352.776125,-0.256404,0.012265,1.169688,-0.182661,0.019502,0.031711,-0.253585,-0.012265,-0.967235,-0.044038,-0.009616,0.034923,-16.186066,-50.248535,-23.692810,,,,,,,
1522137352.806093,-0.254491,0.008045,1.169664,-0.087347,0.090425,0.037036,-0.251745,-0.008045,-0.967760,-0.004099,-0.031903,-0.021574,-15.967361,-50.924454,-23.614990,,,,,,,
1522137352.836061,-0.253111,0.008537,1.170695,0.096060,0.010426,0.013818,-0.250408,-0.008537,-0.968103,0.045300,-0.043709,-0.068686,-16.425552,-51.972000,-23.236023,,,,,,,
1522137352.866030,-0.255062,0.012008,1.170910,0.083089,-0.084808,-0.038308,-0.252288,-0.012008,-0.967578,0.001052,-0.021897,-0.070264,-16.077103,-53.999603,-24.277771,,,,,,,
1522137352.895998,-0.256323,0.012440,1.169492,-0.060716,-0.014287,-0.041688,-0.253505,-0.012439,-0.967254,-0.028523,0.011264,-0.024751,-14.893356,-54.456894,-26.225281,,,,,,,
1522137352.925997,-0.256415,0.010472,1.168497,-0.056741,-0.014695,0.014789,-0.253600,-0.010471,-0.967252,-0.020371,0.000813,0.006437,-16.486710,-55.351288,-27.797485,,,,,,,
1522137352.955965,-0.257320,0.010758,1.169898,0.076460,-0.023802,0.055381,-0.254475,-0.010758,-0.967019,0.000249,-0.027908,-0.010367,-19.898178,-56.839539,-31.393250,,,,,,,
1522137352.985933,-0.258019,0.012912,1.171810,0.058482,-0.015094,0.030859,-0.255145,-0.012912,-0.966816,0.015887,-0.059979,-0.043010,-22.767700,-57.578644,-33.416687,,,,,,,
1522137353.015901,-0.258413,0.012352,1.171706,-0.061803,0.005753,-0.020396,-0.255527,-0.012352,-0.966723,-0.017560,-0.044502,-0.038419,-31.712845,-59.413696,-33.713806,,,,,,,
1522137353.045870,-0.258200,0.011381,1.170499,-0.021254,0.005620,-0.016103,-0.255324,-0.011381,-0.966788,-0.002657,-0.047015,-0.058907,-36.882980,-59.464523,-32.816223,,,,,,,
1522137353.075838,-0.258779,0.010490,1.170842,-0.055954,-0.045714,0.042530,-0.255886,-0.010490,-0.966650,-0.007023,-0.022698,-0.014338,-44.422211,-59.125198,-27.421326,,,,,,,
1522137353.105806,-0.259265,0.007324,1.171818,-0.126150,0.037216,0.061570,-0.256363,-0.007324,-0.966553,0.003342,-0.000122,0.012817,-47.689514,-58.281464,-23.376404,,,,,,,
,,,,,,,,,,,,,,,,25.312698,51.448153,-20.731695,1.036137,-1.000000,1522137353.093420,
1522137353.135775,-0.256846,0.003294,1.171943,-0.132175,0.089494,0.033809,-0.254030,-0.003294,-0.967191,0.052034,-0.026354,-0.001041,-49.565460,-55.864700,-15.062012,,,,,,,
1522137353.165743,-0.256067,0.000119,1.173023,-0.060312,-0.019396,0.080852,-0.253277,-0.000119,-0.967394,0.052563,-0.024890,0.052553,-49.454330,-54.137054,-11.918884,,,,,,,
1522137353.195711,-0.256705,0.001460,1.174597,0.146241,-0.009758,-0.004241,-0.253894,-0.001460,-0.967231,0.004047,-0.024282,0.008292,-49.620789,-52.104935,-5.552124,,,,,,,
1522137353.225679,-0.257259,0.006970,1.174771,0.143277,-0.027392,-0.064958,-0.254425,-0.006969,-0.967067,0.001922,-0.014454,-0.043660,-50.266953,-50.749496,-3.007812,,,,,,,
1522137353.255648,-0.257581,0.009713,1.172543,0.033557,-0.005651,-0.094901,-0.254730,-0.009713,-0.966963,-0.035385,0.001534,-0.034441,-50.237579,-49.471848,-0.237915,,,,,,,
1522137353.285616,-0.257187,0.011031,1.171203,0.029935,-0.012542,-0.020309,-0.254346,-0.011031,-0.967050,0.010052,-0.030473,-0.057593,-51.676132,-47.508423,6.728577,,,,,,,
1522137353.315584,-0.259433,0.010837,1.172440,-0.027508,-0.090635,0.075620,-0.256517,-0.010836,-0.966479,0.008730,-0.026593,-0.010282,-51.722031,-46.529984,9.949585,,,,,,,
1522137353.345552,-0.260016,0.007336,1.173607,-0.155912,0.055422,0.051939,-0.257089,-0.007336,-0.966360,0.003030,-0.051792,-0.012415,-51.210526,-44.650177,17.067322,,,,,,,
1522137353.375521,-0.258158,0.001488,1.173869,-0.187018,0.040516,0.066850,-0.255299,-0.001488,-0.966861,0.006016,-0.033729,0.046420,-51.479736,-44.044830,21.189758,,,,,,,
1522137353.405489,-0.257556,-0.001774,1.174527,-0.033301,-0.001090,0.036105,-0.254718,0.001774,-0.967014,-0.003446,-0.023503,0.033298,-48.481796,-41.200912,28.604919,,,,,,,
1522137353.435457,-0.257307,-0.000028,1.175206,0.085537,0.024416,-0.005394,-0.254477,0.000028,-0.967079,0.043693,-0.045956,0.012840,-45.360611,-38.736359,32.196655,,,,,,,
1522137353.465425,-0.256915,0.003166,1.175494,0.100498,0.003263,-0.025602,-0.254097,-0.003166,-0.967173,0.055839,-0.037514,-0.010091,-38.764969,-35.309982,38.261108,,,,,,,
1522137353.495394,-0.256808,0.006886,1.175087,0.114557,0.015075,-0.049041,-0.253989,-0.006886,-0.967182,0.027472,-0.011989,-0.083065,-34.996964,-34.724915,40.285706,,,,,,,
1522137353.525362,-0.257352,0.010076,1.174775,0.087403,-0.061523,-0.026608,-0.254508,-0.010076,-0.967018,-0.003442,0.020239,-0.091347,-27.102646,-33.783783,41.935913,,,,,,,
1522137353.555330,-0.259708,0.012767,1.175073,0.073250,-0.082981,0.007501,-0.256778,-0.012766,-0.966386,-0.041318,0.011362,-0.022475,-23.431091,-34.399857,42.390137,,,,,,,
1522137353.585298,-0.260600,0.013205,1.176230,-0.024744,0.003145,0.036103,-0.257638,-0.013205,-0.966151,-0.016929,-0.020593,-0.010732,-15.293411,-37.737137,41.732605,,,,,,,
1522137353.615267,-0.259244,0.010228,1.176741,-0.124926,0.049015,0.043454,-0.256336,-0.010228,-0.966533,0.030003,-0.059871,-0.005268,-11.791901,-39.778412,41.217529,,,,,,,
1522137353.645235,-0.258443,0.006780,1.176974,-0.076880,0.033069,0.028583,-0.255569,-0.006780,-0.966767,0.060226,-0.094996,-0.025619,-8.219482,-41.820663,40.027466,,,,,,,
1522137353.675203,-0.257818,0.006633,1.177965,0.053115,-0.008794,0.042574,-0.254966,-0.006633,-0.966927,0.056144,-0.068944,-0.044639,0.044510,-45.911209,36.673035,,,,,,,
1522137353.705179,-0.260057,0.009286,1.179413,0.085999,-0.101040,0.003262,-0.257124,-0.009286,-0.966333,-0.031877,-0.002844,-0.024694,5.038544,-47.211685,33.680725,,,,,,,
1522137353.735148,-0.261295,0.010827,1.179265,-0.005354,-0.017815,-0.013934,-0.258316,-0.010827,-0.965999,-0.040832,-0.002280,-0.020664,10.810303,-50.095886,25.445129,,,,,,,
1522137353.765116,-0.260994,0.010128,1.179000,-0.038530,-0.005173,0.012670,-0.258028,-0.010128,-0.966084,0.011095,0.015789,0.015019,13.532806,-51.838974,19.603455,,,,,,,
1522137353.795084,-0.261101,0.009872,1.179681,0.019073,0.006259,0.030806,-0.258132,-0.009871,-0.966059,0.041045,-0.003221,0.015986,14.634003,-54.481003,7.539612,,,,,,,
1522137353.825053,-0.260706,0.010555,1.180926,0.026651,0.023246,0.027610,-0.257748,-0.010555,-0.966154,0.046582,-0.018589,0.011183,13.754120,-56.283173,1.396362,,,,,,,
1522137353.855021,-0.260165,0.012377,1.181876,0.118507,-0.000144,-0.001076,-0.257221,-0.012377,-0.966273,0.043048,-0.032789,-0.014821,9.541946,-58.749649,-9.020935,,,,,,,
1522137353.884989,-0.260539,0.017494,1.182307,0.189067,-0.037177,-0.049995,-0.257562,-0.017493,-0.966103,-0.007544,-0.020562,-0.075736,5.168106,-59.108337,-12.396667,,,,,,,
1522137353.914957,-0.262475,0.022457,1.182002,0.114034,-0.094408,-0.043605,-0.259406,-0.022456,-0.965507,-0.028451,-0.012411,-0.040658,-5.067459,-60.416031,-16.146545,,,,,,,
1522137353.944926,-0.263683,0.023704,1.181918,-0.023614,-0.014727,0.008417,-0.260564,-0.023702,-0.965165,-0.017451,-0.002833,-0.001281,-9.576874,-60.771713,-17.122437,,,,,,,
1522137353.974894,-0.262599,0.020809,1.182456,-0.126043,0.064823,0.064738,-0.259535,-0.020807,-0.965509,0.022551,-0.010397,0.022379,-13.326096,-61.278870,-16.147217,,,,,,,
1522137354.004862,-0.261257,0.017304,1.183699,-0.063201,0.027480,0.062698,-0.258256,-0.017303,-0.965921,0.035463,-0.030686,0.015512,-19.990097,-62.519974,-12.245605,,,,,,,
1522137354.034830,-0.260807,0.016720,1.184937,0.008427,0.017927,0.036121,-0.257824,-0.016719,-0.966047,0.048092,-0.057942,-0.011233,-20.881302,-63.712509,-8.791260,,,,,,,
1522137354.064799,-0.260777,0.016872,1.185442,0.011612,-0.027516,-0.000061,-0.257794,-0.016872,-0.966052,0.004346,-0.022511,0.018787,-18.609848,-65.441269,-2.333191,,,,,,,
1522137354.094767,-0.261310,0.017795,1.185195,0.009683,-0.008232,-0.022455,-0.258305,-0.017794,-0.965899,0.010380,-0.006040,0.012118,-15.608276,-66.502747,-0.302429,,,,,,,
1522137354.124735,-0.260801,0.017097,1.184420,-0.066073,0.032141,0.004092,-0.257816,-0.017096,-0.966042,0.015141,-0.014139,-0.009360,-7.074341,-68.116150,-0.291748,,,,,,,
1522137354.154703,-0.259151,0.015791,1.184464,-0.006241,0.051090,0.010500,-0.256228,-0.015790,-0.966487,0.027529,-0.016223,-0.032139,-4.990173,-68.802017,-1.787964,,,,,,,
,,,,,,,,,,,,,,,,25.312675,51.448082,-20.733946,1.449375,-1.000000,1522137354.092814,
1522137354.184672,-0.258810,0.018119,1.185275,0.132304,-0.008741,0.007468,-0.255889,-0.018118,-0.966536,0.032912,-0.029596,0.005049,-1.585770,-70.846527,-5.978088,,,,,,,
1522137354.214640,-0.259173,0.022788,1.186332,0.154839,-0.016044,-0.020210,-0.256215,-0.022786,-0.966351,0.030308,-0.039424,-0.032917,-1.379227,-71.524414,-7.925293,,,,,,,
1522137354.244608,-0.259015,0.024967,1.186219,-0.022378,0.001318,-0.008639,-0.256048,-0.024964,-0.966341,0.017706,-0.023666,-0.097166,-0.593216,-74.080185,-10.164673,,,,,,,
1522137354.274576,-0.259186,0.021677,1.185796,-0.136913,-0.039976,0.011559,-0.256234,-0.021675,-0.966371,-0.010398,0.019310,-0.049330,-1.359222,-74.828156,-11.587036,,,,,,,
1522137354.304545,-0.260872,0.019770,1.185556,-0.016353,-0.065763,0.007422,-0.257872,-0.019769,-0.965976,-0.008958,0.021432,-0.014767,-0.779816,-75.582932,-13.758728,,,,,,,
1522137354.334513,-0.262370,0.020221,1.186366,0.028469,-0.036301,0.035120,-0.259317,-0.020220,-0.965580,0.028177,-0.018003,0.051655,-1.460342,-75.505920,-14.809448,,,,,,,
1522137354.364481,-0.261925,0.020262,1.187271,-0.003045,0.049989,0.012645,-0.258888,-0.020261,-0.965695,0.046119,-0.027423,0.019390,-2.517395,-74.903336,-16.987366,,,,,,,
1522137354.394450,-0.260827,0.020474,1.186688,0.021597,0.006780,-0.043783,-0.257826,-0.020472,-0.965974,0.029051,-0.011876,-0.063826,-4.393280,-73.322678,-19.769592,,,,,,,
1522137354.424418,-0.261735,0.023246,1.185924,0.117307,-0.081636,-0.046817,-0.258687,-0.023244,-0.965681,-0.019572,0.027761,-0.090441,-6.863083,-72.487106,-20.299194,,,,,,,
1522137354.454386,-0.264881,0.027202,1.185480,0.088354,-0.106027,-0.043616,-0.261698,-0.027199,-0.964766,-0.069220,0.041710,-0.059190,-10.058182,-69.397873,-20.463135,,,,,,,
1522137354.484354,-0.265863,0.026460,1.185291,-0.108004,0.008625,0.039245,-0.262650,-0.026457,-0.964528,-0.021408,0.027113,0.046346,-9.371399,-67.901505,-20.993774,,,,,,,
1522137354.514323,-0.264168,0.021934,1.186452,-0.120832,0.069923,0.093505,-0.261044,-0.021933,-0.965078,0.027019,0.003790,0.070562,-8.595856,-64.755981,-21.981018,,,,,,,
1522137354.544321,-0.261904,0.019602,1.188370,0.010770,0.094256,0.061614,-0.258871,-0.019601,-0.965713,0.057485,-0.036017,0.011932,-7.463333,-62.738190,-24.088501,,,,,,,
1522137354.574290,-0.259249,0.020760,1.188827,0.032484,0.073565,-0.025724,-0.256299,-0.020758,-0.966374,0.044797,-0.048395,-0.061549,-7.318878,-59.819626,-29.875061,,,,,,,
1522137354.604258,-0.258594,0.022664,1.188047,0.080325,-0.003948,-0.052242,-0.255655,-0.022662,-0.966502,0.004038,-0.025235,-0.081884,-9.574844,-58.837112,-32.505127,,,,,,,
1522137354.634226,-0.258564,0.025581,1.186715,0.045081,-0.017608,-0.061843,-0.255609,-0.025578,-0.966441,-0.023810,0.015263,-0.142247,-15.056580,-57.166351,-36.414490,,,,,,,
1522137354.664194,-0.260547,0.023073,1.185838,-0.202394,-0.076212,0.048846,-0.257540,-0.023071,-0.965992,-0.027647,0.047302,-0.022473,-17.006821,-56.558624,-37.467896,,,,,,,
1522137354.694167,-0.259688,0.014623,1.186450,-0.263987,0.076481,0.116840,-0.256751,-0.014622,-0.966367,0.010154,0.016163,0.056287,-20.078094,-56.544205,-36.869507,,,,,,,
1522137354.724135,-0.258569,0.009010,1.188684,-0.088073,0.025020,0.120215,-0.255687,-0.009010,-0.966717,0.061626,-0.040337,0.053631,-23.963974,-56.075134,-35.298340,,,,,,,
1522137354.754103,-0.258341,0.007403,1.190730,0.007190,-0.015026,0.039345,-0.255470,-0.007403,-0.966788,0.069252,-0.043592,0.056144,-24.861221,-56.519913,-34.096985,,,,,,,
1522137354.784071,-0.258924,0.008559,1.190827,0.054558,-0.023084,-0.041587,-0.256031,-0.008559,-0.966630,0.030063,-0.031129,0.068315,-28.228073,-57.327042,-31.395447,,,,,,,
1522137354.814040,-0.258829,0.011229,1.189393,0.088055,0.011163,-0.088479,-0.255933,-0.011229,-0.966629,-0.013354,-0.004915,0.007950,-30.022568,-57.542709,-30.120483,,,,,,,
1522137354.844008,-0.258016,0.015135,1.187391,0.102008,0.023905,-0.091680,-0.255133,-0.015134,-0.966787,-0.022089,0.006299,-0.069498,-31.177368,-56.257111,-24.726257,,,,,,,
1522137354.873976,-0.258314,0.017178,1.186116,0.003174,-0.041098,-0.030950,-0.255413,-0.017178,-0.966679,-0.021625,0.032391,-0.037456,-31.972458,-55.424942,-21.130005,,,,,,,
1522137354.903944,-0.259027,0.015656,1.185833,-0.070550,0.008658,0.022219,-0.256109,-0.015656,-0.966521,-0.001551,0.039521,-0.007921,-28.749725,-51.608673,-15.368591,,,,,,,
1522137354.933913,-0.257178,0.012990,1.185967,-0.092697,0.079851,0.030653,-0.254331,-0.012990,-0.967030,0.025403,0.031361,0.011463,-26.398453,-49.742996,-14.099915,,,,,,,
1522137354.963881,-0.255620,0.010164,1.186430,-0.070449,0.053186,0.039210,-0.252832,-0.010163,-0.967456,0.050272,0.006791,0.047763,-23.951401,-45.702896,-12.989868,,,,,,,
1522137354.993849,-0.253642,0.008289,1.187280,-0.020241,0.063636,0.044575,-0.250923,-0.008289,-0.967971,0.050850,0.001377,0.022796,-23.185272,-43.906647,-13.296631,,,,,,,
1522137355.023818,-0.252578,0.009276,1.188496,0.098215,0.013616,0.012751,-0.249890,-0.009275,-0.968230,0.044125,0.020994,0.023649,-24.447235,-41.877182,-14.505432,,,,,,,
1522137355.053786,-0.251667,0.013936,1.188545,0.175585,0.028875,-0.069252,-0.248995,-0.013935,-0.968404,0.035280,0.017185,-0.064097,-25.345856,-41.648285,-14.656738,,,,,,,
1522137355.083754,-0.251524,0.017864,1.189727,0.049333,-0.054623,-0.089501,-0.248840,-0.017863,-0.968379,0.028885,0.017314,-0.122365,-26.996231,-41.865555,-14.356689,,,,,,,
,,,,,,,,,,,,,,,,25.312657,51.448027,-20.737694,1.697170,-1.000000,1522137355.094180,
1522137355.113722,-0.253494,0.017636,1.187364,-0.054433,-0.065168,-0.061876,-0.250748,-0.017635,-0.967891,-0.009765,0.030285,-0.097050,-28.348389,-42.758347,-13.228821,,,,,,,
1522137355.143691,-0.254561,0.015980,1.186723,-0.055843,-0.033955,0.031866,-0.251788,-0.015980,-0.967650,0.014591,0.030247,-0.061342,-30.461914,-44.248611,-12.998962,,,,,,,
1522137355.173659,-0.255120,0.013528,1.187623,-0.081497,-0.017029,0.052074,-0.252339,-0.013527,-0.967544,0.036641,-0.010353,0.001907,-32.683655,-48.664047,-13.432373,,,,,,,
1522137355.203627,-0.255487,0.010489,1.188653,-0.082544,-0.013816,0.049933,-0.252703,-0.010488,-0.967487,0.049944,-0.039805,0.023426,-33.463562,-51.660522,-13.420776,,,,,,,
1522137355.233595,-0.255207,0.009005,1.189065,0.000126,0.036217,0.006264,-0.252435,-0.009005,-0.967572,0.044397,-0.057294,-0.021961,-38.318970,-58.386688,-11.446289,,,,,,,
1522137355.263564,-0.254020,0.010848,1.189067,0.084511,0.005448,-0.028811,-0.251283,-0.010847,-0.967853,0.039674,-0.043367,-0.093747,-40.061661,-61.376816,-9.410217,,,,,,,
1522137355.293532,-0.256248,0.013485,1.188621,0.046671,-0.107037,-0.036189,-0.253430,-0.013484,-0.967260,-0.009693,0.017848,-0.093562,-41.365646,-67.440674,-4.136597,,,,,,,
1522137355.323500,-0.259063,0.013320,1.187117,-0.065323,-0.091853,-0.042669,-0.256152,-0.013320,-0.966544,-0.035688,0.038283,-0.060586,-41.079086,-70.139709,-1.875671,,,,,,,
1522137355.353468,-0.260992,0.010702,1.186297,-0.096435,-0.050779,0.021196,-0.258024,-0.010702,-0.966079,0.004835,0.050543,0.005904,-37.142334,-75.554764,0.773010,,,,,,,
1522137355.383437,-0.261048,0.007736,1.186984,-0.089873,0.033920,0.063733,-0.258086,-0.007736,-0.966091,0.022429,0.024017,0.031185,-37.246063,-78.703842,1.235535,,,,,,,
1522137355.413405,-0.259956,0.005164,1.188099,-0.045999,0.044519,0.053095,-0.257035,-0.005164,-0.966388,0.014603,-0.020746,0.058963,-36.516724,-81.181442,1.920776,,,,,,,
1522137355.443373,-0.257986,0.004522,1.188667,0.020691,0.077757,-0.012951,-0.255131,-0.004522,-0.966896,0.029484,-0.033701,0.027671,-38.353577,-85.372330,2.761658,,,,,,,
1522137355.473341,-0.256201,0.007527,1.187845,0.131805,0.019476,-0.076736,-0.253400,-0.007527,-0.967332,0.027478,0.003285,-0.062392,-38.736771,-86.869476,3.892456,,,,,,,
1522137355.503310,-0.256908,0.010801,1.185850,0.037620,-0.050313,-0.092717,-0.254077,-0.010801,-0.967123,0.014758,0.042677,-0.049783,-41.428604,-89.252029,9.225586,,,,,,,
1522137355.533278,-0.257707,0.011223,1.184258,-0.019185,-0.016655,-0.022472,-0.254848,-0.011223,-0.966916,-0.010670,0.075417,0.034924,-41.487961,-89.398911,12.076172,,,,,,,
1522137355.563246,-0.257472,0.010234,1.184444,-0.036402,0.021246,0.035011,-0.254624,-0.010234,-0.966986,0.014710,0.068095,0.039846,-39.781174,-87.450378,18.294250,,,,,,,
1522137355.593215,-0.256048,0.008397,1.185140,-0.032992,0.057394,0.028595,-0.253250,-0.008397,-0.967364,0.043289,0.016240,0.035037,-38.921570,-85.651474,21.062500,,,,,,,
1522137355.623183,-0.254516,0.007893,1.185722,0.031217,0.057421,0.000944,-0.251769,-0.007893,-0.967755,0.063934,-0.023326,0.003888,-35.308609,-80.037430,26.366882,,,,,,,
1522137355.653151,-0.252820,0.010427,1.185267,0.112645,0.041774,-0.068245,-0.250122,-0.010426,-0.968158,0.066864,-0.025676,-0.073483,-33.985382,-76.965469,29.280212,,,,,,,
1522137355.683119,-0.253586,0.013411,1.183833,0.056549,-0.077148,-0.060711,-0.250854,-0.013411,-0.967932,0.040985,0.005400,-0.039515,-27.632874,-67.613388,34.945984,,,,,,,
1522137355.713090,-0.254996,0.013828,1.182496,-0.027737,-0.032491,-0.034183,-0.252217,-0.013827,-0.967571,-0.002376,0.032077,-0.003528,-22.617813,-62.084335,36.576355,,,,,,,
1522137355.743058,-0.254478,0.013220,1.181846,-0.028777,0.012964,-0.000132,-0.251718,-0.013220,-0.967710,0.009576,0.038137,-0.047686,-18.272324,-56.102112,38.354553,,,,,,,
1522137355.773026,-0.254574,0.012078,1.182312,-0.040897,-0.027632,0.036123,-0.251815,-0.012077,-0.967700,0.043319,0.024666,0.002154,-10.589005,-45.111954,38.089417,,,,,,,
1522137355.802994,-0.254714,0.009936,1.182698,-0.072573,0.022560,0.011543,-0.251956,-0.009935,-0.967687,0.032443,-0.010893,0.002020,-7.548920,-40.551544,37.172791,,,,,,,
1522137355.832963,-0.253277,0.008606,1.181582,-0.013440,0.041956,-0.049161,-0.250568,-0.008606,-0.968060,0.048160,-0.043961,-0.066348,-4.495697,-33.368378,34.070618,,,,,,,
1522137355.862931,-0.253825,0.010329,1.180042,0.080008,-0.088884,-0.063870,-0.251095,-0.010329,-0.967907,0.031841,0.003905,-0.068241,-4.171173,-30.595385,33.534668,,,,,,,
1522137355.892900,-0.256745,0.012099,1.179371,0.008403,-0.054981,-0.022411,-0.253915,-0.012099,-0.967150,-0.006613,0.040755,-0.018979,-1.436722,-27.007921,33.296692,,,,,,,
1522137355.922868,-0.256108,0.011428,1.178963,-0.033098,0.018177,0.014781,-0.253301,-0.011428,-0.967320,0.005666,0.019744,-0.021999,-0.902786,-25.885698,32.917480,,,,,,,
1522137355.952837,-0.256064,0.010591,1.179831,-0.001319,-0.020262,0.029761,-0.253260,-0.010591,-0.967340,0.022151,0.015276,-0.043402,1.718033,-25.224291,31.116089,,,,,,,
1522137355.982805,-0.256873,0.009808,1.180175,-0.069550,-0.011507,0.017980,-0.254045,-0.009808,-0.967142,0.036088,0.008984,-0.021825,4.408295,-24.938509,29.016296,,,,,,,
1522137356.012773,-0.257208,0.006499,1.179439,-0.102490,-0.003790,-0.007637,-0.254376,-0.006499,-0.967083,-0.002506,-0.000978,0.017956,3.770950,-26.064989,24.670532,,,,,,,
1522137356.042741,-0.255668,0.005695,1.179285,0.041823,0.054149,0.010538,-0.252888,-0.005695,-0.967479,0.034397,-0.021008,-0.038396,3.069275,-27.114519,21.974365,,,,,,,
1522137356.072710,-0.256623,0.008801,1.179817,0.107463,-0.099907,-0.015896,-0.253806,-0.008801,-0.967215,0.026999,0.005994,-0.057520,-0.578568,-28.977983,17.104980,,,,,,,
1522137356.102708,-0.258481,0.008547,1.179637,-0.102401,0.013174,-0.006568,-0.255603,-0.008547,-0.966744,0.017428,0.035677,0.021034,-4.492203,-30.160662,16.807739,,,,,,,
,,,,,,,,,,,,,,,,25.312637,51.447964,-20.734386,-1.000000,-1.000000,1522137356.093310,
1522137356.132677,-0.255797,0.004876,1.177962,-0.119017,0.100463,-0.021591,-0.253013,-0.004876,-0.967450,0.033317,0.022256,0.004438,-7.501953,-30.822634,16.283875,,,,,,,
1522137356.162645,-0.253875,0.004405,1.178206,0.064898,-0.011949,0.032999,-0.251154,-0.004405,-0.967937,0.062357,0.021556,-0.004201,-9.662003,-30.585817,18.381836,,,,,,,
1522137356.192613,-0.255516,0.006596,1.179848,0.073365,-0.043729,0.018110,-0.252739,-0.006595,-0.967512,0.030281,0.022266,0.018766,-10.776016,-30.204607,19.579773,,,,,,,
1522137356.222582,-0.255184,0.007849,1.179369,0.027152,0.042941,-0.052329,-0.252416,-0.007848,-0.967587,0.028661,-0.005488,-0.045566,-9.344757,-29.985369,20.254578,,,,,,,
1522137356.252550,-0.254104,0.008625,1.177687,0.017259,-0.022906,-0.054399,-0.251369,-0.008625,-0.967853,0.032344,-0.010067,-0.076306,-8.749878,-29.914034,19.279602,,,,,,,
1522137356.282517,-0.255124,0.009176,1.177546,0.013712,-0.026526,0.008468,-0.252354,-0.009176,-0.967591,0.002049,-0.009654,-0.042342,-11.927505,-31.326982,17.033691,,,,,,,
1522137356.312485,-0.255419,0.008147,1.178165,-0.069657,-0.000039,0.048872,-0.252643,-0.008147,-0.967525,0.019855,-0.002199,-0.017430,-14.196274,-32.667664,16.137878,,,,,,,
1522137356.342454,-0.255066,0.004252,1.178869,-0.149733,0.010718,0.058392,-0.252307,-0.004252,-0.967638,0.025348,-0.011236,0.009538,-19.397552,-34.894928,15.469177,,,,,,,
1522137356.372422,-0.254944,-0.000728,1.179706,-0.143417,0.004245,0.070124,-0.252191,0.000728,-0.967677,0.055078,0.001683,0.037593,-22.708755,-36.828674,16.825317,,,,,,,
1522137356.402390,-0.254638,-0.003332,1.180374,-0.033192,0.005368,0.022256,-0.251894,0.003332,-0.967749,0.034151,0.010553,0.022207,-25.499130,-40.712189,20.739441,,,,,,,
1522137356.432359,-0.254785,-0.002527,1.180776,0.063985,-0.017003,-0.002166,-0.252037,0.002527,-0.967714,0.033424,0.021246,0.021440,-24.460770,-43.189697,22.924866,,,,,,,
1522137356.462327,-0.255300,0.000038,1.181406,0.100119,-0.042661,0.007476,-0.252535,-0.000038,-0.967587,0.016604,0.006523,0.002728,-22.602875,-45.896378,24.586609,,,,,,,
1522137356.492296,-0.255763,0.002342,1.182281,0.050253,0.004348,-0.011785,-0.252983,-0.002342,-0.967468,0.003303,-0.005135,-0.037873,-17.476089,-51.767700,26.337646,,,,,,,
1522137356.522264,-0.255145,0.002387,1.181929,-0.009545,0.009766,-0.005442,-0.252385,-0.002387,-0.967624,0.014592,-0.030511,-0.003919,-13.082687,-54.712830,25.976624,,,,,,,
1522137356.552232,-0.254234,0.002538,1.181878,0.017273,0.044716,0.000939,-0.251503,-0.002538,-0.967853,0.018455,-0.041942,-0.034878,-4.967010,-59.850677,24.651245,,,,,,,
1522137356.582201,-0.253535,0.002363,1.182372,-0.025751,-0.003144,0.021205,-0.250826,-0.002363,-0.968029,0.037844,-0.018602,-0.046086,0.249802,-62.275650,23.163574,,,,,,,
1522137356.612169,-0.253801,0.001048,1.182550,-0.050337,0.001116,0.029702,-0.251085,-0.001048,-0.967964,0.044496,-0.004704,-0.012810,8.142166,-64.716690,17.627258,,,,,,,
1522137356.642137,-0.254286,-0.000193,1.183589,-0.022887,-0.042684,0.052147,-0.251554,0.000193,-0.967843,0.047834,0.003698,0.003503,11.494370,-65.109924,14.480530,,,,,,,
1522137356.672105,-0.255037,-0.000701,1.184899,-0.002425,-0.018204,0.039350,-0.252281,0.000701,-0.967653,0.022560,0.003541,0.031695,17.300522,-64.544296,6.231140,,,,,,,
1522137356.702057,-0.254501,-0.000016,1.185146,0.051457,0.025631,-0.018191,-0.251762,0.000016,-0.967789,0.037453,-0.040406,-0.006958,19.682816,-63.884079,2.179688,,,,,,,
1522137356.732025,-0.253910,0.003010,1.184581,0.113432,-0.007209,-0.055401,-0.251189,-0.003010,-0.967933,0.039840,-0.049846,-0.075738,20.479004,-62.170319,-5.476807,,,,,,,
1522137356.761993,-0.255256,0.005968,1.183498,0.062806,-0.097425,-0.050032,-0.252489,-0.005968,-0.967581,0.008577,-0.033476,-0.083948,20.920517,-60.676208,-9.382507,,,,,,,
1522137356.791961,-0.258207,0.006400,1.183384,-0.037794,-0.072154,0.018064,-0.255343,-0.006400,-0.966829,-0.017424,-0.003579,-0.028044,19.405304,-58.275925,-15.917908,,,,,,,
1522137356.821930,-0.258743,0.004200,1.184661,-0.082727,-0.008812,0.091496,-0.255863,-0.004200,-0.966704,0.004062,0.003681,-0.004228,18.732513,-56.475540,-18.550415,,,,,,,
1522137356.851898,-0.258538,-0.000001,1.187008,-0.129627,0.023126,0.102072,-0.255667,0.000001,-0.966765,0.019430,-0.009965,0.064909,18.662567,-54.976883,-20.206421,,,,,,,
1522137356.881866,-0.256389,-0.001592,1.187582,0.031632,0.123475,-0.022569,-0.253589,0.001592,-0.967310,0.053455,-0.082967,-0.026815,20.191132,-49.812592,-24.051331,,,,,,,
1522137356.911835,-0.253046,0.001105,1.186731,0.088891,0.006644,-0.049056,-0.250354,-0.001105,-0.968153,0.091449,-0.080789,-0.125017,21.929306,-46.823212,-26.837402,,,,,,,
1522137356.941803,-0.255962,0.003576,1.186557,0.053928,-0.127456,-0.009508,-0.253175,-0.003576,-0.967414,0.024201,0.003607,-0.076883,23.201370,-42.336899,-34.804749,,,,,,,
1522137356.971771,-0.258918,0.004208,1.186681,-0.024973,-0.080649,0.010633,-0.256033,-0.004208,-0.966659,-0.010233,0.007077,-0.038926,21.695633,-40.159698,-39.389160,,,,,,,
1522137357.001739,-0.260395,0.002259,1.187711,-0.077392,-0.027823,0.074464,-0.257461,-0.002259,-0.966286,-0.004730,0.013688,0.050285,14.849319,-37.287231,-47.729065,,,,,,,
1522137357.031708,-0.259692,0.000844,1.188781,0.013996,0.049882,0.021185,-0.256782,-0.000844,-0.966469,0.037803,-0.023723,0.023597,10.945374,-35.922607,-50.661499,,,,,,,
1522137357.061676,-0.257113,0.002005,1.188560,0.034756,0.083219,-0.041704,-0.254289,-0.002005,-0.967126,0.066728,-0.093454,-0.051505,1.197952,-33.632126,-54.050537,,,,,,,
1522137357.091644,-0.257068,0.003434,1.188002,0.059727,-0.046570,-0.028770,-0.254244,-0.003434,-0.967134,0.043307,-0.041777,-0.074096,-4.651688,-33.006775,-55.031006,,,,,,,
,,,,,,,,,,,,,,,,25.312616,51.447893,-20.720802,-1.000000,-1.000000,1522137357.090124,
1522137357.121612,-0.260272,0.005552,1.187728,0.044352,-0.121047,-0.010588,-0.257339,-0.005552,-0.966305,-0.020966,0.020399,0.000591,-14.988235,-31.610353,-55.116760,,,,,,,
1522137357.151581,-0.260808,0.005241,1.187568,-0.067234,0.015136,0.006233,-0.257858,-0.005241,-0.966168,-0.054856,0.059486,0.037045,-21.358612,-31.730715,-54.144409,,,,,,,
1522137357.181549,-0.258591,0.003131,1.188003,-0.065046,0.081717,0.055192,-0.255717,-0.003131,-0.966746,-0.004338,0.050479,0.032206,-26.296387,-31.407000,-52.648193,,,,,,,
1522137357.211517,-0.256503,0.001627,1.189425,-0.010685,0.060353,0.053117,-0.253699,-0.001627,-0.967282,0.041602,-0.001302,0.052487,-35.944687,-31.658709,-47.776978,,,,,,,
1522137357.241485,-0.254696,0.001845,1.190447,0.035647,0.095669,0.001966,-0.251950,-0.001845,-0.967738,0.079557,-0.043993,0.034358,-41.241959,-31.630297,-43.204712,,,,,,,
1522137357.271454,-0.251368,0.002757,1.189374,0.032828,0.097232,-0.069423,-0.248728,-0.002757,-0.968569,0.073374,-0.035543,0.000048,-45.608475,-31.675829,-33.381775,,,,,,,
1522137357.301422,-0.250400,0.004963,1.187342,0.061343,0.004824,-0.087411,-0.247788,-0.004963,-0.968801,0.032548,0.029392,-0.011118,-46.625534,-31.216524,-28.659058,,,,,,,
1522137357.331390,-0.250105,0.006964,1.185819,0.031244,0.024691,-0.030980,-0.247500,-0.006964,-0.968863,-0.006590,0.031531,0.036352,-43.039856,-30.997911,-18.908203,,,,,,,
1522137357.361358,-0.250047,0.008577,1.186080,0.027641,-0.081407,-0.049008,-0.247440,-0.008577,-0.968865,0.008793,0.085970,0.054009,-39.717911,-30.784563,-15.607422,,,,,,,
1522137357.391327,-0.244938,0.008294,1.183565,-0.024600,0.168461,-0.052496,-0.242488,-0.008294,-0.970119,0.055857,-0.040198,-0.158345,-31.228973,-31.643999,-11.849731,,,,,,,
1522137357.421295,-0.243646,0.007008,1.182272,-0.026684,-0.029375,-0.026715,-0.241237,-0.007008,-0.970441,0.036037,-0.041790,-0.066821,-27.406799,-32.560150,-10.794189,,,,,,,
1522137357.451263,-0.247587,0.007442,1.182319,0.012041,-0.146696,0.021381,-0.245059,-0.007442,-0.969479,0.033953,-0.059056,0.028622,-21.282349,-35.212540,-10.630493,,,,,,,
1522137357.481232,-0.250572,0.006639,1.183213,-0.033639,-0.083967,0.031942,-0.247952,-0.006639,-0.968749,0.011701,-0.024504,0.072234,-18.603592,-36.126617,-12.650513,,,,,,,
1522137357.511200,-0.251179,0.006800,1.183439,0.024755,0.021484,-0.021413,-0.248540,-0.006800,-0.968597,0.021642,0.030940,-0.007462,-18.261139,-38.080322,-14.817505,,,,,,,
1522137357.541168,-0.249306,0.007990,1.182217,0.011270,0.065308,-0.056614,-0.246724,-0.007990,-0.969053,0.030537,0.021693,-0.102282,-18.802429,-39.128860,-15.788574,,,,,,,
1522137357.571136,-0.248581,0.009526,1.181045,0.072743,-0.009354,-0.036259,-0.246018,-0.009526,-0.969218,0.037675,-0.013942,-0.176931,-18.879242,-38.904190,-16.464539,,,,,,,
1522137357.601105,-0.250766,0.012599,1.181434,0.089009,-0.135138,0.012902,-0.248126,-0.012599,-0.968645,0.037036,-0.032811,-0.174284,-20.968353,-38.892990,-14.665588,,,,,,,
1522137357.631103,-0.256313,0.011955,1.182942,-0.065261,-0.182975,0.071434,-0.253497,-0.011955,-0.967262,-0.008649,0.011146,-0.024590,-21.189743,-38.666779,-14.441589,,,,,,,
1522137357.661072,-0.259349,0.008594,1.183878,-0.122044,-0.031722,0.037155,-0.256441,-0.008594,-0.966521,-0.024030,0.020313,0.028548,-18.478500,-37.179581,-15.046204,,,,,,,
1522137357.691054,-0.259058,0.005229,1.183281,-0.078915,0.012066,-0.007618,-0.256166,-0.005229,-0.966618,0.001146,0.008479,0.034642,-18.853790,-36.578934,-16.098816,,,,,,,
1522137357.721022,-0.258649,0.005823,1.182965,0.079176,0.021280,-0.013903,-0.255770,-0.005823,-0.966720,0.031313,-0.022619,-0.018632,-19.984070,-35.301865,-19.104492,,,,,,,
1522137357.750990,-0.258761,0.008055,1.183437,0.057450,-0.037265,0.007454,-0.255875,-0.008055,-0.966676,0.034272,0.006301,-0.093535,-21.186005,-34.772659,-20.307190,,,,,,,
1522137357.780959,-0.260412,0.009459,1.183814,0.060768,-0.043468,-0.019172,-0.257467,-0.009459,-0.966240,-0.023860,0.038374,-0.029975,-26.571976,-33.997375,-19.263000,,,,,,,
1522137357.810927,-0.261501,0.011354,1.183561,0.022360,-0.032764,-0.016017,-0.258514,-0.011354,-0.965940,-0.015473,0.040147,-0.015123,-28.056625,-33.314270,-17.841492,,,,,,,
1522137357.840895,-0.261407,0.009963,1.183055,-0.089629,0.008876,-0.003362,-0.258427,-0.009963,-0.965979,0.011143,0.026122,0.061835,-27.286835,-33.089813,-14.916992,,,,,,,
1522137357.870863,-0.259965,0.006926,1.182438,-0.064739,0.083166,-0.001277,-0.257041,-0.006926,-0.966375,0.025977,-0.018129,0.031271,-26.308853,-33.243454,-14.165894,,,,,,,
1522137357.900832,-0.256600,0.007986,1.182340,0.098814,0.116851,-0.011853,-0.253785,-0.007985,-0.967227,0.071412,-0.066859,-0.053845,-25.038696,-33.774094,-14.088135,,,,,,,
1522137357.930800,-0.254915,0.011392,1.183079,0.123976,0.008423,-0.015982,-0.252147,-0.011391,-0.967622,0.052730,-0.031303,-0.090362,-25.066116,-35.575546,-15.655945,,,,,,,
1522137357.960768,-0.255702,0.013529,1.182872,-0.000076,-0.044342,-0.023483,-0.252901,-0.013528,-0.967397,0.046099,0.005746,-0.068217,-26.881302,-36.917664,-15.951477,,,,,,,
1522137357.990736,-0.257397,0.012081,1.182376,-0.088024,-0.076346,0.025499,-0.254545,-0.012081,-0.966985,0.031218,0.040523,0.005590,-32.824142,-39.289948,-14.969971,,,,,,,
1522137358.020705,-0.257887,0.008948,1.183637,-0.095464,0.003992,0.088278,-0.255027,-0.008948,-0.966892,0.022438,0.025947,0.047123,-34.546173,-40.255081,-12.866943,,,,,,,
1522137358.050673,-0.256943,0.005541,1.185299,-0.098489,0.007401,0.057374,-0.254121,-0.005541,-0.967156,0.038743,-0.007597,0.036355,-37.975662,-42.482529,-5.734741,,,,,,,
1522137358.080641,-0.255999,0.003766,1.185132,-0.000624,0.048239,-0.042754,-0.253210,-0.003766,-0.967403,0.054449,-0.060778,-0.011249,-37.738297,-43.679535,-1.679810,,,,,,,
1522137358.110610,-0.254519,0.007294,1.183370,0.164942,0.006748,-0.093738,-0.251774,-0.007294,-0.967758,0.067142,-0.111053,-0.147186,-33.663940,-44.891800,4.402100,,,,,,,
,,,,,,,,,,,,,,,,25.312588,51.447822,-20.712557,-1.000000,-1.000000,1522137358.086546,
1522137358.140578,-0.258327,0.012125,1.183184,0.115408,-0.217972,-0.002981,-0.255444,-0.012125,-0.966747,0.013913,-0.037542,-0.177891,-31.107239,-45.800674,7.031982,,,,,,,
1522137358.170546,-0.264821,0.010749,1.184691,-0.151862,-0.175536,0.101201,-0.261722,-0.010749,-0.965083,-0.055249,0.065696,0.001368,-26.890884,-45.966644,10.034790,,,,,,,
1522137358.200514,-0.265973,0.003977,1.186449,-0.207648,0.024226,0.121208,-0.262846,-0.003977,-0.964829,-0.017122,0.035151,0.065888,-22.241516,-46.436890,10.713928,,,,,,,
1522137358.230483,-0.264518,-0.001111,1.188219,-0.102658,0.042405,0.067990,-0.261444,0.001111,-0.965218,0.041443,-0.008115,0.099571,-18.720383,-47.052338,11.093201,,,,,,,
1522137358.260451,-0.262312,-0.001807,1.188530,0.046396,0.096777,-0.009741,-0.259314,0.001807,-0.965791,0.088278,-0.083091,0.028077,-12.071625,-48.059967,8.400513,,,,,,,
1522137358.290419,-0.259067,0.002022,1.187499,0.142936,0.093967,-0.098104,-0.256178,-0.002022,-0.966627,0.076399,-0.063499,-0.155825,-10.064102,-48.596024,6.378723,,,,,,,
1522137358.320387,-0.260126,0.006571,1.185819,0.097971,-0.143032,-0.075529,-0.257197,-0.006571,-0.966336,0.019572,0.000772,-0.164920,-9.271149,-49.054169,1.805908,,,,,,,
1522137358.350356,-0.265747,0.006529,1.185332,-0.062975,-0.194405,0.033091,-0.262625,-0.006528,-0.964876,-0.031260,0.053205,0.008760,-10.850876,-48.673477,0.378601,,,,,,,
1522137358.380324,-0.270132,0.003224,1.186548,-0.114944,-0.063891,0.078736,-0.266857,-0.003224,-0.963730,-0.038105,0.059575,0.078064,-12.500992,-48.141953,-0.524353,,,,,,,
1522137358.410292,-0.268459,0.000164,1.187059,-0.043286,0.117071,0.007220,-0.265246,-0.000164,-0.964180,-0.003248,-0.007862,0.039177,-12.268051,-47.842163,0.299561,,,,,,,
1522137358.440260,-0.264544,0.001991,1.187509,0.137262,0.122037,-0.008628,-0.261468,-0.001991,-0.965209,0.090707,-0.044808,-0.064179,-7.013062,-46.891586,-0.451599,,,,,,,
1522137358.470229,-0.263329,0.005133,1.186767,0.027941,-0.032477,-0.060757,-0.260292,-0.005133,-0.965516,0.080910,-0.012796,-0.127151,-5.300278,-47.350571,-1.723938,,,,,,,
1522137358.500197,-0.265483,0.002673,1.185316,-0.130425,-0.048360,-0.009727,-0.262374,-0.002673,-0.964962,0.010742,0.041110,-0.007908,-3.010529,-47.591339,-7.196838,,,,,,,
1522137358.530165,-0.265844,0.002197,1.184881,0.051104,-0.021323,0.009563,-0.262723,-0.002197,-0.964868,0.005200,0.010437,-0.009299,-2.290253,-48.722641,-10.266968,,,,,,,
1522137358.560133,-0.266795,0.004331,1.186643,0.076257,-0.079051,0.050130,-0.263639,-0.004331,-0.964611,0.039457,0.017865,0.034207,-5.482849,-50.737030,-14.010498,,,,,,,
1522137358.590102,-0.268037,0.004041,1.188048,-0.034258,0.014870,0.030773,-0.264837,-0.004041,-0.964284,0.024649,-0.028552,0.022619,-6.919937,-51.181824,-15.284424,,,,,,,
1522137358.620070,-0.266270,0.003516,1.187859,0.000396,0.069325,-0.017212,-0.263133,-0.003516,-0.964753,0.053431,-0.057000,-0.065460,-8.280396,-51.776443,-16.032776,,,,,,,
1522137358.650038,-0.266668,0.003487,1.187089,-0.008778,-0.082576,-0.024510,-0.263517,-0.003487,-0.964648,0.020780,0.019203,0.020159,-7.924484,-51.930969,-18.956970,,,,,,,
1522137358.680006,-0.268087,0.004032,1.186470,0.019362,-0.000794,-0.027773,-0.264885,-0.004032,-0.964271,-0.015281,0.041813,0.012672,-9.360703,-51.926392,-20.832703,,,,,,,
1522137358.709947,-0.266379,0.005188,1.186176,0.026927,0.058451,0.006271,-0.263237,-0.005188,-0.964717,0.010475,0.034012,-0.029744,-12.392868,-52.217621,-25.708069,,,,,,,
1522137358.739915,-0.265259,0.005713,1.187071,0.027653,0.017849,0.037216,-0.262155,-0.005713,-0.965008,0.029581,0.008276,-0.011127,-16.382233,-52.801102,-27.132629,,,,,,,
1522137358.769883,-0.264386,0.004667,1.188475,-0.061946,0.044612,0.042442,-0.261314,-0.004666,-0.965242,0.055976,0.003690,-0.044432,-24.501221,-54.115540,-28.106384,,,,,,,
1522137358.799852,-0.263936,0.001759,1.188405,-0.085582,-0.018917,0.016923,-0.260882,-0.001759,-0.965369,0.059817,-0.016826,-0.008936,-26.531357,-55.080643,-27.353577,,,,,,,
1522137358.829820,-0.264321,0.000687,1.188165,0.019274,-0.009329,-0.020319,-0.261253,-0.000687,-0.965270,0.040535,-0.009506,0.018446,-32.447296,-57.373703,-22.022461,,,,,,,
1522137358.859788,-0.264205,0.003524,1.187896,0.103700,-0.006295,-0.030902,-0.261140,-0.003524,-0.965294,0.045625,-0.018312,-0.029076,-33.272354,-58.867508,-19.541870,,,,,,,
1522137358.889756,-0.264005,0.006155,1.187259,0.063272,-0.001781,-0.054377,-0.260943,-0.006155,-0.965334,0.033526,-0.003031,-0.093244,-31.392685,-61.420929,-14.505737,,,,,,,
1522137358.919725,-0.264848,0.007687,1.186484,0.002964,-0.070960,-0.016000,-0.261755,-0.007687,-0.965103,0.026327,-0.001682,-0.090530,-30.646103,-62.847488,-12.699585,,,,,,,
1522137358.949693,-0.266507,0.006844,1.185961,-0.029013,-0.048636,-0.006454,-0.263357,-0.006844,-0.964674,0.023184,-0.004417,-0.090227,-28.551392,-64.055771,-11.568726,,,,,,,
1522137358.979661,-0.267754,0.006532,1.186089,-0.014196,-0.056252,0.012748,-0.264560,-0.006532,-0.964347,0.045581,-0.013961,-0.074106,-24.662323,-65.422806,-11.111328,,,,,,,
1522137359.009629,-0.270089,0.005501,1.186760,-0.037902,-0.079720,0.034065,-0.266813,-0.005501,-0.963732,0.024671,-0.012519,-0.028867,-23.912033,-65.800522,-10.434448,,,,,,,
1522137359.039598,-0.271475,0.004335,1.187257,-0.029055,-0.029699,0.019107,-0.268150,-0.004335,-0.963367,0.025810,-0.020873,-0.039151,-21.199280,-64.612579,-10.287842,,,,,,,
1522137359.069566,-0.272325,0.003832,1.187191,-0.008690,-0.039131,-0.005383,-0.268970,-0.003832,-0.963141,0.026141,-0.000136,-0.036463,-19.164505,-63.496964,-10.516296,,,,,,,
1522137359.099534,-0.273345,0.003990,1.186886,-0.000037,-0.023163,-0.012850,-0.269951,-0.003990,-0.962865,0.021080,-0.006554,-0.074793,-17.489273,-61.104279,-10.300049,,,,,,,
,,,,,,,,,,,,,,,,25.312550,51.447750,-20.721685,-1.000000,-1.000000,1522137359.104642,
1522137359.129533,-0.274089,0.002766,1.186515,-0.065454,-0.055087,0.015907,-0.270669,-0.002766,-0.962668,0.009957,-0.013546,-0.048181,-16.648315,-59.233521,-10.757080,,,,,,,
1522137359.159501,-0.276176,0.001563,1.187051,-0.003598,-0.053204,0.029798,-0.272678,-0.001563,-0.962104,-0.002286,-0.006570,-0.019799,-13.537674,-55.572693,-10.920166,,,,,,,
1522137359.189469,-0.276522,0.002506,1.187603,0.031969,-0.012713,0.001015,-0.273011,-0.002506,-0.962007,0.002091,0.005757,-0.050047,-11.867981,-53.555283,-11.002380,,,,,,,
1522137359.219438,-0.276158,-0.000023,1.187515,-0.170850,0.036425,0.035978,-0.272661,0.000023,-0.962110,0.018084,0.035103,0.024167,-8.908905,-49.145264,-12.668579,,,,,,,
1522137359.249406,-0.274350,-0.005890,1.187080,-0.168491,0.081078,0.031673,-0.270916,0.005890,-0.962584,0.024792,0.032684,0.051024,-6.647522,-46.832397,-14.626648,,,,,,,
1522137359.279374,-0.272001,-0.007657,1.187202,0.006561,0.058384,0.022243,-0.268651,0.007657,-0.963207,0.059316,0.008151,0.043315,-5.883682,-44.362640,-16.436218,,,,,,,
1522137359.309343,-0.271076,-0.007164,1.187854,0.035282,0.022290,0.009503,-0.267761,0.007164,-0.963458,0.061676,-0.000038,0.055087,-3.547760,-41.151688,-19.972839,,,,,,,
1522137359.339311,-0.269613,-0.005371,1.187669,0.086951,0.047023,-0.050155,-0.266355,0.005371,-0.963860,0.029676,0.020554,-0.005424,-2.117645,-39.285385,-22.229614,,,,,,,
1522137359.369279,-0.268587,-0.000879,1.186690,0.155297,0.010947,-0.083093,-0.265369,0.000879,-0.964146,0.020161,0.035758,-0.048046,-1.673752,-37.641144,-25.985962,,,,,,,
1522137359.399247,-0.268758,0.002699,1.185540,0.052470,-0.019846,-0.047985,-0.265533,-0.002699,-0.964098,0.034728,0.029203,-0.052534,-1.674545,-36.593018,-27.865112,,,,,,,
1522137359.429216,-0.267687,0.001253,1.185443,-0.090717,0.047920,0.034962,-0.264501,-0.001253,-0.964384,0.065938,0.004854,-0.008928,-1.911026,-34.721985,-32.897705,,,,,,,
1522137359.459184,-0.266716,-0.002387,1.186367,-0.113407,0.023331,0.064801,-0.263564,0.002387,-0.964638,0.059997,0.003595,0.010567,-2.064087,-33.448929,-35.527893,,,,,,,
1522137359.489152,-0.265157,-0.007137,1.186466,-0.133424,0.036402,0.025354,-0.262054,0.007136,-0.965026,0.072891,-0.026164,0.057250,-4.778168,-31.791811,-40.635864,,,,,,,
1522137359.519120,-0.264407,-0.008239,1.186339,0.037547,0.016098,-0.019250,-0.261328,0.008239,-0.965214,0.078558,-0.006881,0.050481,-6.511063,-31.186342,-42.964172,,,,,,,
1522137359.549089,-0.264491,-0.003507,1.185318,0.220202,-0.047628,-0.089369,-0.261416,0.003507,-0.965219,0.021487,-0.000058,-0.017874,-12.750092,-31.010897,-45.593018,,,,,,,
1522137359.579057,-0.266812,0.003225,1.184746,0.157905,-0.106053,-0.069116,-0.263657,-0.003225,-0.964611,0.013214,-0.005823,-0.102009,-15.677094,-30.623705,-46.570984,,,,,,,
1522137359.609025,-0.268649,0.003256,1.183900,-0.138954,-0.027198,0.006228,-0.265427,-0.003256,-0.964125,-0.004730,-0.002405,-0.102220,-22.579086,-29.694521,-48.453125,,,,,,,
