timestamp(unix),attitude_roll(radians),attitude_pitch(radians),attitude_yaw(radians),rotation_rate_x(radians/s),rotation_rate_y(radians/s),rotation_rate_z(radians/s),gravity_x(G),gravity_y(G),gravity_z(G),user_acc_x(G),user_acc_y(G),user_acc_z(G),magnetic_field_x(microteslas),magnetic_field_y(microteslas),magnetic_field_z(microteslas),latitude(degree),longitude(degree),altitude(meter),speed(m/s),course(degree),timestamp(unix),User Mark
,,,,,,,,,,,,,,,,25.308976,51.453900,7.904598,0.000000,344.882812,1523521347.998165,
,,,,,,,,,,,,,,,,25.308976,51.453900,7.904598,0.000000,344.882812,1523521355.998165,
1523521399.209914,-0.820698,-0.031622,0.398171,0.081822,-0.003669,-0.019989,-0.731255,0.031617,-0.681369,-0.080803,-0.070100,0.069217,11.256638,-8.808693,-20.326477,,,,,,,
1523521399.239882,-0.820941,-0.030349,0.399530,0.028340,0.024859,0.022560,-0.731450,0.030345,-0.681218,-0.059749,-0.035639,0.088536,11.557220,-8.660194,-20.476990,,,,,,,
1523521399.269850,-0.820177,-0.031386,0.399485,-0.052730,0.035691,0.020368,-0.730905,0.031381,-0.681755,-0.064047,-0.012125,0.044167,11.782227,-8.661201,-20.476868,,,,,,,
1523521399.299819,-0.820046,-0.032127,0.398989,-0.017593,0.002715,0.011909,-0.730799,0.032122,-0.681835,-0.059194,-0.029238,0.053112,12.837402,-7.691704,-21.230225,,,,,,,
1523521399.329787,-0.820115,-0.031593,0.399538,0.050944,0.032420,-0.004062,-0.730859,0.031588,-0.681796,-0.031836,-0.037478,0.073382,12.391907,-7.239708,-21.232239,,,,,,,
,,,,,,,,,,,,,,,,25.308976,51.453900,7.904598,-1.000000,-1.000000,1523521399.327249,
1523521399.359725,-0.819537,-0.030526,0.400366,0.023087,0.022824,0.008724,-0.730488,0.030521,-0.682241,-0.033183,-0.021656,0.088781,12.774948,-6.116951,-21.761536,,,,,,,
,,,,,,,,,,,,,,,,25.308976,51.453900,7.904598,-1.000000,-1.000000,1523521399.341021,
1523521399.389693,-0.819315,-0.030817,0.400384,-0.025987,0.028296,0.004413,-0.730331,0.030812,-0.682397,-0.031876,0.004039,0.077478,13.147232,-6.119087,-22.211304,,,,,,,
1523521399.419661,-0.818316,-0.031300,0.399793,-0.025968,0.020936,-0.006238,-0.729638,0.031295,-0.683116,-0.043815,0.004243,0.025173,12.858490,-4.992790,-22.215942,,,,,,,
1523521399.449598,-0.818608,-0.031098,0.398906,-0.002348,0.022101,-0.029660,-0.729842,0.031093,-0.682907,-0.061753,-0.037547,0.039749,12.790955,-4.242485,-22.218994,,,,,,,
1523521399.479567,-0.818831,-0.029599,0.399289,0.081824,-0.015308,-0.028494,-0.730028,0.029595,-0.682775,-0.014144,-0.007774,0.117666,13.163391,-4.319466,-22.518555,,,,,,,
1523521399.509535,-0.819436,-0.027056,0.401482,0.100956,-0.000666,-0.000797,-0.730493,0.027052,-0.682383,-0.001471,0.016649,0.137934,12.189636,-4.239998,-22.444336,,,,,,,
1523521399.539503,-0.817848,-0.026093,0.401883,-0.027721,0.090109,-0.020161,-0.729427,0.026091,-0.683560,-0.094563,-0.000181,-0.025150,13.765457,-4.022331,-22.669434,,,,,,,
1523521399.569471,-0.817339,-0.025546,0.400629,0.022020,-0.044732,-0.053023,-0.729089,0.025543,-0.683941,-0.086340,-0.024917,-0.038700,13.836853,-4.247871,-22.893494,,,,,,,
1523521399.599440,-0.821763,-0.024652,0.400483,-0.025654,-0.128973,0.006692,-0.732124,0.024650,-0.680724,-0.037926,-0.008887,0.117720,13.388977,-4.170631,-22.669006,,,,,,,
1523521399.629408,-0.821953,-0.027284,0.399349,-0.098622,0.065414,0.041610,-0.732204,0.027281,-0.680538,-0.120839,-0.021955,-0.010456,13.760056,-4.247826,-23.193542,,,,,,,
1523521399.659376,-0.822115,-0.028604,0.398747,0.004391,-0.085539,0.015194,-0.732287,0.028600,-0.680394,-0.139158,-0.053930,-0.074855,14.737869,-3.877373,-23.344482,,,,,,,
1523521399.689344,-0.824836,-0.027185,0.400891,0.141097,-0.077385,0.015292,-0.734165,0.027181,-0.678426,-0.039257,-0.032049,0.072667,14.509720,-4.101494,-23.493713,,,,,,,
1523521399.719282,-0.826555,-0.023895,0.404800,0.162603,-0.038175,0.021669,-0.735391,0.023893,-0.677220,0.027887,-0.006223,0.162709,13.980118,-4.474266,-23.642517,,,,,,,
1523521399.749250,-0.826428,-0.024729,0.405740,-0.154357,0.045175,0.067169,-0.735291,0.024726,-0.677300,-0.040832,0.002221,0.054115,14.884399,-4.178108,-23.418213,,,,,,,
1523521399.779219,-0.827248,-0.030560,0.401211,-0.216717,-0.113665,0.011869,-0.735727,0.030555,-0.676587,-0.183584,-0.064216,-0.190890,14.957001,-4.103966,-23.943481,,,,,,,
1523521399.809187,-0.832389,-0.030252,0.399549,0.057598,-0.203155,-0.051774,-0.739202,0.030248,-0.672802,-0.090952,-0.073247,0.027233,15.408920,-3.955925,-23.868835,,,,,,,
1523521399.839155,-0.837972,-0.028686,0.401491,0.087272,-0.144382,0.041958,-0.742982,0.028682,-0.668695,-0.028381,-0.036021,0.215250,14.576035,-4.702248,-23.941284,,,,,,,
1523521399.869124,-0.837083,-0.028618,0.403424,0.035292,0.142792,0.021387,-0.742388,0.028614,-0.669358,-0.022215,-0.051593,0.142487,14.791000,-5.753136,-23.862000,,,,,,,
1523521399.899092,-0.833099,-0.028398,0.404107,-0.007868,0.053561,0.032104,-0.739720,0.028395,-0.672314,-0.068065,-0.058149,0.021633,15.839310,-5.833000,-24.011169,,,,,,,
1523521399.929060,-0.834645,-0.031230,0.402522,-0.132075,-0.041681,0.019326,-0.740696,0.031225,-0.671112,-0.057735,-0.051168,-0.011383,15.905914,-6.583443,-24.158081,,,,,,,
1523521399.959028,-0.835415,-0.031602,0.400905,-0.010170,-0.059644,-0.035987,-0.741204,0.031597,-0.670534,-0.069114,-0.010845,0.016741,15.970428,-7.184486,-24.905640,,,,,,,
1523521399.988997,-0.838272,-0.033877,0.398506,-0.184419,-0.039453,0.024604,-0.743061,0.033871,-0.668364,-0.110287,0.026478,0.026702,16.494049,-7.187065,-25.130432,,,,,,,
1523521400.018965,-0.838806,-0.036653,0.395463,-0.060450,-0.070249,-0.023215,-0.743345,0.036645,-0.667902,-0.144686,-0.023202,-0.089544,16.789246,-7.488686,-25.429077,,,,,,,
1523521400.048903,-0.839704,-0.034023,0.396505,0.166242,0.009910,-0.018860,-0.744014,0.034016,-0.667296,-0.018895,-0.040593,0.081695,16.486099,-7.937096,-25.202393,,,,,,,
1523521400.078871,-0.840351,-0.031227,0.400835,0.155149,-0.004334,0.047203,-0.744513,0.031222,-0.666875,0.057700,0.027585,0.237569,17.536972,-7.941673,-25.051880,,,,,,,
1523521400.108839,-0.838076,-0.031119,0.402963,-0.020176,0.168303,0.037318,-0.742996,0.031114,-0.668570,0.013016,0.030120,0.138312,17.379486,-8.466331,-25.424866,,,,,,,
1523521400.138807,-0.835116,-0.032840,0.400766,-0.125319,-0.018015,-0.025438,-0.740973,0.032834,-0.670729,-0.080743,0.002047,-0.063142,18.277649,-8.470680,-25.724365,,,,,,,
1523521400.168776,-0.838947,-0.034163,0.397364,-0.048974,-0.181564,-0.065706,-0.743504,0.034156,-0.667856,-0.101420,-0.000968,-0.069906,18.727325,-8.323006,-26.024719,,,,,,,
1523521400.198744,-0.844250,-0.031839,0.394768,-0.017513,-0.141889,-0.127526,-0.747094,0.031833,-0.663954,-0.059929,0.024639,0.048308,17.974655,-8.544685,-26.099243,,,,,,,
1523521400.228712,-0.847146,-0.030571,0.391463,-0.050436,-0.046516,-0.078632,-0.749042,0.030567,-0.661815,-0.094113,0.050396,0.017741,18.124191,-8.320824,-26.550049,,,,,,,
1523521400.258680,-0.848042,-0.028864,0.391315,0.119043,-0.045191,-0.024168,-0.749673,0.028860,-0.661176,-0.083395,0.043802,0.020338,18.507721,-7.871864,-25.876648,,,,,,,
1523521400.288649,-0.848475,-0.025770,0.395419,0.181947,0.018951,0.049340,-0.750023,0.025767,-0.660908,0.022865,0.014822,0.100849,16.776947,-8.314308,-26.100769,,,,,,,
1523521400.318617,-0.847785,-0.024186,0.400671,0.147833,0.051839,0.068464,-0.749596,0.024184,-0.661451,-0.008186,0.023363,0.072431,17.371078,-8.767204,-26.323608,,,,,,,
1523521400.348585,-0.846310,-0.023096,0.403292,0.044480,0.011211,-0.009365,-0.748639,0.023094,-0.662573,-0.087329,0.002922,-0.039499,17.977509,-8.394478,-25.874878,,,,,,,
1523521400.378523,-0.849728,-0.022674,0.401132,-0.089298,-0.153670,-0.089207,-0.750906,0.022672,-0.660017,-0.100244,-0.044003,-0.018679,17.376938,-8.541634,-25.724548,,,,,,,
1523521400.408491,-0.855077,-0.021954,0.397323,-0.051916,-0.157969,-0.095568,-0.754438,0.021953,-0.656001,-0.077120,-0.067958,0.064036,16.254974,-8.236580,-25.726318,,,,,,,
1523521400.438459,-0.857718,-0.021467,0.394976,-0.039820,-0.017051,-0.041360,-0.756176,0.021465,-0.654013,-0.084232,-0.087276,0.130591,16.859741,-7.939003,-25.427246,,,,,,,
1523521400.453461,-0.857374,-0.021226,0.394879,0.030745,0.053655,0.002314,-0.755955,0.021225,-0.654277,-0.049938,-0.076034,0.126918,16.032822,-8.085350,-25.502075,,,,,,,
1523521400.483429,-0.855216,-0.019690,0.398751,0.169227,0.074017,0.080180,-0.754565,0.019689,-0.655927,-0.006879,-0.045034,0.124341,16.255127,-8.311440,-25.575989,,,,,,,
1523521400.513397,-0.854226,-0.017040,0.403453,0.144923,0.072305,0.030082,-0.753952,0.017039,-0.656706,-0.022888,-0.008296,0.065061,16.859161,-8.313469,-24.900696,,,,,,,
1523521400.543365,-0.852741,-0.015594,0.404896,-0.000278,0.024075,-0.011530,-0.752994,0.015594,-0.657840,-0.031476,-0.035827,-0.029324,16.036148,-8.384315,-24.450806,,,,,,,
1523521400.573334,-0.855190,-0.016365,0.402887,-0.106579,-0.110592,-0.013609,-0.754593,0.016364,-0.655986,-0.014496,-0.029472,0.030452,16.554993,-8.687187,-24.974365,,,,,,,
1523521400.603302,-0.857510,-0.018916,0.398986,-0.153112,-0.027493,-0.027581,-0.756079,0.018915,-0.654204,-0.060862,-0.038874,0.070678,17.307938,-8.165947,-25.351074,,,,,,,
1523521400.633271,-0.856589,-0.019202,0.396441,0.002097,0.050814,-0.036069,-0.755472,0.019201,-0.654896,-0.049124,-0.056493,0.094105,16.934753,-7.939339,-25.427185,,,,,,,
1523521400.663239,-0.855463,-0.018423,0.396911,0.023139,0.054559,0.027878,-0.754745,0.018422,-0.655756,-0.012040,-0.045552,0.110407,16.936996,-7.714348,-25.428101,,,,,,,
1523521400.693208,-0.853652,-0.019435,0.397535,-0.027132,0.073584,0.060850,-0.753542,0.019434,-0.657110,-0.029997,-0.021860,0.036718,17.622589,-6.742287,-25.281616,,,,,,,
1523521400.723145,-0.853470,-0.020980,0.397294,-0.034699,-0.002582,0.014042,-0.753399,0.020979,-0.657226,-0.050556,0.017687,-0.009232,16.271759,-6.960991,-25.056396,,,,,,,
1523521400.753114,-0.854997,-0.021058,0.397087,-0.016768,-0.057847,0.008785,-0.754401,0.021056,-0.656074,-0.051035,0.025315,0.010993,16.197830,-7.035362,-24.756165,,,,,,,
1523521400.783082,-0.856355,-0.022454,0.396496,-0.057271,-0.028084,0.021512,-0.755267,0.022452,-0.655030,-0.037961,0.018686,0.024536,17.323059,-6.740868,-25.206726,,,,,,,
1523521400.813050,-0.856592,-0.023683,0.395911,-0.022900,0.005925,0.009776,-0.755402,0.023680,-0.654832,-0.069809,-0.027693,0.001145,16.346008,-7.036324,-25.056091,,,,,,,
1523521400.843018,-0.857384,-0.023337,0.395927,0.010056,-0.053541,-0.010368,-0.755926,0.023335,-0.654238,-0.094308,-0.029729,-0.001173,16.038361,-7.710091,-25.203491,,,,,,,
1523521400.872987,-0.859719,-0.024286,0.394602,-0.091515,-0.081991,-0.008287,-0.757435,0.024284,-0.652457,-0.106686,-0.031181,-0.064981,17.609711,-7.942375,-25.426819,,,,,,,
1523521400.902955,-0.862421,-0.024389,0.392939,0.028118,-0.098080,-0.030550,-0.759193,0.024387,-0.650406,-0.061791,0.018018,-0.022613,17.600128,-8.767555,-25.648499,,,,,,,
1523521400.932923,-0.865953,-0.022525,0.393823,0.076269,-0.055781,-0.016715,-0.761519,0.022523,-0.647749,-0.004442,0.062773,0.074538,17.596390,-9.142540,-25.647034,,,,,,,
1523521400.962892,-0.865098,-0.020208,0.394893,0.084241,0.029368,-0.039173,-0.761002,0.020207,-0.648432,-0.005431,0.051357,0.059092,18.793503,-9.298149,-25.870850,,,,,,,
1523521400.992860,-0.866078,-0.019335,0.394654,-0.059292,-0.049045,-0.018960,-0.761651,0.019333,-0.647697,-0.021919,0.055877,0.081734,18.265076,-9.595848,-25.944824,,,,,,,
1523521401.022827,-0.866611,-0.022374,0.389871,-0.225633,-0.014581,-0.027631,-0.761948,0.022372,-0.647250,-0.145142,-0.033343,-0.059964,19.084793,-10.124535,-25.942322,,,,,,,
1523521401.052795,-0.870175,-0.025296,0.384344,-0.153390,-0.133573,-0.058344,-0.764196,0.025293,-0.644486,-0.191660,-0.061212,-0.059692,19.537476,-9.676872,-26.243958,,,,,,,
1523521401.082733,-0.873490,-0.025775,0.381734,-0.015592,-0.075673,-0.026354,-0.766319,0.025772,-0.641941,-0.100609,-0.037659,0.092441,18.850815,-10.798851,-26.314758,,,,,,,
1523521401.112701,-0.872767,-0.025357,0.382658,0.056455,0.110727,0.036378,-0.765863,0.025354,-0.642502,-0.030249,0.008490,0.162903,18.849014,-10.799141,-26.614807,,,,,,,
1523521401.142670,-0.867296,-0.024362,0.385680,0.130434,0.196471,0.054474,-0.762355,0.024360,-0.646698,-0.011494,0.036172,0.072815,19.146622,-11.175255,-26.388123,,,,,,,
1523521401.172638,-0.862822,-0.023061,0.390435,0.151341,0.124019,0.075867,-0.759477,0.023059,-0.650123,0.019762,0.041990,0.063407,19.139587,-11.925148,-26.310120,,,,,,,
1523521401.202606,-0.859259,-0.022583,0.393900,0.023479,0.144715,0.046994,-0.757165,0.022581,-0.652831,0.025872,0.029543,0.097183,19.138245,-12.374611,-25.783325,,,,,,,
1523521401.232574,-0.857048,-0.024174,0.392342,-0.100504,0.021303,-0.037163,-0.755691,0.024171,-0.654479,-0.044739,-0.001466,-0.007706,19.966370,-12.153191,-25.633789,,,,,,,
1523521401.262543,-0.857269,-0.024006,0.389264,-0.038550,-0.033758,-0.088199,-0.755839,0.024004,-0.654315,-0.043584,-0.024736,0.038272,19.063110,-12.748680,-25.181824,,,,,,,
1523521401.292511,-0.859779,-0.024083,0.387091,-0.091384,-0.056503,-0.008300,-0.757478,0.024081,-0.652414,-0.023422,-0.001696,0.101969,18.460739,-12.896111,-25.331604,,,,,,,
1523521401.322479,-0.858982,-0.025503,0.386067,0.011519,0.051500,0.008723,-0.756931,0.025500,-0.652995,-0.068219,-0.006701,-0.019063,19.209961,-12.749870,-25.706787,,,,,,,
1523521401.352448,-0.858928,-0.023579,0.388024,0.103138,0.004532,0.006707,-0.756931,0.023577,-0.653067,-0.029919,-0.007250,0.019644,18.159134,-13.419151,-24.729675,,,,,,,
1523521401.382416,-0.859091,-0.022715,0.390132,0.045412,0.013038,0.026898,-0.757053,0.022713,-0.652957,0.038257,0.020286,0.061633,17.931747,-13.792900,-24.503235,,,,,,,
1523521401.412385,-0.859334,-0.023130,0.390490,-0.042209,-0.022728,0.007681,-0.757204,0.023128,-0.652766,0.014758,0.028966,0.016978,17.556335,-14.240547,-23.826660,,,,,,,
1523521401.442322,-0.861172,-0.024120,0.387910,-0.117909,-0.079434,-0.061579,-0.758385,0.024118,-0.651359,-0.091301,0.015006,-0.032388,17.031815,-14.238106,-23.751892,,,,,,,
1523521401.472256,-0.865715,-0.025364,0.383423,-0.157751,-0.162176,-0.067917,-0.761313,0.025361,-0.647886,-0.092325,-0.023591,0.012587,17.699738,-14.766411,-24.049438,,,,,,,
1523521401.502224,-0.868420,-0.026950,0.379484,-0.097603,-0.048862,-0.036010,-0.763031,0.026947,-0.645798,-0.065338,-0.016586,0.095444,17.470535,-14.915825,-24.498962,,,,,,,
1523521401.532192,-0.868471,-0.027751,0.377826,-0.059926,0.061314,-0.000934,-0.763047,0.027748,-0.645745,-0.108703,0.015694,0.072610,18.220505,-14.694588,-24.874512,,,,,,,
1523521401.562161,-0.866995,-0.028258,0.377938,0.050725,-0.009157,0.009864,-0.762082,0.028255,-0.646861,-0.096942,0.038274,-0.080891,18.670929,-14.247276,-25.551025,,,,,,,
1523521401.592129,-0.867943,-0.026414,0.380103,0.097774,-0.008135,-0.001818,-0.762734,0.026411,-0.646171,-0.020714,0.056322,0.043113,18.822861,-13.873268,-25.852539,,,,,,,
1523521401.622097,-0.867683,-0.024108,0.382486,0.109735,0.017446,-0.018874,-0.762610,0.024106,-0.646407,0.004828,0.044300,0.075927,18.004898,-12.895042,-26.306763,,,,,,,
1523521401.652065,-0.867268,-0.023408,0.382981,-0.051597,0.006091,-0.008332,-0.762354,0.023406,-0.646734,-0.049719,0.031373,0.017508,18.087540,-11.995644,-26.535400,,,,,,,
1523521401.682034,-0.867488,-0.025095,0.380255,-0.085788,-0.028709,-0.033897,-0.762466,0.025092,-0.646540,-0.095139,-0.020377,-0.040457,17.950851,-10.794807,-26.315186,,,,,,,
1523521401.712002,-0.869584,-0.024317,0.379221,0.030528,-0.066051,-0.054016,-0.763833,0.024315,-0.644953,-0.077109,-0.019585,0.063471,17.285629,-9.816811,-26.319458,,,,,,,
1523521401.741970,-0.870244,-0.022954,0.379151,0.022245,0.016670,-0.029588,-0.764284,0.022952,-0.644469,-0.056517,-0.016010,0.073210,15.873108,-9.059639,-25.498230,,,,,,,
1523521401.771908,-0.868892,-0.022077,0.379670,0.040368,0.048307,0.000217,-0.763427,0.022076,-0.645515,-0.022370,0.016788,0.039268,15.127655,-9.055534,-24.748657,,,,,,,
1523521401.801876,-0.868088,-0.020948,0.380904,0.059604,0.047213,-0.002959,-0.762926,0.020947,-0.646144,-0.038038,0.039844,0.005229,14.376358,-9.501625,-24.222168,,,,,,,
1523521401.831845,-0.867722,-0.019449,0.382236,0.064677,-0.023920,-0.013539,-0.762712,0.019448,-0.646443,-0.022581,0.026222,-0.018153,14.899857,-10.327843,-23.093628,,,,,,,
1523521401.861813,-0.869895,-0.019391,0.382066,-0.055066,-0.050259,-0.004008,-0.764116,0.019389,-0.644785,-0.025846,0.003575,0.041880,13.921326,-10.997917,-22.566406,,,,,,,
1523521401.891781,-0.870313,-0.019664,0.380648,-0.006538,0.006233,-0.046646,-0.764382,0.019663,-0.644462,-0.036277,-0.016779,0.062949,14.430130,-12.575279,-22.634888,,,,,,,
1523521401.921749,-0.870083,-0.018550,0.380011,0.007304,0.013538,-0.032790,-0.764250,0.018549,-0.644651,-0.019777,-0.032572,0.097670,15.175430,-12.504524,-23.534790,,,,,,,
1523521401.951718,-0.869663,-0.018816,0.379331,-0.038763,0.026097,0.009791,-0.763975,0.018814,-0.644969,-0.054674,-0.036774,0.019908,15.990219,-13.258644,-23.981384,,,,,,,
1523521401.981686,-0.870265,-0.019679,0.378872,-0.023096,-0.036702,0.020514,-0.764351,0.019678,-0.644498,-0.039498,0.011999,0.052457,16.437042,-13.261177,-24.506104,,,,,,,
1523521402.011654,-0.871092,-0.020033,0.379110,0.026332,0.030145,0.017284,-0.764878,0.020032,-0.643862,0.006440,0.013797,0.082964,17.258713,-13.190559,-25.180969,,,,,,,
1523521402.041622,-0.869751,-0.019294,0.380672,0.046649,0.044903,0.025816,-0.764025,0.019293,-0.644896,-0.000532,-0.011450,0.057982,16.961700,-12.889214,-25.182312,,,,,,,
1523521402.071591,-0.868469,-0.020171,0.380974,-0.046141,0.064290,0.022526,-0.763185,0.020170,-0.645864,-0.061431,-0.038801,-0.037593,17.186981,-12.590691,-25.633423,,,,,,,
1523521402.101559,-0.868688,-0.020719,0.380149,-0.012361,-0.064096,-0.015684,-0.763318,0.020718,-0.645689,-0.052539,-0.025753,-0.024278,17.713760,-12.143501,-26.084961,,,,,,,
1523521402.131497,-0.871610,-0.021391,0.378859,-0.068867,-0.039575,-0.008285,-0.765190,0.021390,-0.643447,-0.003593,0.014728,0.063705,16.667084,-11.763878,-26.161987,,,,,,,
1523521402.161465,-0.870121,-0.020765,0.378356,0.052333,0.062248,-0.025341,-0.764241,0.020764,-0.644595,-0.009471,0.020160,0.040820,17.043411,-11.540718,-26.312683,,,,,,,
1523521402.191433,-0.869231,-0.020192,0.379184,-0.004663,0.035461,0.027911,-0.763676,0.020191,-0.645282,0.002675,0.023251,0.009280,17.269913,-11.391731,-26.313171,,,,,,,
1523521402.221401,-0.868378,-0.020555,0.379081,0.003942,-0.005677,-0.018921,-0.763120,0.020553,-0.645929,-0.060855,0.002991,-0.051123,15.772827,-11.234779,-26.089539,,,,,,,
1523521402.251370,-0.870907,-0.019892,0.378391,-0.030437,-0.076672,-0.036979,-0.764762,0.019891,-0.644005,-0.032663,-0.009255,0.013191,16.372787,-11.237480,-26.089233,,,,,,,
1523521402.281338,-0.871408,-0.020686,0.376062,-0.073899,0.002021,-0.029635,-0.765072,0.020684,-0.643611,-0.043537,-0.019265,-0.037755,16.599564,-10.788948,-26.540955,,,,,,,
1523521402.311306,-0.871216,-0.020819,0.374671,-0.009914,0.002833,-0.015741,-0.764946,0.020817,-0.643757,-0.008293,0.020153,0.004078,16.072342,-11.236198,-26.164429,,,,,,,
1523521402.341274,-0.870477,-0.020733,0.375269,0.031723,0.053419,0.028993,-0.764472,0.020731,-0.644323,0.020361,0.090155,0.043935,15.551407,-10.783928,-26.241516,,,,,,,
1523521402.371243,-0.867234,-0.020589,0.376440,0.031011,0.104562,0.007642,-0.762380,0.020587,-0.646801,-0.064921,0.037305,-0.106556,16.604050,-10.563591,-26.166870,,,,,,,
1523521402.401211,-0.867444,-0.020324,0.376467,-0.020997,-0.084324,-0.010323,-0.762521,0.020322,-0.646644,-0.015586,0.002154,0.034431,15.701843,-10.784538,-26.166443,,,,,,,
1523521402.431179,-0.868747,-0.021483,0.374954,-0.066354,0.025311,-0.021121,-0.763344,0.021481,-0.645634,-0.012733,-0.008969,0.069172,15.628647,-10.559288,-26.242371,,,,,,,
1523521402.461156,-0.866323,-0.020952,0.372803,-0.010376,0.058583,-0.085063,-0.761785,0.020950,-0.647490,-0.091883,-0.012039,-0.032732,15.704834,-10.484550,-26.167603,,,,,,,
1523521402.491093,-0.867990,-0.019662,0.371646,-0.017810,-0.098075,-0.019900,-0.762884,0.019660,-0.646236,-0.012064,0.034585,0.067241,15.930878,-10.335640,-26.243103,,,,,,,
1523521402.521062,-0.868484,-0.020755,0.371663,0.008218,0.061864,0.042833,-0.763186,0.020754,-0.645845,0.015810,0.032621,0.041796,15.329559,-10.557777,-26.092468,,,,,,,
1523521402.551030,-0.867209,-0.019959,0.373910,0.100950,0.012844,0.030164,-0.762374,0.019958,-0.646828,-0.024231,0.000153,0.068215,16.231018,-10.411842,-26.092651,,,,,,,
1523521402.580998,-0.866572,-0.019280,0.376620,0.072249,0.053220,0.040757,-0.761972,0.019279,-0.647323,0.049478,-0.013816,0.090240,15.407578,-10.482765,-25.717773,,,,,,,
1523521402.610966,-0.864968,-0.018887,0.377465,0.007396,0.053748,-0.011502,-0.760938,0.018886,-0.648549,-0.009447,-0.042064,0.075124,14.662094,-10.254036,-25.344055,,,,,,,
1523521402.640935,-0.864825,-0.020099,0.375300,-0.157309,-0.003237,-0.008378,-0.760828,0.020098,-0.648642,-0.071143,-0.055681,-0.031915,15.485703,-10.257957,-25.568604,,,,,,,
1523521402.670903,-0.866122,-0.023061,0.371504,-0.102162,-0.083084,-0.006127,-0.761620,0.023059,-0.647613,-0.062324,-0.020770,-0.092179,14.658661,-10.554085,-25.417847,,,,,,,
1523521402.700871,-0.869052,-0.023459,0.371423,0.028024,-0.045488,0.040820,-0.763507,0.023457,-0.645373,0.018481,0.018016,0.137103,14.655365,-10.929008,-25.341370,,,,,,,
1523521402.730839,-0.866559,-0.023707,0.373942,0.060907,0.168932,0.061936,-0.761891,0.023705,-0.647271,0.065358,0.009742,0.120553,14.509109,-10.777977,-24.967041,,,,,,,
1523521402.760808,-0.861980,-0.025073,0.375169,-0.060190,0.074608,0.068341,-0.758894,0.025070,-0.650731,-0.086931,-0.040924,-0.146007,14.878860,-11.304634,-24.964722,,,,,,,
1523521402.790776,-0.864317,-0.027975,0.373621,-0.091723,-0.117276,0.014177,-0.760354,0.027972,-0.648906,-0.019248,-0.032900,-0.064519,15.480927,-11.007484,-25.115662,,,,,,,
1523521402.820744,-0.868076,-0.028013,0.372785,-0.000725,-0.118229,-0.033702,-0.762787,0.028009,-0.646042,-0.007416,0.011038,0.082489,14.428131,-11.377602,-24.964661,,,,,,,
1523521402.850682,-0.868643,-0.028769,0.370481,-0.131379,0.054099,-0.013729,-0.763137,0.028765,-0.645595,-0.033555,0.002348,-0.033329,14.504929,-11.153023,-25.040527,,,,,,,
1523521402.880650,-0.868184,-0.031323,0.367196,-0.132957,-0.033188,0.008733,-0.762782,0.031318,-0.645896,-0.078648,0.047860,-0.083718,15.850830,-11.609001,-24.963013,,,,,,,
1523521402.910618,-0.869660,-0.033849,0.364333,-0.095469,-0.023599,-0.007237,-0.763672,0.033843,-0.644717,-0.115524,0.055894,-0.137983,15.543503,-12.207832,-25.185791,,,,,,,
1523521402.940587,-0.871029,-0.031621,0.364925,0.149039,-0.080169,-0.058143,-0.764609,0.031616,-0.643718,-0.077279,0.042298,-0.073369,15.317307,-12.281898,-25.260620,,,,,,,
1523521402.970555,-0.873778,-0.028527,0.366904,0.064498,-0.072826,-0.014527,-0.766447,0.028523,-0.641673,0.011519,0.059215,0.110972,15.537949,-12.583107,-25.484314,,,,,,,
1523521403.000523,-0.873562,-0.029199,0.366782,-0.076048,0.044216,0.012956,-0.766294,0.029195,-0.641826,0.031369,0.064326,0.057979,16.207687,-12.886497,-25.857788,,,,,,,
1523521403.030491,-0.871909,-0.031591,0.365493,-0.053757,0.035516,0.032168,-0.765176,0.031585,-0.643045,-0.055808,0.046067,-0.096091,16.656296,-12.439491,-26.834290,,,,,,,
1523521403.060460,-0.873479,-0.031523,0.365039,-0.007878,-0.066034,-0.049741,-0.766186,0.031518,-0.641845,-0.114475,0.005195,0.029067,17.408646,-11.843483,-27.436279,,,,,,,
1523521403.090428,-0.873705,-0.030996,0.363859,-0.004392,0.020953,-0.029584,-0.766344,0.030991,-0.641682,-0.029310,-0.038514,0.081989,16.665558,-11.239998,-27.289124,,,,,,,
1523521403.120396,-0.872229,-0.030510,0.364894,0.084284,0.101090,0.027938,-0.765408,0.030506,-0.642821,0.005841,-0.016971,0.085906,16.144028,-10.712944,-27.591492,,,,,,,
1523521403.150365,-0.868561,-0.028422,0.368906,0.164407,0.118896,0.035444,-0.763092,0.028418,-0.645664,0.024536,0.028176,0.025303,17.500397,-10.118980,-27.518127,,,,,,,
1523521403.180333,-0.865193,-0.026579,0.373054,0.133446,0.133772,0.047122,-0.760951,0.026576,-0.648264,0.050639,0.038289,-0.056051,15.855728,-10.260445,-26.393433,,,,,,,
1523521403.210271,-0.864234,-0.024858,0.376189,0.074155,-0.033730,0.012087,-0.760363,0.024855,-0.649022,0.043566,0.041154,-0.047206,15.557404,-10.408577,-25.867981,,,,,,,
1523521403.240239,-0.865334,-0.024344,0.376395,0.003883,-0.032236,-0.024196,-0.761086,0.024342,-0.648194,0.073083,-0.008702,0.008606,15.409058,-10.108147,-26.094238,,,,,,,
1523521403.270207,-0.867415,-0.024196,0.375327,-0.063569,-0.079860,-0.028457,-0.762436,0.024193,-0.646610,0.044159,-0.015938,0.070164,15.108017,-10.256706,-26.018799,,,,,,,
1523521403.300175,-0.867624,-0.025808,0.372152,-0.124962,0.021323,-0.041384,-0.762540,0.025805,-0.646425,-0.032488,-0.069521,-0.002043,15.033478,-10.256294,-25.943848,,,,,,,
1523521403.330144,-0.868609,-0.027333,0.368786,-0.123422,-0.075598,-0.010383,-0.763146,0.027329,-0.645647,-0.023216,-0.079499,0.073671,15.787338,-9.959541,-25.794678,,,,,,,
1523521403.360112,-0.869525,-0.030626,0.365935,-0.131701,0.036731,0.036381,-0.763664,0.030621,-0.644886,0.016395,-0.023587,0.104298,14.810867,-10.105156,-25.794556,,,,,,,
1523521403.390080,-0.866963,-0.031385,0.365770,0.050158,0.084293,0.008762,-0.761991,0.031380,-0.646826,0.025281,0.038719,0.049078,14.360458,-10.103203,-25.869812,,,,,,,
1523521403.420048,-0.864512,-0.029019,0.366827,0.077389,0.119812,-0.064779,-0.760458,0.029015,-0.648738,0.022955,0.057441,0.029978,15.332245,-10.108101,-26.394287,,,,,,,
1523521403.450017,-0.862068,-0.025568,0.365884,0.013267,0.044913,-0.119098,-0.758942,0.025565,-0.650656,0.004501,0.091424,0.002066,15.260559,-10.182106,-25.719055,,,,,,,
1523521403.479972,-0.862356,-0.025671,0.362000,-0.170914,-0.005010,-0.057380,-0.759127,0.025668,-0.650436,-0.018766,0.109006,-0.085267,14.886765,-10.105339,-25.644531,,,,,,,
1523521403.509940,-0.862899,-0.029152,0.357587,-0.153229,-0.038422,0.003403,-0.759408,0.029147,-0.649961,-0.053245,0.112836,-0.177066,15.338257,-10.181999,-25.268982,,,,,,,
1523521403.539908,-0.864825,-0.031130,0.355135,-0.060307,-0.068185,-0.028461,-0.760613,0.031125,-0.648459,-0.067802,0.039783,-0.015863,14.364655,-9.952766,-25.420410,,,,,,,
1523521403.569846,-0.866555,-0.030006,0.355143,0.078505,-0.066412,-0.028355,-0.761760,0.030001,-0.647164,0.008799,0.060865,0.129769,14.809982,-10.554543,-25.192749,,,,,,,
1523521403.599814,-0.866197,-0.029352,0.355482,-0.044678,0.117512,0.002268,-0.761542,0.029348,-0.647449,0.001563,0.057581,0.074344,15.327026,-11.082329,-25.640381,,,,,,,
1523521403.629783,-0.860254,-0.029807,0.355000,0.042917,0.140574,0.015102,-0.757671,0.029802,-0.651955,-0.072682,-0.013323,-0.170921,15.102341,-11.231010,-25.339905,,,,,,,
1523521403.659751,-0.864511,-0.030988,0.357056,-0.041489,-0.234952,0.108105,-0.760413,0.030983,-0.648700,-0.016367,0.011604,0.026263,15.176743,-11.381187,-25.189270,,,,,,,
1523521403.689719,-0.867018,-0.033152,0.358623,0.070043,0.034058,0.042927,-0.761983,0.033146,-0.646747,0.020879,0.017589,0.087146,15.920853,-11.385521,-26.163879,,,,,,,
1523521403.719687,-0.863733,-0.029930,0.360429,0.097753,0.125112,-0.072216,-0.759932,0.029926,-0.649312,-0.061708,-0.061237,-0.003337,15.918015,-11.535728,-26.388306,,,,,,,
1523521403.749656,-0.862820,-0.028500,0.359808,-0.048482,-0.045918,-0.025282,-0.759370,0.028496,-0.650033,-0.051955,-0.024377,-0.152625,16.598526,-11.163490,-26.089417,,,,,,,
1523521403.779624,-0.866212,-0.031040,0.358119,-0.099454,-0.139832,0.048310,-0.761513,0.031035,-0.647404,-0.019584,0.007814,-0.121135,16.000473,-10.561485,-26.767151,,,,,,,
1523521403.809592,-0.869410,-0.031919,0.358042,0.029252,-0.058027,0.005697,-0.763559,0.031913,-0.644948,0.006418,-0.018486,-0.003489,15.774887,-10.485695,-26.992615,,,,,,,
1523521403.839560,-0.870442,-0.030729,0.358958,0.027273,-0.046201,-0.013494,-0.764253,0.030724,-0.644184,0.043382,-0.013528,0.064777,16.082199,-9.886848,-26.769775,,,,,,,
1523521403.869529,-0.871969,-0.033099,0.355925,-0.281200,-0.026326,-0.011608,-0.765177,0.033093,-0.642967,-0.025091,0.034641,0.039299,16.011566,-9.586311,-26.546082,,,,,,,
1523521403.899497,-0.871442,-0.038543,0.345316,-0.376381,0.018464,-0.150254,-0.764689,0.038533,-0.643245,-0.172185,0.024989,-0.175069,14.662537,-9.580086,-26.396729,,,,,,,
1523521403.929465,-0.877388,-0.039353,0.336792,-0.163683,-0.333153,-0.089008,-0.768476,0.039343,-0.638667,-0.097903,0.031076,-0.046544,14.741867,-9.055595,-26.548828,,,,,,,
1523521403.959403,-0.884437,-0.042790,0.335362,-0.064329,-0.059786,0.137757,-0.772850,0.042777,-0.633144,0.060234,0.134530,0.197384,14.813248,-9.281151,-26.772827,,,,,,,
1523521403.989371,-0.882726,-0.043306,0.337258,0.096413,0.180719,0.028957,-0.771748,0.043292,-0.634452,0.098210,0.094830,0.233817,13.913162,-9.651497,-26.171814,,,,,,,
1523521404.019340,-0.874144,-0.040684,0.342507,0.241100,0.321575,0.044905,-0.766359,0.040673,-0.641122,0.056292,0.106117,0.085092,14.135147,-10.177116,-25.794617,,,,,,,
1523521404.049308,-0.865168,-0.037839,0.345709,0.014757,0.228145,-0.037218,-0.760659,0.037830,-0.648047,-0.104759,0.039577,-0.150659,14.430054,-10.778282,-25.642029,,,,,,,
1523521404.079276,-0.862877,-0.038423,0.343158,-0.085905,-0.061768,-0.026350,-0.759155,0.038414,-0.649774,-0.070083,-0.004249,-0.238166,15.029144,-10.781136,-25.791748,,,,,,,
1523521404.109244,-0.869937,-0.040014,0.342634,-0.028373,-0.243069,0.046336,-0.763676,0.040003,-0.644358,0.047139,0.071691,0.076166,15.693466,-11.310020,-26.689270,,,,,,,
1523521404.139213,-0.871615,-0.039753,0.344004,0.085037,0.010831,0.015263,-0.764764,0.039743,-0.643082,0.096994,0.065467,0.189087,15.397079,-11.083458,-26.465332,,,,,,,
1523521404.169181,-0.870054,-0.038491,0.346496,0.088740,0.129768,0.023677,-0.763797,0.038481,-0.644307,0.109592,0.061952,0.171086,15.625946,-10.784340,-26.316406,,,,,,,
1523521404.199149,-0.863453,-0.036701,0.349016,0.099934,0.195911,-0.017935,-0.759578,0.036692,-0.649379,0.013790,0.026494,-0.051335,15.545105,-11.009575,-26.915588,,,,,,,
1523521404.229117,-0.862231,-0.035679,0.349756,-0.025162,-0.053644,0.004596,-0.758812,0.035671,-0.650331,-0.049232,-0.040188,-0.122176,16.225769,-10.712196,-26.466431,,,,,,,
1523521404.259086,-0.866362,-0.037209,0.346357,-0.144754,-0.142093,-0.068924,-0.761450,0.037201,-0.647154,-0.067911,-0.029999,-0.037493,15.476852,-10.558891,-26.542419,,,,,,,
1523521404.289054,-0.869362,-0.037359,0.342191,-0.081364,-0.069896,-0.082801,-0.763384,0.037350,-0.644863,-0.011808,-0.018261,0.047725,15.325058,-10.558510,-26.842468,,,,,,,
1523521404.318992,-0.870441,-0.037942,0.340443,-0.033607,-0.003865,0.030116,-0.764062,0.037933,-0.644025,0.039773,0.061249,0.054074,15.180893,-10.107643,-26.619385,,,,,,,
1523521404.348960,-0.867281,-0.037827,0.341733,0.101818,0.172348,0.008723,-0.762027,0.037818,-0.646439,-0.008130,0.039788,-0.047134,14.958908,-9.806648,-26.620728,,,,,,,
1523521404.378928,-0.865185,-0.035245,0.345050,0.126563,-0.021129,0.011071,-0.760742,0.035238,-0.648096,0.017562,0.005915,-0.033789,15.780731,-10.035500,-26.769348,,,,,,,
1523521404.408896,-0.866539,-0.035072,0.345915,-0.061281,-0.017418,0.002407,-0.761623,0.035065,-0.647069,0.012112,-0.002793,-0.002833,15.406357,-10.108574,-26.544250,,,,,,,
1523521404.438865,-0.867254,-0.038393,0.340801,-0.257475,-0.021880,-0.049941,-0.761992,0.038383,-0.646446,-0.048249,-0.014473,-0.049920,14.957413,-10.181267,-26.244202,,,,,,,
1523521404.468821,-0.868218,-0.041300,0.334004,-0.193330,-0.039855,-0.083981,-0.762527,0.041289,-0.645636,-0.078248,0.013201,-0.039483,15.857071,-9.810982,-26.920227,,,,,,,
1523521404.498789,-0.869863,-0.041930,0.329886,-0.063226,-0.031934,-0.047663,-0.763568,0.041918,-0.644363,-0.016019,0.027204,0.036820,14.961456,-9.731361,-26.320984,,,,,,,
1523521404.528757,-0.869383,-0.041292,0.330097,0.062836,0.054445,0.014151,-0.763279,0.041280,-0.644747,0.028233,0.073283,0.088900,14.957397,-9.956642,-26.620117,,,,,,,
1523521404.558726,-0.866254,-0.041048,0.332026,0.039585,0.134047,0.036426,-0.761265,0.041037,-0.647139,-0.005428,0.086649,-0.040941,15.029877,-10.256889,-26.543884,,,,,,,
1523521404.588694,-0.863455,-0.040756,0.332838,0.026490,0.008019,-0.018866,-0.759460,0.040745,-0.649275,-0.057953,0.037594,-0.110949,14.730347,-10.480080,-26.093079,,,,,,,
1523521404.618662,-0.867484,-0.039697,0.332653,0.006697,-0.153236,-0.048557,-0.762102,0.039686,-0.646238,0.046984,0.060167,0.087674,14.508331,-10.179085,-26.094421,,,,,,,
1523521404.648631,-0.867641,-0.038373,0.331169,0.016558,0.087189,-0.092472,-0.762244,0.038363,-0.646151,0.093222,0.051389,0.174425,15.705139,-10.409630,-26.242920,,,,,,,
1523521404.678599,-0.865575,-0.035363,0.330553,0.033309,0.041293,-0.068974,-0.760991,0.035356,-0.647796,0.073949,0.077956,0.153030,15.033325,-10.181450,-26.094177,,,,,,,
1523521404.708537,-0.861984,-0.035646,0.328846,-0.104981,0.214479,-0.017041,-0.758652,0.035638,-0.650518,-0.108932,0.052436,-0.188532,15.103836,-10.856392,-25.716431,,,,,,,
1523521404.738505,-0.859082,-0.038356,0.325082,-0.136231,-0.089327,-0.019956,-0.756685,0.038347,-0.652652,-0.242994,-0.015123,-0.369092,16.071594,-11.086571,-26.540039,,,,,,,
1523521404.768473,-0.865985,-0.037879,0.323984,0.062594,-0.301159,-0.039825,-0.761186,0.037870,-0.647425,-0.052046,-0.013792,-0.057806,15.695557,-11.234810,-26.464600,,,,,,,
1523521404.798441,-0.872368,-0.035645,0.327415,0.184791,-0.100120,0.039973,-0.765367,0.035637,-0.642605,0.113557,0.034446,0.185849,15.464432,-11.534294,-26.988525,,,,,,,
1523521404.828410,-0.871190,-0.032044,0.333552,0.236808,0.083523,0.049409,-0.764702,0.032039,-0.643585,0.150643,0.072377,0.211578,16.589096,-11.838890,-26.536743,,,,,,,
1523521404.858378,-0.868140,-0.030938,0.337852,0.027746,0.131826,0.053472,-0.762762,0.030933,-0.645937,0.020315,0.107601,-0.021345,15.991516,-11.686058,-26.387634,,,,,,,
1523521404.888346,-0.864849,-0.034151,0.334316,-0.253091,0.041622,-0.015901,-0.760553,0.034145,-0.648376,-0.174170,-0.026622,-0.355729,15.915741,-11.311470,-27.139160,,,,,,,
1523521404.918314,-0.870904,-0.035800,0.327601,-0.198806,-0.354116,-0.122019,-0.764420,0.035793,-0.643722,-0.134322,-0.072872,-0.118531,16.666443,-10.790596,-27.890869,,,,,,,
1523521404.948283,-0.879758,-0.038162,0.321317,-0.170352,-0.110307,-0.046599,-0.770023,0.038153,-0.636873,-0.042141,-0.038946,0.138841,16.067352,-10.563133,-28.117126,,,,,,,
1523521404.978251,-0.876283,-0.037303,0.320946,0.143522,0.175486,0.000232,-0.767830,0.037295,-0.639565,-0.027473,-0.054705,0.100518,16.073807,-10.187706,-27.668640,,,,,,,
1523521405.008219,-0.873538,-0.034612,0.327366,0.227877,0.058706,0.104844,-0.766146,0.034605,-0.641733,0.039919,0.040041,0.105539,16.677826,-9.740501,-27.745117,,,,,,,
1523521405.038187,-0.868955,-0.032751,0.333397,0.180681,0.190935,0.055659,-0.763244,0.032745,-0.645278,0.024657,0.039535,-0.012727,15.850937,-10.560722,-26.692200,,,,,,,
1523521405.068125,-0.866233,-0.029590,0.337332,0.148121,-0.025172,-0.028320,-0.761560,0.029586,-0.647417,0.035669,0.010026,-0.067320,15.848373,-10.636024,-26.991943,,,,,,,
1523521405.098093,-0.868878,-0.029208,0.336338,-0.168140,-0.080683,-0.031693,-0.763278,0.029204,-0.645407,0.010730,0.057543,0.033453,15.625046,-10.559868,-26.842346,,,,,,,
1523521405.128062,-0.868614,-0.033631,0.328598,-0.306030,0.056075,-0.088410,-0.763002,0.033624,-0.645519,-0.078780,0.003302,-0.044285,15.399612,-10.558922,-26.917480,,,,,,,
1523521405.158030,-0.868934,-0.034829,0.322949,-0.065493,-0.081793,-0.061451,-0.763177,0.034822,-0.645248,0.016397,-0.029634,0.084198,15.177139,-10.033379,-27.369690,,,,,,,
1523521405.187998,-0.869365,-0.036131,0.323612,0.019805,0.077328,0.098282,-0.763420,0.036123,-0.644890,0.045112,0.001749,0.179542,16.072906,-10.412483,-27.442688,,,,,,,
1523521405.217966,-0.862338,-0.036856,0.327357,0.130731,0.282196,0.090694,-0.758849,0.036847,-0.650221,-0.021318,0.009936,-0.069368,16.001358,-10.336708,-26.993042,,,,,,,
1523521405.247935,-0.859216,-0.035666,0.332090,0.104834,-0.036411,0.073953,-0.756848,0.035659,-0.652615,0.006528,0.007753,-0.083667,15.845551,-11.010857,-26.840454,,,,,,,
1523521405.277903,-0.861245,-0.037145,0.333889,-0.017926,-0.050875,0.057897,-0.758129,0.037136,-0.651043,0.085492,0.006336,0.031323,16.448654,-10.563789,-27.066895,,,,,,,
1523521405.307871,-0.862477,-0.037288,0.334495,0.015540,-0.040949,-0.004958,-0.758928,0.037279,-0.650105,0.087098,-0.007097,0.098484,15.625198,-10.634712,-26.692017,,,,,,,
1523521405.337840,-0.861520,-0.038536,0.332106,-0.162067,0.093478,-0.020135,-0.758269,0.038526,-0.650800,0.005309,-0.011320,0.026029,15.698242,-10.785118,-26.766418,,,,,,,
1523521405.367808,-0.860238,-0.041619,0.327358,-0.171037,-0.020075,-0.037080,-0.757340,0.041607,-0.651691,-0.100723,-0.026105,-0.122372,15.702881,-10.409981,-26.617920,,,,,,,
1523521405.397776,-0.863651,-0.043160,0.324691,-0.060843,-0.145034,0.015332,-0.759510,0.043147,-0.649060,-0.021038,-0.031825,0.022748,15.477890,-10.184349,-26.993958,,,,,,,
1523521405.427744,-0.864188,-0.044855,0.325305,0.025509,0.126389,0.070533,-0.759802,0.044840,-0.648604,0.020636,-0.023127,0.086653,16.528137,-9.889534,-27.444519,,,,,,,
1523521405.457670,-0.859809,-0.043385,0.328543,0.130157,0.059609,0.009943,-0.757003,0.043371,-0.651967,-0.032837,0.016184,-0.078257,16.451797,-10.338661,-26.917847,,,,,,,
1523521405.487638,-0.859409,-0.042945,0.328076,-0.116486,-0.008439,-0.047714,-0.756757,0.042932,-0.652282,-0.112917,0.015997,-0.242982,16.153168,-10.112465,-27.068848,,,,,,,
1523521405.517607,-0.862082,-0.042962,0.323799,-0.065550,-0.154759,-0.112518,-0.758497,0.042949,-0.650257,-0.081285,0.034871,-0.195111,15.553024,-10.034920,-27.219482,,,,,,,
1523521405.547575,-0.870265,-0.043443,0.320546,-0.099511,-0.229757,-0.012311,-0.763777,0.043429,-0.644015,0.033904,0.086148,0.020357,16.004501,-9.886940,-27.219849,,,,,,,
1523521405.577543,-0.872394,-0.043538,0.320026,0.047800,-0.020678,-0.029454,-0.765144,0.043525,-0.642384,-0.020119,0.076760,0.077092,15.702408,-9.960808,-27.444702,,,,,,,
1523521405.607512,-0.872069,-0.042017,0.319774,-0.024350,0.052977,-0.051956,-0.764985,0.042004,-0.642675,-0.074996,0.022784,0.019155,15.701508,-9.960960,-27.594727,,,,,,,
1523521405.637480,-0.870488,-0.042508,0.316718,-0.128035,0.030890,-0.047748,-0.763951,0.042495,-0.643870,-0.161311,-0.028213,-0.137792,15.780426,-9.661171,-27.445862,,,,,,,
1523521405.667449,-0.872016,-0.043984,0.313010,-0.079601,-0.098973,-0.031605,-0.764886,0.043970,-0.642661,-0.113883,-0.029612,-0.070733,16.079651,-9.737511,-27.445374,,,,,,,
1523521405.697416,-0.874552,-0.043398,0.313864,0.114675,-0.042472,0.024955,-0.766533,0.043384,-0.640735,-0.025261,0.014141,0.110004,16.454483,-9.439735,-27.971436,,,,,,,
1523521405.727384,-0.871958,-0.041444,0.319102,0.194228,0.150269,0.088759,-0.764931,0.041432,-0.642775,0.046014,0.013698,0.129866,15.931747,-9.437004,-27.596680,,,,,,,
1523521405.757353,-0.866705,-0.040550,0.325302,0.156673,0.153319,0.123877,-0.761572,0.040539,-0.646808,0.064612,-0.006024,0.049808,15.405899,-9.884026,-26.995178,,,,,,,
1523521405.787321,-0.863617,-0.040231,0.331000,0.160688,0.058919,0.095222,-0.759581,0.040220,-0.649165,0.061278,-0.043989,0.019877,16.305542,-9.963005,-26.919373,,,,,,,
1523521405.817289,-0.863288,-0.037744,0.336119,0.199139,-0.019292,0.022866,-0.759441,0.037735,-0.649478,0.097362,-0.061569,0.054431,15.254837,-10.033272,-26.919617,,,,,,,
1523521405.847227,-0.863847,-0.035414,0.339313,0.044553,0.008869,0.002472,-0.759868,0.035407,-0.649109,0.099941,-0.067298,0.071793,15.549591,-10.559593,-26.917419,,,,,,,
1523521405.877195,-0.862295,-0.036782,0.336894,-0.167607,0.041482,-0.027551,-0.758823,0.036773,-0.650255,0.005100,-0.095718,-0.108381,16.154526,-10.112251,-26.843872,,,,,,,
1523521405.907163,-0.864300,-0.039645,0.331822,-0.180113,-0.133769,-0.033780,-0.760042,0.039635,-0.648661,-0.006590,-0.059929,-0.060811,15.559036,-9.659569,-26.845947,,,,,,,
1523521405.937132,-0.868285,-0.041040,0.328517,-0.055009,-0.082096,-0.023076,-0.762577,0.041029,-0.645591,0.042408,-0.038419,0.078376,15.035416,-9.432365,-26.997192,,,,,,,
1523521405.967100,-0.869074,-0.039590,0.329271,0.103245,-0.014586,-0.009170,-0.763131,0.039580,-0.645027,0.069787,-0.027465,0.145408,15.857361,-9.511436,-27.371460,,,,,,,
1523521405.997068,-0.867764,-0.039215,0.330158,-0.075788,0.098254,0.024684,-0.762297,0.039205,-0.646035,0.003844,0.011088,0.028054,15.338089,-9.433281,-26.546997,,,,,,,
1523521406.027036,-0.864194,-0.043093,0.324831,-0.297465,0.102552,-0.052220,-0.759864,0.043079,-0.648649,-0.145669,0.016140,-0.156130,15.337936,-9.358421,-26.697266,,,,,,,
1523521406.057005,-0.864671,-0.045527,0.317170,-0.155044,-0.119448,-0.116876,-0.760092,0.045511,-0.648217,-0.121821,0.018118,-0.136421,16.162140,-8.987892,-27.448364,,,,,,,
1523521406.086973,-0.870235,-0.045558,0.315174,0.020303,-0.139980,0.021791,-0.763685,0.045542,-0.643977,0.022673,0.040319,0.069499,14.888672,-8.832161,-27.449585,,,,,,,
1523521406.116941,-0.869710,-0.045277,0.318643,0.136292,0.102518,0.100481,-0.763357,0.045261,-0.644386,0.047994,0.060497,0.112129,14.969360,-8.307457,-27.376709,,,,,,,
1523521406.146910,-0.863418,-0.044772,0.324014,0.147690,0.239711,0.080104,-0.759305,0.044757,-0.649191,-0.025486,0.028317,-0.023951,15.865891,-8.836174,-27.074097,,,,,,,
1523521406.176878,-0.858960,-0.041316,0.328498,0.213574,0.033139,-0.035770,-0.756516,0.041305,-0.652666,-0.024963,-0.010238,-0.127729,15.563812,-9.134666,-26.923096,,,,,,,
1523521406.206846,-0.862247,-0.037997,0.330329,0.015079,-0.174678,-0.029320,-0.758757,0.037988,-0.650262,0.066816,0.032599,0.013314,15.636719,-9.434853,-26.771851,,,,,,,
1523521406.236784,-0.864548,-0.039123,0.328160,-0.081180,0.021105,-0.032785,-0.760218,0.039113,-0.648486,0.072840,0.029964,0.011706,16.010498,-9.286980,-27.222229,,,,,,,
1523521406.266752,-0.864833,-0.038856,0.326148,-0.058915,-0.048890,-0.061461,-0.760411,0.038846,-0.648276,-0.068965,-0.010816,-0.004205,15.488358,-9.134407,-26.998108,,,,,,,
1523521406.296721,-0.864755,-0.039587,0.321887,-0.144811,0.043996,-0.093584,-0.760339,0.039577,-0.648316,-0.124870,-0.041530,-0.048720,15.711258,-9.210625,-27.222717,,,,,,,
1523521406.326689,-0.864235,-0.039213,0.318320,-0.009712,-0.028823,-0.061444,-0.760012,0.039203,-0.648721,-0.061094,-0.048618,-0.041846,16.162598,-8.987816,-27.373413,,,,,,,
1523521406.356658,-0.866257,-0.037117,0.320385,0.154154,-0.040528,0.034585,-0.761384,0.037108,-0.647235,0.046036,0.026628,0.059070,15.709457,-9.210930,-27.522705,,,,,,,
1523521406.386626,-0.865123,-0.035033,0.326062,0.189659,0.082265,0.088831,-0.760706,0.035025,-0.648147,0.058436,0.077874,0.056152,15.557663,-9.435173,-27.446838,,,,,,,
1523521406.416593,-0.861516,-0.034251,0.329746,0.025802,0.154214,0.040680,-0.758384,0.034244,-0.650904,-0.031334,0.044628,-0.085256,16.007965,-9.811516,-26.770142,,,,,,,
1523521406.446563,-0.858860,-0.036192,0.328594,-0.108326,-0.033331,0.009880,-0.756600,0.036185,-0.652872,-0.086860,-0.048804,-0.214575,15.031067,-9.957191,-26.845032,,,,,,,
1523521406.476542,-0.864042,-0.036636,0.326850,-0.029835,-0.203183,-0.039979,-0.759961,0.036628,-0.648932,-0.003314,-0.077369,0.020224,15.326981,-9.959206,-27.519897,,,,,,,
1523521406.506510,-0.866782,-0.036284,0.326191,0.032865,0.004717,-0.009242,-0.761746,0.036276,-0.646855,0.049832,-0.085821,0.130177,15.854218,-9.736580,-27.520508,,,,,,,
1523521406.536478,-0.865088,-0.034978,0.329010,0.106468,0.065686,0.057887,-0.760685,0.034971,-0.648175,0.064930,-0.057157,0.097988,15.178329,-9.958305,-27.294983,,,,,,,
1523521406.566447,-0.861603,-0.036281,0.331161,-0.024585,0.140318,0.069431,-0.758386,0.036273,-0.650791,0.012644,-0.025607,-0.091472,15.330124,-9.958687,-26.994934,,,,,,,
1523521406.596415,-0.861038,-0.037662,0.331053,-0.020008,-0.104706,0.004687,-0.757980,0.037653,-0.651187,-0.056306,-0.053782,-0.219266,15.178040,-10.033226,-27.219666,,,,,,,
1523521406.626353,-0.867207,-0.037458,0.330505,-0.021455,-0.210816,-0.015457,-0.761988,0.037449,-0.646503,0.053507,-0.042637,0.019581,15.406494,-9.734184,-27.145752,,,,,,,
1523521406.656321,-0.870030,-0.038786,0.328800,-0.101636,0.025127,0.005563,-0.763772,0.038776,-0.644317,0.040444,-0.078312,0.133819,14.880600,-9.731972,-27.296021,,,,,,,
1523521406.686289,-0.866666,-0.040663,0.326817,-0.074543,0.113266,0.004427,-0.761543,0.040652,-0.646834,0.004448,-0.059450,0.045959,15.255432,-9.658806,-27.446106,,,,,,,
1523521406.716257,-0.863887,-0.042090,0.326010,-0.035216,0.102370,0.028975,-0.759698,0.042077,-0.648910,-0.023200,-0.019586,-0.035020,14.809494,-9.206871,-27.523132,,,,,,,
1523521406.746226,-0.861020,-0.042958,0.326029,-0.002284,0.065094,0.029039,-0.757806,0.042945,-0.651061,-0.038230,-0.031959,-0.126221,16.383377,-9.139259,-27.822632,,,,,,,
1523521406.776194,-0.861769,-0.042795,0.327498,0.064328,-0.072183,0.034551,-0.758299,0.042782,-0.650498,0.030393,0.022541,-0.028717,16.614349,-8.764931,-27.448975,,,,,,,
1523521406.806162,-0.862612,-0.042046,0.329885,0.082966,0.024522,0.025949,-0.758871,0.042034,-0.649879,0.063772,0.043187,0.074150,15.190903,-8.608513,-27.450317,,,,,,,
1523521406.836131,-0.859788,-0.040133,0.331882,0.076027,0.096043,-0.016758,-0.757092,0.040122,-0.652071,0.055767,0.005807,0.015627,15.190903,-8.608513,-27.450317,,,,,,,
1523521406.866099,-0.858566,-0.040116,0.331467,-0.086720,0.004971,-0.005057,-0.756295,0.040105,-0.652997,0.023004,0.006678,-0.039325,16.015121,-8.687233,-27.449585,,,,,,,
1523521406.896067,-0.858442,-0.042790,0.328348,-0.113325,0.006214,-0.021063,-0.756131,0.042777,-0.653018,-0.052784,0.004404,-0.142225,15.264999,-8.609001,-27.600342,,,,,,,
1523521406.926035,-0.860889,-0.041595,0.327487,0.078395,-0.142746,-0.061261,-0.757765,0.041583,-0.651198,-0.033861,0.023664,-0.039735,16.243851,-8.313255,-27.450989,,,,,,,
,,,,,,,,,,,,,,,,25.305161,51.448088,8.112489,-1.000000,-1.000000,1523521406.889142,
1523521406.956004,-0.861432,-0.038805,0.329349,0.123927,0.068225,-0.009220,-0.758203,0.038796,-0.650859,0.069574,-0.000816,0.064205,15.792099,-8.760780,-26.999451,,,,,,,
1523521406.985972,-0.858984,-0.036947,0.331847,0.069251,0.054370,0.018443,-0.756661,0.036938,-0.652760,-0.000572,0.005985,-0.036541,15.864243,-8.911324,-27.223816,,,,,,,
1523521407.015910,-0.858528,-0.036882,0.332719,0.017674,-0.042096,0.001467,-0.756365,0.036873,-0.653107,-0.056990,-0.008049,-0.149414,16.388916,-8.988609,-27.148254,,,,,,,
1523521407.045878,-0.861238,-0.035758,0.332303,0.007069,-0.093714,-0.058164,-0.758163,0.035751,-0.651081,-0.024629,-0.052306,-0.034466,15.560806,-9.210030,-27.297791,,,,,,,
1523521407.075846,-0.863561,-0.033947,0.331423,0.026306,-0.078941,-0.049643,-0.759721,0.033940,-0.649359,0.009035,-0.055394,0.038839,15.255432,-9.434181,-27.822021,,,,,,,
1523521407.105814,-0.864493,-0.034199,0.331598,-0.014345,0.019281,0.050388,-0.760319,0.034192,-0.648645,0.016896,-0.050779,0.024896,16.234879,-8.988594,-27.823303,,,,,,,
1523521407.135783,-0.862320,-0.035054,0.332834,0.036083,0.065951,0.043988,-0.758886,0.035047,-0.650277,-0.070658,-0.047879,-0.079841,15.627426,-9.735847,-27.820618,,,,,,,
1523521407.165751,-0.862368,-0.034938,0.334278,0.025015,-0.042283,0.025977,-0.758920,0.034931,-0.650243,-0.057273,-0.081867,-0.098918,15.770981,-10.336571,-27.893127,,,,,,,
1523521407.195719,-0.864577,-0.035573,0.334401,-0.046699,-0.070861,0.035541,-0.760338,0.035565,-0.648550,-0.008507,-0.093045,-0.011255,16.373322,-9.964500,-28.119385,,,,,,,
1523521407.225687,-0.864757,-0.037452,0.334269,-0.009914,0.036358,0.036531,-0.760403,0.037443,-0.648369,0.024044,-0.089292,-0.008492,15.923950,-10.037270,-27.894287,,,,,,,
1523521407.255656,-0.863850,-0.037572,0.336065,0.035737,0.021128,0.071737,-0.759811,0.037563,-0.649055,0.013748,-0.063396,-0.005715,15.328171,-9.884132,-27.445190,,,,,,,
1523521407.285624,-0.862101,-0.039252,0.337548,0.009244,0.060516,0.069554,-0.758625,0.039242,-0.650341,0.006489,-0.065670,-0.068455,16.147919,-10.188194,-27.818542,,,,,,,
1523521407.315592,-0.862751,-0.037983,0.339335,0.083749,-0.069868,-0.000592,-0.759085,0.037974,-0.649880,0.066641,-0.059321,0.069115,15.249741,-10.183846,-27.519043,,,,,,,
1523521407.345560,-0.863884,-0.036967,0.340467,-0.003352,0.025982,-0.001811,-0.759850,0.036959,-0.649044,0.111367,-0.027132,0.111858,15.325775,-10.034264,-27.594604,,,,,,,
1523521407.375529,-0.859681,-0.038343,0.338025,-0.160783,0.134915,-0.022293,-0.757076,0.038333,-0.652198,-0.021275,-0.030429,-0.092782,16.375427,-9.889290,-27.894653,,,,,,,
1523521407.405466,-0.860132,-0.041342,0.332584,-0.199139,-0.106106,-0.038049,-0.757280,0.041330,-0.651779,-0.078475,-0.033182,-0.169846,15.172775,-10.108955,-27.969360,,,,,,,
1523521407.435435,-0.864087,-0.043674,0.328231,-0.110493,-0.097831,-0.036927,-0.759776,0.043660,-0.648714,-0.040685,-0.033513,-0.067564,15.472458,-9.960609,-28.269775,,,,,,,
1523521407.465398,-0.865550,-0.041912,0.328873,0.159723,-0.056141,-0.017583,-0.760782,0.041899,-0.647651,0.051416,-0.011778,0.087211,15.848358,-9.737526,-28.495544,,,,,,,
1523521407.495366,-0.866326,-0.039628,0.334147,0.168023,0.033294,0.105934,-0.761355,0.039618,-0.647120,0.123797,0.013849,0.165217,14.577469,-9.731133,-27.821167,,,,,,,
1523521407.525335,-0.860935,-0.039795,0.338705,0.073939,0.219635,0.085425,-0.757850,0.039785,-0.651212,0.024436,-0.011388,-0.050906,14.647980,-10.181450,-27.819336,,,,,,,
1523521407.555303,-0.858123,-0.041094,0.339356,-0.067722,-0.018639,0.019499,-0.755976,0.041082,-0.653306,-0.032491,-0.037145,-0.140579,15.551514,-9.960289,-27.594788,,,,,,,
1523521407.585271,-0.861126,-0.042036,0.337579,-0.029390,-0.112873,-0.042179,-0.757905,0.042023,-0.651007,0.004212,-0.058488,-0.043680,14.724167,-10.106712,-27.744629,,,,,,,
1523521407.615239,-0.863166,-0.039877,0.337831,0.093723,-0.033521,-0.036840,-0.759298,0.039867,-0.649517,0.021521,-0.064388,0.019008,15.024612,-10.107994,-27.669434,,,,,,,
1523521407.645208,-0.862229,-0.038182,0.339958,0.080911,0.048919,0.032319,-0.758740,0.038173,-0.650271,0.012753,-0.082378,-0.016599,14.868759,-10.557518,-27.892700,,,,,,,
1523521407.675176,-0.860870,-0.036200,0.342699,0.133338,0.020419,-0.013431,-0.757911,0.036192,-0.651350,0.010734,-0.072691,-0.071200,15.099289,-10.183250,-27.594116,,,,,,,
1523521407.705144,-0.862470,-0.033665,0.345805,0.096354,-0.086043,0.027146,-0.759020,0.033659,-0.650194,0.070970,-0.018675,-0.005202,14.647827,-10.331215,-27.593750,,,,,,,
1523521407.735112,-0.863223,-0.033575,0.346596,-0.031336,0.002494,0.022706,-0.759512,0.033569,-0.649624,0.053838,-0.038253,-0.020344,15.775330,-10.260994,-27.293457,,,,,,,
1523521407.765081,-0.863934,-0.034766,0.345340,-0.081626,-0.043989,0.002466,-0.759943,0.034759,-0.649057,-0.002860,-0.054275,-0.013067,14.951248,-10.257133,-27.143860,,,,,,,
1523521407.795018,-0.864511,-0.035867,0.342541,-0.105640,0.005387,-0.059404,-0.760287,0.035859,-0.648594,-0.070798,-0.072404,-0.018017,14.723282,-10.331474,-27.518677,,,,,,,
1523521407.824987,-0.863671,-0.035961,0.339793,-0.047086,-0.005565,-0.034835,-0.759740,0.035953,-0.649230,-0.079188,-0.116367,-0.098619,15.548828,-10.185341,-27.668884,,,,,,,
1523521407.854955,-0.864454,-0.035501,0.340953,0.108246,-0.005619,0.069700,-0.760260,0.035494,-0.648645,0.048118,-0.078645,0.003534,14.275391,-10.254234,-27.294250,,,,,,,
1523521407.884923,-0.864237,-0.034626,0.346522,0.171203,0.038541,0.114453,-0.760143,0.034619,-0.648831,0.083476,-0.017239,0.024273,14.572388,-10.780205,-26.916992,,,,,,,
1523521407.914891,-0.861342,-0.031266,0.352045,0.203988,0.093318,0.018531,-0.758345,0.031261,-0.651100,0.021742,-0.043682,-0.063743,13.975128,-10.777061,-26.467285,,,,,,,
1523521407.944860,-0.861835,-0.028930,0.355440,0.063290,-0.109150,0.000505,-0.758720,0.028926,-0.650772,0.083121,-0.052577,-0.046311,14.353119,-10.703392,-26.092407,,,,,,,
1523521407.974828,-0.863937,-0.029247,0.354063,-0.128436,-0.053175,-0.035911,-0.760078,0.029243,-0.649170,0.027046,-0.071983,-0.051102,15.404114,-10.333565,-26.543396,,,,,,,
1523521408.004796,-0.865587,-0.032297,0.347944,-0.264041,-0.069746,-0.048784,-0.761078,0.032292,-0.647854,-0.067673,-0.088963,-0.113285,14.655182,-10.180275,-26.619385,,,,,,,
1523521408.034764,-0.868346,-0.035237,0.342207,-0.129646,-0.094554,-0.044395,-0.762786,0.035230,-0.645688,-0.096421,-0.094724,-0.058521,14.880905,-9.881660,-26.995422,,,,,,,
1523521408.064733,-0.869986,-0.034352,0.342810,0.127499,-0.044713,0.030334,-0.763867,0.034345,-0.644456,-0.003634,-0.062940,0.091599,15.702713,-9.661263,-27.895874,,,,,,,
1523521408.094701,-0.868029,-0.031239,0.348969,0.267964,0.138449,0.075012,-0.762683,0.031234,-0.646015,0.068835,-0.038528,0.100330,16.001205,-9.812614,-27.895142,,,,,,,
1523521408.124669,-0.862852,-0.029162,0.355143,0.101390,0.149413,0.086593,-0.759376,0.029158,-0.649996,0.001319,-0.004988,-0.066618,15.023270,-10.557457,-27.142639,,,,,,,
1523521408.154637,-0.860651,-0.030948,0.355924,-0.071925,-0.009062,0.017365,-0.757903,0.030943,-0.651630,-0.050248,-0.002440,-0.222073,15.093918,-11.082619,-26.990540,,,,,,,
1523521408.184575,-0.864549,-0.029986,0.355192,0.057950,-0.189434,-0.066538,-0.760459,0.029982,-0.648690,0.018973,-0.022765,-0.068290,15.247070,-10.858162,-26.841309,,,,,,,
1523521408.214543,-0.867629,-0.028303,0.355501,0.019006,0.001493,-0.006012,-0.762491,0.028299,-0.646377,0.093958,-0.057505,0.099120,15.096909,-10.782631,-26.991760,,,,,,,
1523521408.244512,-0.864523,-0.028674,0.355727,-0.018102,0.111812,0.036459,-0.760471,0.028670,-0.648735,0.002888,-0.034713,-0.018257,15.698669,-10.335793,-27.443176,,,,,,,
1523521408.274480,-0.862200,-0.029689,0.356352,0.038360,0.070310,0.024823,-0.758940,0.029684,-0.650481,-0.032472,-0.064276,-0.093889,15.771744,-10.710823,-27.141663,,,,,,,
1523521408.304448,-0.862304,-0.026903,0.358654,0.149101,-0.063432,-0.034633,-0.759068,0.026899,-0.650453,0.026890,-0.075758,-0.011199,15.022827,-10.557533,-27.217651,,,,,,,
1523521408.334417,-0.864019,-0.025218,0.360509,0.009002,-0.039119,0.032371,-0.760215,0.025215,-0.649179,0.058143,-0.028282,0.028680,15.923660,-10.112190,-27.818970,,,,,,,
1523521408.364385,-0.862867,-0.026219,0.360445,0.009613,0.062038,0.002434,-0.759447,0.026216,-0.650037,0.027651,-0.025301,-0.032519,15.175049,-10.333214,-27.218445,,,,,,,
1523521408.394353,-0.863319,-0.023205,0.362018,0.108510,-0.070769,-0.035716,-0.759798,0.023203,-0.649742,0.065370,-0.003504,0.132607,15.541199,-10.860466,-27.816162,,,,,,,
1523521408.424321,-0.861465,-0.022606,0.362208,-0.069935,0.186505,0.009712,-0.758602,0.022604,-0.651159,0.040142,-0.026464,0.004812,15.165756,-10.858849,-27.891357,,,,,,,
1523521408.454290,-0.856315,-0.025946,0.359611,-0.145281,0.067583,0.023627,-0.755177,0.025943,-0.655004,-0.120372,-0.040408,-0.311930,15.316956,-11.009071,-27.440674,,,,,,,
1523521408.484237,-0.859805,-0.025059,0.359545,0.149714,-0.204576,-0.064305,-0.757476,0.025057,-0.652379,-0.043031,-0.033846,-0.177455,15.312622,-11.309288,-27.664490,,,,,,,
1523521408.514205,-0.865495,-0.019186,0.364129,0.274482,-0.183928,-0.020558,-0.761274,0.019185,-0.648143,0.122511,0.010753,0.141810,15.913345,-11.236992,-27.664490,,,,,,,
1523521408.544173,-0.865383,-0.015275,0.369203,0.132849,0.185901,0.023717,-0.761253,0.015274,-0.648272,0.191810,0.006577,0.215990,14.791992,-11.231346,-27.065063,,,,,,,
1523521408.574142,-0.858723,-0.016606,0.369435,-0.164256,0.149252,0.050180,-0.756903,0.016605,-0.653313,0.021460,-0.032367,-0.043861,15.016708,-11.307274,-26.989685,,,,,,,
1523521408.604079,-0.858805,-0.024073,0.362166,-0.393475,-0.102552,-0.025387,-0.756842,0.024070,-0.653152,-0.202143,-0.068702,-0.337159,15.625046,-10.559868,-26.842346,,,,,,,
1523521408.634048,-0.863620,-0.024362,0.355747,0.005918,-0.256555,-0.176248,-0.759972,0.024360,-0.649496,-0.131187,-0.084815,-0.146875,14.572525,-10.630424,-27.142578,,,,,,,
1523521408.664016,-0.872438,-0.022163,0.355367,0.045726,-0.204860,0.014458,-0.765709,0.022161,-0.642802,0.063500,-0.063223,0.126536,14.274353,-10.404152,-27.218628,,,,,,,
1523521408.693984,-0.871367,-0.021908,0.360022,0.200607,0.174376,0.126080,-0.765025,0.021906,-0.643625,0.106303,0.008947,0.107004,15.176117,-10.632545,-26.542297,,,,,,,
1523521408.723952,-0.866294,-0.019936,0.367772,0.228470,0.175519,0.105848,-0.761781,0.019935,-0.647525,0.052949,0.006387,-0.001218,14.425995,-10.778938,-26.317017,,,,,,,
1523521408.753921,-0.862129,-0.018317,0.372032,0.052489,0.121262,0.024798,-0.759101,0.018316,-0.650712,-0.063866,-0.076498,-0.213241,14.346680,-11.078804,-26.540894,,,,,,,
1523521408.783889,-0.864435,-0.019709,0.370777,-0.163625,-0.240395,0.002626,-0.760580,0.019708,-0.648942,-0.006251,-0.084451,-0.124098,15.178802,-10.407478,-26.468201,,,,,,,
1523521408.813857,-0.870306,-0.023892,0.365403,-0.195851,-0.074371,-0.022076,-0.764307,0.023890,-0.644407,0.023889,-0.107722,0.018675,14.279907,-10.253502,-26.544250,,,,,,,
1523521408.843825,-0.870975,-0.024426,0.364167,0.043319,-0.034800,0.008959,-0.764728,0.024423,-0.643887,0.006427,-0.092615,0.086331,14.803070,-10.256172,-26.843994,,,,,,,
1523521408.873794,-0.869738,-0.024731,0.366668,0.051167,0.131464,0.084464,-0.763925,0.024729,-0.644828,0.043146,-0.068186,0.085563,15.401993,-10.184166,-27.143921,,,,,,,
1523521408.903762,-0.864829,-0.025993,0.369600,0.042435,0.120687,0.110035,-0.760725,0.025990,-0.648550,0.020155,-0.087925,-0.063303,14.952164,-10.481606,-26.618042,,,,,,,
1523521408.933730,-0.864219,-0.027018,0.372265,0.051634,-0.019275,0.065420,-0.760309,0.027015,-0.648996,0.077860,-0.033225,-0.031469,14.649658,-10.780174,-26.541931,,,,,,,
1523521408.963699,-0.864691,-0.026036,0.373813,0.046840,-0.001657,-0.021967,-0.760636,0.026033,-0.648654,0.072418,0.012190,0.023822,14.574493,-10.929619,-26.316345,,,,,,,
1523521408.993636,-0.864347,-0.024981,0.372061,-0.087398,0.006450,-0.070022,-0.760433,0.024979,-0.648933,0.060482,0.017669,0.020988,14.426743,-10.479317,-26.693237,,,,,,,
1523521409.023605,-0.863999,-0.026640,0.367520,-0.177141,0.011875,-0.054112,-0.760174,0.026637,-0.649170,0.023510,0.030553,-0.032547,15.625046,-10.559868,-26.842346,,,,,,,
1523521409.053573,-0.862928,-0.028742,0.363183,-0.121512,0.057302,-0.036002,-0.759434,0.028738,-0.649946,-0.060680,0.016856,-0.116717,15.550491,-10.559456,-26.767395,,,,,,,
1523521409.083541,-0.862192,-0.029551,0.361304,-0.032332,-0.015419,-0.001764,-0.758938,0.029547,-0.650489,-0.071262,0.005655,-0.109216,14.725693,-10.630592,-26.617554,,,,,,,
1523521409.113509,-0.863623,-0.029389,0.363051,0.111198,-0.078869,0.056999,-0.759871,0.029385,-0.649406,0.064086,0.052937,0.068290,14.721039,-10.781090,-27.141907,,,,,,,
1523521409.143478,-0.863038,-0.028303,0.367623,0.159870,0.066526,0.064356,-0.759516,0.028299,-0.649870,0.136576,0.057959,0.124785,15.171158,-10.857979,-26.991394,,,,,,,
1523521409.173446,-0.858188,-0.026113,0.371776,0.096648,0.200876,0.020490,-0.756399,0.026110,-0.653586,0.009985,0.037763,-0.093408,15.175964,-10.782326,-26.316650,,,,,,,
1523521409.203414,-0.854814,-0.028474,0.370223,-0.173484,-0.028034,0.029042,-0.754141,0.028470,-0.656091,-0.137643,-0.031308,-0.358237,15.175980,-11.006935,-25.940735,,,,,,,
1523521409.233382,-0.861615,-0.028943,0.367502,-0.011864,-0.308157,-0.085634,-0.758576,0.028939,-0.650939,-0.084717,-0.063454,-0.129014,14.799179,-10.780922,-26.616882,,,,,,,
1523521409.263351,-0.869229,-0.027358,0.367737,0.098330,-0.167671,-0.005774,-0.763544,0.027354,-0.645173,0.077539,-0.084880,0.123261,14.499344,-10.629799,-26.842651,,,,,,,
1523521409.293319,-0.868915,-0.024366,0.373198,0.254968,0.081157,0.064420,-0.763401,0.024364,-0.645462,0.123554,-0.069270,0.174149,15.776703,-10.485390,-26.692566,,,,,,,
1523521409.323287,-0.864344,-0.023351,0.378817,0.047066,0.216200,0.124865,-0.760461,0.023349,-0.648961,0.011483,-0.042163,-0.011348,14.806534,-10.405357,-26.018372,,,,,,,
1523521409.353255,-0.862433,-0.027241,0.378640,-0.131200,-0.080489,0.067497,-0.759144,0.027238,-0.650349,-0.128689,-0.124116,-0.335170,15.185547,-9.957130,-26.094971,,,,,,,
1523521409.383224,-0.868444,-0.028171,0.376949,-0.025629,-0.255192,-0.059049,-0.763020,0.028168,-0.645757,-0.083797,-0.144226,-0.206629,15.410400,-9.658669,-26.621094,,,,,,,
1523521409.413161,-0.875584,-0.026125,0.376044,0.046306,-0.187237,-0.077177,-0.767654,0.026123,-0.640328,0.070968,-0.097595,0.114648,15.853165,-10.111122,-27.068970,,,,,,,
