timestamp(unix),attitude_roll(radians),attitude_pitch(radians),attitude_yaw(radians),rotation_rate_x(radians/s),rotation_rate_y(radians/s),rotation_rate_z(radians/s),gravity_x(G),gravity_y(G),gravity_z(G),user_acc_x(G),user_acc_y(G),user_acc_z(G),magnetic_field_x(microteslas),magnetic_field_y(microteslas),magnetic_field_z(microteslas),latitude(degree),longitude(degree),altitude(meter),speed(m/s),course(degree),timestamp(unix),User Mark
,,,,,,,,,,,,,,,,25.313774,51.440293,13.103695,-1.000000,-1.000000,1522139845.124060,
1522139846.114856,-0.012460,-0.009435,0.568031,-0.015296,0.053881,-0.216510,-0.012459,0.009435,-0.999878,-0.028007,0.204371,-0.076508,-5.374039,-5.920547,-4.443237,,,,,,,
1522139846.144824,-0.011817,-0.009686,0.561334,0.005163,0.096331,-0.214414,-0.011817,0.009686,-0.999883,-0.057504,0.205494,-0.302622,-4.323532,-4.876938,-6.096802,,,,,,,
1522139846.174792,-0.011273,-0.009278,0.554718,-0.000511,0.013498,-0.220723,-0.011272,0.009278,-0.999893,-0.023777,0.180969,-0.020736,-3.348877,-4.507004,-6.772888,,,,,,,
1522139846.204761,-0.010685,-0.009049,0.548131,0.009137,0.027260,-0.216469,-0.010684,0.009049,-0.999902,0.002994,0.211532,-0.069327,-1.082855,-2.043625,-8.206604,,,,,,,
1522139846.234729,-0.010186,-0.008639,0.541605,0.015509,0.018735,-0.216450,-0.010186,0.008639,-0.999911,0.090706,0.191495,0.008898,-0.630478,-1.446259,-8.808716,,,,,,,
,,,,,,,,,,,,,,,,25.313758,51.440208,13.107021,-1.000000,-1.000000,1522139846.196893,
1522139846.264697,-0.010086,-0.008430,0.535062,0.005916,0.024086,-0.216472,-0.010086,0.008430,-0.999914,0.074798,0.175896,-0.050501,0.209244,1.247925,-10.844116,,,,,,,
1522139846.294665,-0.010167,-0.008160,0.528631,0.003787,0.025135,-0.215402,-0.010166,0.008160,-0.999915,0.024540,0.177189,-0.062112,1.196152,2.668106,-11.224304,,,,,,,
1522139846.324634,-0.010398,-0.008774,0.522301,0.021679,-0.029115,-0.213205,-0.010397,0.008774,-0.999907,0.008871,0.151566,0.097304,-1.046127,3.802582,-11.829956,,,,,,,
1522139846.354602,-0.010543,-0.009367,0.516025,-0.000578,0.006032,-0.215394,-0.010542,0.009367,-0.999901,0.034422,0.178331,0.057640,-1.867203,4.331055,-12.057495,,,,,,,
1522139846.384570,-0.010469,-0.009986,0.509870,0.015348,0.002694,-0.200458,-0.010468,0.009986,-0.999895,0.030213,0.130472,-0.028349,-5.092514,3.896240,-11.382324,,,,,,,
1522139846.414508,-0.010562,-0.010676,0.503952,-0.002798,0.000623,-0.202597,-0.010561,0.010675,-0.999887,0.007646,0.241812,0.014566,-6.219681,3.451691,-11.006104,,,,,,,
1522139846.444476,-0.010794,-0.011098,0.498039,0.031260,-0.008049,-0.189778,-0.010793,0.011098,-0.999880,0.017019,0.133937,0.106783,-7.340866,2.933228,-9.504578,,,,,,,
1522139846.474444,-0.010415,-0.011355,0.492299,0.001516,0.030249,-0.185577,-0.010414,0.011355,-0.999881,0.038353,0.163664,-0.030240,-7.794540,1.437164,-7.623840,,,,,,,
1522139846.504413,-0.010366,-0.011572,0.486722,0.042945,-0.006056,-0.175916,-0.010365,0.011572,-0.999879,-0.013988,0.165262,-0.047942,-8.624725,0.242020,-6.494446,,,,,,,
1522139846.534381,-0.009519,-0.011444,0.481318,0.025037,0.049240,-0.174921,-0.009519,0.011444,-0.999889,0.055799,0.160172,-0.109699,-5.695496,0.079819,-5.517395,,,,,,,
1522139846.564349,-0.009531,-0.011190,0.475997,0.032220,-0.016671,-0.174842,-0.009531,0.011190,-0.999892,-0.075232,0.160700,0.049010,-4.420227,-0.075623,-5.216125,,,,,,,
1522139846.594318,-0.009388,-0.010246,0.470921,0.052536,-0.000831,-0.167387,-0.009387,0.010245,-0.999903,0.030887,0.139520,-0.063588,-2.472885,0.289566,-6.266602,,,,,,,
1522139846.624286,-0.008684,-0.009608,0.466111,0.038586,-0.000846,-0.156758,-0.008683,0.009608,-0.999916,-0.044341,0.083486,0.052635,-1.350189,0.508774,-7.016907,,,,,,,
1522139846.654254,-0.008786,-0.008947,0.461525,0.043802,-0.024294,-0.151389,-0.008785,0.008947,-0.999921,0.029385,0.123957,0.071714,-0.449661,1.328430,-8.294739,,,,,,,
1522139846.684222,-0.008413,-0.008311,0.457179,0.037515,0.013914,-0.141847,-0.008412,0.008311,-0.999930,0.128713,0.029363,-0.018899,-0.226471,1.551758,-8.970520,,,,,,,
1522139846.714191,-0.008406,-0.007916,0.453161,0.033094,-0.015868,-0.137551,-0.008406,0.007916,-0.999933,0.044722,0.075671,0.038660,-0.819443,2.528976,-9.424744,,,,,,,
1522139846.744159,-0.008033,-0.007824,0.449391,0.020345,0.019120,-0.120554,-0.008033,0.007824,-0.999937,-0.056573,0.057576,0.012571,-1.941559,2.908875,-9.576782,,,,,,,
1522139846.774127,-0.007440,-0.007140,0.445987,0.020381,0.031840,-0.116304,-0.007440,0.007140,-0.999947,0.035241,0.120256,-0.078819,-2.908554,3.214050,-8.753479,,,,,,,
1522139846.804095,-0.007352,-0.006929,0.442588,0.022141,-0.041544,-0.107705,-0.007352,0.006929,-0.999949,0.171994,-0.021227,-0.075124,-3.271240,4.041351,-8.081970,,,,,,,
1522139846.834052,-0.007816,-0.007583,0.439839,-0.022920,-0.057562,-0.080020,-0.007816,0.007582,-0.999941,-0.064083,0.005113,-0.410826,-5.215012,4.350616,-7.559265,,,,,,,
1522139846.864020,-0.009929,-0.006307,0.437081,-0.042229,-0.069239,-0.073636,-0.009928,0.006307,-0.999931,0.093226,0.132945,-0.115365,-5.652267,4.953705,-6.436890,,,,,,,
1522139846.893988,-0.014461,-0.007913,0.434517,-0.053134,-0.122345,-0.074649,-0.014460,0.007913,-0.999864,0.123224,0.040549,-0.301939,-6.239044,5.557541,-5.239563,,,,,,,
1522139846.923956,-0.020450,-0.008758,0.432166,0.000731,-0.254224,-0.076610,-0.020448,0.008758,-0.999753,0.095933,0.098328,-0.107685,-7.501831,5.565247,-3.215210,,,,,,,
1522139846.953925,-0.027401,-0.007930,0.429644,0.026417,-0.247885,-0.081918,-0.027397,0.007930,-0.999593,0.045662,-0.034099,-0.130763,-7.121277,5.714218,-2.540588,,,,,,,
1522139846.983862,-0.035475,-0.007720,0.427287,-0.007974,-0.287169,-0.073385,-0.035467,0.007720,-0.999341,0.042318,0.112932,-0.121280,-5.526840,6.533905,-0.668091,,,,,,,
1522139847.013831,-0.044265,-0.007103,0.424984,0.036805,-0.308471,-0.080796,-0.044249,0.007103,-0.998995,-0.008699,0.002357,-0.027097,-5.371582,6.384338,0.457581,,,,,,,
1522139847.043799,-0.053222,-0.006177,0.422732,0.015405,-0.308508,-0.070146,-0.053196,0.006177,-0.998565,-0.039470,0.056643,0.069076,-2.357025,7.121964,1.656128,,,,,,,
1522139847.073767,-0.062215,-0.005065,0.420425,0.057054,-0.324418,-0.087156,-0.062174,0.005065,-0.998052,0.103784,0.069016,0.325064,0.505890,8.234390,1.953125,,,,,,,
1522139847.103735,-0.068398,-0.004361,0.418094,-0.008272,-0.120299,-0.077821,-0.068344,0.004360,-0.997652,-0.074661,-0.057186,-0.153379,3.956924,8.967804,0.901917,,,,,,,
,,,,,,,,,,,,,,,,25.313813,51.440115,13.033901,-1.000000,-1.000000,1522139847.086092,
1522139847.133704,-0.071761,-0.002442,0.415617,0.117012,-0.059932,-0.094831,-0.071699,0.002442,-0.997423,0.097807,0.084518,0.171831,6.659317,9.929443,-0.300598,,,,,,,
1522139847.163672,-0.070989,-0.002177,0.413454,0.050988,-0.010956,-0.085339,-0.070929,0.002177,-0.997479,-0.015573,-0.027552,0.025815,9.279373,10.515854,-2.101624,,,,,,,
1522139847.193640,-0.067070,-0.002732,0.411542,-0.017792,0.145296,-0.068496,-0.067020,0.002732,-0.997748,-0.165219,0.014785,-0.394205,11.292526,11.403336,-5.554138,,,,,,,
1522139847.223609,-0.060641,-0.002444,0.409615,0.000921,0.280143,-0.060094,-0.060604,0.002444,-0.998159,-0.018803,0.079084,0.107671,11.584091,11.550385,-7.204651,,,,,,,
1522139847.253577,-0.050541,-0.001813,0.407941,0.014204,0.388494,-0.058071,-0.050519,0.001813,-0.998721,0.080579,0.021182,0.060703,9.997284,11.630417,-9.305725,,,,,,,
1522139847.283545,-0.038880,-0.001591,0.406412,0.005692,0.401196,-0.050619,-0.038870,0.001591,-0.999243,0.051398,0.055919,0.157767,8.481476,10.586334,-10.202332,,,,,,,
1522139847.313513,-0.026485,-0.001129,0.404909,0.011002,0.398000,-0.049555,-0.026482,0.001129,-0.999649,0.033593,0.045944,0.054550,7.116547,9.317108,-10.572937,,,,,,,
1522139847.343482,-0.013280,-0.000647,0.403484,0.032665,0.468057,-0.047473,-0.013280,0.000647,-0.999912,0.082280,0.022302,0.150348,6.886490,8.718292,-10.420654,,,,,,,
1522139847.373450,-0.001432,0.000144,0.402066,-0.002997,0.380971,-0.041022,-0.001432,-0.000144,-0.999999,0.009366,0.011985,0.285369,5.742218,7.147858,-11.014893,,,,,,,
1522139847.403418,0.008349,0.000143,0.400769,-0.012941,0.310828,-0.036693,0.008349,-0.000143,-0.999965,-0.020602,-0.036295,0.106121,5.581879,6.472977,-11.612305,,,,,,,
1522139847.433386,0.015457,0.001262,0.399067,0.090376,0.236306,-0.053589,0.015456,-0.001262,-0.999880,0.165925,-0.014332,0.302309,4.595551,5.651886,-12.134460,,,,,,,
1522139847.463355,0.020295,0.001998,0.397281,0.066234,0.064388,-0.076876,0.020293,-0.001998,-0.999792,0.188828,0.003341,0.303793,4.814072,5.050842,-12.206970,,,,,,,
1522139847.493323,0.022756,0.002492,0.395551,-0.003459,0.026175,-0.055591,0.022754,-0.002492,-0.999738,0.074292,-0.008525,0.045102,4.287613,4.903214,-12.206665,,,,,,,
1522139847.523261,0.021420,0.003082,0.393855,0.018600,-0.050428,-0.051228,0.021419,-0.003082,-0.999766,0.047582,0.088745,0.193507,3.533005,4.531464,-12.355591,,,,,,,
1522139847.553229,0.018816,0.002686,0.392285,0.009629,-0.154491,-0.058588,0.018815,-0.002686,-0.999819,0.083525,-0.025848,-0.108030,3.387222,4.682556,-11.906250,,,,,,,
1522139847.583197,0.014250,0.002706,0.390657,0.000981,-0.166218,-0.048998,0.014249,-0.002706,-0.999895,0.014254,0.053243,0.027605,4.738953,4.901398,-11.981445,,,,,,,
1522139847.613165,0.009388,0.002207,0.389353,-0.049186,-0.149186,-0.036262,0.009388,-0.002207,-0.999954,-0.037678,0.054377,-0.034348,4.523712,5.652740,-11.609558,,,,,,,
1522139847.643134,0.004205,0.001666,0.387825,0.003341,-0.124727,-0.056498,0.004205,-0.001666,-0.999990,0.035941,0.016696,0.180150,4.534317,6.852463,-11.839355,,,,,,,
1522139847.673102,0.001350,0.000989,0.386334,0.001516,-0.060937,-0.060825,0.001350,-0.000989,-0.999999,-0.056816,0.040494,0.031142,4.463654,7.153000,-11.615601,,,,,,,
1522139847.703070,-0.000035,0.000936,0.384772,-0.001454,0.009089,-0.044914,-0.000035,-0.000936,-1.000000,-0.047969,0.026724,0.056381,5.748505,8.047379,-11.468506,,,,,,,
1522139847.733038,0.001113,0.001021,0.383606,0.019089,0.071708,-0.040703,0.001113,-0.001021,-0.999999,-0.099365,0.015898,0.104445,6.571213,7.818665,-11.467163,,,,,,,
1522139847.763007,0.004552,0.001098,0.382384,0.008769,0.149327,-0.042925,0.004552,-0.001098,-0.999989,-0.042424,0.022750,0.083531,8.444305,8.259201,-12.518005,,,,,,,
1522139847.792975,0.010791,0.001280,0.381213,0.008186,0.264028,-0.035575,0.010791,-0.001280,-0.999941,-0.072696,0.017805,0.075884,7.988647,7.960785,-12.967041,,,,,,,
1522139847.822953,0.018336,0.001536,0.380069,-0.010967,0.279993,-0.033470,0.018335,-0.001536,-0.999831,-0.107065,-0.001210,0.067961,8.209259,8.108826,-13.942566,,,,,,,
1522139847.852921,0.027316,0.001224,0.378906,-0.002235,0.311923,-0.043089,0.027312,-0.001224,-0.999626,0.144517,-0.026318,0.046867,8.345901,7.581863,-15.290344,,,,,,,
1522139847.882890,0.037245,0.000189,0.378035,-0.032151,0.316165,-0.033515,0.037237,-0.000189,-0.999306,-0.006994,0.004782,-0.297157,7.592468,7.734421,-16.116333,,,,,,,
1522139847.912858,0.045002,0.001434,0.376796,-0.003627,0.249168,-0.034500,0.044986,-0.001434,-0.998987,0.041851,0.010299,0.102334,5.552567,6.692856,-16.863220,,,,,,,
1522139847.942826,0.050176,0.000570,0.375751,-0.038176,0.161066,-0.036564,0.050155,-0.000570,-0.998741,0.091324,0.011480,0.058373,4.729553,6.846634,-16.789246,,,,,,,
1522139847.972795,0.052599,0.001186,0.374289,0.069154,0.031276,-0.052339,0.052574,-0.001186,-0.998616,0.142891,-0.027913,0.100972,0.513733,4.766434,-15.958008,,,,,,,
1522139848.002763,0.051822,0.002029,0.372968,0.060899,-0.136623,-0.047916,0.051798,-0.002029,-0.998655,0.043188,0.058121,-0.076601,-1.362961,4.325333,-15.507141,,,,,,,
1522139848.032731,0.048147,0.002664,0.371757,-0.060110,-0.192794,-0.026637,0.048129,-0.002664,-0.998838,0.019575,-0.014441,-0.184741,-3.760544,2.988754,-12.877991,,,,,,,
1522139848.062669,0.041033,0.003780,0.370514,0.029431,-0.230165,-0.031864,0.041021,-0.003780,-0.999151,0.059778,0.055935,0.016333,-6.088715,1.725815,-11.299194,,,,,,,
1522139848.092637,0.031793,0.004122,0.369446,0.001280,-0.314038,-0.030743,0.031787,-0.004122,-0.999486,0.063519,-0.031873,-0.120997,-8.112823,0.462173,-9.045105,,,,,,,
,,,,,,,,,,,,,,,,25.313783,51.440018,13.075375,-1.000000,-1.000000,1522139848.092679,
1522139848.122605,0.020405,0.004292,0.368436,-0.009749,-0.401111,-0.037049,0.020403,-0.004291,-0.999783,0.033125,0.019474,-0.025654,-8.259644,0.014099,-7.768372,,,,,,,
1522139848.152574,0.008329,0.003836,0.367530,-0.008687,-0.399030,-0.032780,0.008329,-0.003836,-0.999958,0.143954,0.012167,-0.164578,-9.529022,-0.054138,-6.718750,,,,,,,
1522139848.182542,-0.003598,0.004703,0.366397,0.059909,-0.335475,-0.028530,-0.003598,-0.004703,-0.999982,-0.196475,0.101948,-0.533602,-10.113251,0.400375,-4.845886,,,,,,,
1522139848.212510,-0.014957,0.006006,0.365122,-0.006278,-0.330003,-0.026459,-0.014956,-0.006006,-0.999870,-0.073789,0.019754,-0.159523,-9.208496,0.696594,-4.546631,,,,,,,
1522139848.242478,-0.023149,0.005920,0.364177,0.018524,-0.293823,-0.042461,-0.023147,-0.005920,-0.999715,0.082473,0.067168,0.023030,-10.238785,1.453262,-2.525146,,,,,,,
1522139848.272447,-0.028625,0.005061,0.363426,0.002770,-0.217404,-0.025496,-0.028620,-0.005061,-0.999578,-0.108510,-0.007802,-0.284160,-10.006607,1.902664,-2.076782,,,,,,,
1522139848.302415,-0.032053,0.006024,0.362524,0.024807,-0.065486,-0.026705,-0.032047,-0.006024,-0.999468,-0.062802,0.003506,-0.188612,-9.159729,2.426620,0.696472,,,,,,,
1522139848.332383,-0.032701,0.006850,0.361669,0.017778,0.032270,-0.025734,-0.032695,-0.006850,-0.999442,-0.000524,0.030043,-0.040521,-8.706573,2.200485,1.597656,,,,,,,
1522139848.362351,-0.030852,0.007493,0.360992,0.027605,0.093826,-0.016209,-0.030846,-0.007493,-0.999496,-0.029853,0.103181,-0.111496,-6.371460,2.041931,3.549438,,,,,,,
1522139848.392320,-0.027380,0.006638,0.360493,-0.024451,0.141834,-0.024821,-0.027376,-0.006638,-0.999603,-0.068159,0.043168,-0.145187,-3.517838,2.404083,3.549438,,,,,,,
1522139848.422288,-0.023312,0.007162,0.359819,-0.025198,0.226766,-0.013188,-0.023309,-0.007162,-0.999703,-0.011755,-0.002817,-0.131431,-0.676758,1.416458,3.704773,,,,,,,
1522139848.452256,-0.018698,0.007537,0.359015,0.008760,0.164045,-0.024804,-0.018697,-0.007537,-0.999797,-0.022746,-0.006166,0.035838,1.418640,1.181656,3.331787,,,,,,,
1522139848.482224,-0.013882,0.007908,0.358192,0.007666,0.153470,-0.030130,-0.013881,-0.007908,-0.999872,0.047725,-0.002727,0.124460,4.414001,1.392044,2.207397,,,,,,,
1522139848.512193,-0.009172,0.008159,0.357340,0.016131,0.135410,-0.032243,-0.009172,-0.008159,-0.999925,0.075914,-0.018010,0.131104,7.098709,1.077942,0.185059,,,,,,,
1522139848.542161,-0.005102,0.008564,0.356334,0.011770,0.110997,-0.035415,-0.005101,-0.008564,-0.999950,0.019887,-0.014965,0.069240,8.591736,1.144958,-1.089478,,,,,,,
1522139848.572129,-0.001987,0.008909,0.355247,0.007481,0.113113,-0.031165,-0.001987,-0.008909,-0.999958,0.034153,0.012144,0.037831,10.976288,1.580917,-4.390015,,,,,,,
1522139848.602098,0.000435,0.009472,0.354171,0.025539,0.085469,-0.036445,0.000435,-0.009472,-0.999955,0.050896,-0.038181,0.081010,11.417114,1.427658,-5.664246,,,,,,,
1522139848.632035,0.001859,0.009425,0.353134,-0.020582,0.045153,-0.030041,0.001859,-0.009425,-0.999954,0.034152,-0.006551,0.012603,11.704010,1.873444,-8.590881,,,,,,,
1522139848.662004,0.002335,0.009245,0.352139,-0.017473,0.024977,-0.031094,0.002335,-0.009245,-0.999955,0.039536,-0.011171,-0.030349,12.222076,1.944839,-9.865845,,,,,,,
1522139848.691972,0.002475,0.009343,0.351218,0.022144,0.053529,-0.026824,0.002475,-0.009343,-0.999953,0.024762,0.019566,0.050261,10.556854,1.500534,-11.664978,,,,,,,
1522139848.721940,0.002329,0.008710,0.350447,-0.010301,-0.038824,-0.027825,0.002329,-0.008710,-0.999959,0.060171,-0.038333,0.013784,9.127838,1.506302,-12.340698,,,,,,,
1522139848.751908,0.001369,0.007994,0.349773,-0.021056,-0.052651,-0.023550,0.001369,-0.007993,-0.999967,0.014851,0.023527,-0.090136,7.470596,0.913528,-12.564087,,,,,,,
1522139848.781877,-0.000019,0.007340,0.349028,-0.005059,-0.055891,-0.022466,-0.000019,-0.007340,-0.999973,-0.066525,-0.005157,-0.149884,6.270172,0.918854,-12.639771,,,,,,,
