timestamp(unix),attitude_roll(radians),attitude_pitch(radians),attitude_yaw(radians),rotation_rate_x(radians/s),rotation_rate_y(radians/s),rotation_rate_z(radians/s),gravity_x(G),gravity_y(G),gravity_z(G),user_acc_x(G),user_acc_y(G),user_acc_z(G),magnetic_field_x(microteslas),magnetic_field_y(microteslas),magnetic_field_z(microteslas),latitude(degree),longitude(degree),altitude(meter),speed(m/s),course(degree),timestamp(unix),User Mark
1523521518.121557,-0.661446,-0.018261,-1.598861,0.020075,-0.047381,-0.023976,-0.614156,0.018260,-0.788973,0.146810,0.031454,-0.148817,-2.524841,30.490913,-7.740601,,,,,,,
1523521518.151525,-0.664090,-0.016719,-1.599059,0.072037,-0.144108,-0.038754,-0.616256,0.016718,-0.787368,0.172653,0.037969,-0.163942,-2.904175,30.417030,-8.340515,,,,,,,
,,,,,,,,,,,,,,,,25.320098,51.452589,16.649441,16.040001,90.703125,1523521516.999653,
1523521518.181493,-0.668745,-0.013413,-1.598099,0.112621,-0.149455,-0.047249,-0.619946,0.013412,-0.784529,0.168667,0.031143,-0.123994,-3.203705,30.418449,-8.265625,,,,,,,
,,,,,,,,,,,,,,,,25.320138,51.452756,16.625332,15.380000,92.460938,1523521518.161961,
1523521518.211461,-0.670843,-0.009828,-1.596776,0.133250,-0.068779,-0.043052,-0.621616,0.009828,-0.783260,0.155933,0.011702,-0.108968,-2.679169,30.416008,-8.340393,,,,,,,
1523521518.241430,-0.672280,-0.007271,-1.596514,0.010405,-0.083339,-0.044196,-0.622754,0.007271,-0.782383,0.126844,-0.007332,-0.200741,-3.351151,30.494408,-7.966064,,,,,,,
1523521518.271398,-0.675041,-0.008225,-1.597782,-0.062482,-0.114204,-0.013307,-0.624908,0.008225,-0.780655,0.133681,0.049423,-0.160736,-3.724945,30.795784,-8.267395,,,,,,,
1523521518.301366,-0.677658,-0.007872,-1.599389,0.015941,-0.067278,-0.065508,-0.626950,0.007872,-0.779019,0.146741,0.033510,-0.135151,-3.723892,30.721077,-7.967163,,,,,,,
1523521518.331334,-0.677348,-0.006344,-1.599983,0.010881,0.033442,-0.031514,-0.626716,0.006344,-0.779221,0.151206,0.029682,-0.159362,-3.423737,30.644890,-7.816650,,,,,,,
1523521518.361303,-0.676479,-0.007031,-1.600323,-0.035521,-0.009326,0.023894,-0.626036,0.007031,-0.779762,0.148726,-0.015987,-0.215218,-2.673172,30.342110,-7.215088,,,,,,,
1523521518.391271,-0.678917,-0.007215,-1.598844,0.088677,-0.152107,0.036909,-0.627934,0.007215,-0.778233,0.190067,0.024157,-0.142910,-2.675552,29.967339,-6.988586,,,,,,,
1523521518.421239,-0.682538,-0.004327,-1.595244,0.169221,-0.064051,0.026238,-0.630758,0.004327,-0.775967,0.194189,0.030356,-0.082386,-2.752182,29.443291,-6.386536,,,,,,,
1523521518.451207,-0.681199,-0.001821,-1.592403,0.060805,0.037241,0.017520,-0.629724,0.001821,-0.776816,0.157525,0.012034,-0.160699,-2.980484,29.069389,-6.310120,,,,,,,
1523521518.481176,-0.680573,-0.002770,-1.592704,-0.073808,-0.006931,-0.001706,-0.629236,0.002770,-0.777209,0.181741,0.029930,-0.147367,-2.078857,29.140480,-6.159973,,,,,,,
1523521518.511113,-0.679655,-0.005012,-1.594883,-0.116409,0.016541,-0.000691,-0.628517,0.005012,-0.777779,0.196647,0.032952,-0.169059,-1.855087,29.289024,-6.610413,,,,,,,
1523521518.541082,-0.678336,-0.007308,-1.596888,-0.082187,0.027099,-0.002810,-0.627481,0.007308,-0.778597,0.177850,0.019273,-0.139692,-1.627838,29.513008,-6.611206,,,,,,,
1523521518.571034,-0.676472,-0.008852,-1.597968,-0.048111,0.026906,0.013195,-0.626021,0.008852,-0.779755,0.167296,-0.001802,-0.181045,-1.557175,29.212471,-6.835022,,,,,,,
1523521518.601002,-0.676701,-0.009229,-1.597292,0.045372,-0.066905,0.022950,-0.626197,0.009229,-0.779610,0.165870,-0.008680,-0.167244,-1.787292,29.062904,-7.434509,,,,,,,
1523521518.630971,-0.677760,-0.008092,-1.596232,0.027634,-0.020904,-0.015465,-0.627029,0.008092,-0.778953,0.167297,0.003230,-0.146004,-1.485367,29.436241,-7.735840,,,,,,,
1523521518.660939,-0.677577,-0.008251,-1.597040,-0.053537,-0.021805,-0.010194,-0.626885,0.008251,-0.779067,0.217782,0.020436,-0.120118,-2.165573,28.914299,-7.734070,,,,,,,
1523521518.690907,-0.677246,-0.009831,-1.598387,-0.083294,0.018588,-0.001732,-0.626619,0.009831,-0.779264,0.197374,0.042248,-0.111499,-2.235947,29.514397,-7.961548,,,,,,,
1523521518.720875,-0.674461,-0.011375,-1.599939,-0.032722,0.076036,-0.028396,-0.624436,0.011374,-0.780993,0.165513,0.021600,-0.211103,-1.789108,29.287239,-8.110413,,,,,,,
1523521518.750844,-0.675788,-0.009788,-1.600623,0.041133,-0.146068,-0.051561,-0.625482,0.009788,-0.780177,0.192727,0.020470,-0.143605,-3.135284,29.443672,-7.736694,,,,,,,
1523521518.780812,-0.677539,-0.009314,-1.601556,-0.043895,-0.034463,-0.027221,-0.626850,0.009313,-0.779084,0.171848,0.023707,-0.164794,-3.288132,29.294136,-7.961182,,,,,,,
1523521518.810780,-0.678835,-0.010161,-1.603138,-0.042057,-0.095051,-0.023968,-0.627854,0.010161,-0.778264,0.178132,0.029421,-0.186702,-2.683807,29.591637,-7.737061,,,,,,,
1523521518.840748,-0.681455,-0.009268,-1.604215,0.028539,-0.120414,-0.069704,-0.629896,0.009268,-0.776624,0.162748,0.037699,-0.195377,-2.685608,29.591347,-8.037109,,,,,,,
1523521518.870717,-0.686751,-0.007425,-1.605389,-0.003939,-0.201203,-0.053664,-0.634011,0.007424,-0.773288,0.171868,0.031150,-0.167096,-3.286209,29.668816,-8.262695,,,,,,,
1523521518.900685,-0.689441,-0.008463,-1.608071,-0.125946,-0.016075,-0.043289,-0.636083,0.008463,-0.771574,0.186025,0.041891,-0.129213,-2.684128,29.965950,-8.413635,,,,,,,
1523521518.930653,-0.688353,-0.010897,-1.611295,-0.102453,-0.003422,-0.035836,-0.635228,0.010897,-0.772247,0.184652,0.050336,-0.162232,-3.510742,29.894524,-8.563721,,,,,,,
1523521518.960591,-0.689578,-0.010345,-1.613524,0.011767,-0.071360,-0.087884,-0.636178,0.010345,-0.771473,0.160332,0.037705,-0.163616,-2.987869,29.592323,-8.412292,,,,,,,
1523521518.990559,-0.690142,-0.008900,-1.615135,-0.026503,-0.009820,-0.063454,-0.636622,0.008900,-0.771124,0.169916,0.041561,-0.173105,-2.691452,29.365776,-8.636169,,,,,,,
1523521519.020527,-0.690005,-0.010630,-1.618283,-0.166457,0.003114,-0.038010,-0.636505,0.010630,-0.771199,0.173416,0.070318,-0.160701,-3.599945,28.469933,-8.558044,,,,,,,
,,,,,,,,,,,,,,,,25.320155,51.452876,16.467739,12.120000,92.812500,1523521518.999647,
1523521519.050496,-0.687540,-0.013969,-1.622291,-0.144663,0.079669,-0.054044,-0.634576,0.013969,-0.772734,0.167520,0.066888,-0.195269,-3.375397,28.468849,-8.632935,,,,,,,
1523521519.080464,-0.685424,-0.015280,-1.624988,-0.087212,0.035977,-0.055032,-0.632927,0.015280,-0.774060,0.180001,0.071863,-0.157565,-3.750809,28.021217,-7.956360,,,,,,,
1523521519.110432,-0.683243,-0.017291,-1.628148,-0.142561,0.080673,-0.046584,-0.631217,0.017290,-0.775413,0.168448,0.079283,-0.184868,-4.355759,27.798485,-8.405762,,,,,,,
1523521519.140400,-0.681396,-0.020113,-1.631553,-0.150298,0.028613,-0.043350,-0.629750,0.020112,-0.776537,0.182225,0.100280,-0.173979,-4.880264,27.576302,-7.955139,,,,,,,
1523521519.170369,-0.679631,-0.022257,-1.635148,-0.121140,0.075449,-0.065749,-0.628350,0.022256,-0.777612,0.193200,0.097465,-0.153769,-4.350647,27.949074,-7.806335,,,,,,,
1523521519.200337,-0.676612,-0.023576,-1.638804,-0.115643,0.092526,-0.079607,-0.625980,0.023573,-0.779482,0.169270,0.102144,-0.189970,-5.547302,28.104744,-7.507568,,,,,,,
1523521519.230305,-0.674852,-0.025129,-1.642809,-0.123508,0.021264,-0.066757,-0.624584,0.025126,-0.780553,0.171810,0.091054,-0.213268,-5.320496,28.104027,-7.207458,,,,,,,
1523521519.260273,-0.675780,-0.025894,-1.645948,-0.054433,-0.055399,-0.069821,-0.625296,0.025892,-0.779957,0.189429,0.090304,-0.154568,-5.320358,28.253807,-7.433044,,,,,,,
1523521519.290242,-0.677200,-0.025812,-1.648054,-0.030998,-0.052346,-0.058091,-0.626405,0.025809,-0.779070,0.197633,0.095376,-0.090681,-5.920181,27.957024,-6.907166,,,,,,,
1523521519.320210,-0.676970,-0.025832,-1.649857,-0.039317,0.017679,-0.040052,-0.626225,0.025829,-0.779214,0.179859,0.059666,-0.192817,-6.667892,28.185387,-6.908447,,,,,,,
1523521519.350178,-0.677512,-0.026002,-1.651377,-0.019257,-0.054481,-0.060215,-0.626644,0.025999,-0.778871,0.158215,0.089907,-0.154158,-5.912231,28.482445,-6.459290,,,,,,,
1523521519.380147,-0.677636,-0.025676,-1.654942,-0.104109,0.000339,-0.120000,-0.626746,0.025673,-0.778800,0.175315,0.097770,-0.131967,-7.635956,28.565269,-6.385437,,,,,,,
1523521519.410115,-0.676991,-0.027483,-1.660345,-0.177922,-0.007078,-0.097666,-0.626214,0.027479,-0.779166,0.190774,0.129442,-0.145867,-7.179840,29.088371,-6.237305,,,,,,,
1523521519.440053,-0.675878,-0.029502,-1.665563,-0.121100,0.054387,-0.092369,-0.625310,0.029498,-0.779818,0.191778,0.119947,-0.142881,-6.643478,29.911476,-5.715332,,,,,,,
1523521519.470021,-0.673562,-0.029029,-1.668993,-0.018531,0.059500,-0.100818,-0.623511,0.029025,-0.781275,0.175986,0.084485,-0.140432,-7.015320,30.138298,-5.566406,,,,,,,
1523521519.499989,-0.670937,-0.028180,-1.670856,-0.011220,0.071906,-0.056062,-0.621473,0.028176,-0.782928,0.180143,0.058967,-0.138901,-7.615295,30.140999,-5.566711,,,,,,,
1523521519.529957,-0.667600,-0.029010,-1.672867,-0.090246,0.091075,-0.034824,-0.618842,0.029006,-0.784979,0.164665,0.040391,-0.154337,-7.383713,30.665169,-5.343750,,,,,,,
1523521519.559924,-0.665348,-0.030971,-1.675195,-0.084089,0.036883,-0.035839,-0.617036,0.030966,-0.786325,0.160798,0.060007,-0.190528,-7.152267,31.039589,-4.895081,,,,,,,
1523521519.589892,-0.664849,-0.031361,-1.677425,-0.052193,-0.016185,-0.056007,-0.616637,0.031356,-0.786622,0.192534,0.072907,-0.159575,-7.149429,31.414421,-5.046631,,,,,,,
1523521519.619860,-0.664552,-0.031515,-1.679697,-0.046616,0.014739,-0.074144,-0.616400,0.031510,-0.786802,0.183630,0.080154,-0.135287,-6.624176,31.711601,-5.497498,,,,,,,
1523521519.649828,-0.663300,-0.031154,-1.681995,-0.034834,0.018993,-0.078404,-0.615421,0.031149,-0.787582,0.157719,0.111292,-0.183441,-6.171051,32.159340,-5.724121,,,,,,,
1523521519.679797,-0.662260,-0.031243,-1.685592,-0.120931,0.059856,-0.116869,-0.614601,0.031238,-0.788219,0.131446,0.103726,-0.184361,-5.571533,32.156563,-5.798828,,,,,,,
1523521519.709765,-0.660392,-0.032432,-1.691190,-0.156214,0.031345,-0.130713,-0.613103,0.032426,-0.789337,0.127920,0.096846,-0.193406,-5.573181,32.081429,-5.948486,,,,,,,
1523521519.739733,-0.661565,-0.033908,-1.696465,-0.146128,-0.061333,-0.099721,-0.613999,0.033901,-0.788578,0.157898,0.112843,-0.112484,-5.946808,32.083336,-5.723694,,,,,,,
1523521519.769701,-0.662509,-0.034879,-1.700520,-0.084988,0.009630,-0.090147,-0.614723,0.034871,-0.787972,0.134834,0.114085,-0.110542,-5.949356,31.783424,-5.647461,,,,,,,
1523521519.799670,-0.661757,-0.034483,-1.703681,-0.050654,0.027731,-0.107190,-0.614138,0.034476,-0.788444,0.108539,0.111337,-0.181847,-5.725861,31.632408,-5.646790,,,,,,,
1523521519.829638,-0.662659,-0.033443,-1.707306,-0.057373,-0.069853,-0.130535,-0.614871,0.033436,-0.787918,0.141818,0.126796,-0.171463,-5.655945,31.256874,-5.870178,,,,,,,
1523521519.859606,-0.666079,-0.032863,-1.711199,-0.077962,-0.138841,-0.133684,-0.617574,0.032858,-0.785826,0.161748,0.160700,-0.124178,-5.727051,31.332726,-5.345581,,,,,,,
1523521519.889544,-0.670375,-0.032518,-1.717256,-0.143743,-0.116999,-0.194490,-0.620951,0.032512,-0.783174,0.157069,0.195576,-0.072127,-6.703049,31.187187,-5.270447,,,,,,,
1523521519.919512,-0.671724,-0.033179,-1.725534,-0.214786,-0.027466,-0.209544,-0.621994,0.033173,-0.782318,0.159103,0.208053,-0.086486,-6.627762,31.261772,-5.345764,,,,,,,
1523521519.949480,-0.672181,-0.035942,-1.735337,-0.325794,-0.023989,-0.211759,-0.622292,0.035934,-0.781960,0.120232,0.176590,-0.105370,-6.172546,31.784721,-5.347595,,,,,,,
1523521519.979449,-0.673946,-0.041291,-1.746538,-0.350877,-0.093265,-0.172289,-0.623542,0.041279,-0.780699,0.126426,0.138774,-0.056917,-7.072800,31.713844,-5.272766,,,,,,,
1523521520.009417,-0.676755,-0.044951,-1.754147,-0.144949,-0.098205,-0.148680,-0.625634,0.044936,-0.778821,0.129616,0.133058,0.005673,-6.542282,32.086754,-4.973999,,,,,,,
1523521520.039385,-0.677130,-0.043042,-1.757592,0.066925,0.000137,-0.155016,-0.625978,0.043029,-0.778652,0.083436,0.123597,-0.035862,-6.172974,31.560020,-5.046753,,,,,,,
,,,,,,,,,,,,,,,,25.320112,51.453028,17.155483,11.630000,98.437500,1523521519.999644,
1523521520.069354,-0.676916,-0.038358,-1.758038,0.167940,-0.034447,-0.106964,-0.625931,0.038349,-0.778934,0.118698,0.136044,-0.164532,-7.005280,30.963554,-5.269714,,,,,,,
1523521520.099322,-0.678558,-0.033876,-1.757235,0.110089,-0.055676,-0.088876,-0.627311,0.033869,-0.778032,0.132133,0.176946,-0.112517,-7.007233,30.813484,-5.344116,,,,,,,
1523521520.129290,-0.678035,-0.031920,-1.759919,-0.053588,0.030218,-0.157278,-0.626944,0.031914,-0.778410,0.134894,0.199211,-0.118013,-6.414597,30.210594,-5.566406,,,,,,,
1523521520.159258,-0.676749,-0.031019,-1.766716,-0.132196,0.018264,-0.243629,-0.625960,0.031014,-0.779237,0.115752,0.202308,-0.148787,-7.544632,29.615837,-5.414612,,,,,,,
1523521520.189227,-0.675166,-0.028818,-1.775539,-0.121922,0.105716,-0.293782,-0.624767,0.028814,-0.780279,0.095363,0.188181,-0.162196,-7.921707,29.317680,-5.263611,,,,,,,
1523521520.219195,-0.671280,-0.026798,-1.783509,-0.097738,0.112571,-0.218125,-0.621765,0.026795,-0.782745,0.105408,0.223556,-0.159150,-7.249435,29.314201,-5.713257,,,,,,,
1523521520.249163,-0.668690,-0.025036,-1.788685,-0.024523,0.108633,-0.136027,-0.619764,0.025034,-0.784388,0.162427,0.246558,-0.082875,-8.525269,28.870552,-5.112122,,,,,,,
1523521520.279131,-0.664212,-0.022689,-1.790670,0.046973,0.171754,-0.072098,-0.616280,0.022687,-0.787200,0.187706,0.233325,-0.083711,-9.126740,28.723259,-5.111816,,,,,,,
1523521520.309100,-0.659133,-0.020649,-1.790871,0.055238,0.151284,-0.035839,-0.612301,0.020647,-0.790355,0.183529,0.181761,-0.118550,-8.150894,28.943642,-5.337219,,,,,,,
1523521520.339068,-0.654714,-0.019200,-1.791153,0.041289,0.104762,-0.063509,-0.608820,0.019199,-0.793075,0.185435,0.167050,-0.154465,-9.721161,28.876595,-4.437744,,,,,,,
1523521520.369006,-0.653451,-0.017355,-1.793232,-0.009027,-0.024155,-0.148658,-0.607839,0.017354,-0.793870,0.165074,0.158793,-0.168456,-9.574310,28.650795,-4.586792,,,,,,,
1523521520.398974,-0.654305,-0.016788,-1.799696,-0.183928,-0.077333,-0.231843,-0.608522,0.016787,-0.793359,0.160325,0.188779,-0.182501,-9.347214,28.500374,-3.986023,,,,,,,
1523521520.428942,-0.657534,-0.019390,-1.811619,-0.387744,-0.112583,-0.284174,-0.611051,0.019389,-0.791353,0.143003,0.203985,-0.184355,-10.243729,28.579857,-3.536865,,,,,,,
1523521520.458910,-0.660846,-0.024282,-1.826566,-0.435634,-0.092207,-0.294879,-0.613603,0.024279,-0.789240,0.180864,0.233548,-0.117345,-10.316010,28.580635,-3.086853,,,,,,,
1523521520.488879,-0.662130,-0.028401,-1.840787,-0.360432,0.017005,-0.288536,-0.614550,0.028397,-0.788366,0.157900,0.228683,-0.090525,-10.317963,28.430565,-3.161255,,,,,,,
1523521520.518847,-0.661072,-0.029544,-1.853418,-0.238436,0.048792,-0.317255,-0.613695,0.029539,-0.788990,0.117861,0.182344,-0.108425,-11.660706,28.662422,-2.337891,,,,,,,
1523521520.548815,-0.661768,-0.028881,-1.864948,-0.217617,-0.053417,-0.299007,-0.614256,0.028877,-0.788577,0.109618,0.153694,-0.114514,-12.111725,28.739159,-2.638367,,,,,,,
1523521520.578773,-0.663248,-0.029764,-1.874911,-0.206137,-0.032631,-0.234037,-0.615406,0.029759,-0.787648,0.091374,0.160960,-0.110164,-12.331482,28.815895,-1.888794,,,,,,,
1523521520.608742,-0.664465,-0.029897,-1.882745,-0.104995,-0.066027,-0.206217,-0.616362,0.029893,-0.786895,0.098097,0.173278,-0.131379,-11.951248,29.114555,-1.514832,,,,,,,
1523521520.638710,-0.665854,-0.028291,-1.888427,-0.058043,-0.040815,-0.180640,-0.617483,0.028288,-0.786075,0.164923,0.193148,-0.112912,-12.556320,28.966682,-2.114502,,,,,,,
1523521520.668678,-0.666803,-0.027450,-1.894932,-0.151748,-0.023322,-0.215899,-0.618243,0.027447,-0.785507,0.141986,0.207157,-0.092072,-11.650360,29.113350,-1.364624,,,,,,,
1523521520.698646,-0.666027,-0.028070,-1.904611,-0.249472,0.035665,-0.259712,-0.617623,0.028067,-0.785973,0.132302,0.184778,-0.134559,-12.772018,29.268700,-1.065796,,,,,,,
1523521520.728615,-0.666022,-0.030651,-1.916413,-0.323298,-0.014056,-0.268223,-0.617573,0.030646,-0.785916,0.118076,0.158685,-0.147220,-12.546844,28.743599,-0.163635,,,,,,,
1523521520.758583,-0.665642,-0.032988,-1.928785,-0.283540,0.018954,-0.290612,-0.617228,0.032982,-0.786092,0.088175,0.195640,-0.154643,-12.022339,29.190407,-0.990112,,,,,,,
1523521520.788551,-0.666389,-0.034234,-1.940711,-0.287962,-0.009744,-0.287393,-0.617789,0.034227,-0.785598,0.095282,0.215071,-0.101655,-12.919296,29.045189,-0.239990,,,,,,,
1523521520.818520,-0.665936,-0.035359,-1.952695,-0.252512,0.030591,-0.293800,-0.617409,0.035351,-0.785847,0.117516,0.195636,-0.080074,-13.299210,28.596825,-0.313416,,,,,,,
1523521520.848457,-0.666219,-0.035068,-1.963688,-0.188632,-0.024699,-0.309691,-0.617638,0.035060,-0.785680,0.116494,0.213231,-0.056605,-13.591537,28.824043,0.585510,,,,,,,
1523521520.878426,-0.666410,-0.034238,-1.974838,-0.225757,0.013683,-0.318261,-0.617806,0.034231,-0.785585,0.109642,0.211268,-0.066817,-13.743195,28.749580,0.435791,,,,,,,
1523521520.908394,-0.665452,-0.035637,-1.987252,-0.320708,0.045740,-0.307722,-0.617022,0.035629,-0.786138,0.095614,0.208115,-0.081553,-13.594070,28.524132,0.661743,,,,,,,
1523521520.938362,-0.664147,-0.037961,-2.000462,-0.293957,0.047853,-0.316224,-0.615944,0.037952,-0.786875,0.079841,0.237271,-0.105810,-14.795685,28.229759,0.887329,,,,,,,
1523521520.968330,-0.663767,-0.038085,-2.012887,-0.220366,-0.007352,-0.349147,-0.615641,0.038076,-0.787106,0.050288,0.236415,-0.149158,-14.795074,28.154976,1.112610,,,,,,,
1523521520.998299,-0.665100,-0.037199,-2.024910,-0.238909,-0.081750,-0.339501,-0.616710,0.037190,-0.786311,0.061611,0.255076,-0.132024,-14.042709,28.301750,1.262451,,,,,,,
1523521521.028267,-0.668667,-0.038071,-2.038979,-0.370031,-0.069555,-0.366243,-0.619491,0.038061,-0.784080,0.053329,0.261377,-0.049538,-14.571442,27.929131,1.263672,,,,,,,
1523521521.058235,-0.670172,-0.040469,-2.056127,-0.431485,-0.032862,-0.424930,-0.620612,0.040458,-0.783073,0.027381,0.248589,-0.033196,-15.314362,28.008522,2.312927,,,,,,,
,,,,,,,,,,,,,,,,25.320086,51.453081,17.599087,8.030000,111.093750,1523521520.999663,
1523521521.088203,-0.673414,-0.041737,-2.074355,-0.395383,-0.118770,-0.461045,-0.623115,0.041725,-0.781016,0.026191,0.238136,0.003092,-15.241608,27.783195,2.313904,,,,,,,
1523521521.118172,-0.678782,-0.042133,-2.092545,-0.379540,-0.160240,-0.463119,-0.627288,0.042121,-0.777647,0.040160,0.219689,0.048689,-16.285400,27.863792,3.213013,,,,,,,
1523521521.148140,-0.682874,-0.042384,-2.109734,-0.332313,-0.092436,-0.451428,-0.630458,0.042372,-0.775066,0.026195,0.228762,0.067897,-16.591507,27.115395,3.440918,,,,,,,
1523521521.178108,-0.684953,-0.043369,-2.126681,-0.381205,-0.017037,-0.428096,-0.632041,0.043355,-0.773721,-0.009926,0.231715,0.047631,-16.214264,27.114082,3.816101,,,,,,,
1523521521.208076,-0.685407,-0.046990,-2.143871,-0.437872,0.037946,-0.367468,-0.632289,0.046972,-0.773307,-0.018971,0.229654,0.018989,-16.965271,26.967522,3.891296,,,,,,,
1523521521.238045,-0.683815,-0.050872,-2.158541,-0.316334,0.080694,-0.294958,-0.630938,0.050850,-0.774165,0.002459,0.239585,-0.016683,-16.888306,26.668007,4.717468,,,,,,,
1523521521.268013,-0.685274,-0.051308,-2.169058,-0.118474,-0.080240,-0.295719,-0.632052,0.051285,-0.773227,0.051623,0.299514,0.025546,-17.039078,26.818306,4.341797,,,,,,,
1523521521.297981,-0.689756,-0.047429,-2.177047,0.020016,-0.178168,-0.321089,-0.635633,0.047411,-0.770534,0.073240,0.314390,0.060359,-18.159515,26.599480,5.467163,,,,,,,
1523521521.327919,-0.694784,-0.039628,-2.182914,0.153901,-0.119843,-0.351947,-0.639717,0.039617,-0.767589,0.085335,0.301478,0.057018,-18.686584,26.526619,5.242188,,,,,,,
1523521521.357887,-0.696530,-0.030192,-2.188683,0.128012,-0.016283,-0.413861,-0.641268,0.030188,-0.766723,0.041445,0.291101,0.002151,-18.763824,26.301979,5.243042,,,,,,,
1523521521.387855,-0.696335,-0.023510,-2.198196,-0.083173,0.013059,-0.431102,-0.641233,0.023508,-0.766986,0.012937,0.266180,-0.073865,-18.615021,25.776985,5.920227,,,,,,,
1523521521.417824,-0.693706,-0.023417,-2.213196,-0.432779,0.173129,-0.404879,-0.639216,0.023415,-0.768671,-0.042318,0.261818,-0.172186,-19.068436,25.478951,5.846130,,,,,,,
1523521521.447792,-0.686925,-0.030227,-2.231839,-0.591147,0.235379,-0.284659,-0.633873,0.030222,-0.772846,-0.083016,0.241766,-0.345882,-18.613983,25.702278,6.220520,,,,,,,
1523521521.477760,-0.684851,-0.035680,-2.245711,-0.293702,-0.018742,-0.215989,-0.632155,0.035673,-0.774020,-0.030305,0.260363,-0.253308,-19.444763,25.031166,6.372803,,,,,,,
1523521521.507729,-0.686904,-0.034112,-2.251822,0.047640,-0.049563,-0.183744,-0.633778,0.034105,-0.772763,0.044315,0.286268,-0.082553,-19.739944,25.332787,6.671448,,,,,,,
1523521521.537697,-0.685762,-0.027003,-2.253405,0.180657,0.087187,-0.184846,-0.633032,0.027000,-0.773654,0.081320,0.224297,-0.038052,-19.514816,25.481560,6.445984,,,,,,,
1523521521.567664,-0.684128,-0.021510,-2.255293,0.016738,0.012884,-0.139068,-0.631851,0.021508,-0.774791,0.079773,0.158317,-0.025365,-20.412979,25.261269,7.121399,,,,,,,
1523521521.597632,-0.684650,-0.022507,-2.260480,-0.238747,-0.023865,-0.111518,-0.632241,0.022505,-0.774444,0.030893,0.154268,0.023117,-20.639603,25.187141,6.971558,,,,,,,
1523521521.627601,-0.685551,-0.027504,-2.272353,-0.453338,0.001350,-0.297108,-0.632860,0.027501,-0.773777,-0.015455,0.147334,0.000218,-20.184967,25.111000,7.872070,,,,,,,
1523521521.657569,-0.685827,-0.032345,-2.290750,-0.497921,-0.070009,-0.408951,-0.632982,0.032339,-0.773490,0.006151,0.161737,-0.098931,-20.786896,24.963631,7.797363,,,,,,,
1523521521.687537,-0.689211,-0.035853,-2.309013,-0.441318,-0.058518,-0.401459,-0.635519,0.035846,-0.771252,0.029440,0.252591,-0.086643,-21.538361,24.592384,8.173462,,,,,,,
1523521521.717505,-0.690937,-0.037575,-2.324762,-0.297292,-0.048448,-0.372597,-0.636810,0.037566,-0.770105,0.073608,0.345415,-0.055197,-20.787323,24.514305,8.474182,,,,,,,
1523521521.747474,-0.693434,-0.034180,-2.336671,-0.078483,-0.093449,-0.397957,-0.638809,0.034173,-0.768606,0.067367,0.314765,-0.036585,-22.132751,24.521111,9.223450,,,,,,,
1523521521.777442,-0.697351,-0.027457,-2.346098,-0.014778,-0.142655,-0.373357,-0.641948,0.027454,-0.766257,0.073725,0.280423,-0.065820,-21.984848,24.220604,9.374756,,,,,,,
1523521521.807380,-0.702467,-0.021795,-2.355552,-0.106744,-0.162702,-0.361680,-0.645949,0.021793,-0.763069,0.071043,0.304959,-0.059486,-21.994583,23.470268,9.002747,,,,,,,
1523521521.837348,-0.707566,-0.018808,-2.367733,-0.230299,-0.154640,-0.408652,-0.649871,0.018807,-0.759811,0.111709,0.371498,-0.051315,-23.344666,22.877327,9.979431,,,,,,,
1523521521.867316,-0.710881,-0.017111,-2.384371,-0.374668,-0.070784,-0.496218,-0.652406,0.017110,-0.757676,0.130387,0.361399,-0.064391,-23.341812,23.027534,10.203857,,,,,,,
1523521521.897284,-0.711537,-0.018174,-2.405009,-0.521631,0.016722,-0.495360,-0.652891,0.018173,-0.757234,0.057020,0.300598,-0.148558,-23.194351,22.502327,10.656067,,,,,,,
1523521521.927253,-0.711439,-0.022187,-2.426401,-0.574344,-0.007953,-0.442104,-0.652763,0.022185,-0.757237,0.072853,0.338121,-0.192623,-23.716324,22.580040,11.030457,,,,,,,
1523521521.957221,-0.712623,-0.024823,-2.445939,-0.400483,-0.041374,-0.436606,-0.653619,0.024821,-0.756416,0.099099,0.338903,-0.128624,-23.947449,22.055946,10.882446,,,,,,,
1523521521.987189,-0.715962,-0.022244,-2.460761,-0.198117,-0.132302,-0.421449,-0.656181,0.022242,-0.754275,0.075874,0.290807,-0.081784,-23.871109,22.055824,11.107483,,,,,,,
1523521522.017157,-0.718937,-0.019219,-2.476005,-0.332002,-0.046639,-0.468511,-0.658463,0.019218,-0.752367,0.020569,0.185646,-0.105985,-24.702194,21.309792,11.335083,,,,,,,
1523521522.047126,-0.719953,-0.020319,-2.496213,-0.577322,-0.010837,-0.485782,-0.659213,0.020318,-0.751681,-0.005750,0.188774,-0.194745,-25.524765,21.014397,12.235779,,,,,,,
,,,,,,,,,,,,,,,,25.320060,51.453126,17.307034,7.730000,116.367188,1523521521.999572,
1523521522.077094,-0.722392,-0.026965,-2.521562,-0.814657,-0.075094,-0.481632,-0.660940,0.026962,-0.749953,0.051596,0.264221,-0.151429,-24.701889,20.935463,12.011536,,,,,,,
1523521522.107062,-0.725496,-0.034582,-2.547960,-0.691787,-0.077377,-0.501789,-0.663109,0.034575,-0.747723,0.071450,0.312899,-0.070285,-25.603592,20.040718,13.214661,,,,,,,
1523521522.137031,-0.726399,-0.037015,-2.569898,-0.433999,0.045135,-0.486800,-0.663726,0.037006,-0.747059,0.107559,0.338345,-0.079754,-26.354477,20.043953,13.064270,,,,,,,
1523521522.166999,-0.726349,-0.033145,-2.585884,-0.147042,-0.009775,-0.486530,-0.663780,0.033139,-0.747193,0.103034,0.303165,-0.047439,-26.504150,19.445686,14.116577,,,,,,,
1523521522.196967,-0.726407,-0.025859,-2.598705,-0.113859,0.031451,-0.467368,-0.663966,0.025856,-0.747315,0.072260,0.264458,-0.036361,-26.584686,19.070747,13.818054,,,,,,,
1523521522.226935,-0.725702,-0.020937,-2.612365,-0.196267,-0.001365,-0.456736,-0.663515,0.020935,-0.747870,0.114091,0.264724,-0.038599,-25.987534,18.693199,13.969910,,,,,,,
1523521522.256904,-0.726373,-0.017219,-2.626800,-0.219641,-0.009609,-0.485512,-0.664064,0.017218,-0.747477,0.127153,0.305292,-0.036062,-26.967453,18.022911,14.272095,,,,,,,
1523521522.286841,-0.725075,-0.013821,-2.643040,-0.252275,0.067138,-0.507990,-0.663128,0.013820,-0.748378,0.133511,0.333317,-0.087331,-28.089844,17.878639,14.947083,,,,,,,
1523521522.316810,-0.722732,-0.010966,-2.659733,-0.327979,0.101265,-0.498493,-0.661396,0.010966,-0.749956,0.096409,0.322317,-0.144987,-27.648239,17.126518,14.800354,,,,,,,
1523521522.346778,-0.715952,-0.014061,-2.679602,-0.638361,0.297844,-0.388105,-0.656271,0.014061,-0.754394,-0.016321,0.237801,-0.296662,-28.397461,17.204887,14.799622,,,,,,,
1523521522.376746,-0.708303,-0.025758,-2.701550,-0.812601,0.164526,-0.257035,-0.650330,0.025756,-0.759214,0.037552,0.176683,-0.379686,-28.177994,16.603966,14.877136,,,,,,,
1523521522.406714,-0.712382,-0.035091,-2.718677,-0.420842,-0.271376,-0.210492,-0.653236,0.035084,-0.756341,0.193900,0.334484,-0.090812,-28.253586,16.454460,15.027710,,,,,,,
1523521522.436683,-0.719526,-0.034571,-2.729323,-0.130872,-0.073368,-0.364978,-0.658634,0.034564,-0.751669,0.108188,0.265241,0.013708,-29.002502,16.158501,15.703491,,,,,,,
1523521522.466651,-0.715511,-0.030531,-2.741923,-0.262057,0.183091,-0.372784,-0.655697,0.030527,-0.754406,0.017605,0.031653,-0.258595,-29.008942,15.783089,15.255005,,,,,,,
1523521522.496619,-0.717927,-0.035771,-2.756581,-0.610754,-0.225304,-0.196830,-0.657404,0.035763,-0.752689,0.040308,0.023075,-0.211148,-28.555786,15.556953,16.156128,,,,,,,
1523521522.526587,-0.723864,-0.047844,-2.776731,-0.784397,-0.071896,-0.343089,-0.661527,0.047825,-0.748394,0.001935,0.137432,-0.153354,-29.460098,15.036171,16.307800,,,,,,,
1523521522.556556,-0.726593,-0.053174,-2.800913,-0.557235,-0.106206,-0.530425,-0.663388,0.053149,-0.746386,0.024716,0.175504,-0.207289,-29.465027,14.361488,16.610474,,,,,,,
1523521522.586514,-0.733684,-0.052809,-2.821088,-0.364720,-0.217539,-0.483276,-0.668676,0.052784,-0.741677,0.085485,0.204601,-0.217673,-28.643188,14.132652,16.461792,,,,,,,
1523521522.616482,-0.739287,-0.048799,-2.836167,-0.170030,-0.137239,-0.486413,-0.672959,0.048780,-0.738069,0.070267,0.301943,-0.181014,-29.845993,13.313972,17.364502,,,,,,,
1523521522.646450,-0.742499,-0.043022,-2.851589,-0.269878,-0.038089,-0.498304,-0.675505,0.043009,-0.736099,0.092574,0.251684,-0.155579,-30.147156,13.015617,17.665527,,,,,,,
1523521522.676419,-0.745755,-0.040182,-2.867788,-0.294030,-0.141374,-0.459857,-0.677979,0.040172,-0.733983,0.150116,0.291097,-0.118572,-29.324280,12.936699,17.441284,,,,,,,
1523521522.706387,-0.751116,-0.037820,-2.883635,-0.319865,-0.166925,-0.442807,-0.681966,0.037811,-0.730405,0.173101,0.294862,-0.067218,-30.750565,12.493645,17.967285,,,,,,,
1523521522.736355,-0.756660,-0.035712,-2.900243,-0.326962,-0.118872,-0.473762,-0.686058,0.035705,-0.726669,0.161507,0.295838,-0.042465,-30.526459,12.267845,18.193359,,,,,,,
1523521522.766293,-0.759057,-0.033119,-2.915037,-0.211918,-0.084677,-0.391658,-0.687860,0.033113,-0.725087,0.197167,0.307875,-0.171443,-29.706116,11.664391,18.421143,,,,,,,
1523521522.796261,-0.761084,-0.030902,-2.929035,-0.372257,0.032029,-0.460090,-0.689377,0.030897,-0.723743,0.065857,0.356981,-0.152188,-30.758759,10.994804,19.098267,,,,,,,
1523521522.826229,-0.757045,-0.034681,-2.952055,-0.772996,0.151188,-0.491403,-0.686363,0.034674,-0.726431,0.027290,0.207727,-0.427209,-31.211136,10.622063,19.324585,,,,,,,
1523521522.856198,-0.758875,-0.044212,-2.978778,-0.817864,-0.195872,-0.380287,-0.687433,0.044198,-0.724901,0.141062,0.261512,-0.370009,-30.393814,10.167870,18.801758,,,,,,,
1523521522.886166,-0.769817,-0.049350,-2.999050,-0.450097,-0.358120,-0.407547,-0.695156,0.049330,-0.717164,0.201916,0.376284,-0.080276,-30.697693,9.195213,19.780518,,,,,,,
1523521522.916134,-0.780124,-0.045973,-3.014616,-0.167531,-0.305099,-0.493689,-0.702624,0.045956,-0.710075,0.289858,0.340488,0.029991,-31.073563,8.972130,20.006226,,,,,,,
1523521522.946103,-0.789542,-0.034937,-3.028201,-0.042622,-0.245896,-0.646028,-0.709597,0.034929,-0.703741,0.196566,0.204618,0.090536,-30.323730,8.594353,20.608093,,,,,,,
1523521522.976071,-0.794431,-0.024516,-3.045641,-0.331084,-0.102456,-0.692212,-0.713251,0.024513,-0.700480,0.047586,0.173714,-0.004415,-30.702286,7.921593,21.135620,,,,,,,
1523521523.006039,-0.795528,-0.023233,-3.076650,-1.024859,0.067829,-0.788790,-0.714041,0.023231,-0.699719,-0.089777,0.100914,-0.167484,-31.091034,6.498421,21.216125,,,,,,,
1523521523.036007,-0.796695,-0.035877,-3.118790,-1.367489,-0.145300,-0.581050,-0.714590,0.035869,-0.698624,0.006048,0.233296,-0.383423,-30.199600,5.819115,20.919250,,,,,,,
1523521523.065976,-0.805741,-0.050045,3.128748,-1.006440,-0.171665,-0.433716,-0.720441,0.050024,-0.691710,0.126386,0.369669,-0.298006,-31.031311,5.147850,20.921509,,,,,,,
,,,,,,,,,,,,,,,,25.319978,51.453244,16.688381,8.250000,123.046875,1523521522.999501,
1523521523.095944,-0.807745,-0.053947,3.109081,-0.247012,0.000090,-0.344885,-0.721679,0.053921,-0.690124,0.192977,0.490360,-0.159989,-30.666656,4.245995,20.700317,,,,,,,
1523521523.125912,-0.802753,-0.045651,3.102372,0.138922,0.309640,-0.377938,-0.718522,0.045635,-0.694006,0.192673,0.347782,-0.050410,-30.592545,4.245506,20.550354,,,,,,,
1523521523.155880,-0.793741,-0.035658,3.098628,0.047360,0.212682,-0.307588,-0.712528,0.035651,-0.700738,0.142490,0.140619,-0.178443,-31.192947,3.798882,21.226868,,,,,,,
1523521523.185849,-0.790662,-0.031328,3.085706,-0.411069,0.109072,-0.524120,-0.710470,0.031323,-0.703030,0.037176,0.097431,-0.243869,-31.646988,3.575630,20.927490,,,,,,,
1523521523.215817,-0.791957,-0.030791,3.062656,-0.560644,-0.195235,-0.564421,-0.711392,0.030787,-0.702121,0.129315,0.231512,-0.368222,-30.980515,2.448082,21.382324,,,,,,,
1523521523.245755,-0.802147,-0.030558,3.038049,-0.664201,-0.229815,-0.596432,-0.718515,0.030553,-0.694840,0.074579,0.383677,-0.316467,-30.839508,1.547462,21.386047,,,,,,,
1523521523.275723,-0.802684,-0.033625,3.010495,-0.740064,0.059008,-0.540305,-0.718817,0.033618,-0.694386,0.158621,0.325101,-0.425319,-31.223495,1.098427,20.637634,,,,,,,
1523521523.305691,-0.804478,-0.036678,2.988617,-0.494811,-0.061749,-0.379102,-0.719984,0.036670,-0.693021,0.231794,0.342328,-0.176150,-30.404068,0.494820,20.715454,,,,,,,
1523521523.335659,-0.806079,-0.036639,2.971576,-0.389510,-0.006171,-0.461133,-0.721094,0.036631,-0.691869,0.246850,0.300924,0.039174,-30.935608,-0.477257,21.244141,,,,,,,
1523521523.365628,-0.805185,-0.032287,2.953105,-0.324440,0.094286,-0.566668,-0.720583,0.032282,-0.692617,0.195452,0.137457,-0.002299,-30.419342,-1.080025,20.796753,,,,,,,
1523521523.395596,-0.805254,-0.028063,2.935206,-0.377900,-0.052862,-0.474927,-0.720722,0.028059,-0.692656,0.131810,0.044557,-0.082292,-29.893906,-0.857689,20.496155,,,,,,,
1523521523.425564,-0.808896,-0.028528,2.916654,-0.528982,-0.121899,-0.428073,-0.723231,0.028524,-0.690017,0.086466,0.090998,-0.090302,-30.945786,-1.452278,21.172974,,,,,,,
1523521523.455532,-0.813460,-0.030033,2.896309,-0.514187,-0.165430,-0.437614,-0.726341,0.030029,-0.686678,0.141166,0.159562,-0.154844,-30.956268,-2.277611,20.801270,,,,,,,
1523521523.485501,-0.817950,-0.030569,2.876630,-0.508435,-0.094120,-0.455797,-0.729404,0.030564,-0.683399,0.171604,0.261932,-0.139187,-29.984467,-2.731758,21.028564,,,,,,,
1523521523.515469,-0.819176,-0.031196,2.856631,-0.486664,-0.004891,-0.459068,-0.730228,0.031191,-0.682491,0.198734,0.324613,-0.141697,-30.071289,-3.556953,20.431824,,,,,,,
1523521523.545437,-0.818130,-0.031268,2.837022,-0.492740,0.081111,-0.447436,-0.729512,0.031263,-0.683253,0.171697,0.275499,-0.167272,-29.254105,-4.160927,20.134705,,,,,,,
1523521523.575401,-0.816806,-0.032623,2.817308,-0.510063,0.030159,-0.447406,-0.728575,0.032617,-0.684188,0.144331,0.274131,-0.125870,-29.180740,-4.461037,20.360901,,,,,,,
1523521523.605369,-0.816044,-0.033397,2.796990,-0.490540,0.037891,-0.497472,-0.728035,0.033391,-0.684726,0.146370,0.212398,-0.128308,-29.791214,-5.508278,20.364807,,,,,,,
1523521523.635337,-0.816933,-0.032116,2.777993,-0.386419,-0.076084,-0.496207,-0.728674,0.032110,-0.684107,0.106787,0.291193,-0.118490,-29.421631,-5.735466,19.840881,,,,,,,
1523521523.665305,-0.816443,-0.029171,2.757837,-0.468492,0.091583,-0.584886,-0.728404,0.029167,-0.684526,0.083415,0.222771,-0.208586,-28.903824,-6.412865,19.768860,,,,,,,
1523521523.695274,-0.817401,-0.027596,2.736835,-0.487094,-0.105798,-0.464297,-0.729093,0.027592,-0.683858,0.152539,0.268901,-0.249293,-28.610870,-7.164116,19.846985,,,,,,,
1523521523.725242,-0.819447,-0.029338,2.717099,-0.562481,0.048068,-0.409090,-0.730454,0.029334,-0.682331,0.163544,0.302102,-0.173305,-27.575012,-7.994743,18.875854,,,,,,,
1523521523.755180,-0.818414,-0.030555,2.698227,-0.429154,0.009557,-0.418549,-0.729722,0.030550,-0.683061,0.159074,0.276182,-0.170287,-28.480621,-8.740379,19.178345,,,,,,,
1523521523.785148,-0.818361,-0.028471,2.682282,-0.304050,0.049658,-0.421701,-0.729730,0.028467,-0.683142,0.146967,0.158453,-0.191584,-28.256256,-8.666603,18.953186,,,,,,,
1523521523.815116,-0.817792,-0.026022,2.668246,-0.335371,0.003793,-0.388631,-0.729390,0.026019,-0.683602,0.126958,0.162076,-0.221976,-27.436829,-9.045586,18.655151,,,,,,,
1523521523.845084,-0.818168,-0.027418,2.648593,-0.661631,0.021061,-0.461354,-0.729620,0.027415,-0.683303,0.088964,0.175481,-0.221910,-27.742493,-9.344658,18.206177,,,,,,,
1523521523.875053,-0.819345,-0.031808,2.623401,-0.713109,-0.067851,-0.493264,-0.730329,0.031803,-0.682354,0.168287,0.162976,-0.246219,-27.902100,-10.169167,17.984375,,,,,,,
1523521523.905021,-0.823468,-0.032855,2.600225,-0.525235,-0.092665,-0.506949,-0.733111,0.032849,-0.679315,0.189639,0.225558,-0.141166,-26.706940,-10.474846,17.686157,,,,,,,
1523521523.934989,-0.824172,-0.032130,2.579756,-0.505283,0.076203,-0.501777,-0.733607,0.032124,-0.678814,0.161234,0.205241,-0.075794,-27.241196,-11.447365,17.764832,,,,,,,
1523521523.964957,-0.821444,-0.032389,2.558378,-0.533179,0.068677,-0.480472,-0.731746,0.032383,-0.680807,0.128948,0.167522,-0.126718,-26.947952,-11.674431,17.015869,,,,,,,
1523521523.994926,-0.821103,-0.033497,2.537593,-0.545122,0.007204,-0.497476,-0.731487,0.033491,-0.681032,0.109096,0.157153,-0.112410,-25.604599,-11.981071,16.417786,,,,,,,
1523521524.024894,-0.821077,-0.033951,2.516378,-0.489817,-0.023858,-0.482483,-0.731458,0.033945,-0.681041,0.154935,0.231055,-0.120488,-26.212219,-12.653481,16.270142,,,,,,,
1523521524.054862,-0.823470,-0.033629,2.498058,-0.412387,-0.112397,-0.461025,-0.733094,0.033622,-0.679296,0.160065,0.323525,-0.077372,-25.917603,-13.329582,16.497986,,,,,,,
,,,,,,,,,,,,,,,,25.319938,51.453164,16.366634,4.360000,201.445312,1523521523.999511,
1523521524.084830,-0.825572,-0.031086,2.479980,-0.344570,-0.054827,-0.514296,-0.734581,0.031081,-0.677809,0.165534,0.327134,-0.130128,-24.794144,-13.484642,16.499146,,,,,,,
1523521524.114799,-0.827169,-0.026877,2.463459,-0.289200,-0.064646,-0.496139,-0.735752,0.026873,-0.676717,0.171299,0.286237,-0.148692,-25.249222,-13.857811,16.275452,,,,,,,
1523521524.144767,-0.827560,-0.023955,2.446920,-0.374348,0.006700,-0.486690,-0.736071,0.023953,-0.676480,0.145877,0.282291,-0.121829,-24.734451,-14.610573,15.828735,,,,,,,
1523521524.174735,-0.827634,-0.022800,2.427275,-0.475779,-0.028970,-0.516561,-0.736141,0.022799,-0.676444,0.117840,0.252546,-0.129312,-23.910675,-14.689354,15.754395,,,,,,,
1523521524.204703,-0.828269,-0.022005,2.406124,-0.508802,-0.024549,-0.528316,-0.736583,0.022004,-0.675988,0.089855,0.224792,-0.155463,-23.766525,-15.140236,15.531311,,,,,,,
1523521524.234641,-0.830036,-0.021574,2.384545,-0.524073,-0.075657,-0.509091,-0.737784,0.021573,-0.674692,0.102484,0.228733,-0.146063,-23.848709,-15.590309,15.083069,,,,,,,
1523521524.264609,-0.831842,-0.021771,2.362915,-0.567588,-0.022373,-0.514511,-0.738998,0.021769,-0.673356,0.097289,0.249364,-0.115356,-22.361954,-16.422829,14.262146,,,,,,,
1523521524.294578,-0.832707,-0.022659,2.340243,-0.578374,-0.029916,-0.497453,-0.739565,0.022657,-0.672703,0.069048,0.259493,-0.120067,-22.514648,-16.647209,14.187988,,,,,,,
1523521524.324546,-0.834080,-0.023026,2.317809,-0.581430,-0.010674,-0.511336,-0.740482,0.023024,-0.671681,0.045246,0.227755,-0.097896,-22.374100,-17.098656,13.364868,,,,,,,
1523521524.354514,-0.835080,-0.022772,2.295280,-0.533579,-0.056484,-0.512314,-0.741158,0.022770,-0.670944,0.053536,0.188732,-0.109711,-22.009750,-17.850822,12.843018,,,,,,,
1523521524.384483,-0.838569,-0.021317,2.274516,-0.446444,-0.121688,-0.488740,-0.743518,0.021315,-0.668376,0.067142,0.225679,-0.069524,-21.189301,-18.079903,12.469360,,,,,,,
1523521524.414451,-0.841428,-0.020174,2.254999,-0.465348,-0.035665,-0.474990,-0.745444,0.020173,-0.666263,0.050207,0.235763,-0.015316,-21.191391,-18.379738,12.620605,,,,,,,
1523521524.444419,-0.840257,-0.019627,2.235172,-0.450115,0.060806,-0.447376,-0.744671,0.019626,-0.667143,0.031170,0.179501,-0.051516,-20.074539,-18.610725,11.647034,,,,,,,
1523521524.474387,-0.840027,-0.018746,2.218054,-0.367427,-0.022590,-0.404603,-0.744530,0.018745,-0.667326,0.016228,0.166298,-0.031252,-20.458054,-19.508934,11.725464,,,,,,,
1523521524.504356,-0.839535,-0.018566,2.201372,-0.413142,0.039055,-0.389786,-0.744204,0.018565,-0.667694,0.010333,0.160207,-0.077255,-20.607758,-19.208702,11.274170,,,,,,,
1523521524.534324,-0.841091,-0.018803,2.185439,-0.369081,-0.109984,-0.367221,-0.745239,0.018802,-0.666532,0.032776,0.182462,-0.058688,-18.812775,-19.442223,10.826050,,,,,,,
1523521524.564291,-0.844118,-0.018303,2.170943,-0.332596,-0.049601,-0.352345,-0.747260,0.018302,-0.664280,0.038443,0.177728,-0.033413,-19.491028,-19.814110,10.902100,,,,,,,
1523521524.594259,-0.843155,-0.017094,2.158245,-0.270283,0.063742,-0.325762,-0.746636,0.017093,-0.665013,0.044960,0.184842,-0.034923,-19.492676,-19.889244,10.752441,,,,,,,
1523521524.624228,-0.841223,-0.015889,2.147360,-0.219360,0.052638,-0.274575,-0.745365,0.015888,-0.666467,0.051288,0.197262,-0.031150,-18.299789,-20.195274,10.079285,,,,,,,
1523521524.654196,-0.840381,-0.015262,2.137473,-0.269832,0.011179,-0.254325,-0.744811,0.015261,-0.667101,0.030989,0.179655,-0.050733,-18.826248,-20.342918,10.079651,,,,,,,
1523521524.684164,-0.841264,-0.017051,2.124967,-0.376633,-0.021361,-0.274611,-0.745378,0.017051,-0.666424,0.046174,0.195672,-0.034504,-18.753952,-20.568321,10.005554,,,,,,,
1523521524.714132,-0.839155,-0.019274,2.111525,-0.369375,0.140327,-0.300349,-0.743940,0.019273,-0.667968,0.067335,0.209746,0.016158,-18.380463,-20.495369,9.630432,,,,,,,
1523521524.744070,-0.832163,-0.022117,2.096713,-0.457497,0.258419,-0.290935,-0.739208,0.022115,-0.673113,0.051739,0.193827,-0.022703,-18.387512,-21.020638,9.332581,,,,,,,
1523521524.774038,-0.825068,-0.025942,2.081664,-0.430112,0.210351,-0.263172,-0.734347,0.025939,-0.678279,0.037447,0.181397,-0.054006,-17.646393,-21.100334,7.983215,,,,,,,
1523521524.804007,-0.820794,-0.029250,2.068503,-0.329003,0.119884,-0.278985,-0.731374,0.029246,-0.681349,-0.008143,0.164236,-0.062441,-18.250732,-21.622444,8.135010,,,,,,,
1523521524.833975,-0.817229,-0.028657,2.055258,-0.298566,0.142701,-0.362092,-0.728953,0.028653,-0.683964,0.010630,0.176730,-0.081982,-17.652695,-21.550591,7.684998,,,,,,,
1523521524.863943,-0.813844,-0.029392,2.040336,-0.432246,0.124771,-0.334466,-0.726618,0.029388,-0.686413,0.026819,0.164231,-0.057804,-16.610840,-22.005882,7.087402,,,,,,,
1523521524.893911,-0.811750,-0.032319,2.023690,-0.448721,0.047128,-0.316298,-0.725114,0.032314,-0.687870,0.004472,0.156789,-0.028133,-17.065918,-22.154427,6.487732,,,,,,,
1523521524.923880,-0.809979,-0.033831,2.008117,-0.372485,0.116163,-0.338685,-0.723858,0.033824,-0.689119,0.034726,0.162755,0.010194,-17.069214,-22.529335,6.564209,,,,,,,
1523521524.953848,-0.805875,-0.034874,1.991976,-0.438242,0.167582,-0.376069,-0.720998,0.034867,-0.692059,0.013738,0.152511,-0.016498,-16.851120,-22.905846,6.040833,,,,,,,
1523521524.983816,-0.801684,-0.036660,1.974967,-0.421598,0.106770,-0.346168,-0.718045,0.036652,-0.695031,0.000531,0.155594,-0.041084,-16.407150,-23.058586,5.291626,,,,,,,
1523521525.013785,-0.800086,-0.037611,1.958817,-0.380764,0.112279,-0.389822,-0.716909,0.037602,-0.696152,0.024312,0.159191,0.026749,-15.806732,-22.836586,4.991089,,,,,,,
1523521525.043753,-0.796296,-0.036878,1.943615,-0.310241,0.122758,-0.392982,-0.714285,0.036869,-0.698883,0.000051,0.149791,0.007126,-14.760971,-22.767128,4.166321,,,,,,,
,,,,,,,,,,,,,,,,25.319913,51.453108,15.439358,4.340000,209.531250,1523521524.999527,
1523521525.073721,-0.795399,-0.035519,1.930428,-0.246981,0.004292,-0.341670,-0.713692,0.035512,-0.699559,0.004586,0.149562,-0.009060,-15.367386,-23.364464,4.093445,,,,,,,
1523521525.103689,-0.796403,-0.034450,1.918997,-0.238728,-0.021451,-0.309676,-0.714422,0.034443,-0.698867,0.001165,0.157604,-0.017472,-14.544968,-23.443474,3.794128,,,,,,,
1523521525.133658,-0.796176,-0.034597,1.906730,-0.307969,0.040186,-0.286346,-0.714259,0.034590,-0.699026,-0.008779,0.142199,-0.029367,-15.447647,-23.439857,3.343689,,,,,,,
1523521525.163626,-0.797051,-0.035348,1.894629,-0.265759,-0.065147,-0.281947,-0.714852,0.035341,-0.698382,-0.001960,0.117568,-0.018888,-13.798004,-23.522194,3.419800,,,,,,,
1523521525.193594,-0.800406,-0.034083,1.884258,-0.160186,-0.095172,-0.281831,-0.717222,0.034076,-0.696011,0.000364,0.119565,-0.013752,-14.102631,-23.895973,3.271179,,,,,,,
1523521525.223562,-0.802468,-0.032055,1.875441,-0.170743,-0.035818,-0.255267,-0.718704,0.032050,-0.694577,-0.009873,0.116189,0.008008,-13.882614,-24.122414,2.822205,,,,,,,
1523521525.253500,-0.803627,-0.031972,1.865614,-0.261632,-0.041051,-0.234021,-0.719510,0.031967,-0.693746,0.009076,0.095063,0.028096,-13.285782,-24.350258,2.673340,,,,,,,
1523521525.283468,-0.805371,-0.033650,1.854474,-0.279833,-0.055860,-0.237217,-0.720680,0.033644,-0.692451,-0.007805,0.070375,-0.014000,-13.887558,-24.347847,2.373047,,,,,,,
1523521525.313437,-0.810289,-0.033924,1.845117,-0.201443,-0.191025,-0.234889,-0.724070,0.033918,-0.688892,-0.030126,0.074450,-0.008785,-12.618286,-24.653999,1.924927,,,,,,,
1523521525.343405,-0.813756,-0.034451,1.835254,-0.273317,-0.021972,-0.225511,-0.726440,0.034445,-0.686366,-0.025955,0.040873,-0.022237,-12.765594,-24.428261,1.998962,,,,,,,
1523521525.373373,-0.813300,-0.035433,1.824693,-0.261423,0.022600,-0.219168,-0.726102,0.035425,-0.686673,-0.018526,0.038473,-0.040438,-12.468918,-24.579903,1.699707,,,,,,,
1523521525.403341,-0.814428,-0.035256,1.816190,-0.132685,-0.055453,-0.197673,-0.726881,0.035248,-0.685858,-0.038148,0.026290,0.001089,-11.869675,-24.432961,1.324402,,,,,,,
1523521525.433310,-0.816883,-0.032929,1.811018,-0.035881,-0.081495,-0.153895,-0.728621,0.032923,-0.684126,-0.051638,0.011846,0.011885,-12.395279,-24.355843,1.098877,,,,,,,
1523521525.463278,-0.818186,-0.031623,1.808240,-0.058267,0.031615,-0.062388,-0.729542,0.031618,-0.683204,-0.060100,-0.001711,0.011284,-12.544373,-24.355019,1.248779,,,,,,,
1523521525.493246,-0.815225,-0.033346,1.805357,-0.137224,0.095258,-0.017761,-0.727475,0.033340,-0.685324,-0.033771,-0.007263,-0.009516,-11.641724,-23.909370,0.947449,,,,,,,
1523521525.523214,-0.814360,-0.036665,1.801029,-0.228250,0.028553,-0.020950,-0.726797,0.036657,-0.685873,-0.024897,-0.003881,0.002157,-12.168945,-24.132011,0.948059,,,,,,,
1523521525.553183,-0.813288,-0.041602,1.794157,-0.284565,0.053352,-0.051918,-0.725921,0.041590,-0.686519,-0.021836,-0.010493,0.062984,-12.247070,-24.356804,0.798889,,,,,,,
1523521525.583119,-0.812344,-0.042487,1.789480,-0.026129,0.003181,-0.109224,-0.725246,0.042474,-0.687178,-0.018117,0.005621,-0.000642,-11.794724,-23.984062,0.572693,,,,,,,
1523521525.613087,-0.813201,-0.041308,1.785970,-0.092360,-0.002019,-0.103929,-0.725871,0.041296,-0.686590,-0.038961,-0.005010,0.011266,-12.697372,-24.429695,0.873962,,,,,,,
1523521525.643055,-0.813303,-0.040791,1.781988,-0.065457,0.031978,-0.113527,-0.725956,0.040779,-0.686530,-0.035931,-0.004860,0.006705,-12.472092,-24.131172,0.422913,,,,,,,
