timestamp(unix),attitude_roll(radians),attitude_pitch(radians),attitude_yaw(radians),rotation_rate_x(radians/s),rotation_rate_y(radians/s),rotation_rate_z(radians/s),gravity_x(G),gravity_y(G),gravity_z(G),user_acc_x(G),user_acc_y(G),user_acc_z(G),magnetic_field_x(microteslas),magnetic_field_y(microteslas),magnetic_field_z(microteslas),latitude(degree),longitude(degree),altitude(meter),speed(m/s),course(degree),timestamp(unix),User Mark
1522315391.963535,-0.209727,-0.027377,-0.748610,-0.101758,0.039043,0.004541,-0.208115,0.027373,-0.977721,-0.055221,-0.029281,-0.006806,14.969406,1.313152,-9.418640,,,,,,,1
,,,,,,,,,,,,,,,,25.301056,51.443733,11.615809,3.680000,62.929688,1522315390.999228,1
1522315391.993503,-0.210234,-0.029028,-0.748730,-0.041262,-0.012282,0.029143,-0.208601,0.029024,-0.977570,-0.030825,-0.007967,0.028778,15.351120,1.986431,-9.421143,,,,,,,1
1522315392.023472,-0.210478,-0.028254,-0.747506,0.055898,0.002274,0.040919,-0.208844,0.028251,-0.977541,-0.035647,0.000238,0.019838,14.449509,1.690716,-9.195374,,,,,,,1
1522315392.053440,-0.211735,-0.025454,-0.746147,0.113537,-0.034862,0.012232,-0.210088,0.025452,-0.977351,-0.051340,0.008316,0.038798,14.746368,1.464230,-9.344360,,,,,,,1
1522315392.083408,-0.211839,-0.022146,-0.745299,0.117196,0.038609,-0.011278,-0.210207,0.022144,-0.977406,-0.081480,-0.000202,0.014302,15.123581,1.687527,-9.345032,,,,,,,1
,,,,,,,,,,,,,,,,25.301063,51.443775,11.528004,3.350000,68.203125,1522315391.999214,1
1522315392.113377,-0.211616,-0.018038,-0.744778,0.162946,-0.002908,-0.016531,-0.210006,0.018037,-0.977534,-0.099411,0.003280,-0.011114,14.298477,1.766094,-9.495728,,,,,,,1
1522315392.143345,-0.213333,-0.013107,-0.744320,0.164796,-0.069851,-0.018587,-0.211701,0.013107,-0.977247,-0.109421,-0.000824,-0.015368,14.672256,1.689327,-9.570251,,,,,,,1
1522315392.173313,-0.216494,-0.009861,-0.743941,0.069585,-0.087786,-0.000540,-0.214797,0.009861,-0.976609,-0.119569,0.002499,-0.008910,14.442764,1.240368,-9.568542,,,,,,,1
1522315392.203281,-0.220454,-0.009389,-0.743472,-0.006478,-0.109095,0.032467,-0.218663,0.009389,-0.975755,-0.093974,0.014308,0.047136,14.072418,1.617184,-9.420288,,,,,,,1
1522315392.233250,-0.222972,-0.009817,-0.742491,0.017394,-0.017790,0.036648,-0.221118,0.009817,-0.975198,-0.114057,0.014414,0.058633,14.371674,1.540844,-9.419861,,,,,,,1
1522315392.263218,-0.223246,-0.007461,-0.741080,0.143681,0.011854,0.005820,-0.221390,0.007461,-0.975157,-0.128479,0.014390,0.012968,14.594711,1.614391,-9.869995,,,,,,,1
1522315392.293217,-0.225561,-0.003218,-0.740621,0.122076,-0.087705,-0.032458,-0.223652,0.003218,-0.974664,-0.143352,0.000780,-0.029563,13.840851,1.317623,-10.019165,,,,,,,1
1522315392.323185,-0.230577,-0.000981,-0.740976,0.054392,-0.175761,-0.028159,-0.228539,0.000981,-0.973534,-0.158988,-0.007954,-0.009055,13.613907,1.168575,-10.093689,,,,,,,1
1522315392.353153,-0.238058,0.000491,-0.740670,0.066643,-0.248363,0.016676,-0.235816,-0.000491,-0.971798,-0.175821,-0.014875,0.029308,13.686935,1.242794,-10.544006,,,,,,,1
1522315392.383121,-0.245253,0.002851,-0.738379,0.124206,-0.192639,0.081656,-0.242801,-0.002851,-0.970072,-0.196988,-0.012210,0.034327,12.781586,1.021343,-11.068542,,,,,,,1
1522315392.413090,-0.251206,0.007095,-0.734210,0.195738,-0.169580,0.101930,-0.248566,-0.007095,-0.968589,-0.225311,-0.009339,0.026679,12.703598,0.721691,-11.067383,,,,,,,1
1522315392.443058,-0.257206,0.011853,-0.730501,0.149920,-0.202117,0.058254,-0.254362,-0.011853,-0.967036,-0.248141,-0.003620,-0.000127,11.648682,0.500988,-11.517029,,,,,,,1
1522315392.473026,-0.264757,0.013125,-0.728822,-0.025317,-0.247249,0.043237,-0.261653,-0.013125,-0.965073,-0.259191,-0.007612,0.019760,11.722336,0.275814,-11.366028,,,,,,,1
1522315392.502994,-0.270647,0.008795,-0.727838,-0.175520,-0.121793,0.086687,-0.267345,-0.008795,-0.963561,-0.252721,-0.030542,0.063643,12.401657,0.797604,-11.517822,,,,,,,1
1522315392.532963,-0.274623,0.002983,-0.726215,-0.149948,-0.098719,0.118659,-0.271183,-0.002983,-0.962523,-0.234036,-0.038368,0.096892,11.872757,0.499844,-11.666931,,,,,,,1
1522315392.562931,-0.277634,-0.001901,-0.724006,-0.143305,-0.062496,0.103706,-0.274080,0.001901,-0.961705,-0.212568,-0.039132,0.096806,11.572800,0.276562,-11.291199,,,,,,,1
1522315392.592891,-0.279988,-0.007183,-0.723659,-0.190685,0.001892,0.031147,-0.276337,0.007183,-0.961034,-0.232208,-0.067928,0.119832,12.551315,1.171261,-12.194214,,,,,,,1
1522315392.622859,-0.279867,-0.012028,-0.725242,-0.164386,0.097762,-0.013673,-0.276208,0.012028,-0.961023,-0.233726,-0.063801,0.093484,12.481445,1.322170,-11.594910,,,,,,,1
1522315392.652828,-0.279552,-0.014837,-0.726520,-0.090711,0.116619,0.000207,-0.275895,0.014836,-0.961073,-0.217269,-0.036534,-0.040468,11.577896,0.876385,-11.443542,,,,,,,1
1522315392.682796,-0.276181,-0.015838,-0.726348,-0.004188,0.159741,0.031138,-0.272649,0.015838,-0.961983,-0.226298,-0.030959,-0.180809,11.881607,1.250011,-11.444885,,,,,,,1
1522315392.712764,-0.270749,-0.015499,-0.724591,0.011933,0.224308,0.064102,-0.267421,0.015499,-0.963455,-0.226766,-0.078548,-0.271439,12.338196,1.548565,-10.845886,,,,,,,1
1522315392.742733,-0.263927,-0.020740,-0.723417,-0.323669,0.182397,0.096934,-0.260818,0.020739,-0.965165,-0.144196,-0.098192,-0.330260,12.490601,1.473400,-10.320496,,,,,,,1
1522315392.772701,-0.263927,-0.039149,-0.724401,-0.774893,-0.162080,0.132112,-0.260674,0.039139,-0.964633,-0.090202,-0.118347,-0.201566,13.401016,2.294674,-9.948303,,,,,,,1
1522315392.802669,-0.274045,-0.064825,-0.727969,-0.799189,-0.412346,0.069472,-0.270059,0.064779,-0.960662,-0.036017,-0.115545,0.090484,12.431015,2.749111,-9.875610,,,,,,,1
1522315392.832637,-0.287743,-0.081556,-0.733983,-0.430097,-0.421782,-0.080478,-0.282846,0.081466,-0.955699,0.004098,-0.115005,0.290111,12.958969,3.271358,-10.252441,,,,,,,1
1522315392.862606,-0.297245,-0.087137,-0.737990,-0.081154,-0.209172,-0.065515,-0.291776,0.087027,-0.952519,-0.020846,-0.060827,0.318410,13.415085,3.794460,-10.104309,,,,,,,1
1522315392.892574,-0.303121,-0.082680,-0.738576,0.293421,-0.256790,-0.073720,-0.297481,0.082586,-0.951149,-0.138234,0.078944,0.248573,13.111374,3.420834,-10.102966,,,,,,,1
1522315392.922542,-0.310564,-0.069413,-0.737628,0.458633,-0.176950,-0.154649,-0.304860,0.069357,-0.949868,-0.242900,0.201151,0.215905,11.155151,3.203960,-10.778076,,,,,,,1
1522315392.952510,-0.313568,-0.059222,-0.740354,0.148624,-0.086524,-0.209322,-0.307914,0.059187,-0.949571,-0.275933,0.256822,0.244646,11.002167,2.904644,-10.776978,,,,,,,1
1522315392.982479,-0.318316,-0.061597,-0.747573,-0.377224,-0.173629,-0.178724,-0.312374,0.061558,-0.947963,-0.152760,0.253246,0.320887,10.468933,2.531292,-11.525757,,,,,,,1
1522315393.012447,-0.327054,-0.080799,-0.756337,-0.903414,-0.402036,0.000124,-0.320206,0.080711,-0.943903,0.009812,0.253197,0.370081,10.020432,2.683315,-11.526550,,,,,,,1
1522315393.042415,-0.345357,-0.111453,-0.762471,-1.052344,-0.686175,0.264551,-0.336432,0.111223,-0.935116,-0.063592,0.165953,0.450222,10.168930,2.757275,-11.901794,,,,,,,1
,,,,,,,,,,,,,,,,25.301073,51.443802,11.720395,3.350000,65.742188,1522315392.999202,1
1522315393.072383,-0.369719,-0.144100,-0.763219,-1.014371,-0.877388,0.393706,-0.357608,0.143602,-0.922765,-0.102903,0.185118,0.498937,8.887543,2.387585,-12.350952,,,,,,,1
1522315393.102352,-0.392168,-0.174046,-0.764873,-0.836061,-0.578167,0.241165,-0.376419,0.173168,-0.910121,-0.190003,0.085438,0.444850,8.659546,2.537868,-13.101685,,,,,,,1
1522315393.132320,-0.399721,-0.186385,-0.768408,-0.030917,0.006646,-0.096606,-0.382421,0.185308,-0.905215,-0.267268,-0.002935,0.155200,9.036026,2.686169,-13.102051,,,,,,,1
1522315393.162288,-0.397831,-0.166102,-0.766223,1.165825,0.029220,-0.256624,-0.382088,0.165340,-0.909215,-0.362267,0.015309,-0.087642,7.897156,1.565838,-13.548157,,,,,,,1
1522315393.192256,-0.398569,-0.112734,-0.754668,2.103085,-0.167681,-0.394236,-0.385636,0.112495,-0.915767,-0.440444,-0.123604,-0.361165,8.036667,0.515224,-13.543884,,,,,,,1
1522315393.222225,-0.400748,-0.054343,-0.741352,1.650454,0.179312,-0.313957,-0.389531,0.054317,-0.919410,-0.351893,-0.413844,-0.299157,9.520569,-0.467503,-14.589233,,,,,,,1
1522315393.252193,-0.382015,-0.027994,-0.735916,0.273572,0.792017,-0.069459,-0.372645,0.027990,-0.927551,-0.122121,-0.524435,-0.197098,10.352707,-0.020802,-14.140564,,,,,,,1
1522315393.282161,-0.366418,-0.041869,-0.745744,-1.098304,0.297323,-0.105150,-0.357959,0.041856,-0.932798,0.067112,-0.354128,-0.103350,11.489059,0.799618,-13.618286,,,,,,,1
1522315393.312129,-0.354720,-0.086036,-0.756671,-1.550179,0.551588,0.162775,-0.346043,0.085930,-0.934275,0.399892,-0.199302,-0.135229,14.677322,2.963024,-10.850342,,,,,,,1
1522315393.342098,-0.337037,-0.112826,-0.764605,-0.335643,0.802186,0.061133,-0.328589,0.112586,-0.937738,0.288978,-0.173972,-0.142401,15.203323,2.885967,-10.549805,,,,,,,1
1522315393.372066,-0.296227,-0.097537,-0.762047,1.026002,1.735879,-0.223283,-0.290526,0.097382,-0.951899,0.047881,-0.100205,-0.195730,15.441849,3.336391,-9.051514,,,,,,,1
1522315393.402034,-0.241317,-0.050694,-0.757273,1.731571,1.695886,-0.225912,-0.238675,0.050672,-0.969777,-0.134097,0.002612,-0.562420,16.718597,3.106319,-8.374878,,,,,,,1
1522315393.432003,-0.215090,-0.007399,-0.751573,1.158565,0.297808,-0.066173,-0.213429,0.007399,-0.976930,-0.274226,-0.035796,-0.703779,15.964569,2.659786,-8.298523,,,,,,,1
1522315393.461971,-0.215207,0.008515,-0.747481,0.045566,-0.113827,0.081531,-0.213542,-0.008515,-0.976897,-0.171789,-0.017181,-0.505205,15.962631,2.509731,-8.372864,,,,,,,1
1522315393.491939,-0.222632,-0.013504,-0.746412,-1.188671,-0.361820,0.275844,-0.220777,0.013504,-0.975231,-0.008379,0.089996,-0.146199,16.348114,3.333355,-8.000977,,,,,,,1
1522315393.521907,-0.233504,-0.059941,-0.747322,-1.583608,-0.288869,0.318093,-0.230972,0.059905,-0.971114,0.012451,0.090593,0.155395,15.904266,3.860516,-7.853333,,,,,,,1
1522315393.551876,-0.240347,-0.097813,-0.747892,-0.872724,-0.200765,0.227977,-0.236902,0.097658,-0.966613,0.026346,0.091170,0.351516,16.585068,4.756908,-8.381531,,,,,,,1
1522315393.581827,-0.245762,-0.107925,-0.746330,0.030517,-0.150890,0.068769,-0.241880,0.107716,-0.964309,0.043898,0.097866,0.450362,16.650620,4.081173,-8.828796,,,,,,,1
1522315393.611795,-0.245486,-0.100069,-0.743029,0.387170,0.084208,0.057074,-0.241812,0.099902,-0.965166,0.066703,0.131376,0.436571,16.200500,3.933422,-8.603455,,,,,,,1
1522315393.641763,-0.242614,-0.093060,-0.736685,0.110565,0.028438,0.228475,-0.239201,0.092926,-0.966513,0.156133,0.168091,0.459112,16.568298,3.481319,-9.051514,,,,,,,1
1522315393.671732,-0.239295,-0.100163,-0.732431,-0.424571,0.157619,0.180000,-0.235830,0.099996,-0.966636,0.117147,0.125437,0.456306,17.018860,3.629147,-9.201843,,,,,,,1
1522315393.701700,-0.235433,-0.120278,-0.731214,-0.743218,0.068000,0.193700,-0.231579,0.119988,-0.965388,0.136211,0.096199,0.491160,16.561996,2.806423,-8.973816,,,,,,,1
1522315393.731668,-0.235600,-0.143384,-0.730204,-0.689616,-0.079034,0.230120,-0.231031,0.142893,-0.962396,0.196272,0.091772,0.501672,16.787277,2.880337,-9.049011,,,,,,,1
1522315393.761636,-0.238572,-0.160073,-0.726188,-0.339725,-0.107775,0.264508,-0.233294,0.159390,-0.959254,0.185687,0.070498,0.483836,16.641785,2.881741,-8.299072,,,,,,,1
1522315393.791605,-0.235296,-0.162829,-0.720769,0.168347,0.171440,0.121816,-0.230047,0.162110,-0.959583,0.132650,0.026916,0.072238,16.943451,2.955532,-8.149170,,,,,,,1
1522315393.821573,-0.230935,-0.142727,-0.718841,1.077274,0.050644,-0.250316,-0.226560,0.142243,-0.963555,0.077115,0.035354,-0.198707,17.612152,1.828350,-7.319336,,,,,,,1
1522315393.851541,-0.237285,-0.096119,-0.718026,1.752048,-0.359079,-0.400709,-0.233980,0.095971,-0.967493,0.100038,-0.107904,-0.275839,17.085373,1.605801,-7.243713,,,,,,,1
1522315393.881509,-0.241903,-0.040119,-0.725074,1.605983,0.128890,-0.837108,-0.239358,0.040108,-0.970102,-0.049704,-0.340874,-0.533315,17.233139,1.380138,-7.242737,,,,,,,1
1522315393.911478,-0.240014,-0.002343,-0.744473,0.612606,-0.154406,-0.998461,-0.237715,0.002343,-0.971332,-0.237855,-0.304024,-0.730954,17.612000,1.903210,-7.469666,,,,,,,1
1522315393.941446,-0.267236,0.003468,-0.770583,-0.400220,-1.427747,-0.742208,-0.264065,-0.003468,-0.964499,-0.349552,-0.261089,-0.478189,17.084747,2.129833,-8.220825,,,,,,,1
1522315393.971414,-0.310942,-0.013739,-0.787883,-0.853620,-1.299460,-0.086307,-0.305926,0.013739,-0.951956,-0.379483,-0.196082,-0.126077,14.838120,2.964108,-9.050293,,,,,,,1
1522315394.001383,-0.333849,-0.039700,-0.787893,-0.716836,-0.375095,0.485059,-0.327424,0.039690,-0.944044,-0.245498,-0.062334,-0.027010,13.863159,3.193111,-9.426697,,,,,,,1
1522315394.031351,-0.332515,-0.059678,-0.774672,-0.320926,0.208497,0.616887,-0.325840,0.059643,-0.943542,-0.125957,-0.041989,-0.012330,13.642807,3.793880,-9.654175,,,,,,,1
,,,,,,,,,,,,,,,,25.301090,51.443824,11.740957,3.350000,57.304688,1522315393.999188,1
1522315394.061350,-0.323602,-0.068043,-0.762109,-0.002369,0.283585,0.402880,-0.317248,0.067991,-0.945902,-0.103742,-0.163862,0.013163,13.568558,3.869213,-9.654541,,,,,,,1
1522315394.091318,-0.320877,-0.066985,-0.754967,0.139799,-0.072504,0.064514,-0.314692,0.066935,-0.946831,-0.091345,-0.100398,0.025307,14.389481,3.640224,-9.953186,,,,,,,1
1522315394.121286,-0.318471,-0.064401,-0.755794,0.017222,0.293218,-0.069141,-0.312466,0.064357,-0.947746,-0.054615,0.010686,0.002983,13.410324,3.044933,-9.651306,,,,,,,1
1522315394.151254,-0.305551,-0.065018,-0.757959,-0.160563,0.432716,-0.048105,-0.300183,0.064972,-0.951666,-0.015628,0.042984,-0.124872,14.316132,3.491085,-9.427673,,,,,,,1
1522315394.181223,-0.303301,-0.073417,-0.760275,-0.384740,-0.120185,0.081211,-0.297868,0.073352,-0.951785,0.022263,0.066495,0.027819,15.139145,3.337307,-9.501587,,,,,,,1
1522315394.211191,-0.312701,-0.085954,-0.761038,-0.415719,-0.373989,0.069722,-0.306494,0.085848,-0.947993,-0.016230,0.078428,0.152782,13.187439,3.121166,-9.426758,,,,,,,1
1522315394.241159,-0.324991,-0.097569,-0.764136,-0.369622,-0.401312,0.010113,-0.317781,0.097415,-0.943146,-0.057890,0.056348,0.135804,13.410599,3.344479,-10.102539,,,,,,,1
1522315394.271127,-0.334490,-0.106546,-0.767089,-0.278924,-0.199513,-0.009198,-0.326426,0.106344,-0.939222,-0.047949,0.099146,0.122861,12.663177,3.647762,-10.179138,,,,,,,1
1522315394.301096,-0.336191,-0.110856,-0.769484,-0.034404,-0.000067,-0.047586,-0.327869,0.110629,-0.938223,-0.033627,0.106091,0.168799,11.835968,3.651119,-10.554565,,,,,,,1
1522315394.331064,-0.334409,-0.104260,-0.770358,0.357193,0.080328,-0.135809,-0.326428,0.104071,-0.939475,-0.099414,0.095255,0.190040,12.284897,3.499172,-10.478699,,,,,,,1
1522315394.361032,-0.335378,-0.087640,-0.771465,0.582195,-0.133956,-0.267550,-0.327863,0.087528,-0.940662,-0.174411,0.057797,0.168079,11.826218,3.350033,-11.678345,,,,,,,1
1522315394.391000,-0.343355,-0.069772,-0.774157,0.448846,-0.353539,-0.273822,-0.335829,0.069715,-0.939339,-0.254259,-0.001387,0.125817,11.070557,2.828365,-11.751587,,,,,,,1
1522315394.420969,-0.353131,-0.060478,-0.777890,0.108458,-0.186595,-0.168760,-0.345205,0.060441,-0.936579,-0.293131,0.012862,0.170344,9.863083,2.757671,-12.876892,,,,,,,1
1522315394.450937,-0.353623,-0.059609,-0.780159,-0.027833,0.061384,-0.025262,-0.345684,0.059574,-0.936458,-0.295277,-0.014438,0.125041,9.788239,2.907787,-13.102600,,,,,,,1
1522315394.480905,-0.354975,-0.058961,-0.779181,0.070595,-0.054087,0.040990,-0.346963,0.058927,-0.936026,-0.260657,-0.029950,0.025824,9.790939,2.908215,-12.652588,,,,,,,1
1522315394.510873,-0.364885,-0.060319,-0.778512,-0.136514,-0.287352,0.041075,-0.356193,0.060282,-0.932466,-0.204781,-0.027460,0.037157,9.639297,2.833752,-12.802368,,,,,,,1
1522315394.540842,-0.378335,-0.069515,-0.781663,-0.451607,-0.358543,0.002544,-0.368482,0.069459,-0.927036,-0.158404,-0.013047,0.130909,9.494095,3.359325,-12.879517,,,,,,,1
1522315394.570800,-0.386135,-0.082294,-0.787631,-0.437163,-0.034291,-0.027592,-0.375336,0.082201,-0.923237,-0.146804,-0.022783,0.174396,9.869675,3.507488,-13.029907,,,,,,,1
1522315394.600768,-0.385268,-0.088519,-0.791847,-0.106241,0.164832,-0.050997,-0.374336,0.088403,-0.923070,-0.192528,-0.031396,0.112050,10.098877,3.656902,-12.580383,,,,,,,1
1522315394.630737,-0.380395,-0.081151,-0.791861,0.440189,0.291357,-0.103993,-0.370065,0.081062,-0.925462,-0.222250,-0.055000,-0.031737,10.402740,3.955685,-12.431458,,,,,,,1
1522315394.660705,-0.372958,-0.064941,-0.788752,0.538127,0.253750,-0.080436,-0.363604,0.064895,-0.929290,-0.246061,-0.084045,-0.151764,9.571808,3.359432,-12.429504,,,,,,,1
1522315394.690673,-0.368230,-0.051674,-0.784316,0.414057,0.085458,0.020865,-0.359484,0.051651,-0.931721,-0.233213,-0.127152,-0.091534,10.170288,3.206738,-12.428589,,,,,,,1
1522315394.720641,-0.370309,-0.049145,-0.781374,-0.124399,-0.170704,0.070802,-0.361466,0.049125,-0.931090,-0.189407,-0.084541,-0.058275,10.547653,3.579815,-12.654907,,,,,,,1
1522315394.750610,-0.375286,-0.060957,-0.782437,-0.524973,-0.129829,0.142915,-0.365857,0.060919,-0.928675,-0.168780,-0.069968,0.102686,9.349945,3.810192,-12.656433,,,,,,,1
