timestamp(unix),attitude_roll(radians),attitude_pitch(radians),attitude_yaw(radians),rotation_rate_x(radians/s),rotation_rate_y(radians/s),rotation_rate_z(radians/s),gravity_x(G),gravity_y(G),gravity_z(G),user_acc_x(G),user_acc_y(G),user_acc_z(G),magnetic_field_x(microteslas),magnetic_field_y(microteslas),magnetic_field_z(microteslas),latitude(degree),longitude(degree),altitude(meter),speed(m/s),course(degree),timestamp(unix),User Mark
1523524377.279486,-0.651085,0.125740,2.135973,-0.127507,0.008560,0.084365,-0.601259,-0.125409,-0.789139,-0.064390,-0.054828,-0.018677,4.813980,-3.722832,10.411926,,,,,,,
,,,,,,,,,,,,,,,,25.319366,51.434776,24.260816,27.170000,254.179688,1523524376.999552,
1523524377.309454,-0.653884,0.120771,2.131887,-0.252545,-0.176105,-0.054069,-0.603837,-0.120478,-0.787938,-0.040724,0.009257,-0.001140,4.439285,-3.421593,9.960510,,,,,,,
1523524377.339422,-0.654529,0.118678,2.127007,-0.090802,0.164666,-0.064947,-0.604498,-0.118399,-0.787746,-0.008005,0.006613,0.033703,5.343277,-2.975746,9.884216,,,,,,,
1523524377.369390,-0.646128,0.118092,2.125616,-0.068425,0.242715,0.010642,-0.597900,-0.117818,-0.792853,-0.019883,-0.028575,-0.094369,5.113205,-3.349937,9.660583,,,,,,,
1523524377.399359,-0.646188,0.116026,2.124732,-0.054173,-0.108233,0.046171,-0.598093,-0.115766,-0.793009,0.026636,-0.024813,-0.057287,4.434021,-3.497322,9.210815,,,,,,,
1523524377.429327,-0.646106,0.115102,2.129666,0.159900,0.187685,0.199472,-0.598092,-0.114848,-0.793144,0.025094,0.014567,0.059547,5.263947,-3.275612,9.660339,,,,,,,
1523524377.459295,-0.638613,0.116416,2.137383,0.160658,0.317541,0.167380,-0.592042,-0.116153,-0.797481,-0.005218,0.002414,0.083980,4.290039,-3.345924,9.960144,,,,,,,
1523524377.489263,-0.626715,0.113173,2.141322,-0.196883,0.346098,0.163876,-0.582730,-0.112932,-0.804770,-0.076923,-0.036681,-0.052606,3.761017,-3.568855,9.660767,,,,,,,
1523524377.519232,-0.629394,0.101422,2.134990,-0.542670,-0.322195,-0.029630,-0.585625,-0.101248,-0.804223,-0.028175,0.024146,-0.037925,4.360519,-3.346992,9.210205,,,,,,,
1523524377.549200,-0.634833,0.091909,2.125269,-0.317157,-0.069640,-0.060615,-0.590535,-0.091780,-0.801765,0.029530,0.062559,-0.030022,3.529572,-3.718636,8.836243,,,,,,,
1523524377.579168,-0.633396,0.090372,2.124320,0.059989,0.157915,0.086478,-0.589464,-0.090249,-0.802726,0.037447,0.007912,0.021888,3.752457,-3.794853,8.611694,,,,,,,
1523524377.609136,-0.623830,0.088460,2.129981,0.024917,0.352572,0.222639,-0.581859,-0.088345,-0.808467,-0.049230,-0.002124,-0.065435,3.982681,-3.270897,8.609741,,,,,,,
1523524377.639105,-0.620902,0.084319,2.132284,-0.116212,-0.128309,0.051476,-0.579697,-0.084219,-0.810458,-0.095718,-0.040049,-0.147794,3.380325,-3.642952,8.835876,,,,,,,
1523524377.669073,-0.631123,0.082449,2.129411,-0.019667,-0.364899,-0.035588,-0.588042,-0.082356,-0.804615,0.030212,0.082798,0.046604,3.151581,-3.792305,8.461365,,,,,,,
1523524377.699041,-0.630098,0.087262,2.134751,0.373985,0.404797,0.075807,-0.586976,-0.087151,-0.804889,-0.013457,0.030511,0.129977,4.358719,-3.347282,8.910217,,,,,,,
1523524377.729009,-0.616161,0.093719,2.140255,0.120227,0.327729,-0.057494,-0.575366,-0.093582,-0.812515,-0.099836,-0.055573,-0.059235,3.456375,-3.718010,9.136292,,,,,,,
1523524377.758978,-0.620140,0.091742,2.133447,-0.328726,-0.406652,-0.182830,-0.578700,-0.091613,-0.810368,-0.007298,-0.036881,-0.028820,3.903946,-3.645546,8.611145,,,,,,,
1523524377.788946,-0.626631,0.088260,2.126207,-0.079810,-0.019087,-0.079673,-0.584131,-0.088146,-0.806848,0.065424,0.015743,0.037835,4.430115,-3.348213,8.310242,,,,,,,
1523524377.818914,-0.622289,0.090961,2.128243,0.130893,0.233321,0.067273,-0.580482,-0.090835,-0.809180,0.027153,-0.023087,-0.043680,3.754257,-3.794563,8.911682,,,,,,,
1523524377.848883,-0.621175,0.089406,2.131317,-0.079241,-0.114171,0.142068,-0.579661,-0.089286,-0.809940,-0.017034,-0.016594,-0.065548,3.451431,-3.943428,8.687134,,,,,,,
1523524377.878851,-0.626605,0.086080,2.133781,0.056364,-0.153546,0.103841,-0.584222,-0.085974,-0.807017,-0.018393,0.023855,0.027674,4.284027,-3.496651,9.210754,,,,,,,
1523524377.908819,-0.625336,0.090095,2.138275,0.233332,0.147445,0.003501,-0.582990,-0.089974,-0.807471,-0.021380,0.016182,0.029578,3.083038,-3.641167,9.285706,,,,,,,
1523524377.938787,-0.622481,0.091775,2.138590,-0.123974,-0.032181,-0.015758,-0.580594,-0.091647,-0.809008,-0.022190,-0.032819,-0.040128,2.557755,-3.713737,9.360779,,,,,,,
1523524377.968756,-0.627515,0.084525,2.134313,-0.313139,-0.208738,0.073790,-0.585034,-0.084424,-0.806592,0.003765,0.007093,-0.024875,3.682999,-3.419243,8.910156,,,,,,,
1523524377.998724,-0.631578,0.078079,2.134411,-0.040759,-0.114158,0.129294,-0.588615,-0.077999,-0.804631,0.004585,0.097454,-0.044903,2.781097,-3.565269,8.835266,,,,,,,
1523524378.028692,-0.633585,0.079570,2.140188,0.259987,0.073041,0.149568,-0.590159,-0.079486,-0.803353,-0.035558,0.067767,0.052758,2.409698,-3.113747,8.683289,,,,,,,
1523524378.058660,-0.627062,0.084008,2.147587,0.204496,0.207689,0.058834,-0.584694,-0.083909,-0.806892,-0.098976,0.014741,-0.033089,3.169861,-2.591347,9.506592,,,,,,,
1523524378.088639,-0.627835,0.085296,2.147076,-0.071890,-0.200530,-0.118915,-0.585253,-0.085192,-0.806352,-0.035505,0.034869,0.002076,2.714035,-3.039513,9.283142,,,,,,,
,,,,,,,,,,,,,,,,25.319297,51.434521,23.573811,27.200001,253.828125,1523524377.999543,
1523524378.118607,-0.633765,0.083801,2.143141,-0.060846,-0.031068,-0.043427,-0.590099,-0.083703,-0.802969,0.036632,0.065103,0.109548,3.084824,-3.416252,9.209839,,,,,,,
1523524378.148575,-0.627421,0.084571,2.143032,0.059129,0.276861,-0.055358,-0.584956,-0.084470,-0.806644,-0.020422,0.014417,-0.028287,3.310715,-3.192497,8.984070,,,,,,,
1523524378.178543,-0.626236,0.086644,2.139496,-0.067075,-0.144927,-0.172231,-0.583895,-0.086536,-0.807193,-0.006666,-0.021680,-0.086362,2.933044,-3.640495,9.285645,,,,,,,
1523524378.208512,-0.631120,0.086880,2.136554,0.035039,-0.067524,-0.032652,-0.587819,-0.086771,-0.804315,0.039570,0.000101,0.017984,3.456512,-3.568230,8.910645,,,,,,,
1523524378.238480,-0.629459,0.089883,2.139258,0.195706,0.105998,0.017369,-0.586326,-0.089762,-0.805076,0.000831,-0.007604,0.009498,3.534363,-3.418358,9.135132,,,,,,,
1523524378.268448,-0.626673,0.093409,2.141607,0.051345,0.020504,-0.013554,-0.583891,-0.093274,-0.806445,-0.016558,-0.020206,-0.022046,3.531815,-3.718269,9.211243,,,,,,,
1523524378.298416,-0.629509,0.093146,2.141134,-0.009124,-0.103801,0.006761,-0.586190,-0.093011,-0.804806,0.008920,0.002740,0.062114,4.207382,-3.346840,8.685120,,,,,,,
1523524378.328385,-0.626969,0.093164,2.143316,0.050637,0.205794,0.080036,-0.584144,-0.093030,-0.806290,-0.049539,-0.037174,-0.012115,3.832703,-3.494835,8.985535,,,,,,,
1523524378.358353,-0.625182,0.089744,2.140983,-0.314463,-0.159023,-0.042419,-0.582884,-0.089623,-0.807586,-0.009599,0.035012,-0.096283,3.077347,-3.941597,8.836914,,,,,,,
1523524378.388321,-0.631043,0.083795,2.135493,-0.104945,-0.073655,-0.016774,-0.587911,-0.083697,-0.804573,0.025961,0.045031,-0.011773,2.702499,-3.790138,8.611145,,,,,,,
1523524378.418290,-0.627143,0.088900,2.139459,0.374557,0.235133,0.024835,-0.584511,-0.088783,-0.806503,-0.011863,-0.018868,-0.053956,2.926895,-3.940987,8.761902,,,,,,,
1523524378.448258,-0.623721,0.095303,2.145757,0.168280,-0.012164,0.056895,-0.581404,-0.095159,-0.808020,-0.025407,-0.036067,-0.045389,2.779175,-4.164574,9.512695,,,,,,,
1523524378.478225,-0.627405,0.094951,2.147530,-0.002860,-0.120935,0.021710,-0.584396,-0.094809,-0.805900,0.007659,0.021948,0.070945,3.835556,-3.569252,9.585815,,,,,,,
1523524378.508193,-0.626388,0.096541,2.148601,0.109527,0.145692,-0.006176,-0.583487,-0.096391,-0.806370,-0.024484,-0.019515,0.074696,3.009705,-3.790306,9.811340,,,,,,,
1523524378.538162,-0.623970,0.096568,2.147126,-0.182618,-0.080494,-0.074365,-0.581534,-0.096418,-0.807777,-0.029443,0.001660,-0.032128,3.307281,-3.717186,9.286133,,,,,,,
1523524378.568130,-0.627473,0.094338,2.140528,-0.070944,-0.040882,-0.158484,-0.584485,-0.094198,-0.805907,0.040555,0.024008,0.033873,3.982254,-3.720222,9.286499,,,,,,,
1523524378.598099,-0.623545,0.100035,2.140831,0.236011,0.202038,-0.054092,-0.580992,-0.099868,-0.807748,0.029036,-0.066956,-0.026633,4.207397,-3.796074,9.436951,,,,,,,
1523524378.628067,-0.625092,0.102095,2.141328,-0.056551,-0.218394,-0.002735,-0.582120,-0.101918,-0.806679,0.089047,0.011189,0.023415,3.457886,-3.792625,9.511536,,,,,,,
1523524378.658036,-0.627342,0.099128,2.143750,0.029087,0.087985,0.219719,-0.584108,-0.098965,-0.805609,-0.009002,-0.060886,0.004248,2.784409,-3.639595,9.510620,,,,,,,
1523524378.688004,-0.624552,0.097053,2.149281,-0.016936,-0.029289,0.139887,-0.581977,-0.096901,-0.807400,-0.031884,0.029350,-0.047870,3.233337,-3.791542,9.586426,,,,,,,
1523524378.717972,-0.628532,0.092467,2.149457,-0.136744,-0.114842,0.108980,-0.585441,-0.092335,-0.805429,-0.037911,0.028233,0.028222,3.085739,-3.640724,9.735718,,,,,,,
1523524378.747940,-0.627739,0.091193,2.150509,0.041838,0.054452,-0.002936,-0.584871,-0.091067,-0.805987,-0.052947,0.033755,-0.038480,3.313705,-3.117134,9.358765,,,,,,,
1523524378.777909,-0.626148,0.093411,2.150896,0.050738,0.096080,-0.033864,-0.583468,-0.093275,-0.806751,-0.050657,-0.028429,-0.037091,2.707016,-3.789406,9.361145,,,,,,,
1523524378.807877,-0.626416,0.093294,2.148501,-0.087820,-0.158127,-0.098725,-0.583690,-0.093158,-0.806603,0.021190,0.021412,-0.057273,3.234665,-3.342079,9.059631,,,,,,,
1523524378.837845,-0.629633,0.093829,2.147398,0.106775,0.059321,0.037596,-0.586253,-0.093691,-0.804681,0.026820,-0.033323,0.036126,3.985992,-3.345238,9.284973,,,,,,,
1523524378.867813,-0.626368,0.096139,2.151449,0.071315,0.011577,0.039748,-0.583494,-0.095991,-0.806413,-0.005999,0.004163,-0.051283,3.158188,-3.716362,9.436096,,,,,,,
1523524378.897782,-0.630158,0.094198,2.150932,-0.082970,-0.121846,0.028048,-0.586655,-0.094059,-0.804345,-0.012009,0.001590,0.028054,3.082443,-3.791008,9.436340,,,,,,,
1523524378.927750,-0.628739,0.092548,2.151083,-0.020122,0.088368,0.032142,-0.585603,-0.092416,-0.805301,-0.055754,-0.034644,-0.043896,4.061005,-3.570198,9.660950,,,,,,,
1523524378.957718,-0.630576,0.092383,2.149235,-0.080640,-0.199741,-0.077364,-0.587091,-0.092252,-0.804236,0.010247,0.027799,-0.064859,3.307587,-3.866875,9.586731,,,,,,,
1523524378.987686,-0.634914,0.092086,2.149529,0.115868,0.010021,0.094126,-0.590590,-0.091956,-0.801704,0.022322,0.029822,0.060142,2.632462,-3.788994,9.436096,,,,,,,
1523524379.017655,-0.629432,0.096747,2.157438,0.325167,0.264480,0.101480,-0.585927,-0.096596,-0.804574,-0.049083,-0.016944,0.021631,3.164932,-3.490639,10.185181,,,,,,,
1523524379.047623,-0.626584,0.099894,2.160971,0.017970,-0.062197,-0.029469,-0.583453,-0.099728,-0.805990,-0.031034,-0.016911,0.051397,3.094742,-3.190025,10.483948,,,,,,,
1523524379.077565,-0.627851,0.098235,2.157253,-0.127455,0.047045,-0.098952,-0.584569,-0.098077,-0.805383,0.034734,0.004785,0.094460,3.692307,-3.118233,9.958923,,,,,,,
,,,,,,,,,,,,,,,,25.319227,51.434252,24.185916,27.570000,252.773438,1523524378.999534,
1523524379.107534,-0.624059,0.098657,2.153121,-0.049091,0.111851,-0.124534,-0.581487,-0.098497,-0.807560,0.049321,-0.033141,-0.011883,4.441223,-3.271538,10.034912,,,,,,,
1523524379.137502,-0.624610,0.097827,2.149695,-0.139177,-0.060982,0.006629,-0.581980,-0.097671,-0.807305,0.039316,-0.064668,-0.022987,3.833893,-3.419777,9.060242,,,,,,,
1523524379.167470,-0.624758,0.092447,2.148808,-0.198178,-0.036906,0.080079,-0.582398,-0.092315,-0.807634,-0.018539,-0.058625,-0.142043,3.603806,-3.569344,8.460693,,,,,,,
1523524379.197438,-0.630187,0.087177,2.145468,-0.164483,-0.267869,-0.029414,-0.587053,-0.087067,-0.804842,0.007249,-0.004913,-0.125914,3.600800,-3.644691,8.085999,,,,,,,
1523524379.227407,-0.635628,0.088311,2.144499,0.109421,-0.088250,0.017504,-0.591364,-0.088196,-0.801555,0.058299,0.025238,-0.034321,3.451859,-3.718727,8.386292,,,,,,,
1523524379.257375,-0.636180,0.089960,2.151018,0.142809,0.009932,0.249708,-0.591719,-0.089839,-0.801111,-0.003206,-0.020024,-0.033072,2.931534,-3.341240,8.534485,,,,,,,
1523524379.287343,-0.635698,0.084269,2.159077,-0.080705,-0.030168,0.287949,-0.591627,-0.084169,-0.801794,-0.086153,-0.003691,-0.067895,2.928848,-3.790932,8.836243,,,,,,,
1523524379.317311,-0.642527,0.080127,2.163863,0.119742,-0.193654,0.196615,-0.597292,-0.080041,-0.798008,-0.028669,0.049996,0.089192,2.104630,-3.936836,9.211426,,,,,,,
1523524379.347280,-0.639169,0.083569,2.175751,0.397349,0.359879,0.262324,-0.594441,-0.083471,-0.799783,-0.054286,0.054495,0.156564,1.736542,-3.559669,9.734741,,,,,,,
1523524379.377248,-0.629622,0.083418,2.182464,-0.132070,0.164900,0.068210,-0.586786,-0.083321,-0.805432,-0.108938,0.022271,-0.050952,2.108688,-3.711571,9.510559,,,,,,,
1523524379.407216,-0.635598,0.074305,2.172669,-0.539834,-0.312810,-0.156437,-0.592015,-0.074237,-0.802489,-0.019817,0.055484,-0.001771,1.729050,-3.860374,8.985962,,,,,,,
1523524379.437184,-0.639462,0.064479,2.160721,-0.451157,-0.002037,-0.105545,-0.595518,-0.064434,-0.800742,-0.002062,0.032910,-0.145562,1.805237,-3.561028,8.684814,,,,,,,
1523524379.467153,-0.640768,0.062713,2.152736,0.036842,-0.147842,-0.245687,-0.596630,-0.062672,-0.800054,0.087582,0.078587,-0.103160,1.800430,-3.861290,8.385986,,,,,,,
1523524379.497121,-0.640376,0.074930,2.156373,0.609766,0.271961,-0.005932,-0.595815,-0.074860,-0.799614,0.066854,-0.069534,0.028846,1.725601,-3.935814,8.536255,,,,,,,
1523524379.527089,-0.632224,0.085307,2.169396,0.365777,0.130976,0.183691,-0.588786,-0.085203,-0.803774,-0.038335,-0.131182,-0.076292,2.706711,-3.864326,9.436462,,,,,,,
1523524379.557057,-0.637254,0.080929,2.173878,-0.242911,-0.357442,0.193321,-0.593038,-0.080840,-0.801094,-0.061793,-0.061921,-0.025215,2.332779,-3.937340,9.736572,,,,,,,
1523524379.587026,-0.649520,0.072851,2.172050,-0.165199,-0.308942,0.070780,-0.603194,-0.072786,-0.794254,0.029418,0.125750,0.159778,1.507645,-3.634148,9.209900,,,,,,,
1523524379.616994,-0.645874,0.076362,2.176707,0.405460,0.455077,0.018231,-0.600137,-0.076288,-0.796239,-0.042579,0.100290,0.184102,1.508560,-3.858635,9.735840,,,,,,,
1523524379.646962,-0.630505,0.087179,2.178941,0.169720,0.357019,-0.311088,-0.587308,-0.087068,-0.804655,-0.110705,-0.058745,-0.055971,1.959747,-3.785591,9.810791,,,,,,,
1523524379.676931,-0.630231,0.092546,2.165300,-0.267630,-0.270558,-0.519625,-0.586804,-0.092414,-0.804427,0.021436,-0.113030,-0.112077,2.183395,-4.011436,9.961731,,,,,,,
1523524379.706899,-0.637621,0.094317,2.150791,-0.141409,-0.212815,-0.311818,-0.592634,-0.094177,-0.799935,0.178648,-0.057968,-0.035697,2.710159,-3.788887,9.886169,,,,,,,
1523524379.736867,-0.636777,0.096706,2.151743,0.195110,0.209799,0.218638,-0.591823,-0.096555,-0.800252,0.161663,-0.059435,-0.050044,2.931412,-4.164894,9.887817,,,,,,,
1523524379.766835,-0.636917,0.091417,2.162867,-0.024909,-0.250336,0.451226,-0.592231,-0.091290,-0.800568,0.017890,0.008023,-0.074920,2.261826,-3.711739,10.035583,,,,,,,
1523524379.796804,-0.644825,0.084034,2.175166,0.163593,-0.078910,0.486358,-0.598932,-0.083935,-0.796377,-0.081717,0.005322,0.011572,1.816040,-3.334648,10.108887,,,,,,,
1523524379.826772,-0.645826,0.083607,2.189250,0.280038,-0.059749,0.287180,-0.599750,-0.083509,-0.795806,-0.092556,0.065245,0.012221,0.693329,-3.104591,10.107422,,,,,,,
1523524379.856740,-0.647575,0.086699,2.198394,0.230303,0.100854,0.133536,-0.600983,-0.086591,-0.794546,-0.103562,0.030392,0.102377,0.703522,-2.578819,10.930298,,,,,,,
1523524379.886708,-0.641506,0.085521,2.200276,-0.189373,0.114815,-0.042597,-0.596210,-0.085417,-0.798260,-0.088254,0.031584,-0.055652,1.298233,-2.657249,10.180908,,,,,,,
1523524379.916677,-0.648396,0.080238,2.189022,-0.342992,-0.337055,-0.253234,-0.601960,-0.080152,-0.794481,0.024568,0.081830,0.053881,1.146744,-2.806572,10.181458,,,,,,,
1523524379.946645,-0.650575,0.081899,2.183111,0.115594,0.172029,-0.125547,-0.603608,-0.081807,-0.793061,0.043321,0.033406,0.050904,1.672623,-2.584160,9.955811,,,,,,,
1523524379.976613,-0.641507,0.087928,2.184744,0.186402,0.254676,-0.118113,-0.596086,-0.087815,-0.798092,0.006441,-0.032409,-0.093509,1.520386,-2.808464,9.956604,,,,,,,
1523524380.006581,-0.643930,0.090967,2.182262,-0.013176,-0.194394,-0.108207,-0.597855,-0.090842,-0.796428,0.066117,-0.051752,0.030391,1.819031,-3.034660,10.107666,,,,,,,
1523524380.036550,-0.644105,0.092062,2.181313,0.054011,0.094100,-0.053056,-0.597935,-0.091932,-0.796244,0.069523,-0.031207,0.040796,1.970383,-3.035118,10.332764,,,,,,,
1523524380.066518,-0.641097,0.092867,2.181435,-0.040598,0.048035,0.033231,-0.595492,-0.092734,-0.797980,0.013644,-0.084192,-0.038141,2.792801,-3.338737,10.409363,,,,,,,
1523524380.096496,-0.643519,0.087098,2.179545,-0.272623,-0.206755,0.082326,-0.597734,-0.086988,-0.796949,0.017443,-0.019549,-0.060900,1.442413,-3.557365,10.709595,,,,,,,
,,,,,,,,,,,,,,,,25.319146,51.433987,25.154463,27.719999,252.070312,1523524379.999526,
1523524380.126464,-0.647415,0.083288,2.179083,0.032491,-0.003614,0.099398,-0.601030,-0.083192,-0.794873,0.020510,0.009095,0.028515,1.664566,-3.708595,10.485291,,,,,,,
1523524380.156433,-0.643149,0.086931,2.184305,0.189386,0.151565,0.038622,-0.597448,-0.086821,-0.797182,-0.043223,-0.012757,-0.066847,2.493713,-3.337242,10.559265,,,,,,,
1523524380.186401,-0.644143,0.087461,2.184517,-0.098950,-0.160826,-0.013486,-0.598212,-0.087350,-0.796551,0.011314,0.011285,-0.008411,2.489838,-3.861992,10.786316,,,,,,,
1523524380.216369,-0.646363,0.084726,2.184124,-0.005596,0.060320,0.087584,-0.600121,-0.084625,-0.795409,0.003227,-0.006180,0.012679,2.267380,-3.561089,10.710022,,,,,,,
1523524380.246337,-0.644967,0.084862,2.186114,0.013429,-0.043474,0.033354,-0.599003,-0.084760,-0.796236,0.007725,0.016996,-0.022932,2.641312,-3.488060,10.409912,,,,,,,
1523524380.276336,-0.645504,0.083117,2.187122,-0.033494,0.013733,0.073758,-0.599519,-0.083021,-0.796032,-0.011459,0.012663,-0.029896,2.039978,-3.485573,10.184631,,,,,,,
1523524380.306305,-0.646160,0.081696,2.188145,0.008107,-0.019174,0.053581,-0.600111,-0.081605,-0.795732,-0.030611,-0.015166,-0.028243,1.814240,-3.559563,10.184814,,,,,,,
1523524380.336273,-0.646502,0.081307,2.189965,0.011200,-0.044664,0.051473,-0.600402,-0.081217,-0.795552,-0.018525,0.029352,-0.016292,1.814529,-3.260017,9.733582,,,,,,,
1523524380.366241,-0.648067,0.079499,2.190423,-0.037690,-0.027346,0.023715,-0.601735,-0.079415,-0.794726,-0.032390,0.030419,0.004779,0.915192,-3.330742,9.958374,,,,,,,
1523524380.396209,-0.646091,0.080776,2.190606,0.069091,0.131210,-0.046690,-0.600101,-0.080688,-0.795833,-0.066845,-0.020432,-0.036168,0.993164,-3.031090,9.957214,,,,,,,
1523524380.426178,-0.647096,0.082791,2.188205,-0.040747,-0.176069,-0.132770,-0.600801,-0.082696,-0.795098,0.000170,0.007775,-0.025047,1.815140,-3.334785,9.958862,,,,,,,
1523524380.456146,-0.648273,0.083567,2.186445,0.040090,0.108859,-0.031768,-0.601698,-0.083469,-0.794339,0.019895,-0.006909,0.040249,1.441208,-3.407814,10.259033,,,,,,,
1523524380.486114,-0.643965,0.085697,2.186329,0.011520,0.128292,-0.064843,-0.598162,-0.085592,-0.796780,-0.018796,-0.064845,-0.067997,1.515320,-3.632912,10.484924,,,,,,,
1523524380.516082,-0.646913,0.084293,2.182888,-0.164381,-0.245556,-0.029435,-0.600580,-0.084194,-0.795108,0.041666,-0.020238,-0.069425,2.258835,-4.011711,10.036804,,,,,,,
1523524380.546051,-0.651513,0.082476,2.183699,0.122040,-0.018803,0.112266,-0.604323,-0.082383,-0.792457,0.044569,0.022996,0.059531,1.664108,-3.708672,10.410278,,,,,,,
1523524380.576019,-0.645735,0.087976,2.192391,0.343345,0.301439,0.128094,-0.599452,-0.087862,-0.795562,-0.053792,-0.055525,-0.002732,1.742264,-3.708488,10.935364,,,,,,,
1523524380.605987,-0.642634,0.087659,2.195795,-0.192220,-0.168504,0.053583,-0.596999,-0.087546,-0.797439,-0.037339,0.000419,-0.046189,1.742096,-3.409019,10.409119,,,,,,,
1523524380.635955,-0.651280,0.080234,2.191417,-0.192220,-0.163232,0.058908,-0.604249,-0.080148,-0.792742,0.012040,0.051935,0.103365,0.838257,-3.929710,10.635803,,,,,,,
1523524380.665924,-0.646612,0.080876,2.195109,0.194144,0.308532,0.080020,-0.600510,-0.080788,-0.795513,-0.057830,0.018807,-0.024479,1.135696,-4.006355,10.336182,,,,,,,
1523524380.695892,-0.643255,0.081608,2.195175,-0.136721,-0.105979,-0.093483,-0.597802,-0.081517,-0.797477,-0.069343,0.010564,-0.109628,1.744049,-3.258949,10.483521,,,,,,,
1523524380.725860,-0.649011,0.081418,2.189199,0.004541,-0.111163,-0.161569,-0.602391,-0.081328,-0.794035,0.013570,0.000059,0.017515,1.512161,-3.858055,10.335815,,,,,,,
1523524380.755828,-0.645369,0.088641,2.190699,0.302419,0.211657,-0.086016,-0.599126,-0.088524,-0.795734,0.030187,-0.032234,-0.021817,1.588226,-3.933098,10.636169,,,,,,,
1523524380.785797,-0.644606,0.092497,2.191739,0.000628,-0.131133,-0.041140,-0.598310,-0.092365,-0.795912,0.050275,-0.028088,-0.015719,2.410339,-4.087029,10.412170,,,,,,,
1523524380.815765,-0.646666,0.091905,2.192054,0.044928,0.097615,0.054555,-0.599981,-0.091776,-0.794721,0.022496,-0.073324,0.054029,2.034470,-4.310097,10.637939,,,,,,,
1523524380.845733,-0.644284,0.091770,2.193312,-0.091548,-0.115514,0.038682,-0.598093,-0.091642,-0.796158,0.000452,-0.037417,-0.066284,1.879974,-4.759392,10.639648,,,,,,,
1523524380.875701,-0.650091,0.085304,2.191749,-0.229897,-0.128652,0.144072,-0.603052,-0.085201,-0.793127,0.009027,0.018321,0.029531,2.180557,-4.386284,10.113281,,,,,,,
1523524380.905670,-0.648627,0.081067,2.191838,-0.036136,0.126454,0.062985,-0.602103,-0.080978,-0.794289,-0.038659,0.018570,-0.060783,1.354385,-4.682274,10.414062,,,,,,,
1523524380.935638,-0.646837,0.081430,2.193502,0.008004,-0.039365,0.054661,-0.600663,-0.081340,-0.795342,-0.041610,-0.005834,-0.109260,0.683014,-4.454018,10.637817,,,,,,,
1523524380.965606,-0.652414,0.078762,2.194162,-0.037774,-0.195785,0.100609,-0.605218,-0.078681,-0.792149,0.014978,0.080329,0.053197,0.758163,-4.529213,10.788147,,,,,,,
1523524380.995575,-0.650436,0.080814,2.200479,0.335763,0.268568,0.120664,-0.603551,-0.080726,-0.793215,-0.061198,-0.010231,0.053499,0.686172,-4.228889,10.786865,,,,,,,
1523524381.025543,-0.643119,0.085286,2.206041,0.030262,0.073760,-0.022159,-0.597509,-0.085182,-0.797313,-0.082499,-0.016487,-0.077367,0.759369,-4.454140,10.862854,,,,,,,
1523524381.055511,-0.650651,0.081778,2.199641,-0.235583,-0.303032,-0.142374,-0.603675,-0.081686,-0.793022,0.012610,0.041556,0.076378,0.683167,-4.528877,10.788086,,,,,,,
1523524381.085486,-0.650495,0.085698,2.197573,0.255732,0.244900,-0.112721,-0.603352,-0.085593,-0.792856,0.041646,0.023490,0.070078,1.057693,-4.530632,10.713257,,,,,,,
1523524381.115455,-0.643302,0.091691,2.199610,0.071157,0.100476,-0.059441,-0.597315,-0.091563,-0.796751,0.008875,-0.021657,-0.055346,1.886566,-4.234215,10.862549,,,,,,,
,,,,,,,,,,,,,,,,25.319068,51.433728,25.359394,27.540001,251.718750,1523524380.999517,
1523524381.145423,-0.646883,0.091876,2.196548,-0.035450,-0.132826,-0.088060,-0.600154,-0.091747,-0.794593,0.063457,-0.012776,0.061133,2.188507,-4.085503,10.937073,,,,,,,
1523524381.175391,-0.644712,0.095348,2.198822,0.236700,0.203648,0.019426,-0.598233,-0.095203,-0.795635,0.050778,-0.057949,0.062587,1.284637,-4.606194,11.163696,,,,,,,
1523524381.205359,-0.641262,0.097152,2.201899,-0.041908,0.018132,0.054574,-0.595381,-0.096999,-0.797555,0.020460,-0.038926,0.013909,1.144104,-3.930122,11.610962,,,,,,,
1523524381.235328,-0.643850,0.091775,2.199362,-0.244142,-0.100246,0.036425,-0.597747,-0.091646,-0.796417,0.026305,-0.004255,0.044190,1.594360,-3.632591,11.159973,,,,,,,
1523524381.265296,-0.643590,0.088135,2.197027,-0.093986,0.016528,0.002304,-0.597736,-0.088021,-0.796834,0.016346,-0.008644,-0.015910,1.214584,-3.931190,10.860962,,,,,,,
1523524381.295264,-0.644737,0.085033,2.195261,-0.155530,-0.087798,0.048199,-0.598811,-0.084930,-0.796362,0.020839,0.019546,-0.063577,2.119476,-3.260567,10.558777,,,,,,,
1523524381.325232,-0.646519,0.081006,2.195372,-0.052987,0.011282,0.125963,-0.600431,-0.080917,-0.795560,-0.019870,-0.013245,-0.086642,1.141541,-3.780785,10.935364,,,,,,,
1523524381.355201,-0.647031,0.079403,2.198438,0.043735,-0.124709,0.089935,-0.600915,-0.079320,-0.795355,0.004266,0.043202,-0.065698,1.217575,-3.406578,10.483887,,,,,,,
1523524381.385169,-0.650003,0.078771,2.202833,0.097311,0.021157,0.180404,-0.603306,-0.078690,-0.793606,-0.033337,0.030243,0.024120,1.814987,-3.484566,10.184509,,,,,,,
1523524381.415137,-0.645777,0.076299,2.208125,-0.048209,0.150332,0.147131,-0.600062,-0.076225,-0.796301,-0.152013,-0.034737,-0.134378,0.995728,-3.180428,10.632874,,,,,,,
1523524381.445105,-0.649398,0.070863,2.204190,-0.321578,-0.363797,-0.083775,-0.603183,-0.070804,-0.794441,-0.076856,0.047305,-0.140404,0.169281,-3.326714,10.633057,,,,,,,
1523524381.475074,-0.659350,0.067064,2.198493,-0.050944,-0.189518,-0.030469,-0.611220,-0.067013,-0.788606,0.041151,0.103604,0.037980,0.166565,-3.102516,9.807129,,,,,,,
1523524381.505042,-0.653874,0.071690,2.203971,0.369749,0.445019,0.101326,-0.606697,-0.071629,-0.791686,-0.059059,-0.017574,0.005630,0.242447,-3.327339,10.333069,,,,,,,
1523524381.535010,-0.646568,0.074619,2.208626,-0.084772,-0.091817,-0.010345,-0.600768,-0.074550,-0.795927,-0.106431,-0.040563,-0.168016,0.395004,-3.252724,10.632874,,,,,,,
1523524381.564979,-0.658453,0.069458,2.202145,-0.233180,-0.356915,-0.035767,-0.610412,-0.069402,-0.789024,0.027847,0.049443,0.071449,1.369934,-2.807869,9.881592,,,,,,,
1523524381.594947,-0.656611,0.069514,2.204664,0.219738,0.342186,0.118378,-0.608955,-0.069458,-0.790145,-0.003060,0.046142,0.068541,0.693924,-3.179375,10.332703,,,,,,,
1523524381.624915,-0.648106,0.071679,2.208572,-0.035955,0.086573,-0.007305,-0.602121,-0.071617,-0.795174,-0.067282,0.027260,-0.078133,0.014603,-3.251915,9.732666,,,,,,,
1523524381.654883,-0.652460,0.068869,2.203178,-0.163416,-0.138634,-0.123314,-0.605697,-0.068815,-0.792701,-0.009583,0.029569,0.021400,1.517990,-2.958611,9.807251,,,,,,,
1523524381.684852,-0.650869,0.072306,2.200884,0.190237,0.113621,-0.157396,-0.604289,-0.072243,-0.793471,0.060923,0.009621,-0.004900,0.916534,-3.330528,10.183411,,,,,,,
1523524381.714820,-0.649069,0.078804,2.202641,0.196810,0.081774,-0.012449,-0.602563,-0.078723,-0.794166,0.051538,-0.027860,0.037651,0.915207,-3.555367,10.334290,,,,,,,
1523524381.744788,-0.647161,0.080244,2.205126,0.023343,0.006548,0.018395,-0.600978,-0.080158,-0.795223,0.040721,-0.001125,0.038906,1.667694,-3.258827,10.258545,,,,,,,
1523524381.774756,-0.646284,0.080943,2.205725,0.081476,0.088349,-0.000816,-0.600246,-0.080855,-0.795705,0.015468,-0.049684,0.071111,1.291077,-3.781532,10.860413,,,,,,,
1523524381.804725,-0.645311,0.082296,2.206439,-0.034564,-0.087675,-0.012445,-0.599406,-0.082204,-0.796201,0.032038,0.014714,0.042798,0.838104,-3.854866,10.485474,,,,,,,
1523524381.834693,-0.646629,0.079888,2.204208,-0.110655,0.084667,-0.013741,-0.600571,-0.079803,-0.795566,-0.002456,-0.015946,0.037158,1.744202,-3.333794,10.633850,,,,,,,
1523524381.864661,-0.643836,0.081006,2.200980,-0.019698,-0.031469,-0.153141,-0.598294,-0.080918,-0.797168,0.020352,-0.046188,-0.073575,0.462662,-3.853249,10.410278,,,,,,,
1523524381.894629,-0.646718,0.081365,2.199343,-0.012382,-0.092283,0.030200,-0.600570,-0.081275,-0.795418,0.060379,-0.017999,-0.024849,0.990189,-3.555717,10.334351,,,,,,,
1523524381.924598,-0.648671,0.081581,2.201827,0.131953,0.009051,0.077079,-0.602112,-0.081491,-0.794229,0.061204,0.019601,0.036859,1.741196,-3.409157,10.259155,,,,,,,
1523524381.954566,-0.642879,0.084886,2.209003,0.195733,0.290885,0.170614,-0.597338,-0.084784,-0.797483,-0.041822,-0.091180,-0.009585,0.618195,-3.478661,10.708862,,,,,,,
1523524381.984534,-0.644349,0.080472,2.209132,-0.339508,-0.435636,0.015373,-0.598728,-0.080385,-0.796896,-0.004712,0.034456,-0.088587,0.991837,-3.480553,10.484070,,,,,,,
1523524382.014502,-0.652879,0.073423,2.206228,-0.049723,0.053609,0.150428,-0.605833,-0.073357,-0.792190,-0.012850,0.007638,0.086593,0.314301,-3.552818,10.184021,,,,,,,
1523524382.044471,-0.645577,0.074869,2.211273,0.087869,0.127383,0.036447,-0.599968,-0.074799,-0.796507,-0.061836,0.053117,-0.111254,0.015533,-3.701027,10.634460,,,,,,,
1523524382.074439,-0.649638,0.074494,2.210553,-0.001624,-0.120689,-0.012394,-0.603214,-0.074425,-0.794086,-0.034603,0.011437,0.040333,0.916687,-3.180748,9.957825,,,,,,,
1523524382.104387,-0.645185,0.077735,2.212807,0.164571,0.259370,-0.022235,-0.599524,-0.077657,-0.796567,-0.053781,-0.025691,-0.087832,1.144211,-3.106468,10.257690,,,,,,,
,,,,,,,,,,,,,,,,25.318982,51.433469,25.609160,27.760000,250.664062,1523524381.999508,
1523524382.134355,-0.645356,0.079001,2.210579,-0.130892,-0.253590,-0.109309,-0.599601,-0.078918,-0.796386,0.007056,0.002945,-0.063538,0.695740,-3.179085,10.632751,,,,,,,
1523524382.164324,-0.651450,0.075788,2.206844,-0.099761,-0.064327,0.017304,-0.604594,-0.075715,-0.792914,0.027659,0.043992,-0.002130,1.293610,-3.256996,10.408325,,,,,,,
1523524382.194292,-0.648649,0.078119,2.209122,0.242024,0.171915,-0.003974,-0.602262,-0.078040,-0.794462,-0.028201,-0.026926,-0.034639,1.817535,-3.184654,10.108276,,,,,,,
1523524382.224260,-0.644455,0.083523,2.213097,0.133589,0.042523,-0.000728,-0.598662,-0.083426,-0.796633,-0.044648,-0.070489,-0.067915,0.692886,-3.329292,10.408264,,,,,,,
1523524382.254229,-0.649750,0.082879,2.211699,-0.101437,-0.246836,-0.020862,-0.602904,-0.082784,-0.793494,0.023009,0.000692,0.062995,1.218613,-3.256660,10.408264,,,,,,,
1523524382.284197,-0.648803,0.082586,2.213192,0.067665,0.205725,0.086425,-0.602168,-0.082492,-0.794084,-0.017522,-0.020306,0.037171,1.140930,-3.706017,10.710022,,,,,,,
1523524382.314165,-0.649032,0.079192,2.212539,-0.251089,-0.227697,0.030155,-0.602515,-0.079109,-0.794165,-0.020639,0.047157,-0.033396,0.616852,-3.478874,10.483887,,,,,,,
1523524382.344133,-0.651451,0.075843,2.210314,0.034777,0.144850,-0.008378,-0.604592,-0.075770,-0.792911,-0.016273,0.042873,0.037997,1.441498,-3.332893,10.183716,,,,,,,
1523524382.374102,-0.645647,0.082598,2.212652,0.281951,0.157597,-0.097698,-0.599658,-0.082504,-0.795980,-0.008115,-0.022507,-0.037730,0.987930,-3.780693,10.335205,,,,,,,
1523524382.404070,-0.644535,0.086820,2.213893,0.006180,-0.076975,-0.036935,-0.598558,-0.086710,-0.796360,0.037660,-0.015874,-0.025646,1.139282,-3.781151,10.560364,,,,,,,
1523524382.434038,-0.648377,0.084627,2.212844,-0.001422,-0.011654,0.045043,-0.601726,-0.084526,-0.794204,0.053615,-0.016319,0.066467,0.919250,-3.330086,10.633423,,,,,,,
1523524382.464006,-0.643283,0.086883,2.216533,0.110268,0.153721,0.062004,-0.597557,-0.086773,-0.797105,-0.021950,-0.043308,-0.062927,1.290024,-3.706841,10.560120,,,,,,,
1523524382.493975,-0.646260,0.084962,2.215994,-0.127127,-0.257420,-0.017675,-0.600027,-0.084860,-0.795454,0.019033,0.023779,0.048933,0.839752,-3.779716,10.635193,,,,,,,
1523524382.523943,-0.647530,0.085489,2.215573,0.096807,0.196567,0.018262,-0.601010,-0.085385,-0.794655,-0.021778,-0.057132,0.040444,0.916260,-3.630058,10.634644,,,,,,,
1523524382.553911,-0.642873,0.087478,2.215840,-0.086332,-0.036125,-0.072202,-0.597199,-0.087366,-0.797308,-0.005386,-0.032461,-0.086587,0.540375,-3.853157,10.860352,,,,,,,
1523524382.583879,-0.650463,0.082122,2.210502,-0.248101,-0.272335,0.031261,-0.603508,-0.082030,-0.793114,0.066353,0.021956,0.041267,0.464767,-3.778038,10.635010,,,,,,,
1523524382.613848,-0.648971,0.080292,2.214260,0.193563,0.316178,0.200427,-0.602413,-0.080205,-0.794132,-0.022556,-0.029154,-0.004803,0.915802,-3.630135,10.559631,,,,,,,
1523524382.643816,-0.643407,0.080782,2.219826,-0.052053,-0.083986,0.071728,-0.597962,-0.080694,-0.797439,-0.053496,0.012960,-0.112290,-0.426224,-3.098656,11.006836,,,,,,,
1523524382.673784,-0.650634,0.075246,2.216927,-0.183584,-0.175792,0.029089,-0.603971,-0.075175,-0.793440,-0.019320,0.030376,0.029219,0.098450,-2.951332,10.706482,,,,,,,
1523524382.703752,-0.648709,0.075229,2.217481,0.111671,0.149923,-0.004048,-0.602443,-0.075158,-0.794603,-0.026982,0.016946,-0.040816,0.918930,-3.180382,10.332825,,,,,,,
1523524382.733721,-0.646991,0.077434,2.217925,0.014903,-0.056689,-0.053997,-0.600976,-0.077356,-0.795502,-0.008490,0.021326,-0.068069,0.698273,-2.879173,10.556519,,,,,,,
1523524382.763689,-0.649996,0.078535,2.217953,0.097946,-0.013928,0.030207,-0.603312,-0.078454,-0.793624,0.025126,0.007989,0.039382,0.624786,-2.953468,10.931763,,,,,,,
1523524382.793657,-0.645956,0.081121,2.223507,0.170976,0.171315,0.106788,-0.599977,-0.081032,-0.795891,-0.008239,-0.010704,0.015007,0.397095,-3.177513,10.857544,,,,,,,
1523524382.823626,-0.645404,0.078063,2.225810,-0.165515,-0.062929,0.141934,-0.599684,-0.077984,-0.796416,-0.012194,0.018047,0.019118,0.319107,-3.252541,10.482788,,,,,,,
1523524382.853594,-0.645531,0.070941,2.225151,-0.195713,0.030070,0.074686,-0.600103,-0.070882,-0.796763,-0.061457,0.057286,-0.056295,0.320282,-2.952858,10.181641,,,,,,,
1523524382.883562,-0.645989,0.070122,2.222914,0.034392,-0.046854,-0.098749,-0.600503,-0.070065,-0.796534,-0.036781,0.033138,-0.041600,0.840927,-3.255409,9.958069,,,,,,,
1523524382.913530,-0.645825,0.074208,2.222721,0.135080,0.026205,-0.097680,-0.600195,-0.074140,-0.796398,0.014868,0.061536,-0.018391,-0.136581,-3.550941,10.033752,,,,,,,
1523524382.943499,-0.644419,0.079278,2.223527,0.200632,0.169182,-0.054083,-0.598841,-0.079195,-0.796930,-0.003424,-0.059263,0.031778,0.096359,-3.251167,10.857666,,,,,,,
1523524382.973467,-0.639029,0.083498,2.225788,0.057870,0.019588,-0.036989,-0.594333,-0.083401,-0.799870,0.010501,-0.051090,-0.076076,1.144974,-3.256096,10.633240,,,,,,,
1523524383.003435,-0.646933,0.079956,2.223287,-0.169297,-0.293938,0.052656,-0.600810,-0.079871,-0.795379,0.062480,0.029914,0.103286,1.073120,-3.255257,11.158203,,,,,,,
1523524383.033403,-0.645416,0.077964,2.225868,0.112668,0.277682,0.115145,-0.599698,-0.077886,-0.796415,-0.032855,0.003331,0.042829,0.394409,-3.402580,10.783447,,,,,,,
1523524383.063372,-0.639204,0.079645,2.227009,-0.088319,0.004226,-0.066920,-0.594660,-0.079561,-0.800019,-0.073233,-0.039931,-0.103988,1.147369,-3.105965,10.782654,,,,,,,
1523524383.093349,-0.645860,0.075350,2.219787,-0.275098,-0.267048,-0.108340,-0.600171,-0.075279,-0.796308,0.042844,0.046256,-0.002871,0.020905,-3.026268,10.406738,,,,,,,
,,,,,,,,,,,,,,,,25.318896,51.433203,24.839978,28.080000,249.609375,1523524382.999498,
1523524383.123317,-0.647570,0.076397,2.218107,0.243106,0.160337,-0.018887,-0.601484,-0.076323,-0.795218,0.057386,0.006804,0.042761,0.766998,-3.554405,10.634277,,,,,,,
1523524383.153285,-0.638228,0.082789,2.225085,0.173488,0.236240,0.090742,-0.593727,-0.082694,-0.800394,-0.024132,-0.071969,-0.106772,0.917007,-3.555077,10.634338,,,,,,,
1523524383.183254,-0.644623,0.076687,2.223678,-0.332242,-0.406369,0.081416,-0.599125,-0.076612,-0.796969,0.010914,-0.004915,-0.035032,0.622986,-3.178383,11.007690,,,,,,,
1523524383.213222,-0.647257,0.071572,2.224282,0.068179,0.140565,0.135502,-0.601451,-0.071511,-0.795690,-0.002233,0.013848,0.033071,-0.354965,-3.249352,10.632507,,,,,,,
1523524383.243190,-0.643226,0.071589,2.228013,-0.069927,0.003086,0.089724,-0.598237,-0.071528,-0.798108,-0.051405,0.025904,-0.079563,0.547256,-3.028404,10.632080,,,,,,,
1523524383.273158,-0.648223,0.065530,2.224339,-0.238091,-0.239108,-0.014573,-0.602469,-0.065483,-0.795439,-0.005289,0.069435,0.014616,-0.056335,-3.250923,10.407593,,,,,,,
1523524383.303127,-0.648013,0.066979,2.225569,0.278352,0.210950,0.023714,-0.602244,-0.066929,-0.795489,-0.036733,-0.013424,0.026614,-0.284607,-3.624809,10.484009,,,,,,,
1523524383.333095,-0.644404,0.072042,2.229886,0.066987,-0.056081,-0.008138,-0.599158,-0.071980,-0.797376,-0.009806,0.027546,-0.009249,0.844238,-3.329750,10.633423,,,,,,,
1523524383.363063,-0.649320,0.067792,2.228259,-0.173809,-0.090045,0.071632,-0.603250,-0.067740,-0.794657,-0.006537,0.027869,0.062022,0.237534,-4.002007,10.635803,,,,,,,
1523524383.393031,-0.648361,0.064962,2.228572,-0.009628,0.046909,0.031125,-0.602601,-0.064916,-0.795385,-0.012053,0.072408,-0.020090,0.015060,-3.476463,10.183594,,,,,,,
1523524383.423000,-0.648897,0.065420,2.228863,0.050206,0.006663,-0.010338,-0.603009,-0.065373,-0.795039,0.006451,0.083073,0.037012,0.241394,-3.252632,10.032776,,,,,,,
1523524383.452968,-0.645540,0.069127,2.230320,0.188188,0.217257,-0.085049,-0.600187,-0.069071,-0.796859,-0.022234,0.005442,0.012847,-0.657043,-3.547844,10.783508,,,,,,,
1523524383.482936,-0.641809,0.074784,2.229009,0.062805,-0.027084,-0.203154,-0.596966,-0.074715,-0.798767,0.011380,-0.041771,-0.071762,-0.656143,-3.547707,10.933533,,,,,,,
1523524383.512905,-0.647880,0.074929,2.224156,-0.111858,-0.265495,-0.084777,-0.601798,-0.074859,-0.795120,0.116629,0.031066,0.015060,0.467896,-3.328285,10.408203,,,,,,,
1523524383.542873,-0.648993,0.074342,2.226661,0.159057,0.227099,0.187700,-0.602709,-0.074274,-0.794484,0.040392,-0.024786,0.056691,0.247116,-3.401466,11.233398,,,,,,,
1523524383.572841,-0.643655,0.074608,2.233168,0.023779,-0.038684,0.102626,-0.598447,-0.074539,-0.797674,-0.049288,-0.010986,-0.079599,-0.126083,-3.174858,11.157288,,,,,,,
1523524383.602809,-0.648889,0.071535,2.231846,-0.107467,-0.134366,0.004595,-0.602750,-0.071474,-0.794710,-0.034564,0.016268,0.060533,-0.275635,-2.949501,10.856323,,,,,,,
1523524383.632778,-0.646897,0.071863,2.230678,0.010402,0.094423,-0.083987,-0.601151,-0.071801,-0.795890,-0.046706,-0.000312,-0.057107,-0.650467,-3.022652,11.006409,,,,,,,
1523524383.662746,-0.646711,0.072508,2.226965,-0.112946,-0.052863,-0.100971,-0.600976,-0.072444,-0.795965,0.010308,0.000423,-0.068720,0.469238,-3.103432,10.257324,,,,,,,
1523524383.692714,-0.649293,0.070324,2.223992,-0.057109,-0.070861,0.023741,-0.603123,-0.070266,-0.794535,0.016956,-0.019059,-0.050650,0.919388,-3.180305,10.407837,,,,,,,
1523524383.722682,-0.647246,0.071636,2.228142,0.191041,0.114991,0.100466,-0.601439,-0.071574,-0.795693,-0.027498,-0.036351,-0.107001,0.016876,-3.700813,10.859436,,,,,,,
1523524383.752651,-0.651057,0.072817,2.231619,0.047755,-0.234929,0.045307,-0.604415,-0.072752,-0.793328,0.009139,0.030958,0.022240,-0.278320,-3.399178,11.158081,,,,,,,
1523524383.782619,-0.651539,0.073910,2.235374,0.143303,0.194741,0.109938,-0.604749,-0.073843,-0.792973,-0.054538,-0.035181,0.042698,-0.274261,-3.173897,11.457153,,,,,,,
1523524383.812587,-0.647069,0.073896,2.236842,-0.130479,-0.077702,-0.037031,-0.601199,-0.073829,-0.795669,-0.065518,-0.018731,-0.091691,-0.723190,-3.246574,11.757263,,,,,,,
1523524383.842555,-0.655099,0.068580,2.230391,-0.249595,-0.219741,-0.044438,-0.607799,-0.068526,-0.791115,0.020610,0.046691,0.049309,-0.498962,-3.097954,11.381836,,,,,,,
1523524383.857570,-0.655815,0.067216,2.229014,-0.070285,0.056833,0.001235,-0.608422,-0.067165,-0.790753,0.027001,0.056560,0.033093,0.846771,-3.029839,10.557190,,,,,,,
1523524383.887538,-0.649926,0.069755,2.231677,0.167288,0.219649,0.035340,-0.603650,-0.069698,-0.794184,-0.048542,-0.049366,-0.099904,-0.277725,-3.249321,11.007507,,,,,,,
1523524383.917507,-0.652347,0.069487,2.232376,-0.114728,-0.330898,-0.000537,-0.605582,-0.069431,-0.792735,0.023886,0.048221,-0.039326,-0.504059,-3.248528,10.782349,,,,,,,
1523524383.947475,-0.659717,0.067185,2.232847,0.123230,-0.002800,0.102661,-0.611504,-0.067135,-0.788375,0.042214,0.067715,0.123885,0.628235,-2.878029,11.381470,,,,,,,
1523524383.977443,-0.649553,0.072673,2.241576,0.311047,0.466312,0.116179,-0.603227,-0.072609,-0.794244,-0.061552,-0.025749,-0.002219,-0.275009,-3.248894,11.457458,,,,,,,
1523524384.007411,-0.646646,0.070469,2.241457,-0.322499,-0.308696,-0.062513,-0.601011,-0.070411,-0.796120,-0.019289,0.049537,-0.077323,-0.652863,-3.172798,10.856995,,,,,,,
1523524384.037380,-0.658137,0.064480,2.233907,-0.090349,-0.159696,-0.025206,-0.610366,-0.064436,-0.789481,0.059295,0.076399,0.136939,0.398590,-3.027519,10.856934,,,,,,,
1523524384.067348,-0.648718,0.069501,2.239569,0.302824,0.464599,0.057587,-0.602700,-0.069445,-0.794927,-0.039176,-0.001249,-0.030757,-0.581131,-3.548042,10.933533,,,,,,,
,,,,,,,,,,,,,,,,25.318803,51.432942,25.053848,28.190001,249.257812,1523524383.999490,
1523524384.097288,-0.647530,0.070056,2.238522,-0.209028,-0.306439,-0.119979,-0.601732,-0.069999,-0.795612,-0.020658,0.027564,-0.083722,-0.202408,-3.174736,10.932251,,,,,,,
1523524384.127256,-0.655194,0.068674,2.233293,0.051328,-0.041829,-0.064639,-0.607870,-0.068620,-0.791053,0.054831,0.025575,0.089392,0.322845,-3.102180,10.857239,,,,,,,
1523524384.157225,-0.648149,0.073534,2.237676,0.193094,0.265237,0.040644,-0.602074,-0.073467,-0.795040,-0.007789,-0.022205,-0.028095,-0.572739,-3.022545,11.456421,,,,,,,
1523524384.187193,-0.649858,0.071165,2.235636,-0.264757,-0.267522,-0.044400,-0.603535,-0.071105,-0.794146,0.014103,0.010833,0.002703,0.171677,-3.401192,11.158325,,,,,,,
1523524384.217161,-0.651192,0.067417,2.232958,-0.007967,0.173410,0.024598,-0.604752,-0.067366,-0.793547,-0.022919,-0.020525,-0.061495,0.169586,-3.476402,10.933655,,,,,,,
1523524384.247129,-0.650000,0.068411,2.232687,-0.007865,-0.144775,-0.062444,-0.603765,-0.068358,-0.794213,0.021474,0.031843,-0.037818,-0.281311,-3.474525,10.783386,,,,,,,
1523524384.277098,-0.652244,0.068630,2.232554,0.039317,0.048670,0.065259,-0.605536,-0.068576,-0.792844,0.023856,0.005557,0.018140,0.699478,-3.028725,11.007141,,,,,,,
1523524384.307066,-0.648245,0.067229,2.236403,-0.014207,0.114118,0.147192,-0.602418,-0.067179,-0.795335,-0.076216,-0.054968,-0.112013,0.399490,-3.027367,11.006958,,,,,,,
1523524384.337034,-0.652947,0.062053,2.234864,-0.231313,-0.377375,0.000493,-0.606354,-0.062013,-0.792760,0.010300,0.078096,-0.043956,-0.504364,-3.323463,10.857666,,,,,,,
1523524384.367003,-0.658460,0.059184,2.235715,0.136116,0.099693,0.179295,-0.610821,-0.059150,-0.789542,0.009976,0.069053,0.096213,-0.426376,-3.023811,10.856506,,,,,,,
1523524384.396971,-0.648157,0.061722,2.244802,0.181215,0.331616,0.124749,-0.602562,-0.061683,-0.795672,-0.115166,0.019446,-0.068189,0.253235,-2.651711,11.005371,,,,,,,
1523524384.426939,-0.650636,0.059579,2.242356,-0.246545,-0.320319,-0.099733,-0.604612,-0.059544,-0.794278,-0.053713,0.026081,-0.004489,-0.428619,-3.248802,10.857422,,,,,,,
1523524384.456907,-0.655642,0.056105,2.236637,-0.099098,-0.006499,-0.051982,-0.608702,-0.056076,-0.791401,0.042266,0.088364,0.068302,0.092468,-3.551292,10.708862,,,,,,,
1523524384.486876,-0.650271,0.056930,2.237789,0.092792,0.278212,0.042697,-0.604415,-0.056900,-0.794622,-0.004899,0.007919,-0.019343,-0.433853,-3.773766,10.859497,,,,,,,
1523524384.516844,-0.649090,0.055568,2.237715,-0.131008,-0.167123,-0.013502,-0.603522,-0.055539,-0.795396,0.010962,0.061856,-0.066176,-0.290146,-4.224724,10.561401,,,,,,,
1523524384.546812,-0.653089,0.052774,2.236190,0.033041,0.037233,0.031172,-0.606791,-0.052749,-0.793096,0.030329,0.058364,0.056646,-1.337997,-3.920158,10.409668,,,,,,,
1523524384.576780,-0.648486,0.054964,2.239277,0.096367,0.098781,0.020502,-0.603062,-0.054937,-0.795787,-0.019970,0.020116,-0.047108,0.310135,-4.377129,10.862305,,,,,,,
1523524384.606749,-0.650505,0.052627,2.237772,-0.154595,-0.214749,-0.033709,-0.604744,-0.052603,-0.794668,0.046318,0.090811,-0.004511,-0.589813,-4.373070,10.861816,,,,,,,
1523524384.636717,-0.653922,0.051079,2.237659,0.128047,0.101418,0.088711,-0.607504,-0.051056,-0.792660,0.009604,0.035004,0.044812,-0.812576,-4.147072,10.860840,,,,,,,
1523524384.666685,-0.647469,0.052982,2.244019,0.105687,0.115276,0.089749,-0.602317,-0.052957,-0.796485,-0.049462,0.053323,-0.104882,-0.733994,-3.697578,10.709045,,,,,,,
1523524384.696653,-0.653493,0.050098,2.242644,-0.121968,-0.289367,-0.010177,-0.607194,-0.050078,-0.792960,0.007127,0.098936,0.053138,-0.955978,-3.396584,10.707703,,,,,,,
1523524384.726622,-0.652211,0.051196,2.244284,0.207140,0.267498,0.014028,-0.606144,-0.051174,-0.793694,-0.020337,0.062648,0.023628,-0.356018,-3.399284,10.708008,,,,,,,
1523524384.756590,-0.647943,0.055201,2.246507,0.063236,-0.002568,-0.061470,-0.602622,-0.055173,-0.796104,-0.027962,0.034665,-0.031060,-0.804642,-3.397026,10.932861,,,,,,,
1523524384.786558,-0.649877,0.053360,2.244039,-0.098354,-0.077694,-0.051912,-0.604221,-0.053335,-0.795016,0.013645,0.051580,-0.007398,0.019577,-3.475731,10.933594,,,,,,,
1523524384.816526,-0.650874,0.052650,2.242563,0.035388,0.022725,-0.022089,-0.605036,-0.052626,-0.794444,0.004648,0.014891,-0.010533,0.619537,-3.253822,10.557983,,,,,,,
1523524384.846495,-0.649901,0.054680,2.244001,0.059803,0.021437,0.002431,-0.604196,-0.054653,-0.794946,0.002146,0.041469,-0.019752,0.022720,-3.250603,11.082642,,,,,,,
1523524384.876463,-0.652741,0.052122,2.242915,-0.102213,-0.152454,0.005685,-0.606535,-0.052099,-0.793335,-0.007326,0.055288,-0.008545,-0.501968,-3.173317,11.007080,,,,,,,
1523524384.906431,-0.651811,0.053192,2.243697,0.142655,0.135088,-0.021058,-0.605763,-0.053167,-0.793854,-0.045788,0.008092,-0.005676,0.616547,-3.553810,10.559204,,,,,,,
1523524384.936399,-0.650144,0.054968,2.243755,-0.056637,-0.066045,-0.059361,-0.604380,-0.054941,-0.794786,-0.017278,0.026864,-0.036864,0.622391,-3.103600,10.782349,,,,,,,
1523524384.966368,-0.653911,0.054061,2.240893,0.011834,-0.012179,-0.038048,-0.607400,-0.054034,-0.792543,0.041055,0.034625,0.089586,-0.051392,-3.025490,10.856689,,,,,,,
1523524384.996336,-0.647937,0.055210,2.244052,0.077271,0.233118,0.114123,-0.602617,-0.055182,-0.796107,-0.052748,-0.038369,-0.077260,0.405045,-2.652107,11.305481,,,,,,,
1523524385.026304,-0.650812,0.050231,2.242268,-0.303798,-0.366504,-0.010218,-0.605062,-0.050210,-0.794580,0.006689,0.071587,-0.028708,0.022415,-3.325523,11.157959,,,,,,,
1523524385.056273,-0.655831,0.046435,2.239934,0.069798,0.132791,0.027912,-0.609154,-0.046418,-0.791679,0.012077,0.058549,0.058403,-0.123688,-2.800102,10.930786,,,,,,,
1523524385.086249,-0.647654,0.051140,2.243721,0.168624,0.229469,-0.004079,-0.602522,-0.051117,-0.796450,-0.028047,0.012665,-0.042188,0.630310,-2.353569,10.854370,,,,,,,
,,,,,,,,,,,,,,,,25.318711,51.432677,23.421531,28.340000,249.257812,1523524384.999481,
1523524385.116217,-0.646901,0.049976,2.241987,-0.189609,-0.200664,-0.061444,-0.601958,-0.049955,-0.796951,0.013640,0.037306,-0.061951,0.252197,-2.801643,11.080933,,,,,,,
1523524385.146185,-0.652551,0.047552,2.239665,0.061608,-0.011783,0.039771,-0.606522,-0.047534,-0.793631,0.039582,0.022922,0.067175,-0.349274,-2.948936,11.081238,,,,,,,
1523524385.176154,-0.647314,0.050361,2.245462,0.182793,0.182981,0.104661,-0.602275,-0.050340,-0.796687,0.008678,0.048417,0.013224,0.855453,-2.429420,11.004822,,,,,,,
1523524385.206122,-0.646858,0.047486,2.246911,-0.177077,-0.099668,0.079111,-0.601997,-0.047468,-0.797073,-0.034127,0.019545,-0.016968,-0.265594,-2.348869,11.528870,,,,,,,
1523524385.236090,-0.649662,0.041738,2.244950,-0.161960,-0.096283,0.047144,-0.604384,-0.041726,-0.795586,-0.025102,0.069177,-0.049690,-0.194931,-2.424782,10.929260,,,,,,,
1523524385.266058,-0.652029,0.039534,2.243909,0.003114,-0.011329,-0.003962,-0.606320,-0.039523,-0.794225,0.003872,0.111560,0.001043,0.255020,-1.977547,10.177673,,,,,,,
1523524385.296027,-0.648103,0.042072,2.245382,0.130329,0.235010,-0.024350,-0.603135,-0.042060,-0.796516,-0.045592,0.040412,-0.029366,-0.341507,-2.124046,11.002991,,,,,,,
1523524385.325995,-0.644286,0.044442,2.244209,-0.039247,-0.072015,-0.123274,-0.600028,-0.044427,-0.798731,-0.041238,-0.005637,-0.144140,-0.495987,-2.348717,10.628784,,,,,,,
1523524385.355963,-0.651381,0.044197,2.240957,-0.007155,-0.218173,-0.053831,-0.605686,-0.044183,-0.794462,0.066578,0.083612,0.033766,0.778214,-2.429451,10.629761,,,,,,,
1523524385.385931,-0.650301,0.047466,2.244463,0.261255,0.253157,0.068433,-0.604738,-0.047448,-0.794997,-0.006148,0.020212,0.019163,-0.122650,-2.650185,10.855164,,,,,,,
1523524385.415900,-0.642739,0.051141,2.248274,0.033635,0.081291,-0.041315,-0.598600,-0.051119,-0.799402,-0.047259,-0.006666,-0.097250,-0.273834,-2.949196,11.156311,,,,,,,
1523524385.445868,-0.648549,0.049903,2.242554,-0.146589,-0.245756,-0.161531,-0.603273,-0.049883,-0.795960,0.053376,0.043993,0.061707,0.623581,-2.803917,10.481140,,,,,,,
1523524385.475836,-0.646207,0.052109,2.241045,0.135937,0.274442,-0.042501,-0.601339,-0.052086,-0.797282,0.043142,0.003593,0.000925,-0.048843,-2.950203,11.156433,,,,,,,
1523524385.505804,-0.641470,0.054124,2.240331,-0.063775,-0.037097,-0.095611,-0.597491,-0.054098,-0.800036,0.050494,0.015630,-0.079969,-0.199570,-3.024529,11.156616,,,,,,,
1523524385.535773,-0.645614,0.053625,2.236719,-0.000082,-0.058864,-0.044399,-0.600818,-0.053600,-0.797574,0.089725,0.009685,0.043195,0.849030,-3.029472,10.932190,,,,,,,
1523524385.565741,-0.639426,0.055973,2.239844,0.130071,0.256835,0.044891,-0.595794,-0.055944,-0.801174,0.030227,-0.028758,-0.069218,-0.047485,-2.949989,11.381470,,,,,,,
1523524385.595709,-0.640116,0.054725,2.238717,-0.165270,-0.220021,-0.036901,-0.596388,-0.054698,-0.800818,0.060743,0.025950,-0.046030,-0.049149,-2.800514,10.855835,,,,,,,
1523524385.625677,-0.643156,0.052867,2.236696,0.045012,0.070224,0.018369,-0.598880,-0.052842,-0.799081,0.091098,0.041459,0.044778,0.847366,-2.879982,10.406555,,,,,,,
1523524385.655646,-0.634858,0.055749,2.240047,0.097997,0.209344,0.010812,-0.592136,-0.055720,-0.803897,0.010654,-0.023503,-0.115430,0.097107,-3.176170,10.857422,,,,,,,
1523524385.685614,-0.637951,0.053826,2.237436,-0.195483,-0.287981,-0.033655,-0.594682,-0.053801,-0.802146,0.053545,0.008787,-0.083810,0.393784,-3.103172,10.182251,,,,,,,
1523524385.715582,-0.641987,0.050340,2.236464,0.045456,-0.009849,0.070669,-0.598023,-0.050319,-0.799885,0.077256,0.062526,0.002262,-0.283112,-3.699455,10.859314,,,,,,,
1523524385.745551,-0.637067,0.054659,2.241793,0.268556,0.214859,0.070617,-0.593946,-0.054631,-0.802635,-0.005465,-0.023372,-0.026940,-0.505859,-3.473442,10.858276,,,,,,,
1523524385.775519,-0.632085,0.054356,2.244464,-0.195957,-0.066439,0.043906,-0.589950,-0.054329,-0.805598,-0.020402,0.012276,-0.150838,0.092468,-3.551292,10.708862,,,,,,,
1523524385.805487,-0.641300,0.045848,2.238331,-0.278667,-0.233769,-0.006072,-0.597603,-0.045832,-0.800468,0.016258,0.045390,-0.016090,-0.432800,-3.848473,11.159790,,,,,,,
1523524385.835455,-0.639524,0.044838,2.237236,0.047397,0.063150,-0.034895,-0.596207,-0.044822,-0.801565,0.028596,0.078071,-0.159494,-0.733841,-3.772423,10.859375,,,,,,,
1523524385.865424,-0.642247,0.047237,2.238002,0.126661,-0.055385,0.019630,-0.598322,-0.047220,-0.799850,0.024714,0.031213,-0.037949,-0.654358,-3.322792,10.857605,,,,,,,
1523524385.895392,-0.637919,0.051888,2.243505,0.276050,0.166281,0.024854,-0.594717,-0.051865,-0.802248,-0.029825,-0.028900,-0.091826,-0.126831,-3.249855,11.157593,,,,,,,
1523524385.925360,-0.638393,0.056622,2.246053,0.069299,-0.053787,-0.035825,-0.594945,-0.056592,-0.801759,-0.016749,-0.060169,-0.017897,-0.870346,-2.871056,11.605713,,,,,,,
1523524385.955328,-0.641786,0.054325,2.243164,-0.207944,-0.204028,-0.029490,-0.597738,-0.054298,-0.799838,0.065649,0.053169,0.016330,-0.345383,-2.648811,11.230042,,,,,,,
1523524385.985297,-0.642294,0.051593,2.241586,0.002710,0.183864,0.040606,-0.598231,-0.051570,-0.799650,0.023951,0.023601,0.030653,-0.795502,-2.796547,11.455383,,,,,,,
1523524386.015265,-0.635384,0.051901,2.241589,-0.118863,0.086104,-0.069127,-0.592682,-0.051878,-0.803752,-0.042648,0.001509,-0.180410,-1.098206,-2.795631,11.005310,,,,,,,
1523524386.045233,-0.643202,0.050422,2.234149,-0.075157,-0.293642,-0.179528,-0.598993,-0.050401,-0.799154,0.049188,-0.005172,-0.058085,0.248138,-2.802299,10.405945,,,,,,,
1523524386.075201,-0.639686,0.057745,2.235988,0.369681,0.254746,-0.044437,-0.595943,-0.057713,-0.800938,0.101710,0.000142,-0.043957,-0.196732,-2.649696,11.005188,,,,,,,
1523524386.105164,-0.637908,0.062445,2.240492,0.097446,-0.088588,0.066530,-0.594350,-0.062404,-0.801769,0.099751,0.006068,0.027081,-0.271118,-2.948769,11.606323,,,,,,,
,,,,,,,,,,,,,,,,25.318619,51.432412,21.848799,28.750000,249.609375,1523524385.999472,
1523524386.135132,-0.638127,0.062329,2.245004,0.108523,0.123159,0.172879,-0.594530,-0.062289,-0.801645,0.028169,-0.026960,0.064569,0.031860,-2.650124,11.605286,,,,,,,
1523524386.165100,-0.633543,0.060519,2.249230,-0.044152,0.022165,0.083355,-0.590914,-0.060482,-0.804452,-0.024595,-0.010838,-0.014762,-0.117691,-2.649376,11.680176,,,,,,,
1523524386.195068,-0.635842,0.057520,2.245915,-0.179547,-0.129338,-0.084943,-0.592867,-0.057488,-0.803233,0.056384,0.068764,0.043177,-0.645081,-2.572533,11.154602,,,,,,,
1523524386.225037,-0.635846,0.057638,2.242702,0.042759,0.166535,-0.078684,-0.592866,-0.057606,-0.803225,0.074266,0.039509,0.048266,-0.866608,-2.496086,11.604187,,,,,,,
1523524386.255005,-0.629035,0.061223,2.242039,0.047117,0.153942,-0.104233,-0.587257,-0.061185,-0.807072,0.040916,-0.035129,-0.091899,-0.495361,-2.872749,11.605896,,,,,,,
1523524386.284973,-0.632411,0.060556,2.237667,-0.139624,-0.283458,-0.093281,-0.590002,-0.060519,-0.805118,0.113958,-0.004559,-0.033856,0.029007,-2.800346,11.380859,,,,,,,
1523524386.314942,-0.633060,0.060402,2.239386,0.185046,0.232701,0.131276,-0.590530,-0.060365,-0.804743,0.079772,-0.029418,0.008173,0.254135,-2.651573,11.155334,,,,,,,
1523524386.344910,-0.629082,0.061468,2.245199,0.003358,-0.056851,0.119706,-0.587286,-0.061429,-0.807033,0.022390,-0.003238,-0.075139,-0.266495,-2.349007,11.378906,,,,,,,
1523524386.374878,-0.633966,0.056459,2.244058,-0.193236,-0.166378,0.050403,-0.591395,-0.056429,-0.804392,0.033702,0.045504,0.034876,-0.719330,-2.497185,11.154236,,,,,,,
1523524386.404846,-0.630256,0.054460,2.243685,0.002054,0.226634,0.001149,-0.588472,-0.054433,-0.806671,-0.025419,-0.012202,-0.048295,0.180649,-2.276619,10.778809,,,,,,,
1523524386.434815,-0.628057,0.053954,2.240232,-0.173956,-0.126920,-0.129687,-0.586713,-0.053928,-0.807985,-0.005176,-0.010738,-0.159041,-0.119659,-2.350197,10.854004,,,,,,,
1523524386.464783,-0.634275,0.051864,2.234823,-0.044189,-0.162765,-0.065617,-0.591791,-0.051841,-0.804410,0.087350,0.018943,-0.059542,0.250244,-2.727074,10.630676,,,,,,,
1523524386.494751,-0.632046,0.055819,2.238790,0.275772,0.195494,0.102605,-0.589870,-0.055790,-0.805556,0.073894,-0.009075,-0.025636,0.853210,-2.429787,10.629822,,,,,,,
1523524386.524719,-0.628704,0.055966,2.244429,-0.083318,-0.074834,0.139899,-0.587170,-0.055936,-0.807516,-0.015094,-0.007067,-0.104959,-0.498520,-2.873253,11.080872,,,,,,,
1523524386.554688,-0.636793,0.049162,2.242683,-0.170212,-0.238919,0.080342,-0.593895,-0.049142,-0.803027,-0.009651,0.014550,0.035251,0.023163,-3.025902,10.781738,,,,,,,
1523524386.584656,-0.633641,0.047511,2.244392,0.020728,0.177273,0.063014,-0.591409,-0.047493,-0.804959,-0.028739,0.044793,-0.094653,0.020905,-3.026268,10.406738,,,,,,,
1523524386.614624,-0.634402,0.045382,2.242578,-0.154194,-0.126581,-0.031655,-0.592080,-0.045366,-0.804589,0.002343,0.067384,-0.057243,-0.353165,-3.249062,10.932495,,,,,,,
1523524386.644592,-0.634216,0.044866,2.241526,0.093573,0.135170,-0.020001,-0.591944,-0.044851,-0.804718,0.001489,0.039480,-0.047638,-0.429367,-3.323799,10.857727,,,,,,,
1523524386.674561,-0.630107,0.050095,2.243306,0.202510,0.064182,-0.088043,-0.588486,-0.050074,-0.806943,-0.004959,-0.033987,-0.091983,-0.054077,-3.250557,10.782593,,,,,,,
1523524386.704529,-0.632340,0.054447,2.243117,0.067969,-0.157695,-0.070865,-0.590152,-0.054420,-0.805443,0.084933,0.016624,0.017693,-0.878601,-3.246773,10.857178,,,,,,,
1523524386.734497,-0.630727,0.056505,2.245387,0.148225,0.257816,0.048112,-0.588785,-0.056475,-0.806302,0.026254,-0.049513,0.040890,-0.796249,-3.096169,11.831604,,,,,,,
1523524386.764465,-0.627012,0.056786,2.244819,-0.188217,-0.146409,-0.073204,-0.585776,-0.056756,-0.808470,0.005134,-0.037223,-0.098527,0.324066,-3.251732,11.307800,,,,,,,
1523524386.794434,-0.633989,0.050726,2.237887,-0.251569,-0.179451,-0.034867,-0.591595,-0.050704,-0.804626,0.079816,0.029342,0.022339,-0.124878,-3.099785,11.231995,,,,,,,
1523524386.824402,-0.631717,0.050946,2.237828,0.155647,0.208098,0.014067,-0.589759,-0.050924,-0.805960,0.053839,0.007085,-0.012812,-0.725464,-3.022301,11.006409,,,,,,,
1523524386.854370,-0.627127,0.056328,2.240742,0.123176,0.060786,-0.029499,-0.585884,-0.056298,-0.808424,0.022927,-0.049491,-0.069002,0.178253,-2.651375,11.005371,,,,,,,
1523524386.884338,-0.629545,0.054550,2.239490,-0.123797,-0.188706,0.025981,-0.587895,-0.054523,-0.807085,0.083653,-0.006283,0.025362,-0.194626,-2.574486,11.229858,,,,,,,
1523524386.914307,-0.629082,0.052319,2.240866,0.013712,0.091985,0.105713,-0.587591,-0.052295,-0.807453,0.063101,0.017215,-0.024563,-0.493286,-2.348289,11.078735,,,,,,,
1523524386.944275,-0.627639,0.049685,2.242702,-0.106297,-0.010732,0.098264,-0.586504,-0.049665,-0.808409,0.025210,0.022641,-0.062410,0.408920,-1.902718,10.702454,,,,,,,
1523524386.974243,-0.629466,0.045423,2.241698,-0.113742,-0.087813,0.029089,-0.588100,-0.045408,-0.807500,0.032420,0.051801,-0.045283,-0.267242,-1.974754,10.627441,,,,,,,
1523524387.004212,-0.628628,0.046452,2.243061,0.164699,0.092220,0.019513,-0.587395,-0.046435,-0.807954,0.008843,-0.024259,-0.041869,-0.266800,-2.199318,11.078308,,,,,,,
1523524387.034180,-0.625478,0.047173,2.245782,-0.058254,-0.065792,0.052543,-0.584827,-0.047156,-0.809773,0.023426,0.037588,-0.102595,-0.048859,-2.500954,10.404602,,,,,,,
1523524387.064148,-0.633314,0.042948,2.244027,-0.051396,-0.197618,0.058014,-0.591267,-0.042935,-0.805319,0.075688,0.081464,0.100088,-0.267548,-2.049675,10.702698,,,,,,,
1523524387.094142,-0.625705,0.045214,2.250165,0.239267,0.422755,0.134319,-0.585064,-0.045199,-0.809714,-0.045581,-0.002164,-0.027444,0.255478,-2.202110,10.628601,,,,,,,
,,,,,,,,,,,,,,,,25.318511,51.432135,21.848799,27.830000,248.906250,1523524386.999465,
1523524387.124110,-0.622682,0.044277,2.250006,-0.239863,-0.265105,-0.099762,-0.582639,-0.044262,-0.811513,-0.038882,0.019741,-0.123058,0.251129,-2.502312,10.404785,,,,,,,
1523524387.154078,-0.630498,0.040219,2.243229,-0.102347,-0.057288,-0.083886,-0.589064,-0.040208,-0.807072,0.045790,0.048585,0.051381,-0.051712,-2.651176,10.180237,,,,,,,
1523524387.184047,-0.624736,0.043151,2.242436,0.083638,0.204803,-0.098915,-0.584333,-0.043138,-0.810354,0.019467,0.010530,-0.105921,0.099945,-2.801338,10.705872,,,,,,,
1523524387.214015,-0.625729,0.044568,2.238625,-0.077055,-0.183504,-0.127420,-0.585101,-0.044554,-0.809723,0.073932,0.017515,-0.086044,0.246780,-2.802513,10.180969,,,,,,,
1523524387.243983,-0.625208,0.045884,2.239048,0.141535,0.211006,0.059866,-0.584644,-0.045868,-0.809980,0.063694,-0.040314,-0.012637,-0.578598,-3.248131,10.857361,,,,,,,
1523524387.273951,-0.623637,0.046372,2.242043,-0.022510,-0.179668,0.063350,-0.583358,-0.046355,-0.810879,0.031157,0.003203,-0.061939,-0.574707,-2.947990,11.006165,,,,,,,
1523524387.303920,-0.628556,0.042741,2.242639,-0.071557,-0.103385,0.114373,-0.587435,-0.042728,-0.808130,0.041765,0.056004,0.037164,-0.567978,-2.273018,11.003479,,,,,,,
1523524387.333888,-0.624955,0.040842,2.245380,0.007863,0.199421,0.091749,-0.584567,-0.040831,-0.810305,-0.029066,0.029372,-0.067442,-1.097305,-2.570869,10.779358,,,,,,,
1523524387.363856,-0.623790,0.038638,2.244723,-0.143529,-0.111900,-0.011395,-0.583673,-0.038628,-0.811057,-0.026419,0.025795,-0.104700,-2.442444,-2.039894,10.701538,,,,,,,
1523524387.393824,-0.629944,0.036151,2.241236,-0.042330,-0.205372,-0.050661,-0.588709,-0.036143,-0.807524,0.056864,0.092951,0.008696,-1.246109,-2.270500,10.478088,,,,,,,
1523524387.423793,-0.625679,0.040292,2.244672,0.311061,0.360593,0.032150,-0.585166,-0.040281,-0.809899,0.010353,0.011763,-0.018531,-1.688416,-2.042610,11.377014,,,,,,,
1523524387.453761,-0.619485,0.044438,2.247355,-0.022327,-0.043868,-0.058254,-0.580037,-0.044423,-0.813366,-0.004939,-0.015361,-0.126042,-1.761337,-1.742424,11.225708,,,,,,,
1523524387.483729,-0.628527,0.039910,2.241977,-0.224521,-0.326266,-0.021899,-0.587480,-0.039899,-0.808242,0.093537,0.066861,0.038894,-1.609222,-1.667900,11.450500,,,,,,,
1523524387.513697,-0.626680,0.038743,2.243970,0.149137,0.293503,0.109883,-0.586012,-0.038733,-0.809363,0.038054,0.051429,0.012046,-1.010757,-1.820580,11.451416,,,,,,,
1523524387.543666,-0.620209,0.039829,2.246674,-0.046895,-0.002612,-0.022092,-0.580738,-0.039819,-0.813104,-0.045116,0.005181,-0.146705,-0.565872,-1.973183,10.852234,,,,,,,
