timestamp(unix),attitude_roll(radians),attitude_pitch(radians),attitude_yaw(radians),rotation_rate_x(radians/s),rotation_rate_y(radians/s),rotation_rate_z(radians/s),gravity_x(G),gravity_y(G),gravity_z(G),user_acc_x(G),user_acc_y(G),user_acc_z(G),magnetic_field_x(microteslas),magnetic_field_y(microteslas),magnetic_field_z(microteslas),latitude(degree),longitude(degree),altitude(meter),speed(m/s),course(degree),timestamp(unix),User Mark
1522137521.361701,-0.164727,-0.006748,1.860338,0.296192,0.063617,-0.046912,-0.163979,0.006748,-0.986440,0.027520,0.020916,0.095892,-13.186356,-50.985855,2.486694,,,,,,,
1522137521.391670,-0.157573,0.002229,1.859934,0.239391,0.263478,-0.038636,-0.156921,-0.002229,-0.987608,0.050155,0.021897,-0.061754,-13.109695,-51.135681,3.012329,,,,,,,
1522137521.421638,-0.151636,0.006312,1.859610,0.079867,0.184033,-0.020547,-0.151053,-0.006312,-0.988505,0.034979,0.023096,-0.069509,-13.637543,-51.283524,2.787598,,,,,,,
,,,,,,,,,,,,,,,,25.304815,51.438218,-21.414860,-1.000000,-1.000000,1522137521.097619,
1522137521.451606,-0.147385,0.006202,1.858348,-0.032679,0.063354,-0.042900,-0.146849,-0.006202,-0.989139,0.008010,-0.010186,-0.132885,-12.507782,-50.988312,3.086975,,,,,,,
1522137521.481574,-0.147853,0.007617,1.858518,0.115853,-0.053422,0.038317,-0.147311,-0.007617,-0.989061,0.057696,-0.039365,-0.032073,-13.707581,-51.057770,3.236694,,,,,,,
1522137521.511543,-0.149709,0.010363,1.859828,0.088074,-0.075533,0.021259,-0.149142,-0.010363,-0.988761,0.016955,-0.013838,-0.031335,-13.034698,-51.136017,3.012390,,,,,,,
1522137521.541511,-0.154345,0.013286,1.859827,0.092134,-0.195180,-0.041482,-0.153719,-0.013286,-0.988025,0.017824,0.020610,-0.021802,-12.658524,-51.062637,3.087219,,,,,,,
1522137521.571479,-0.158078,0.014353,1.857829,-0.032056,-0.060815,-0.065152,-0.157405,-0.014352,-0.987429,0.039668,0.014611,-0.019117,-12.959732,-51.360977,3.388306,,,,,,,
1522137521.601448,-0.158144,0.013071,1.856131,-0.041493,0.015485,-0.032205,-0.157473,-0.013071,-0.987436,0.004686,-0.003836,-0.050710,-13.108353,-51.135452,3.237305,,,,,,,
1522137521.631416,-0.158209,0.012586,1.855678,-0.016566,-0.082684,0.016929,-0.157537,-0.012586,-0.987432,0.028341,-0.024676,-0.061777,-12.805969,-50.762054,3.010986,,,,,,,
1522137521.661384,-0.163254,0.011886,1.855510,-0.010556,-0.200473,-0.008519,-0.162518,-0.011885,-0.986634,-0.000842,-0.013490,0.016220,-13.033508,-51.060944,3.087036,,,,,,,
1522137521.691352,-0.169312,0.012068,1.855707,0.010762,-0.177318,0.017040,-0.168492,-0.012067,-0.985629,0.050618,0.014616,0.053286,-12.733215,-50.987366,3.011902,,,,,,,
1522137521.721321,-0.171257,0.012106,1.855707,-0.015254,-0.043297,0.005175,-0.170409,-0.012106,-0.985299,0.036437,0.001822,-0.002632,-12.433823,-51.138565,3.162659,,,,,,,
1522137521.751289,-0.173939,0.010382,1.854654,-0.107262,-0.130957,-0.036371,-0.173054,-0.010382,-0.984857,0.020374,-0.008753,0.018884,-13.260605,-51.359772,3.238159,,,,,,,
1522137521.781257,-0.178854,0.005583,1.852557,-0.205819,-0.192421,-0.025726,-0.177899,-0.005583,-0.984032,0.035428,-0.014024,0.071267,-13.109695,-51.135681,3.012329,,,,,,,
1522137521.811225,-0.183524,0.000158,1.850156,-0.161590,-0.134890,-0.063043,-0.182496,-0.000158,-0.983206,0.004410,0.020254,0.078955,-12.209763,-50.915115,2.636902,,,,,,,
1522137521.841205,-0.184672,-0.001918,1.846998,-0.040162,0.029547,-0.069504,-0.183624,0.001918,-0.982994,0.036743,0.030736,0.075752,-12.661087,-50.913300,2.411621,,,,,,,
1522137521.871172,-0.180685,-0.001821,1.846010,0.005073,0.183110,-0.012087,-0.179703,0.001821,-0.983719,0.034744,0.007655,-0.040161,-13.040115,-51.361511,2.488220,,,,,,,
1522137521.901140,-0.175960,-0.001757,1.845370,0.025995,0.096941,-0.004531,-0.175053,0.001757,-0.984557,0.041340,-0.013079,-0.039644,-12.659882,-50.838226,2.486328,,,,,,,
1522137521.931108,-0.176173,-0.000060,1.845374,0.090554,-0.043391,-0.017130,-0.175263,0.000060,-0.984521,0.006592,0.009538,0.012323,-13.038925,-51.286438,2.562988,,,,,,,
1522137521.961077,-0.174866,0.002390,1.844032,0.061619,0.098429,-0.078026,-0.173976,-0.002390,-0.984747,0.027293,0.008173,0.005239,-12.660324,-51.062927,2.787231,,,,,,,
1522137521.991045,-0.171102,0.004406,1.842205,0.019819,0.091975,-0.052476,-0.170267,-0.004406,-0.985388,0.033212,0.026867,-0.037699,-12.208862,-50.914963,2.786865,,,,,,,
1522137522.021013,-0.168932,0.003515,1.839948,-0.031388,0.100634,-0.054665,-0.168129,-0.003515,-0.985758,0.010582,0.020147,-0.012182,-12.137894,-51.365204,2.863708,,,,,,,
1522137522.050982,-0.165544,0.003354,1.839188,-0.024173,0.101312,-0.003509,-0.164788,-0.003354,-0.986323,0.015953,0.014676,-0.020238,-12.587448,-51.138474,2.562622,,,,,,,
1522137522.080950,-0.161072,0.001845,1.839758,-0.039027,0.169074,0.036901,-0.160377,-0.001845,-0.987054,-0.023278,0.016417,-0.058906,-11.909317,-50.916382,2.712036,,,,,,,
,,,,,,,,,,,,,,,,25.304765,51.438083,-21.381351,-1.000000,-1.000000,1522137522.099765,
1522137522.110919,-0.155151,0.001365,1.841255,0.022735,0.183490,0.080619,-0.154529,-0.001365,-0.987987,0.027667,-0.022911,-0.091816,-12.663620,-51.213211,2.487854,,,,,,,
1522137522.140887,-0.151567,0.001225,1.844610,0.004900,0.077977,0.132918,-0.150988,-0.001225,-0.988535,0.064562,-0.021739,-0.076666,-12.660629,-50.913223,2.486633,,,,,,,
1522137522.170856,-0.151831,0.000560,1.847376,-0.013479,-0.065940,0.053139,-0.151248,-0.000560,-0.988495,0.003742,0.011745,-0.085662,-12.885178,-50.912140,2.561523,,,,,,,
1522137522.200824,-0.155835,-0.000050,1.848272,-0.033154,-0.199589,0.025557,-0.155205,0.000050,-0.987882,0.022744,-0.002156,-0.011447,-13.561325,-51.208801,2.862366,,,,,,,
1522137522.230823,-0.161449,-0.001861,1.847760,-0.075504,-0.132477,0.015872,-0.160748,0.001861,-0.986993,0.038449,-0.008987,0.050851,-13.265717,-51.285721,2.262878,,,,,,,
1522137522.260791,-0.162100,-0.004706,1.847656,-0.096984,0.055807,-0.003521,-0.161389,0.004706,-0.986879,0.022061,0.002893,0.004869,-12.434891,-50.839233,2.486450,,,,,,,
1522137522.290759,-0.158221,-0.006504,1.846603,-0.055912,0.129228,-0.034456,-0.157559,0.006504,-0.987488,0.010220,0.005902,-0.052780,-13.111969,-50.911423,2.261414,,,,,,,
1522137522.320727,-0.154953,-0.008379,1.845284,-0.073389,0.073838,-0.007781,-0.154328,0.008379,-0.987984,0.039979,-0.012209,-0.057762,-12.890121,-51.137573,2.112427,,,,,,,
1522137522.350696,-0.154942,-0.009956,1.845827,-0.022881,-0.038191,0.038192,-0.154315,0.009956,-0.987971,0.022708,-0.013664,-0.002507,-13.036514,-50.911682,2.336426,,,,,,,
1522137522.380664,-0.156328,-0.009825,1.846420,0.026266,-0.067844,0.006294,-0.155685,0.009825,-0.987758,0.026397,0.002794,0.013316,-12.964233,-51.137085,2.262390,,,,,,,
1522137522.410632,-0.157787,-0.008025,1.845383,0.066304,-0.015486,-0.050198,-0.157128,0.008025,-0.987545,0.058968,-0.010100,0.029415,-12.431152,-50.464249,2.484985,,,,,,,
1522137522.440599,-0.156495,-0.005811,1.843197,0.058359,0.060344,-0.100369,-0.155854,0.005810,-0.987763,0.036103,0.013385,-0.030548,-12.736832,-50.987961,2.411865,,,,,,,
1522137522.470569,-0.156072,-0.002555,1.839784,0.127532,-0.038366,-0.141770,-0.155439,0.002555,-0.987842,-0.012362,0.030038,-0.025128,-13.184265,-50.910645,2.711365,,,,,,,
1522137522.500536,-0.155604,0.003138,1.836825,0.188431,0.042858,-0.078937,-0.154976,-0.003138,-0.987913,0.025826,0.004588,0.004179,-12.135803,-51.065369,2.712463,,,,,,,
1522137522.530504,-0.152475,0.007499,1.836139,0.117002,0.125580,-0.029002,-0.151881,-0.007499,-0.988370,-0.000265,0.023414,-0.063174,-11.914856,-51.067032,2.037598,,,,,,,
1522137522.560472,-0.149821,0.010390,1.836208,0.086539,0.038293,0.004093,-0.149253,-0.010390,-0.988744,0.011268,-0.001924,-0.097224,-12.733673,-50.987442,2.936890,,,,,,,
1522137522.590441,-0.150700,0.012044,1.836723,0.041140,-0.073247,0.014830,-0.150119,-0.012044,-0.988594,0.014041,-0.006068,-0.060646,-12.358536,-51.063980,3.087402,,,,,,,
1522137522.620409,-0.152968,0.012023,1.836739,-0.021870,-0.071002,0.020108,-0.152361,-0.012023,-0.988251,0.042727,-0.003083,-0.023162,-12.285797,-51.289307,3.088318,,,,,,,
1522137522.650378,-0.155370,0.009249,1.837178,-0.149994,-0.070709,0.022151,-0.154739,-0.009249,-0.987912,0.010955,0.006503,-0.003528,-12.885162,-51.361389,3.313354,,,,,,,
1522137522.680346,-0.156702,0.003789,1.836661,-0.189463,-0.062086,0.021037,-0.156060,-0.003789,-0.987740,0.026650,0.006063,0.009056,-12.137604,-51.065659,2.412476,,,,,,,
1522137522.710315,-0.158344,-0.001073,1.836426,-0.122118,-0.041046,0.025337,-0.157683,0.001073,-0.987489,0.010024,-0.000020,0.036897,-12.660934,-50.988144,2.561951,,,,,,,
1522137522.740283,-0.158394,-0.002712,1.836472,-0.013761,0.040736,-0.005574,-0.157731,0.002712,-0.987478,0.017732,-0.006740,0.004385,-13.038025,-51.286301,2.712952,,,,,,,
1522137522.770251,-0.156250,-0.001347,1.836725,0.071728,0.081812,0.015761,-0.155615,0.001347,-0.987817,0.044241,-0.036320,-0.048881,-12.516342,-51.438950,2.413818,,,,,,,
1522137522.800220,-0.155014,0.000322,1.838431,0.042299,-0.008699,0.053124,-0.154394,-0.000322,-0.988009,0.009039,-0.019683,-0.056791,-12.136856,-50.990662,2.412231,,,,,,,
1522137522.830188,-0.156494,0.000698,1.839546,0.004712,-0.070133,0.040362,-0.155856,-0.000698,-0.987779,0.017947,-0.025532,0.005830,-12.510330,-51.063614,2.787292,,,,,,,
1522137522.860132,-0.158090,-0.000387,1.840561,-0.076154,-0.032620,0.021094,-0.157432,0.000387,-0.987529,0.017280,-0.004919,0.061550,-13.336517,-50.910339,2.336243,,,,,,,
1522137522.890100,-0.156312,-0.003404,1.840242,-0.117034,0.103692,-0.006778,-0.155676,0.003404,-0.987802,0.030721,-0.003297,0.007944,-13.041016,-51.361664,2.338196,,,,,,,
1522137522.920069,-0.152881,-0.005400,1.839252,-0.030504,0.095063,-0.021611,-0.152284,0.005399,-0.988322,0.033845,-0.016050,-0.066656,-13.567490,-51.509293,2.338562,,,,,,,
1522137522.950037,-0.151412,-0.005028,1.838632,0.016098,0.017352,-0.017239,-0.150833,0.005028,-0.988546,0.016113,-0.013130,-0.068949,-12.063507,-51.066147,2.262573,,,,,,,
1522137522.980005,-0.152092,-0.003966,1.838050,0.051918,-0.075247,-0.006473,-0.151505,0.003966,-0.988448,0.033646,-0.012481,0.010848,-13.415710,-51.285049,2.262756,,,,,,,
1522137523.009973,-0.153493,-0.001883,1.838305,0.063994,0.002257,-0.002275,-0.152891,0.001883,-0.988241,0.018232,0.003611,0.004598,-12.590149,-51.363541,2.488464,,,,,,,
1522137523.039942,-0.151084,-0.000359,1.837397,0.044318,0.078125,-0.054582,-0.150509,0.000359,-0.988608,0.024029,-0.002220,-0.087655,-12.134308,-50.915375,2.711914,,,,,,,
1522137523.069910,-0.150498,0.001579,1.835689,0.053548,-0.015344,-0.063008,-0.149931,-0.001579,-0.988695,0.007688,-0.018700,-0.069228,-12.214111,-51.215317,2.413086,,,,,,,
,,,,,,,,,,,,,,,,25.304707,51.437937,-21.396275,-1.000000,-1.000000,1522137523.087598,
1522137523.099878,-0.151912,0.002891,1.834143,0.020135,-0.068500,-0.048059,-0.151328,-0.002891,-0.988479,0.008872,0.003319,-0.017396,-12.664383,-51.288208,2.488159,,,,,,,
1522137523.129846,-0.153574,0.003061,1.833125,-0.003454,-0.050645,-0.011857,-0.152970,-0.003061,-0.988226,0.029236,0.014871,0.024435,-11.759766,-50.917130,2.637146,,,,,,,
1522137523.159815,-0.153292,0.002462,1.832545,-0.037014,0.072805,-0.023741,-0.152692,-0.002462,-0.988270,0.018475,0.024938,-0.001613,-12.511078,-51.138596,2.787598,,,,,,,
1522137523.189783,-0.149473,0.002261,1.830725,0.006182,0.120864,-0.074896,-0.148916,-0.002261,-0.988847,0.053579,0.015124,-0.096648,-12.660324,-51.062927,2.787231,,,,,,,
1522137523.219751,-0.147178,0.003780,1.828879,0.064432,0.049320,-0.046011,-0.146646,-0.003780,-0.989181,0.052316,-0.000707,-0.116074,-11.908859,-50.916321,2.787048,,,,,,,
1522137523.249719,-0.147121,0.006172,1.828260,0.083263,-0.032585,-0.041647,-0.146588,-0.006172,-0.989178,-0.018939,0.012672,-0.083790,-12.810165,-51.137100,2.937500,,,,,,,
1522137523.279688,-0.149561,0.008812,1.828299,0.074980,-0.139251,0.020249,-0.148998,-0.008812,-0.988798,0.033581,-0.010582,-0.014620,-12.361389,-50.989563,2.487122,,,,,,,
1522137523.309656,-0.152119,0.008816,1.829010,-0.039635,-0.002830,0.004037,-0.151527,-0.008816,-0.988413,-0.021370,0.025173,-0.013280,-11.533875,-50.917999,2.787231,,,,,,,
1522137523.339624,-0.151067,0.007836,1.828380,-0.019249,0.007810,-0.005546,-0.150489,-0.007836,-0.988580,0.022864,-0.007545,-0.080939,-12.586990,-51.138412,2.637634,,,,,,,
1522137523.369592,-0.151782,0.007266,1.828644,-0.023936,-0.043427,0.029663,-0.151196,-0.007266,-0.988477,-0.005680,-0.010175,-0.051242,-12.362747,-50.989792,2.262146,,,,,,,
1522137523.399561,-0.153815,0.005827,1.828652,-0.060275,-0.088822,-0.001212,-0.153207,-0.005827,-0.988177,0.015924,-0.027789,-0.009535,-12.441330,-51.214661,2.037964,,,,,,,
1522137523.429529,-0.158416,0.002793,1.828375,-0.146226,-0.187578,0.018011,-0.157754,-0.002793,-0.987474,0.022500,-0.012680,0.095613,-12.214264,-51.140457,2.262817,,,,,,,
1522137523.459497,-0.162703,-0.003062,1.827605,-0.221580,-0.108597,-0.002382,-0.161986,0.003062,-0.986788,0.013579,0.006307,0.103869,-12.140320,-50.841461,1.586609,,,,,,,
1522137523.489466,-0.163900,-0.008620,1.827282,-0.163643,0.007813,0.044430,-0.163161,0.008619,-0.986561,0.044112,-0.001692,0.108342,-11.988220,-50.766922,1.811401,,,,,,,
1522137523.519434,-0.161036,-0.012836,1.827906,-0.120304,0.141631,0.039001,-0.160327,0.012836,-0.986980,0.036548,-0.006366,0.035579,-12.442993,-51.065186,1.512390,,,,,,,
1522137523.549402,-0.158675,-0.016402,1.827770,-0.118607,0.011127,0.010364,-0.157989,0.016401,-0.987304,0.044555,-0.013350,0.011688,-12.292267,-50.766235,1.136292,,,,,,,
1522137523.579370,-0.161005,-0.020446,1.827722,-0.134280,-0.128158,0.028603,-0.160276,0.020445,-0.986860,0.050444,-0.010221,0.075514,-11.918930,-50.843063,0.986755,,,,,,,
1522137523.609339,-0.164350,-0.023424,1.827976,-0.052957,-0.086909,0.028615,-0.163566,0.023422,-0.986254,0.016929,0.000199,0.080065,-12.368301,-50.915817,1.211792,,,,,,,
1522137523.639307,-0.165984,-0.023078,1.828670,0.056349,-0.012712,0.015838,-0.165178,0.023076,-0.985993,0.014925,0.002116,0.080933,-13.115875,-50.762299,1.360840,,,,,,,
1522137523.669275,-0.164662,-0.021391,1.828574,0.031253,0.049321,-0.032194,-0.163881,0.021390,-0.986248,0.006762,-0.003796,-0.014683,-12.444641,-51.140320,1.362671,,,,,,,
1522137523.699243,-0.163603,-0.021381,1.827566,-0.009605,0.015221,-0.005544,-0.162837,0.021379,-0.986421,0.034846,-0.016115,-0.007125,-12.141968,-50.916611,1.436951,,,,,,,
1522137523.729212,-0.162505,-0.022751,1.828119,-0.063118,0.064833,0.061490,-0.161749,0.022749,-0.986569,0.007941,-0.012801,0.014706,-12.520248,-51.065216,1.137329,,,,,,,
1522137523.759180,-0.161168,-0.025175,1.829616,-0.079360,0.012808,0.060468,-0.160421,0.025172,-0.986727,0.018941,-0.015575,-0.003461,-12.369644,-51.140656,1.362671,,,,,,,
1522137523.789148,-0.161595,-0.027543,1.830655,-0.079449,-0.032727,0.038138,-0.160832,0.027540,-0.986597,0.023686,-0.015775,0.006769,-12.820084,-50.914093,0.911560,,,,,,,
1522137523.819116,-0.160531,-0.029925,1.830215,-0.059385,0.084554,-0.023773,-0.159771,0.029920,-0.986700,0.014141,-0.000852,-0.026987,-13.943710,-50.684174,0.760132,,,,,,,
1522137523.849099,-0.157996,-0.029192,1.829165,0.053868,0.090677,-0.031138,-0.157273,0.029188,-0.987123,0.031616,-0.023435,-0.028395,-11.995117,-50.917801,0.911987,,,,,,,
1522137523.879067,-0.155340,-0.026955,1.828952,0.079319,0.076699,-0.013009,-0.154659,0.026952,-0.987600,0.007488,-0.000752,-0.055796,-12.591660,-50.839661,1.361389,,,,,,,
1522137523.909035,-0.155195,-0.024148,1.828283,0.088457,-0.058119,-0.037363,-0.154528,0.024145,-0.987693,0.002200,0.004236,-0.038735,-12.670380,-51.214294,1.362854,,,,,,,
1522137523.939003,-0.155793,-0.022286,1.828145,0.032114,0.041649,0.000846,-0.155125,0.022284,-0.987643,0.029210,0.010217,0.004641,-13.268417,-51.286163,1.812866,,,,,,,
1522137523.968972,-0.151669,-0.021838,1.828726,0.016602,0.179658,0.024141,-0.151052,0.021836,-0.988284,0.019200,0.005233,-0.081601,-12.821442,-51.363556,1.438354,,,,,,,
1522137523.998940,-0.147676,-0.021186,1.829748,0.032059,0.069022,0.035986,-0.147107,0.021184,-0.988893,0.007276,-0.012624,-0.117369,-12.070114,-51.142075,1.287842,,,,,,,
1522137524.028908,-0.147999,-0.020961,1.830767,-0.011130,-0.045590,0.029678,-0.147427,0.020959,-0.988850,-0.003467,-0.012414,-0.077342,-13.040421,-50.987183,1.811768,,,,,,,
1522137524.058877,-0.149957,-0.022470,1.833075,-0.070543,-0.090733,0.123449,-0.149358,0.022468,-0.988528,0.044133,-0.029884,-0.046201,-13.044785,-51.287399,1.587952,,,,,,,
1522137524.088845,-0.152038,-0.026893,1.836190,-0.160062,-0.059669,0.119091,-0.151398,0.026890,-0.988107,-0.014740,-0.020054,-0.028968,-13.042526,-51.062408,1.587036,,,,,,,
,,,,,,,,,,,,,,,,25.304667,51.437781,-21.182346,-1.000000,-1.000000,1522137524.090386,
1522137524.118813,-0.153505,-0.032760,1.837571,-0.194753,-0.018694,0.048689,-0.152820,0.032754,-0.987711,-0.003979,-0.018944,0.023889,-13.566162,-50.835205,1.435913,,,,,,,
1522137524.148781,-0.151449,-0.037871,1.837709,-0.149139,0.124806,0.025139,-0.150762,0.037862,-0.987844,0.047582,-0.047490,0.010763,-13.419464,-50.986160,1.136597,,,,,,,
1522137524.178750,-0.146108,-0.040471,1.836934,-0.024636,0.188748,-0.045159,-0.145469,0.040460,-0.988535,0.022621,-0.032724,-0.090552,-13.491623,-50.610992,0.985046,,,,,,,
1522137524.208718,-0.142548,-0.036833,1.835593,0.178952,0.087429,-0.066207,-0.141969,0.036824,-0.989186,0.054033,-0.006795,-0.101269,-13.790695,-50.834106,1.510803,,,,,,,
1522137524.238686,-0.139970,-0.030237,1.833596,0.221851,0.075979,-0.114119,-0.139450,0.030233,-0.989767,0.042495,-0.000188,-0.106241,-14.018082,-50.983231,1.361267,,,,,,,
1522137524.268654,-0.140325,-0.022156,1.831200,0.270267,-0.086665,-0.121381,-0.139831,0.022154,-0.989927,0.000625,0.019487,-0.057161,-13.042374,-51.137253,1.737366,,,,,,,
1522137524.298623,-0.146320,-0.013082,1.829802,0.299979,-0.283809,-0.051901,-0.145786,0.013082,-0.989229,-0.039166,0.026652,-0.008924,-13.414948,-51.210052,2.262451,,,,,,,
1522137524.328591,-0.153536,-0.005707,1.830928,0.194487,-0.144882,0.026720,-0.152931,0.005707,-0.988220,-0.049141,0.041123,-0.000458,-13.486649,-51.284058,2.937744,,,,,,,
1522137524.358559,-0.152681,-0.003736,1.832982,-0.030869,0.125244,0.072111,-0.152088,0.003736,-0.988360,-0.025738,0.037355,-0.068800,-13.038025,-51.286301,2.712952,,,,,,,
1522137524.388527,-0.148095,-0.009661,1.833711,-0.264639,0.119541,0.058095,-0.147548,0.009660,-0.989007,-0.027562,-0.022478,-0.081549,-14.239319,-51.281113,2.487305,,,,,,,
1522137524.418496,-0.149844,-0.019530,1.835749,-0.337015,-0.176435,0.167015,-0.149255,0.019529,-0.988605,0.050134,-0.052442,0.023609,-13.563004,-50.834686,1.960876,,,,,,,
1522137524.448464,-0.156483,-0.031295,1.840571,-0.376049,-0.209890,0.253331,-0.155768,0.031290,-0.987297,0.062461,-0.033746,0.107308,-12.813354,-50.463730,1.284729,,,,,,,
1522137524.478432,-0.160797,-0.043579,1.845692,-0.404077,-0.105258,0.191409,-0.159953,0.043565,-0.986162,0.056178,0.002608,0.139910,-14.167343,-50.682953,0.984985,,,,,,,
1522137524.508400,-0.159381,-0.055059,1.845324,-0.332319,0.148056,-0.043215,-0.158466,0.055031,-0.985829,0.069645,-0.022240,0.137471,-14.098648,-50.908936,0.310913,,,,,,,
1522137524.538369,-0.154502,-0.060298,1.840175,-0.096247,0.183911,-0.239134,-0.153608,0.060261,-0.986292,0.085829,0.007991,0.081812,-13.495987,-50.461945,0.009460,,,,,,,
1522137524.568337,-0.149780,-0.054185,1.831127,0.368287,0.092055,-0.336724,-0.149002,0.054158,-0.987352,0.084976,-0.018514,-0.071135,-13.197784,-50.688217,0.085449,,,,,,,
1522137524.598305,-0.153274,-0.035660,1.825101,0.681962,-0.155503,-0.302137,-0.152578,0.035653,-0.987648,-0.057185,0.061119,0.022926,-13.416168,-50.835876,1.435974,,,,,,,
1522137524.628273,-0.153796,-0.011356,1.818120,0.817940,0.073193,-0.383250,-0.153180,0.011355,-0.988133,-0.089374,0.069425,0.025120,-13.046570,-51.512314,1.663818,,,,,,,
1522137524.658242,-0.149136,0.013671,1.810347,0.732096,0.232685,-0.367489,-0.148570,-0.013671,-0.988807,-0.119405,0.060973,0.020484,-12.437576,-51.738174,3.540039,,,,,,,
1522137524.688210,-0.133919,0.031859,1.803765,0.473940,0.677603,-0.230678,-0.133451,-0.031853,-0.990543,0.003691,0.014993,-0.169430,-12.063782,-51.814941,3.465515,,,,,,,
1522137524.718178,-0.114117,0.041087,1.800943,0.196971,0.559056,-0.045372,-0.113773,-0.041076,-0.992657,0.082127,-0.004548,-0.335560,-11.010376,-51.744217,3.915771,,,,,,,
1522137524.748147,-0.110785,0.040856,1.801984,-0.167845,-0.215304,0.042516,-0.110466,-0.040844,-0.993040,0.000297,0.039166,-0.160799,-11.387009,-51.817673,3.765930,,,,,,,
1522137524.778145,-0.125226,0.030649,1.801974,-0.418579,-0.616554,0.072567,-0.124840,-0.030644,-0.991703,0.010964,0.000355,0.080357,-11.690002,-51.891678,3.391052,,,,,,,
1522137524.808114,-0.146377,0.016383,1.803624,-0.471206,-0.629524,0.121559,-0.145835,-0.016382,-0.989173,0.052329,0.022058,0.191092,-11.239273,-51.594086,3.015076,,,,,,,
1522137524.838082,-0.157832,0.002612,1.805740,-0.423042,-0.303804,0.175610,-0.157177,-0.002612,-0.987567,0.072476,-0.012876,0.084155,-11.916061,-51.366730,2.338806,,,,,,,
1522137524.868048,-0.165914,-0.010938,1.807779,-0.453036,-0.179910,0.096612,-0.165144,0.010937,-0.986208,0.063032,-0.017422,0.079653,-12.140442,-51.215866,2.188110,,,,,,,
1522137524.898016,-0.169487,-0.022606,1.806342,-0.321877,-0.149449,-0.050367,-0.168633,0.022605,-0.985419,0.000848,-0.037116,0.121497,-11.545578,-51.144516,1.213074,,,,,,,
1522137524.927985,-0.173062,-0.026521,1.802113,-0.012445,-0.045557,-0.126952,-0.172139,0.026517,-0.984715,0.050099,-0.067091,0.132268,-11.775970,-51.593628,1.064819,,,,,,,
1522137524.957953,-0.169782,-0.021243,1.799640,0.254417,0.218146,-0.093993,-0.168929,0.021241,-0.985399,0.006026,-0.054383,0.018556,-11.548294,-51.369583,1.139038,,,,,,,
1522137524.987921,-0.161614,-0.013755,1.799292,0.197623,0.262358,-0.015226,-0.160896,0.013755,-0.986875,-0.001198,-0.056647,-0.073626,-11.469254,-51.369263,1.814087,,,,,,,
1522137525.017889,-0.157340,-0.009209,1.800516,0.134521,0.047611,0.023293,-0.156685,0.009209,-0.987605,-0.027550,-0.058113,-0.017934,-11.995712,-51.516891,1.814392,,,,,,,
1522137525.047858,-0.156934,-0.005607,1.800983,0.119628,0.012833,-0.015029,-0.156288,0.005607,-0.987695,-0.021751,-0.022376,-0.039603,-11.019257,-51.371277,1.814331,,,,,,,
1522137525.077826,-0.155761,-0.001110,1.800785,0.139194,0.073463,-0.029997,-0.155132,0.001110,-0.987893,0.036709,0.002232,-0.075187,-11.318176,-51.669266,2.490356,,,,,,,
1522137525.107794,-0.152427,0.001502,1.799604,0.019082,0.134704,-0.081303,-0.151837,-0.001502,-0.988404,0.036450,0.051337,-0.123718,-11.769363,-51.742310,2.415405,,,,,,,
,,,,,,,,,,,,,,,,25.304626,51.437632,-21.221012,-1.000000,-1.000000,1522137525.098249,
1522137525.137762,-0.150044,0.002143,1.795734,0.018794,-0.003020,-0.142953,-0.149482,-0.002143,-0.988762,0.014762,0.030325,-0.121407,-11.242142,-51.519684,2.414795,,,,,,,
1522137525.167731,-0.154649,0.003848,1.792650,0.045154,-0.243650,-0.083025,-0.154032,-0.003848,-0.988058,0.000742,0.030414,0.002371,-11.241684,-51.519608,2.489807,,,,,,,
1522137525.197699,-0.161975,0.005989,1.791133,0.084506,-0.230217,-0.042520,-0.161264,-0.005989,-0.986893,-0.027517,0.041802,0.007324,-11.166519,-51.819427,3.016052,,,,,,,
1522137525.227667,-0.168370,0.008002,1.791480,0.042926,-0.144500,0.021301,-0.167570,-0.008002,-0.985827,-0.009829,0.071937,0.028628,-11.390320,-51.743332,3.090576,,,,,,,
1522137525.257635,-0.168109,0.006499,1.793043,-0.088712,0.095575,0.081682,-0.167315,-0.006499,-0.985882,-0.017225,0.047576,-0.045170,-11.542862,-51.817963,2.790833,,,,,,,
1522137525.287604,-0.166171,0.002449,1.795465,-0.118215,-0.004533,0.124380,-0.165406,-0.002449,-0.986222,0.040605,-0.006111,-0.041930,-11.388519,-51.518417,3.014709,,,,,,,
1522137525.317572,-0.169172,-0.003327,1.799362,-0.186078,-0.104488,0.155345,-0.168365,0.003327,-0.985719,0.011276,0.009002,0.026856,-11.240631,-51.145065,2.038269,,,,,,,
1522137525.347540,-0.170839,-0.010068,1.802462,-0.177261,-0.051321,0.147835,-0.170000,0.010068,-0.985392,0.038302,0.012515,0.036433,-11.765625,-51.367325,2.413879,,,,,,,
1522137525.377509,-0.170998,-0.015204,1.806514,-0.140705,0.027101,0.165893,-0.170146,0.015204,-0.985301,0.034052,0.016946,0.022456,-11.998413,-51.741943,1.740295,,,,,,,
1522137525.407477,-0.168772,-0.020169,1.810468,-0.144629,0.083543,0.148789,-0.167938,0.020167,-0.985591,0.002670,0.000707,-0.013738,-11.544083,-51.219147,1.588379,,,,,,,
1522137525.437445,-0.166061,-0.024999,1.813662,-0.131801,0.065570,0.130705,-0.165247,0.024997,-0.985935,0.018885,-0.031360,-0.033917,-12.443146,-50.990326,1.362061,,,,,,,
1522137525.467413,-0.163121,-0.028685,1.816513,-0.078983,0.133707,0.093383,-0.162332,0.028681,-0.986319,-0.007987,-0.061457,-0.007623,-12.443741,-51.140167,1.512695,,,,,,,
1522137525.497382,-0.159537,-0.030330,1.818930,-0.021651,0.060245,0.092438,-0.158788,0.030325,-0.986846,0.012304,-0.067663,-0.018799,-12.146912,-51.366653,1.363708,,,,,,,
1522137525.527350,-0.158820,-0.032330,1.820258,-0.127134,0.014336,0.010355,-0.158070,0.032324,-0.986898,0.029988,-0.019614,-0.012430,-12.593750,-51.139496,1.512634,,,,,,,
1522137525.557318,-0.156743,-0.037057,1.818545,-0.188230,0.127548,-0.050538,-0.155995,0.037049,-0.987062,0.012974,0.008422,-0.013685,-12.970245,-51.063187,1.137085,,,,,,,
1522137525.587286,-0.151172,-0.041195,1.815692,-0.139710,0.196730,-0.082543,-0.150469,0.041184,-0.987756,0.047793,0.005462,-0.062857,-11.921478,-50.918350,0.687073,,,,,,,
1522137525.617255,-0.146540,-0.042541,1.812165,0.007526,0.134955,-0.115397,-0.145884,0.042528,-0.988387,0.008173,-0.009936,-0.114351,-12.744339,-50.839417,0.911316,,,,,,,
1522137525.647223,-0.144578,-0.038511,1.810741,0.195442,-0.017968,-0.043713,-0.143968,0.038502,-0.988833,0.036653,0.011959,-0.152860,-12.597351,-51.140091,0.912598,,,,,,,
1522137525.677191,-0.149303,-0.030693,1.809979,0.282961,-0.275242,-0.056180,-0.148679,0.030688,-0.988409,-0.036700,0.011167,-0.105006,-11.547379,-51.144806,0.913086,,,,,,,
1522137525.707159,-0.162103,-0.023355,1.809579,0.192216,-0.481363,-0.029393,-0.161350,0.023353,-0.986620,-0.038418,0.009179,0.038348,-12.518448,-51.289536,1.813232,,,,,,,
1522137525.737128,-0.175219,-0.019940,1.811024,0.050301,-0.356229,0.059866,-0.174289,0.019939,-0.984492,0.003360,0.027333,0.105510,-12.290588,-51.140335,2.037720,,,,,,,
1522137525.767096,-0.178569,-0.022556,1.811211,-0.158998,0.032592,-0.005670,-0.177577,0.022554,-0.983848,-0.038320,0.014815,-0.006875,-11.767715,-51.217911,1.813293,,,,,,,
1522137525.797064,-0.178217,-0.028610,1.810047,-0.235155,-0.025782,0.011380,-0.177202,0.028606,-0.983758,0.058580,-0.042675,0.025338,-12.070572,-51.366776,1.588745,,,,,,,
1522137525.827032,-0.179507,-0.036859,1.809890,-0.284687,-0.064223,0.057193,-0.178423,0.036851,-0.983263,0.033297,-0.010865,0.081438,-12.373093,-51.216095,0.912964,,,,,,,
1522137525.856992,-0.184149,-0.043599,1.811523,-0.137302,-0.208563,0.129911,-0.182936,0.043585,-0.982158,0.050459,-0.004782,0.112697,-11.921936,-50.918427,0.612061,,,,,,,
1522137525.886960,-0.189509,-0.046883,1.814592,-0.073683,-0.106486,0.097889,-0.188170,0.046866,-0.981017,0.016524,0.020105,0.145949,-12.747040,-51.064484,0.837158,,,,,,,
1522137525.916928,-0.190942,-0.049295,1.815996,-0.077373,-0.051836,0.033901,-0.189553,0.049275,-0.980633,0.018609,0.020717,0.101208,-12.674301,-51.065186,0.462219,,,,,,,
1522137525.946897,-0.190311,-0.050790,1.814294,-0.031249,0.092340,-0.086610,-0.188920,0.050768,-0.980679,0.025117,0.017423,0.095532,-12.371460,-50.916321,0.686829,,,,,,,
1522137525.976865,-0.185911,-0.050112,1.811227,0.027973,0.190038,-0.098387,-0.184610,0.050091,-0.981534,0.028543,0.011890,0.073071,-12.822495,-51.064224,0.762207,,,,,,,
1522137526.006833,-0.177508,-0.046808,1.810580,0.175429,0.349321,0.016638,-0.176384,0.046791,-0.983208,0.043113,-0.018593,-0.020988,-12.145584,-50.692566,0.460999,,,,,,,
1522137526.036801,-0.167059,-0.039400,1.813803,0.302025,0.307187,0.068992,-0.166154,0.039390,-0.985312,-0.006133,0.007989,-0.122109,-11.997360,-51.142776,0.912903,,,,,,,
1522137526.066770,-0.161750,-0.030553,1.817497,0.309242,0.029731,0.083127,-0.160970,0.030549,-0.986486,0.034735,0.018066,-0.092829,-12.219528,-50.991562,1.137207,,,,,,,
1522137526.096738,-0.163946,-0.023769,1.820279,0.172514,-0.052382,0.023431,-0.163167,0.023766,-0.986312,0.023167,0.012366,-0.016664,-12.670547,-51.364075,1.588440,,,,,,,
,,,,,,,,,,,,,,,,25.304541,51.437451,-21.334232,-1.000000,-1.000000,1522137526.093103,
1522137526.126706,-0.162700,-0.020609,1.820883,0.077087,0.046972,-0.018297,-0.161949,0.020607,-0.986584,0.027839,0.011558,-0.056355,-12.142410,-51.141312,1.737793,,,,,,,
1522137526.156674,-0.160843,-0.018659,1.819491,0.057105,0.060086,-0.064137,-0.160122,0.018658,-0.986920,0.002087,0.008259,-0.069797,-12.442093,-51.289658,2.038269,,,,,,,
1522137526.186643,-0.160070,-0.016611,1.817280,0.061499,0.044398,-0.101412,-0.159365,0.016611,-0.987080,-0.036100,0.025153,-0.055218,-12.362442,-50.914871,2.186829,,,,,,,
1522137526.216611,-0.156509,-0.012821,1.815170,0.145125,0.159767,-0.067363,-0.155858,0.012820,-0.987696,0.018239,-0.010562,-0.069891,-12.141052,-51.365707,2.338684,,,,,,,
1522137526.246579,-0.150593,-0.008442,1.814466,0.141927,0.204145,-0.030118,-0.150019,0.008442,-0.988647,-0.025030,0.006924,-0.110062,-11.913651,-51.216583,2.488220,,,,,,,
1522137526.276547,-0.147021,-0.003382,1.815588,0.196372,0.053666,0.044655,-0.146491,0.003382,-0.989206,0.006492,-0.030390,-0.105567,-11.991058,-51.366379,2.338745,,,,,,,
1522137526.306516,-0.146959,0.001794,1.818654,0.150924,-0.030476,0.088395,-0.146430,-0.001794,-0.989219,0.009070,-0.020697,-0.070061,-12.133987,-51.065079,3.012512,,,,,,,
1522137526.336484,-0.149594,0.003122,1.820911,-0.006309,-0.141364,0.046831,-0.149036,-0.003122,-0.988826,-0.014065,0.000589,-0.072987,-12.141205,-51.515488,2.564331,,,,,,,
1522137526.366452,-0.154847,0.001059,1.821307,-0.106512,-0.157801,0.002020,-0.154229,-0.001059,-0.988034,0.040475,-0.005471,0.007779,-11.993896,-51.741211,2.490295,,,,,,,
1522137526.396420,-0.155771,-0.003614,1.819181,-0.187614,0.016003,-0.057869,-0.155141,0.003614,-0.987885,0.026708,0.002581,-0.013900,-11.916656,-51.516571,2.489441,,,,,,,
1522137526.426389,-0.155985,-0.007713,1.816126,-0.114013,-0.039167,-0.093998,-0.155348,0.007713,-0.987829,0.005995,0.017205,0.006811,-12.139252,-51.140793,2.262817,,,,,,,
1522137526.456357,-0.159721,-0.007853,1.812937,0.031572,-0.195701,-0.097996,-0.159037,0.007853,-0.987241,0.000331,0.022207,0.077802,-11.615173,-51.367920,2.489014,,,,,,,
1522137526.486325,-0.164181,-0.005263,1.811069,0.101051,-0.094373,-0.025589,-0.163442,0.005263,-0.986538,0.033071,0.014207,0.081921,-12.144196,-51.590836,2.189636,,,,,,,
1522137526.516293,-0.162457,-0.002821,1.812369,0.064494,0.171895,0.049774,-0.161742,0.002821,-0.986829,0.028487,0.010683,-0.002704,-12.589706,-51.363464,2.563477,,,,,,,
1522137526.546262,-0.157652,-0.003234,1.813416,-0.055427,0.076697,0.031659,-0.156999,0.003234,-0.987593,-0.016081,0.006852,-0.047044,-11.018356,-51.371140,1.964294,,,,,,,
1522137526.576230,-0.159059,-0.006976,1.814214,-0.158996,-0.106172,0.080790,-0.158385,0.006976,-0.987352,0.046752,-0.021671,0.041140,-12.291641,-51.514877,2.489258,,,,,,,
1522137526.606198,-0.160100,-0.013552,1.816689,-0.219424,0.041374,0.125344,-0.159402,0.013552,-0.987120,0.062631,-0.030855,0.020293,-12.369202,-51.365204,1.813599,,,,,,,
1522137526.636167,-0.159202,-0.019831,1.818807,-0.171580,-0.039239,0.091347,-0.158500,0.019830,-0.987159,0.065787,-0.032693,-0.062508,-11.545593,-51.369141,1.588989,,,,,,,
1522137526.666135,-0.162434,-0.024512,1.819836,-0.155620,-0.130219,0.025400,-0.161672,0.024509,-0.986540,0.047567,0.000576,0.003782,-12.070572,-51.366776,1.588745,,,,,,,
1522137526.696103,-0.165318,-0.028932,1.818725,-0.169005,-0.080957,-0.025798,-0.164497,0.028928,-0.985953,0.063072,-0.009183,0.022620,-12.895370,-51.213287,1.362732,,,,,,,
1522137526.726071,-0.165493,-0.033258,1.817380,-0.132256,0.017805,-0.028012,-0.164647,0.033251,-0.985791,0.061482,-0.001986,0.019376,-13.120972,-51.137497,1.137329,,,,,,,
1522137526.756040,-0.162312,-0.033713,1.815558,0.051199,0.150554,-0.082349,-0.161509,0.033707,-0.986295,0.031275,0.012130,-0.051028,-12.518738,-51.139832,1.512634,,,,,,,
1522137526.786008,-0.157112,-0.027686,1.813693,0.293292,0.120031,-0.057635,-0.156407,0.027683,-0.987304,0.055562,-0.012638,-0.060334,-12.370560,-51.365433,1.588562,,,,,,,
1522137526.815976,-0.153123,-0.017150,1.815105,0.383963,0.173531,0.006323,-0.152503,0.017149,-0.988154,-0.019616,0.011644,-0.091955,-12.140594,-51.141006,2.037781,,,,,,,
1522137526.845937,-0.147733,-0.005194,1.816946,0.406220,0.146866,0.013820,-0.147194,0.005194,-0.989094,0.033745,-0.005744,-0.093929,-12.140762,-51.290787,2.263428,,,,,,,
1522137526.875906,-0.143662,0.004346,1.818832,0.242886,0.143079,0.006241,-0.143167,-0.004346,-0.989689,0.037012,0.009366,-0.094799,-12.283829,-51.139236,3.162720,,,,,,,
1522137526.905874,-0.139296,0.008313,1.818770,0.071193,0.126883,-0.047150,-0.138841,-0.008313,-0.990279,0.049150,0.005002,-0.132844,-11.909302,-51.141006,3.087891,,,,,,,
1522137526.935842,-0.137857,0.010027,1.817894,0.028721,-0.042084,-0.032086,-0.137414,-0.010027,-0.990463,0.059487,0.011949,-0.112275,-12.440720,-51.738678,3.015076,,,,,,,
1522137526.965810,-0.140290,0.009942,1.815399,-0.025601,-0.096675,-0.105602,-0.139824,-0.009942,-0.990126,-0.000237,0.037851,-0.078584,-12.660629,-51.362473,3.238464,,,,,,,
1522137526.995779,-0.145707,0.009920,1.811916,-0.013453,-0.231751,-0.093729,-0.145185,-0.009919,-0.989354,0.041806,0.030488,0.000600,-11.914993,-51.666061,3.015076,,,,,,,
1522137527.025747,-0.152602,0.008058,1.810418,-0.124935,-0.215163,0.005263,-0.152006,-0.008058,-0.988346,0.060316,0.053056,0.039311,-11.988937,-51.740417,3.315308,,,,,,,
1522137527.055715,-0.157532,0.002544,1.809731,-0.192937,-0.145901,0.001947,-0.156881,-0.002544,-0.987614,0.018423,0.041911,0.020863,-11.912903,-51.590836,3.239746,,,,,,,
1522137527.085683,-0.162801,-0.002781,1.809012,-0.171979,-0.211974,0.021211,-0.162082,0.002781,-0.986773,0.047290,0.016384,0.065630,-11.091568,-51.370514,2.264282,,,,,,,
,,,,,,,,,,,,,,,,25.304476,51.437305,-21.393009,-1.000000,-1.000000,1522137527.094945,
1522137527.115652,-0.168332,-0.008332,1.810249,-0.167999,-0.163763,0.117054,-0.167532,0.008332,-0.985831,0.046637,0.031524,0.088568,-11.843918,-51.741898,2.490356,,,,,,,
1522137527.145620,-0.171738,-0.015240,1.814498,-0.202370,-0.095323,0.217128,-0.170875,0.015240,-0.985174,0.070258,0.009647,0.119833,-12.217117,-51.290665,2.038391,,,,,,,
1522137527.175588,-0.175998,-0.019025,1.822094,-0.094050,-0.129122,0.300358,-0.175059,0.019023,-0.984374,0.059992,0.016362,0.011519,-11.911270,-50.841827,2.261780,,,,,,,
1522137527.205557,-0.178630,-0.029979,1.827830,-0.480537,-0.183069,0.251109,-0.177602,0.029975,-0.983645,0.078344,-0.072455,-0.075513,-13.413315,-50.685669,1.660339,,,,,,,
