timestamp(unix),attitude_roll(radians),attitude_pitch(radians),attitude_yaw(radians),rotation_rate_x(radians/s),rotation_rate_y(radians/s),rotation_rate_z(radians/s),gravity_x(G),gravity_y(G),gravity_z(G),user_acc_x(G),user_acc_y(G),user_acc_z(G),magnetic_field_x(microteslas),magnetic_field_y(microteslas),magnetic_field_z(microteslas),latitude(degree),longitude(degree),altitude(meter),speed(m/s),course(degree),timestamp(unix),User Mark
1522137042.552104,-0.162910,-0.040106,1.727764,-0.066951,0.098345,-0.004676,-0.162060,0.040095,-0.985966,0.028515,-0.010386,-0.015011,9.393661,-53.270325,-5.367920,,,,,,,
,,,,,,,,,,,,,,,,25.319069,51.443947,-20.593815,-1.000000,-1.000000,1522137039.082256,
1522137042.582072,-0.163131,-0.038896,1.727763,0.085144,-0.055970,-0.025714,-0.162286,0.038887,-0.985977,0.000421,-0.003639,-0.016373,9.315491,-52.821243,-6.644775,,,,,,,
1522137042.612040,-0.166316,-0.034925,1.726960,0.174635,-0.122966,-0.047965,-0.165449,0.034917,-0.985600,-0.014757,-0.005300,0.026646,8.261566,-51.544296,-9.425354,,,,,,,
1522137042.642009,-0.168106,-0.030348,1.726845,0.086397,-0.024029,-0.034273,-0.167239,0.030343,-0.985449,0.038882,-0.028589,-0.027475,7.433136,-51.391388,-10.251404,,,,,,,
1522137042.671977,-0.168569,-0.030907,1.725099,-0.101263,-0.007378,-0.068530,-0.167692,0.030902,-0.985355,-0.011828,0.021863,-0.035321,6.913498,-49.366531,-12.734741,,,,,,,
1522137042.701945,-0.169308,-0.033507,1.722751,-0.061047,-0.062859,-0.049271,-0.168406,0.033501,-0.985148,0.016779,0.025337,-0.011907,7.063156,-48.319000,-14.538879,,,,,,,
1522137042.731913,-0.172060,-0.034399,1.722153,-0.042210,-0.076109,0.013630,-0.171111,0.034392,-0.984651,-0.012331,0.002519,0.017137,3.297668,-47.930283,-17.767334,,,,,,,
1522137042.761882,-0.171473,-0.036147,1.722800,-0.057814,0.057569,0.049709,-0.170523,0.036139,-0.984691,0.002874,-0.013419,-0.021764,0.970352,-47.620712,-18.669739,,,,,,,
1522137042.791850,-0.168403,-0.039517,1.724783,-0.138842,0.129744,0.090067,-0.167477,0.039506,-0.985084,0.038174,-0.041749,-0.074441,-2.995941,-47.152191,-17.998535,,,,,,,
1522137042.821818,-0.166240,-0.044304,1.724985,-0.141935,0.016878,-0.028093,-0.165313,0.044289,-0.985246,-0.019928,-0.003152,-0.043730,-5.093887,-47.217316,-17.549377,,,,,,,
1522137042.851786,-0.169160,-0.043397,1.722646,0.143704,-0.173574,-0.095876,-0.168196,0.043383,-0.984798,-0.007967,0.002362,-0.001148,-7.416199,-48.254684,-15.371338,,,,,,,
1522137042.881755,-0.174691,-0.036556,1.721583,0.212938,-0.157049,-0.051095,-0.173688,0.036548,-0.984122,0.000821,-0.035190,0.001273,-7.935471,-48.401138,-14.171082,,,,,,,
1522137042.911723,-0.176660,-0.033391,1.720764,0.003431,0.010390,-0.064203,-0.175644,0.033385,-0.983887,0.001435,0.042436,-0.020049,-10.190430,-49.664719,-12.892151,,,,,,,
1522137042.941691,-0.175193,-0.036161,1.718034,-0.156355,0.073600,-0.080373,-0.174184,0.036153,-0.984049,0.018057,0.050853,-0.018774,-12.895508,-51.300674,-11.011963,,,,,,,
1522137042.971659,-0.174185,-0.038733,1.715680,-0.017189,-0.024853,-0.031155,-0.173176,0.038724,-0.984129,0.025684,0.032825,0.012892,-13.040543,-51.748428,-9.435181,,,,,,,
1522137043.001628,-0.177303,-0.034718,1.716873,0.259341,-0.169564,0.049117,-0.176269,0.034711,-0.983730,0.032058,0.004184,0.052379,-16.263504,-53.755249,-5.753784,,,,,,,
1522137043.031596,-0.181586,-0.027329,1.719000,0.197928,-0.115876,-0.005340,-0.180523,0.027325,-0.983191,0.016445,-0.001599,0.013175,-16.482010,-54.501953,-3.425903,,,,,,,
1522137043.061564,-0.183036,-0.026430,1.718821,-0.041860,-0.049257,-0.029010,-0.181952,0.026427,-0.982952,-0.014688,0.016389,0.043163,-16.007812,-55.099045,1.601685,,,,,,,
1522137043.091532,-0.184434,-0.026426,1.716773,0.023783,-0.011734,-0.097204,-0.183326,0.026423,-0.982697,0.005058,0.016394,0.038239,-15.335358,-55.851242,2.430054,,,,,,,
,,,,,,,,,,,,,,,,25.319072,51.443694,-20.571362,0.616648,-1.000000,1522137043.097289,
1522137043.121501,-0.183692,-0.025165,1.714566,0.003651,0.060340,-0.064259,-0.182603,0.025162,-0.982865,-0.011352,0.006774,0.009690,-13.603622,-56.981033,5.435425,,,,,,,
1522137043.151469,-0.180717,-0.027505,1.712937,-0.156487,0.117811,-0.018626,-0.179667,0.027501,-0.983343,0.046473,0.052134,-0.042673,-11.796936,-56.988037,6.561340,,,,,,,
1522137043.181437,-0.175940,-0.034017,1.710780,-0.194490,0.177593,-0.047470,-0.174933,0.034010,-0.983993,0.023047,0.069445,-0.015336,-9.396545,-57.897263,8.141235,,,,,,,
1522137043.211405,-0.176297,-0.032104,1.709846,0.244831,-0.156232,-0.025508,-0.175295,0.032098,-0.983993,0.030000,0.020819,0.030486,-7.514435,-57.679901,8.966309,,,,,,,
1522137043.241374,-0.183521,-0.020293,1.712552,0.484150,-0.284802,0.038739,-0.182455,0.020292,-0.983005,0.000891,-0.006910,0.051471,-4.812134,-57.766525,9.492981,,,,,,,
1522137043.271342,-0.189987,-0.010766,1.717453,0.169652,-0.081662,0.124607,-0.188836,0.010766,-0.981950,0.015389,-0.034066,0.007874,-2.408188,-57.552048,9.793335,,,,,,,
1522137043.301310,-0.181635,-0.019942,1.718772,-0.615286,0.510494,0.059494,-0.180602,0.019941,-0.983354,0.038040,-0.013685,-0.089110,-1.130844,-57.183029,9.567505,,,,,,,
1522137043.331279,-0.163272,-0.045139,1.713664,-0.903441,0.612098,-0.081481,-0.162382,0.045124,-0.985695,0.034300,0.052929,-0.124137,2.913696,-56.603104,7.692200,,,,,,,
1522137043.361247,-0.152779,-0.061588,1.707605,-0.269178,0.130344,-0.099700,-0.151896,0.061549,-0.986478,0.067653,-0.010066,-0.072497,4.492218,-55.711105,6.789429,,,,,,,
1522137043.391215,-0.158971,-0.055304,1.708406,0.492016,-0.411400,0.058047,-0.158060,0.055276,-0.985881,0.048166,-0.041558,0.005992,9.290131,-54.385254,4.236511,,,,,,,
1522137043.421203,-0.173501,-0.036921,1.713602,0.662424,-0.514859,0.050828,-0.172514,0.036913,-0.984315,0.054472,-0.005373,0.042695,11.164581,-53.495270,2.658936,,,,,,,
1522137043.451172,-0.187803,-0.020320,1.716336,0.452961,-0.432887,-0.046381,-0.186662,0.020318,-0.982214,-0.015547,0.009253,0.078649,10.843536,-53.122940,-1.467712,,,,,,,
1522137043.481140,-0.195500,-0.011517,1.715611,0.163997,-0.168300,-0.094813,-0.194244,0.011516,-0.980885,0.032287,0.046330,0.048100,9.556442,-53.119186,-3.493408,,,,,,,
1522137043.511108,-0.194550,-0.013897,1.712367,-0.294501,0.210016,-0.088075,-0.193307,0.013896,-0.981040,-0.041740,0.049245,-0.001367,6.758545,-52.885803,-7.695801,,,,,,,
1522137043.541076,-0.180825,-0.029375,1.706467,-0.728110,0.644709,-0.097363,-0.179764,0.029370,-0.983271,0.034057,0.031558,-0.130361,4.801407,-52.653564,-9.272705,,,,,,,
1522137043.571045,-0.157001,-0.056156,1.698415,-0.952447,0.821859,-0.125415,-0.156111,0.056126,-0.986144,0.057981,0.046520,-0.203783,2.093689,-52.343185,-11.075256,,,,,,,
1522137043.601013,-0.144981,-0.070760,1.692476,-0.072100,0.031034,-0.100517,-0.144112,0.070701,-0.987032,0.059517,0.044274,-0.139432,-2.858368,-52.096649,-11.828735,,,,,,,
1522137043.630981,-0.155632,-0.056945,1.694413,0.716455,-0.556721,0.093522,-0.154754,0.056915,-0.986312,0.042708,-0.044173,-0.060227,-4.278030,-52.688385,-9.952087,,,,,,,
1522137043.660949,-0.171211,-0.038823,1.702436,0.468977,-0.420590,0.166712,-0.170248,0.038813,-0.984637,-0.000468,-0.037699,-0.020765,-6.511505,-53.648972,-5.599304,,,,,,,
1522137043.690918,-0.177073,-0.035466,1.705197,-0.088890,-0.057650,-0.026909,-0.176039,0.035459,-0.983744,-0.001696,0.073229,0.006388,-7.247055,-53.418655,-3.575623,,,,,,,
1522137043.720886,-0.175848,-0.038652,1.701806,-0.074083,0.056581,-0.106934,-0.174813,0.038642,-0.983843,0.011696,0.035104,0.040392,-7.240555,-54.390976,-0.871765,,,,,,,
1522137043.750854,-0.175700,-0.038142,1.700212,0.030820,-0.010227,-0.011956,-0.174670,0.038133,-0.983888,0.043536,0.001678,0.008379,-7.608612,-54.912292,1.155212,,,,,,,
1522137043.780822,-0.175729,-0.039373,1.701224,-0.083542,0.028984,0.044388,-0.174690,0.039363,-0.983836,0.058190,0.017323,0.010264,-5.424667,-55.145248,3.032227,,,,,,,
1522137043.810791,-0.171839,-0.044264,1.700818,-0.192468,0.207047,-0.002759,-0.170827,0.044250,-0.984307,-0.010081,-0.000274,-0.027000,-3.468460,-54.928375,3.707336,,,,,,,
1522137043.840759,-0.161706,-0.050814,1.698040,-0.250025,0.377723,-0.077555,-0.160795,0.050792,-0.985680,0.066450,-0.000255,-0.140297,-0.535980,-53.592545,2.728394,,,,,,,
1522137043.870727,-0.155717,-0.057487,1.694949,-0.195233,0.042497,-0.023905,-0.154832,0.057456,-0.986269,0.043351,-0.020545,-0.126402,-1.511398,-53.363617,2.277039,,,,,,,
1522137043.900696,-0.159258,-0.059285,1.696576,0.070803,-0.231162,0.114023,-0.158307,0.059250,-0.985611,0.051572,0.044632,-0.021241,-2.258545,-52.536148,1.373352,,,,,,,
1522137043.930664,-0.167466,-0.052473,1.702037,0.393686,-0.323630,0.153783,-0.166455,0.052448,-0.984653,-0.018482,0.033611,0.070041,-3.521927,-52.229034,2.796448,,,,,,,
1522137043.960632,-0.177777,-0.037610,1.709451,0.552625,-0.352746,0.157131,-0.176717,0.037601,-0.983543,0.040395,-0.031558,0.100563,-5.165100,-52.445145,4.296509,,,,,,,
1522137043.990600,-0.185828,-0.026273,1.717111,0.291417,-0.220610,0.198351,-0.184697,0.026270,-0.982444,0.010487,-0.086649,0.111000,-5.600952,-52.515717,6.771606,,,,,,,
1522137044.020569,-0.188520,-0.023536,1.723100,0.040849,0.012131,0.130805,-0.187354,0.023534,-0.982010,0.012457,-0.042012,0.118592,-5.374725,-53.115524,7.974060,,,,,,,
1522137044.050537,-0.184047,-0.026477,1.722093,-0.215073,0.250537,-0.134947,-0.182945,0.026474,-0.982766,-0.048820,-0.006653,0.023477,-4.698944,-54.840561,10.981323,,,,,,,
1522137044.080505,-0.173286,-0.037033,1.712297,-0.557095,0.435413,-0.314396,-0.172302,0.037024,-0.984348,0.016693,0.016885,-0.104672,-3.427856,-55.820297,11.960938,,,,,,,
1522137044.110473,-0.159391,-0.056767,1.699476,-0.771514,0.491084,-0.299684,-0.158461,0.056737,-0.985734,0.075865,0.050044,-0.131408,2.115631,-56.744797,12.417419,,,,,,,
,,,,,,,,,,,,,,,,25.319054,51.443627,-20.578678,1.043109,-1.000000,1522137044.100372,
1522137044.140442,-0.149988,-0.071374,1.689625,-0.273798,0.172524,-0.202043,-0.149045,0.071313,-0.986255,0.066663,0.115256,-0.074871,3.529785,-57.426819,11.745789,,,,,,,
1522137044.170410,-0.154588,-0.065104,1.687490,0.510688,-0.393843,-0.027202,-0.153647,0.065058,-0.985982,0.070700,0.070730,0.033742,7.571487,-57.446350,10.397888,,,,,,,
1522137044.200378,-0.173619,-0.042057,1.692525,0.907642,-0.783481,0.087493,-0.172595,0.042045,-0.984095,0.059344,-0.005897,0.127634,9.744888,-57.156891,9.647827,,,,,,,
1522137044.230346,-0.193949,-0.018509,1.700445,0.718409,-0.569656,0.118048,-0.192702,0.018508,-0.981082,0.019912,-0.030624,0.143894,11.158997,-56.940430,7.472656,,,,,,,
1522137044.260315,-0.205432,-0.004652,1.705484,0.296311,-0.271534,0.034311,-0.203987,0.004652,-0.978962,-0.041313,-0.002073,0.063328,10.924988,-56.716248,5.596680,,,,,,,
1522137044.290283,-0.207724,-0.004379,1.705128,-0.194990,0.068172,-0.048439,-0.206232,0.004379,-0.978493,-0.042136,0.036514,0.009591,11.670120,-56.121399,3.794678,,,,,,,
1522137044.320251,-0.197023,-0.017741,1.698421,-0.684216,0.552869,-0.199529,-0.195720,0.017740,-0.980499,0.042461,0.065100,-0.099243,11.871521,-55.602112,-1.007385,,,,,,,
1522137044.350219,-0.177324,-0.042750,1.686417,-0.967292,0.718521,-0.234005,-0.176235,0.042737,-0.983420,0.044994,0.047717,-0.111780,11.860977,-55.079697,-3.634460,,,,,,,
1522137044.380188,-0.161888,-0.062233,1.677709,-0.383494,0.315732,-0.129806,-0.160870,0.062193,-0.985014,0.095501,0.101686,-0.079256,11.770721,-53.135071,-9.417236,,,,,,,
1522137044.410142,-0.163212,-0.058978,1.678045,0.401860,-0.251929,0.080187,-0.162205,0.058944,-0.984995,0.052846,0.013276,-0.029409,9.666885,-52.751877,-10.694885,,,,,,,
1522137044.440110,-0.174268,-0.044138,1.686381,0.543233,-0.433043,0.248828,-0.173218,0.044124,-0.983894,0.065339,-0.033168,-0.004265,5.611176,-52.509979,-12.047852,,,,,,,
1522137044.470078,-0.183489,-0.033791,1.696272,0.319994,-0.233682,0.234610,-0.182357,0.033785,-0.982652,-0.042558,0.017561,0.036591,3.961563,-52.427628,-12.124023,,,,,,,
1522137044.500047,-0.188510,-0.028664,1.701862,0.087304,-0.139707,0.099021,-0.187319,0.028660,-0.981881,0.016680,-0.043354,0.018960,0.355713,-52.786789,-12.499390,,,,,,,
1522137044.530015,-0.187033,-0.033140,1.702709,-0.294255,0.168822,0.031291,-0.185842,0.033134,-0.982021,0.038808,-0.047142,-0.002766,-0.768051,-52.482025,-12.801147,,,,,,,
1522137044.559983,-0.179344,-0.045762,1.699816,-0.461975,0.293037,-0.046735,-0.178197,0.045746,-0.982931,-0.001460,0.018921,-0.047877,-2.942673,-52.172684,-13.253479,,,,,,,
1522137044.589952,-0.172747,-0.054087,1.696207,-0.158127,0.153311,-0.081522,-0.171637,0.054061,-0.983676,0.064765,0.009202,-0.053144,-3.611343,-51.719391,-12.955627,,,,,,,
1522137044.619920,-0.172047,-0.051301,1.695797,0.215993,-0.098099,0.027694,-0.170974,0.051279,-0.983940,0.066650,-0.029047,-0.045586,-3.979279,-51.641678,-11.906128,,,,,,,
1522137044.649888,-0.177638,-0.044601,1.699405,0.221408,-0.205066,0.125838,-0.176530,0.044586,-0.983285,0.034470,0.015976,-0.001151,-4.112167,-51.188995,-9.807983,,,,,,,
1522137044.679856,-0.182512,-0.041316,1.701953,0.076869,-0.142540,0.051073,-0.181345,0.041304,-0.982552,-0.001287,0.025026,0.026833,-4.253769,-50.662827,-9.285217,,,,,,,
1522137044.709825,-0.184403,-0.039359,1.702263,0.090390,-0.046527,-0.004437,-0.183218,0.039349,-0.982284,0.037908,0.012164,0.033630,-3.714874,-49.539810,-8.839417,,,,,,,
1522137044.739793,-0.186545,-0.036547,1.701721,0.078573,-0.093080,-0.029967,-0.185341,0.036539,-0.981995,0.017189,-0.007196,0.030151,-2.805771,-48.494125,-9.068115,,,,,,,
1522137044.769761,-0.187102,-0.036520,1.699787,-0.087319,0.051846,-0.031295,-0.185888,0.036512,-0.981892,0.033041,-0.032041,0.006123,-3.997650,-47.588913,-9.222351,,,,,,,
1522137044.799729,-0.180979,-0.044075,1.697051,-0.366963,0.290677,-0.046663,-0.179818,0.044061,-0.982713,0.022377,-0.006539,-0.074432,-4.069962,-47.363525,-9.148254,,,,,,,
1522137044.829698,-0.173543,-0.053863,1.692698,-0.286136,0.194998,-0.068884,-0.172422,0.053837,-0.983551,0.051817,0.028210,-0.090332,-3.613525,-47.214752,-8.323608,,,,,,,
1522137044.859666,-0.172032,-0.056411,1.690946,0.041203,-0.069766,-0.008703,-0.170913,0.056382,-0.983672,0.072158,0.005706,-0.069170,-4.212585,-47.436523,-7.798096,,,,,,,
1522137044.889634,-0.176597,-0.052346,1.691912,0.183409,-0.191660,0.050123,-0.175440,0.052322,-0.983099,0.006006,0.012192,0.002813,-2.786102,-48.191437,-6.294312,,,,,,,
1522137044.919602,-0.182259,-0.046515,1.693530,0.202784,-0.190463,0.022441,-0.181056,0.046498,-0.982373,0.055995,-0.019551,0.027096,-3.161209,-48.564148,-5.692993,,,,,,,
1522137044.949571,-0.184843,-0.043576,1.693961,0.022179,-0.022986,-0.005567,-0.183617,0.043563,-0.982032,0.062585,-0.007537,0.018775,-3.389069,-48.937973,-5.541626,,,,,,,
1522137044.979539,-0.184953,-0.044248,1.692082,-0.036326,-0.022580,-0.045025,-0.183720,0.044233,-0.981983,0.035130,0.009386,0.006366,-1.809921,-49.019257,-4.715515,,,,,,,
1522137045.009507,-0.183915,-0.045774,1.690314,-0.101075,0.084796,-0.027079,-0.182689,0.045758,-0.982105,0.050654,0.018725,-0.050381,-1.059052,-49.022476,-4.565125,,,,,,,
1522137045.039475,-0.179552,-0.051539,1.686937,-0.277705,0.168396,-0.068840,-0.178352,0.051517,-0.982617,0.064567,0.025922,-0.072086,-1.593765,-49.770447,-4.937378,,,,,,,
1522137045.069444,-0.175268,-0.057526,1.683220,-0.095618,0.078581,-0.053698,-0.174084,0.057495,-0.983051,0.079037,0.030228,-0.046490,-1.678345,-50.370667,-5.535095,,,,,,,
1522137045.099412,-0.178612,-0.053127,1.684356,0.286761,-0.206990,0.077921,-0.177413,0.053102,-0.982703,0.034454,-0.013047,0.008124,-3.419434,-51.937897,-5.604614,,,,,,,
,,,,,,,,,,,,,,,,25.319063,51.443562,-20.545731,1.386322,-1.000000,1522137045.097403,
1522137045.129380,-0.185962,-0.043431,1.689850,0.347086,-0.269123,0.127047,-0.184718,0.043418,-0.981832,0.030436,-0.016242,0.041662,-4.546341,-52.082901,-5.679626,,,,,,,
1522137045.159348,-0.189660,-0.038236,1.692112,0.053256,-0.027135,-0.031113,-0.188387,0.038226,-0.981350,-0.007933,-0.010547,0.047574,-5.535049,-53.952621,-4.847595,,,,,,,
1522137045.189317,-0.186933,-0.040394,1.688660,-0.153704,0.145086,-0.119882,-0.185695,0.040383,-0.981777,0.051082,0.001686,0.012539,-5.832596,-54.475006,-3.570740,,,,,,,
1522137045.219285,-0.180947,-0.044816,1.683865,-0.177903,0.211130,-0.132760,-0.179780,0.044801,-0.982686,0.041353,0.030852,-0.047008,-5.464905,-55.975388,-2.289490,,,,,,,
1522137045.249253,-0.176265,-0.049045,1.678744,-0.163299,0.135603,-0.129461,-0.175143,0.049026,-0.983322,0.068179,0.069138,-0.084611,-3.965561,-56.356598,-1.762268,,,,,,,
1522137045.279222,-0.171299,-0.053900,1.675245,-0.193366,0.181929,-0.057077,-0.170215,0.053874,-0.983933,0.096439,0.049001,-0.117752,-3.150925,-57.485123,-1.607300,,,,,,,
1522137045.309190,-0.168441,-0.058221,1.673522,-0.063159,-0.003677,-0.002448,-0.167362,0.058188,-0.984177,0.087131,0.048517,-0.049988,-2.177902,-57.639572,-1.681213,,,,,,,
1522137045.339158,-0.173147,-0.053891,1.675657,0.304721,-0.264346,0.066280,-0.172033,0.053865,-0.983617,0.082312,0.017775,0.016652,-1.659378,-58.017334,-2.129456,,,,,,,
1522137045.369126,-0.182051,-0.042570,1.679286,0.398703,-0.303618,0.026963,-0.180883,0.042558,-0.982583,0.041753,0.008514,0.026223,-3.017838,-59.135773,-1.675659,,,,,,,
1522137045.399084,-0.189476,-0.033656,1.681209,0.222976,-0.238182,0.000133,-0.188238,0.033649,-0.981547,0.040014,-0.010135,0.049601,-3.546265,-59.433472,-1.749756,,,,,,,
1522137045.429052,-0.192505,-0.031564,1.682065,-0.018536,-0.019921,0.025304,-0.191222,0.031558,-0.981039,0.062972,-0.001041,0.039434,-3.857025,-60.781631,-1.294495,,,,,,,
1522137045.459020,-0.189740,-0.035493,1.681778,-0.172566,0.135739,0.007975,-0.188485,0.035486,-0.981435,0.033517,0.040076,0.013890,-5.293182,-61.900146,-1.290710,,,,,,,
1522137045.488988,-0.185417,-0.039759,1.680910,-0.115991,0.128173,0.004834,-0.184211,0.039749,-0.982083,0.025946,0.020630,-0.026783,-6.198624,-63.394501,0.289795,,,,,,,
1522137045.518957,-0.181486,-0.042551,1.681490,-0.081034,0.117168,0.047487,-0.180328,0.042538,-0.982686,0.053894,-0.018658,-0.065242,-6.044159,-63.169815,0.664001,,,,,,,
1522137045.548925,-0.179793,-0.044152,1.683546,0.001688,0.031718,0.080668,-0.178652,0.044138,-0.982922,0.031206,-0.027353,-0.023746,-5.882263,-63.468063,3.140259,,,,,,,
1522137045.578893,-0.179106,-0.042745,1.685943,0.092346,-0.011927,0.060531,-0.177987,0.042732,-0.983104,0.045220,-0.015861,-0.025868,-4.073792,-63.250168,4.190308,,,,,,,
1522137045.608861,-0.178466,-0.041846,1.687425,-0.024687,0.050162,0.035878,-0.177365,0.041833,-0.983256,0.028485,-0.023126,-0.036138,-0.156265,-61.991974,5.012207,,,,,,,
1522137045.638830,-0.176085,-0.045171,1.687825,-0.150539,0.086572,0.041072,-0.174998,0.045155,-0.983533,0.055460,-0.008946,-0.044513,1.424774,-61.024689,4.409119,,,,,,,
1522137045.668798,-0.173503,-0.049409,1.689182,-0.095413,0.045769,0.081646,-0.172423,0.049388,-0.983784,0.083861,-0.013149,-0.020122,3.074249,-60.358322,3.207275,,,,,,,
1522137045.698766,-0.173364,-0.051211,1.691407,-0.019955,-0.026711,0.086040,-0.172271,0.051188,-0.983719,0.054671,-0.028956,0.012863,6.153244,-58.200089,0.275208,,,,,,,
1522137045.728734,-0.174371,-0.049927,1.692720,0.103058,-0.079526,-0.003316,-0.173272,0.049907,-0.983609,0.083993,-0.028529,0.017590,6.007675,-56.850952,-1.230286,,,,,,,
1522137045.758703,-0.177280,-0.046076,1.692448,0.097737,-0.115386,-0.038452,-0.176166,0.046059,-0.983282,0.073047,-0.071206,0.021322,5.481735,-55.051743,-4.387756,,,,,,,
1522137045.788671,-0.179124,-0.045224,1.691594,-0.034250,-0.034262,-0.045020,-0.177986,0.045209,-0.982994,0.058448,0.013614,0.006492,4.583221,-53.999191,-5.892395,,,,,,,
1522137045.818639,-0.179481,-0.046195,1.688754,-0.048706,-0.009246,-0.119654,-0.178329,0.046178,-0.982887,0.011245,0.052943,0.006278,-0.362259,-52.778229,-7.174744,,,,,,,
1522137045.848608,-0.178623,-0.046160,1.684695,-0.035464,0.067322,-0.134631,-0.177486,0.046144,-0.983041,0.076656,0.033599,-0.037009,-2.612015,-52.618332,-7.401550,,,,,,,
1522137045.878576,-0.175718,-0.047594,1.681289,-0.061389,0.075429,-0.069659,-0.174617,0.047576,-0.983486,0.068828,0.037065,-0.070255,-7.022873,-52.596161,-5.078796,,,,,,,
1522137045.908544,-0.176431,-0.047768,1.680768,0.053752,-0.093383,0.021164,-0.175317,0.047750,-0.983353,0.067224,0.027598,-0.033416,-8.139099,-52.889175,-3.128174,,,,,,,
1522137045.938512,-0.179849,-0.044967,1.682511,0.131412,-0.131973,0.041506,-0.178700,0.044951,-0.982876,0.058003,0.010758,0.017529,-8.873703,-53.781830,0.924988,,,,,,,
1522137045.968481,-0.181520,-0.041932,1.683414,0.087374,-0.012471,-0.010866,-0.180367,0.041919,-0.982706,-0.010170,-0.008411,0.004633,-7.966034,-54.458511,3.328186,,,,,,,
1522137045.998449,-0.179762,-0.041293,1.682830,-0.050860,0.084730,-0.034505,-0.178643,0.041281,-0.983048,0.065148,-0.031088,-0.100037,-7.583054,-55.057907,5.655762,,,,,,,
1522137046.028417,-0.174801,-0.048080,1.680878,-0.366309,0.225687,-0.023153,-0.173711,0.048062,-0.983623,0.064382,0.000507,-0.136540,-4.199921,-55.820496,8.285522,,,,,,,
1522137046.058385,-0.167746,-0.061495,1.677256,-0.488749,0.252861,-0.065895,-0.166645,0.061457,-0.984100,0.043460,0.075048,-0.121705,-2.095505,-55.604599,8.660706,,,,,,,
1522137046.088354,-0.164034,-0.069584,1.674078,-0.061943,-0.024585,-0.050382,-0.162904,0.069528,-0.984189,0.079545,0.024787,-0.071429,1.878571,-55.472855,8.287170,,,,,,,
1522137046.118322,-0.172050,-0.062151,1.675753,0.412040,-0.376203,0.068603,-0.170872,0.062111,-0.983334,0.080403,-0.036552,0.005886,3.302460,-55.404556,7.987549,,,,,,,
,,,,,,,,,,,,,,,,25.319073,51.443484,-20.532515,-1.000000,-1.000000,1522137046.110685,
1522137046.148290,-0.182987,-0.049711,1.681327,0.417200,-0.353205,0.121855,-0.181742,0.049691,-0.982090,0.050059,-0.003716,0.034336,5.319412,-55.489838,6.788940,,,,,,,
1522137046.178258,-0.191198,-0.041475,1.684952,0.214244,-0.247881,0.025694,-0.189871,0.041463,-0.980933,0.043402,0.022914,0.074607,6.976242,-54.897156,6.937378,,,,,,,
1522137046.208227,-0.195160,-0.037513,1.684906,0.071475,-0.050310,-0.065178,-0.193787,0.037504,-0.980326,0.013123,0.004717,0.076976,9.004990,-53.258377,4.831848,,,,,,,
1522137046.238195,-0.193625,-0.037768,1.682795,-0.114583,0.121250,-0.067621,-0.192280,0.037759,-0.980613,0.041508,0.004248,-0.011208,8.703186,-53.032700,4.155823,,,,,,,
1522137046.268163,-0.186649,-0.045474,1.680390,-0.357632,0.291331,0.007688,-0.185376,0.045458,-0.981616,0.049695,0.002363,-0.061643,8.629486,-51.909027,2.501282,,,,,,,
1522137046.298131,-0.176153,-0.057460,1.678569,-0.385038,0.363712,0.001195,-0.174954,0.057429,-0.982900,0.040387,0.035558,-0.101603,10.286774,-51.091629,2.348816,,,,,,,
1522137046.328100,-0.170142,-0.062776,1.675914,-0.003825,0.043485,-0.080241,-0.168989,0.062735,-0.983619,0.051939,0.031625,-0.089226,10.513214,-50.268768,1.220642,,,,,,,
1522137046.358068,-0.175626,-0.054032,1.675764,0.441700,-0.303320,-0.029485,-0.174470,0.054005,-0.983180,0.069214,-0.036030,-0.024037,12.758728,-49.680603,-0.505554,,,,,,,
1522137046.388036,-0.186037,-0.040167,1.678639,0.446472,-0.366427,0.025998,-0.184817,0.040156,-0.981952,0.007586,0.034719,0.033802,13.051956,-49.683044,-1.630432,,,,,,,
1522137046.417998,-0.194781,-0.030160,1.680644,0.258298,-0.240241,-0.020092,-0.193463,0.030156,-0.980644,0.025144,0.068324,0.067787,13.251724,-50.137390,-5.078491,,,,,,,
1522137046.447967,-0.197135,-0.027094,1.679216,-0.019765,0.036226,-0.100489,-0.195788,0.027090,-0.980272,0.036349,0.056100,0.060121,12.407730,-50.960388,-6.875610,,,,,,,
1522137046.477935,-0.195100,-0.028558,1.676087,-0.059416,0.048848,-0.064321,-0.193786,0.028554,-0.980628,0.064880,0.042537,0.047141,10.277634,-51.405090,-11.149963,,,,,,,
1522137046.507903,-0.193807,-0.030183,1.675790,-0.054702,0.037423,0.046516,-0.192509,0.030179,-0.980831,0.083912,0.011462,0.042385,7.942230,-51.770706,-12.274658,,,,,,,
1522137046.537872,-0.190575,-0.033112,1.676293,-0.098892,0.144027,0.013343,-0.189320,0.033106,-0.981357,0.053471,0.047995,0.015109,4.102661,-52.279999,-13.849487,,,,,,,
1522137046.567840,-0.185398,-0.036079,1.674501,-0.135369,0.221329,-0.089043,-0.184218,0.036071,-0.982223,0.033492,0.006669,-0.053894,2.972015,-52.575363,-14.298889,,,,,,,
1522137046.597808,-0.178952,-0.040325,1.671143,-0.183568,0.181106,-0.094365,-0.177854,0.040314,-0.983231,0.094037,-0.007386,-0.111374,-0.623001,-52.932755,-12.874268,,,,,,,
1522137046.627776,-0.175784,-0.044881,1.668748,-0.103350,0.057148,-0.023854,-0.174704,0.044865,-0.983598,0.045615,0.043452,-0.067153,-1.973969,-53.301224,-12.423462,,,,,,,
1522137046.657745,-0.176688,-0.043905,1.668984,0.122097,-0.100938,0.012703,-0.175601,0.043891,-0.983482,0.066440,0.038567,-0.033638,-3.772522,-54.191406,-10.695801,,,,,,,
1522137046.687713,-0.179964,-0.039066,1.671289,0.200581,-0.137737,0.080990,-0.178857,0.039056,-0.983099,0.071680,0.005637,-0.002725,-5.419266,-54.857346,-9.043945,,,,,,,
1522137046.717681,-0.185023,-0.033711,1.676129,0.189286,-0.192422,0.153500,-0.183865,0.033704,-0.982373,0.069943,-0.035764,0.006421,-6.239243,-55.077454,-7.843445,,,,,,,
1522137046.747649,-0.188668,-0.031338,1.681433,0.062705,-0.099562,0.141582,-0.187459,0.031333,-0.981773,0.042912,-0.033332,0.046210,-6.891403,-54.546600,-4.920959,,,,,,,
1522137046.777618,-0.187563,-0.034159,1.683284,-0.184541,0.113267,0.033566,-0.186357,0.034152,-0.981888,0.003343,-0.045489,0.004136,-7.179703,-54.318726,-3.346985,,,,,,,
1522137046.807586,-0.182106,-0.040890,1.682525,-0.247035,0.193291,0.007871,-0.180950,0.040878,-0.982642,0.008739,-0.033142,-0.075082,-6.548370,-52.669098,-0.878296,,,,,,,
1522137046.837554,-0.175014,-0.049050,1.681110,-0.320304,0.288042,0.010906,-0.173912,0.049031,-0.983540,0.032448,-0.032750,-0.123836,-5.631195,-51.622101,0.242981,,,,,,,
1522137046.867522,-0.165451,-0.059913,1.679678,-0.388577,0.305197,0.014031,-0.164401,0.059877,-0.984574,0.073444,-0.015779,-0.161269,-5.681595,-50.195160,1.962219,,,,,,,
1522137046.897491,-0.161160,-0.067363,1.679609,-0.075253,-0.009375,0.058276,-0.160099,0.067312,-0.984803,0.068973,0.029627,-0.063338,-5.294327,-49.595856,3.010071,,,,,,,
1522137046.927459,-0.167314,-0.061116,1.682231,0.405995,-0.324997,0.042970,-0.166224,0.061078,-0.984195,0.056254,0.004260,0.028628,-3.991928,-48.474014,5.706177,,,,,,,
1522137046.957427,-0.179757,-0.045027,1.685931,0.598808,-0.451755,0.017672,-0.178610,0.045012,-0.982890,0.036550,-0.008909,0.090556,-3.906128,-48.247971,7.130371,,,,,,,
1522137046.987395,-0.190234,-0.030333,1.689153,0.393585,-0.267387,0.015197,-0.189002,0.030328,-0.981508,0.061316,-0.009927,0.084169,-1.564117,-47.581787,8.853882,,,,,,,
1522137047.017364,-0.193738,-0.025957,1.688783,-0.018103,-0.031995,-0.069524,-0.192464,0.025954,-0.980961,0.035954,0.036134,0.080753,0.164581,-47.888428,9.980957,,,,,,,
1522137047.047332,-0.190882,-0.029216,1.684233,-0.169362,0.188912,-0.150840,-0.189644,0.029212,-0.981418,0.008339,0.043633,0.047565,1.515137,-48.193924,10.582825,,,,,,,
1522137047.077300,-0.182877,-0.035258,1.678950,-0.306663,0.337722,-0.106350,-0.181747,0.035251,-0.982713,0.051574,0.012952,-0.063170,4.348679,-49.257645,9.613525,,,,,,,
,,,,,,,,,,,,,,,,25.319076,51.443398,-20.528242,-1.000000,-1.000000,1522137047.093006,
1522137047.107269,-0.169914,-0.049372,1.674611,-0.598922,0.486642,-0.028914,-0.168892,0.049351,-0.984398,0.078896,0.033107,-0.142112,6.137634,-49.417267,8.040039,,,,,,,
1522137047.137237,-0.159059,-0.065533,1.671906,-0.395385,0.222275,0.020509,-0.158049,0.065486,-0.985257,0.057005,0.047337,-0.078433,7.241440,-50.099625,5.643372,,,,,,,
1522137047.167205,-0.160363,-0.065287,1.674025,0.299322,-0.236950,0.101409,-0.159337,0.065241,-0.985066,0.050770,-0.021189,-0.002986,7.683472,-50.177811,4.443909,,,,,,,
1522137047.197204,-0.171041,-0.050922,1.679795,0.583455,-0.430068,0.113532,-0.169988,0.050900,-0.984131,0.043081,-0.043759,0.049774,7.672089,-51.003296,3.922180,,,,,,,
1522137047.227172,-0.182372,-0.036171,1.684610,0.418978,-0.321633,0.013142,-0.181244,0.036163,-0.982773,0.028626,0.011948,0.073853,7.816208,-51.454163,3.699036,,,,,,,
1522137047.257140,-0.187370,-0.028896,1.683786,0.093067,-0.070113,-0.128008,-0.186198,0.028892,-0.982087,0.002574,0.023477,0.068437,8.551804,-52.358368,2.803040,,,,,,,
1522137047.287109,-0.185709,-0.028701,1.679069,-0.083245,0.112152,-0.146431,-0.184567,0.028697,-0.982401,0.080517,0.010899,0.004114,8.395828,-52.733047,2.429443,,,,,,,
1522137047.317077,-0.180401,-0.033575,1.675879,-0.209558,0.199709,-0.009166,-0.179323,0.033569,-0.983217,0.038332,0.043320,-0.041227,7.845505,-54.232269,0.710205,,,,,,,
1522137047.347045,-0.176520,-0.037490,1.675840,-0.038518,0.059785,0.033720,-0.175482,0.037481,-0.983769,0.062948,0.096033,-0.032787,7.306763,-55.205536,0.038818,,,,,,,
1522137047.377013,-0.176483,-0.035639,1.677311,0.125350,-0.043838,0.052070,-0.175457,0.035631,-0.983842,0.074138,-0.004015,0.007051,7.597153,-55.582809,-0.934570,,,,,,,
1522137047.406974,-0.176799,-0.033161,1.680114,0.044250,0.022987,0.099882,-0.175783,0.033155,-0.983870,0.055605,-0.062178,0.005996,5.769836,-58.050018,-1.375610,,,,,,,
1522137047.436942,-0.174850,-0.035659,1.683088,-0.099628,0.073320,0.094400,-0.173850,0.035652,-0.984126,0.022544,-0.038536,-0.001256,5.452164,-59.324402,-2.195618,,,,,,,
1522137047.466910,-0.172104,-0.037834,1.684768,-0.022420,0.076736,0.033723,-0.171133,0.037825,-0.984521,-0.016870,-0.027068,-0.026648,3.627075,-61.342026,-3.013489,,,,,,,
1522137047.496878,-0.169345,-0.038406,1.683775,-0.080454,0.109498,-0.070780,-0.168412,0.038397,-0.984968,0.042878,-0.023123,-0.089205,3.092056,-61.940277,-3.686340,,,,,,,
1522137047.526847,-0.166133,-0.041809,1.680648,-0.126564,0.064983,-0.070770,-0.165225,0.041797,-0.985370,0.051731,0.002332,-0.052457,2.557938,-62.763031,-3.833374,,,,,,,
1522137047.556815,-0.167198,-0.041255,1.679518,0.112574,-0.098664,-0.003298,-0.166279,0.041244,-0.985216,0.084675,0.022111,-0.004561,0.829880,-63.205017,-3.607483,,,,,,,
1522137047.586783,-0.171774,-0.035269,1.680541,0.241282,-0.206319,-0.003087,-0.170824,0.035262,-0.984670,0.075700,0.025072,0.025930,0.469299,-62.527130,-2.335327,,,,,,,
1522137047.616751,-0.179235,-0.027190,1.682258,0.296323,-0.272558,0.030044,-0.178211,0.027186,-0.983617,0.030765,0.009252,0.068150,1.760269,-61.332275,-1.664490,,,,,,,
1522137047.646720,-0.185719,-0.019887,1.685399,0.196465,-0.153356,0.037313,-0.184616,0.019886,-0.982609,-0.032669,0.002652,0.042882,1.790100,-59.829941,0.804565,,,,,,,
1522137047.676688,-0.184068,-0.020059,1.684939,-0.159193,0.176596,-0.064514,-0.182994,0.020058,-0.982909,0.070827,0.024712,-0.054795,2.705780,-58.483688,1.174622,,,,,,,
1522137047.706656,-0.175391,-0.030379,1.679400,-0.451840,0.313787,-0.129862,-0.174413,0.030374,-0.984204,0.057729,0.003470,-0.066272,8.041641,-57.307846,1.022583,,,,,,,
1522137047.736625,-0.170456,-0.038088,1.675088,-0.089462,0.037061,-0.043005,-0.169509,0.038079,-0.984793,0.079696,0.039100,-0.033915,9.844986,-56.566635,0.345520,,,,,,,
1522137047.766593,-0.172387,-0.034603,1.676441,0.210450,-0.099368,0.062836,-0.171432,0.034597,-0.984588,0.017928,-0.007131,-0.017441,11.865677,-56.501572,-0.478760,,,,,,,
1522137047.796561,-0.174405,-0.029429,1.678503,0.103305,-0.040089,-0.018284,-0.173447,0.029425,-0.984403,0.037125,0.010568,-0.056277,16.121094,-55.850052,-4.829224,,,,,,,
1522137047.826529,-0.174714,-0.027456,1.677321,0.072625,-0.034375,-0.066253,-0.173761,0.027453,-0.984405,0.057931,-0.001040,-0.032700,16.415802,-55.028641,-7.082336,,,,,,,
1522137047.856498,-0.177563,-0.023469,1.676803,0.159397,-0.133854,-0.003223,-0.176583,0.023467,-0.984006,0.017708,0.012589,-0.011188,16.094269,-54.207138,-12.035828,,,,,,,
1522137047.886466,-0.179862,-0.020154,1.677586,0.047730,-0.030541,0.001918,-0.178857,0.020152,-0.983669,0.042062,0.050404,-0.024861,15.034103,-53.605072,-14.738770,,,,,,,
1522137047.916434,-0.178304,-0.022966,1.677272,-0.166454,0.094125,0.029337,-0.177313,0.022964,-0.983886,0.028098,-0.004226,-0.009735,10.746750,-52.314987,-18.946045,,,,,,,
1522137047.946402,-0.174192,-0.029217,1.679387,-0.206285,0.156104,0.145387,-0.173238,0.029213,-0.984447,0.064245,-0.026009,-0.062291,7.967331,-51.629364,-20.825195,,,,,,,
1522137047.976371,-0.168887,-0.036031,1.681594,-0.184495,0.151363,0.056966,-0.167976,0.036023,-0.985133,0.062645,-0.009397,-0.094488,4.371475,-49.815506,-23.159302,,,,,,,
1522137048.006339,-0.167144,-0.038196,1.680123,0.019257,-0.032092,-0.068433,-0.166245,0.038187,-0.985345,0.019959,-0.026041,-0.082679,1.889221,-50.179947,-23.759033,,,,,,,
1522137048.036307,-0.171541,-0.033601,1.679629,0.194463,-0.188013,-0.019132,-0.170605,0.033594,-0.984767,0.026455,-0.044535,-0.042379,-2.468399,-50.536011,-24.434753,,,,,,,
1522137048.066275,-0.176029,-0.028941,1.680514,0.112425,-0.115746,0.009499,-0.175048,0.028937,-0.984135,0.043242,0.014200,-0.008495,-5.097916,-51.123962,-24.208740,,,,,,,
1522137048.096244,-0.177769,-0.027251,1.680963,0.028440,-0.045343,0.000841,-0.176768,0.027247,-0.983875,0.040111,0.041326,-0.002041,-8.923645,-51.556137,-23.608887,,,,,,,
,,,,,,,,,,,,,,,,25.319075,51.443308,-20.537125,-1.000000,-1.000000,1522137048.100358,
1522137048.126212,-0.178681,-0.026605,1.680702,0.012524,-0.037790,-0.010895,-0.177668,0.026602,-0.983731,0.071238,0.017939,-0.002750,-15.524811,-53.024170,-21.356323,,,,,,,
1522137048.156180,-0.179726,-0.027395,1.681269,-0.048612,-0.021117,0.057238,-0.178693,0.027392,-0.983523,0.025433,-0.029452,0.030917,-17.167038,-53.464752,-19.330444,,,,,,,
1522137048.186148,-0.179524,-0.029374,1.683522,-0.041108,0.022205,0.089168,-0.178484,0.029370,-0.983504,0.053454,-0.030758,0.027221,-22.452316,-53.808777,-12.131653,,,,,,,
1522137048.216117,-0.177371,-0.031278,1.685179,-0.051256,0.066251,0.025181,-0.176356,0.031272,-0.983830,0.021372,-0.019859,0.006962,-22.660294,-54.179382,-8.680298,,,,,,,
1522137048.246085,-0.176058,-0.031680,1.683556,-0.006123,0.020059,-0.070638,-0.175062,0.031675,-0.984048,-0.013674,-0.022474,-0.043037,-22.087280,-53.874481,-1.181213,,,,,,,
1522137048.276053,-0.174634,-0.031278,1.681050,-0.026232,0.033013,-0.093040,-0.173663,0.031273,-0.984308,0.077670,0.004463,-0.059179,-20.344894,-54.029160,1.970215,,,,,,,
1522137048.306021,-0.175872,-0.029438,1.678780,0.133307,-0.088634,-0.078937,-0.174891,0.029434,-0.984148,0.018442,0.045273,0.040193,-17.177124,-54.639435,5.949280,,,,,,,
1522137048.335990,-0.181840,-0.019443,1.679070,0.439598,-0.288481,-0.023110,-0.180805,0.019442,-0.983327,0.032307,0.016431,0.065633,-14.850403,-55.098862,7.002319,,,,,,,
1522137048.365958,-0.188766,-0.009410,1.683164,0.190759,-0.117922,0.138498,-0.187638,0.009410,-0.982193,0.046540,-0.036434,0.018829,-14.329269,-56.749084,9.109131,,,,,,,
1522137048.395926,-0.181703,-0.018473,1.685444,-0.592209,0.455015,0.087251,-0.180674,0.018472,-0.983370,0.090616,0.021735,-0.056990,-13.882706,-57.500427,9.787415,,,,,,,
1522137048.425904,-0.166131,-0.039951,1.682272,-0.669442,0.483595,-0.022577,-0.165236,0.039940,-0.985445,0.031279,0.011207,-0.059706,-13.212814,-57.878662,9.564209,,,,,,,
1522137048.455872,-0.159856,-0.048608,1.680061,-0.027928,-0.026963,-0.024790,-0.158988,0.048589,-0.986084,0.077582,-0.055837,-0.051147,-10.876617,-58.785797,12.944031,,,,,,,
1522137048.485840,-0.167361,-0.040921,1.682287,0.410924,-0.369914,0.082442,-0.166441,0.040909,-0.985202,0.027800,-0.071885,0.035236,-8.764236,-58.942978,15.270752,,,,,,,
1522137048.515808,-0.177832,-0.028813,1.688465,0.369363,-0.293662,0.133481,-0.176823,0.028809,-0.983821,0.053608,-0.046479,0.054011,-2.732513,-58.066299,19.095276,,,,,,,
1522137048.545777,-0.180490,-0.025100,1.689798,-0.032868,0.007367,-0.070641,-0.179455,0.025097,-0.983446,0.053295,0.007587,0.056047,1.248322,-57.933456,19.846680,,,,,,,
1522137048.575745,-0.178175,-0.025956,1.684488,-0.034972,0.091230,-0.209247,-0.177174,0.025953,-0.983837,0.047551,0.013125,0.039440,8.750351,-56.693939,18.120483,,,,,,,
1522137048.605713,-0.177027,-0.024212,1.680017,0.020639,0.022166,-0.080198,-0.176053,0.024209,-0.984083,0.025601,-0.028299,-0.024431,11.663223,-56.783936,16.247253,,,,,,,
1522137048.635681,-0.173241,-0.027732,1.679282,-0.268391,0.217638,0.029139,-0.172309,0.027729,-0.984653,0.081443,0.037350,-0.104489,14.423203,-55.900314,12.270142,,,,,,,
1522137048.665650,-0.162328,-0.041764,1.677067,-0.554474,0.411040,-0.020291,-0.161475,0.041752,-0.985993,0.059180,0.052136,-0.152038,15.305740,-56.206680,9.871765,,,,,,,
1522137048.695618,-0.153329,-0.054274,1.673697,-0.284191,0.188401,-0.037975,-0.152504,0.054247,-0.986813,0.074196,-0.015749,-0.145832,16.343338,-55.240036,6.193420,,,,,,,
1522137048.725586,-0.155222,-0.054152,1.674407,0.206334,-0.276980,0.085394,-0.154373,0.054125,-0.986529,0.074676,-0.035006,-0.085904,17.079498,-55.545151,4.395020,,,,,,,
1522137048.755554,-0.167258,-0.044535,1.680459,0.392092,-0.422550,0.168795,-0.166314,0.044520,-0.985067,0.019875,-0.028331,-0.003992,15.941193,-55.841751,2.670715,,,,,,,
1522137048.785523,-0.178552,-0.035232,1.687035,0.266689,-0.333808,0.134521,-0.177495,0.035224,-0.983491,0.011479,-0.007194,0.037782,14.182785,-56.887665,-1.151001,,,,,,,
1522137048.815491,-0.183949,-0.031633,1.689187,0.057093,-0.094255,-0.006539,-0.182822,0.031627,-0.982637,0.041357,-0.028148,0.067888,12.516510,-57.481888,-2.874512,,,,,,,
1522137048.845459,-0.184218,-0.030516,1.687753,0.034441,0.023113,-0.066347,-0.183092,0.030511,-0.982622,0.031649,-0.026086,0.041353,10.161606,-58.449661,-6.246826,,,,,,,
1522137048.875427,-0.183439,-0.028324,1.684995,0.059336,0.020316,-0.132382,-0.182339,0.028321,-0.982828,0.083584,0.013916,-0.018225,7.300781,-59.037613,-7.070862,,,,,,,
1522137048.905396,-0.182178,-0.027721,1.681139,-0.069577,0.089670,-0.126159,-0.181103,0.027717,-0.983073,0.054546,0.026421,-0.027882,3.157669,-60.220016,-8.118225,,,,,,,
1522137048.935364,-0.180330,-0.029057,1.678570,-0.034104,0.014523,-0.031219,-0.179279,0.029053,-0.983369,0.098071,0.059662,-0.012694,2.029724,-60.514938,-8.117615,,,,,,,
1522137048.965332,-0.178181,-0.028866,1.678650,0.053501,0.076687,0.012475,-0.177166,0.028862,-0.983758,0.063305,0.054024,-0.018333,-3.220627,-61.315033,-6.842041,,,,,,,
1522137048.995301,-0.177183,-0.026191,1.679267,0.096909,0.003250,0.016829,-0.176197,0.026188,-0.984007,0.097126,0.020519,-0.018679,-5.238037,-61.229828,-5.718384,,,,,,,
1522137049.025269,-0.175784,-0.025346,1.682084,0.016531,0.041054,0.108372,-0.174824,0.025344,-0.984273,0.124608,-0.022780,-0.015025,-8.878677,-59.635376,-2.651550,,,,,,,
1522137049.055237,-0.173207,-0.028802,1.684549,-0.159291,0.088415,0.083689,-0.172270,0.028798,-0.984629,0.087340,-0.022801,0.023294,-10.426483,-58.575653,0.118408,,,,,,,
1522137049.085205,-0.170214,-0.032141,1.686318,-0.035431,0.065974,0.060349,-0.169305,0.032136,-0.985040,0.110727,-0.040619,0.027154,-9.993622,-56.022202,5.508423,,,,,,,
1522137049.115174,-0.167360,-0.031636,1.687013,0.023901,0.104626,-0.020611,-0.166496,0.031631,-0.985535,0.083702,-0.033828,-0.006424,-8.244659,-54.977829,7.755127,,,,,,,
,,,,,,,,,,,,,,,,25.319088,51.443208,-20.531868,-1.000000,-1.000000,1522137049.099735,
1522137049.145142,-0.164955,-0.030394,1.684179,0.028467,0.028970,-0.143070,-0.164132,0.030389,-0.985970,0.129113,-0.021386,-0.042762,-6.118652,-54.084549,10.602600,,,,,,,
1522137049.175110,-0.164046,-0.029302,1.680801,-0.016749,0.026473,-0.073843,-0.163241,0.029298,-0.986151,0.126345,-0.024796,-0.040323,-0.026062,-53.135620,11.951843,,,,,,,
1522137049.205078,-0.162619,-0.030847,1.679283,-0.102252,0.058267,-0.030258,-0.161826,0.030842,-0.986337,0.187308,0.011227,-0.027304,6.330963,-53.766159,10.007568,,,,,,,
1522137049.235047,-0.159512,-0.033908,1.678729,-0.072600,0.062090,0.019842,-0.158745,0.033902,-0.986737,0.127327,0.042362,-0.013827,8.267502,-54.076599,8.284790,,,,,,,
1522137049.265015,-0.157670,-0.034111,1.678194,0.009612,0.005878,-0.026911,-0.156927,0.034105,-0.987021,0.137655,0.017378,-0.079736,9.369064,-54.983963,5.888916,,,,,,,
1522137049.294983,-0.158459,-0.034013,1.677317,-0.012022,-0.057785,-0.030072,-0.157706,0.034006,-0.986900,0.133475,-0.033381,-0.060112,10.681625,-55.669968,0.792358,,,,,,,
1522137049.324951,-0.160321,-0.034792,1.677472,-0.043306,-0.068700,0.022127,-0.159539,0.034785,-0.986579,0.157982,-0.009288,-0.028985,9.463531,-56.266495,-1.230896,,,,,,,
1522137049.354920,-0.161139,-0.036025,1.678661,-0.004737,-0.021092,0.038092,-0.160339,0.036017,-0.986405,0.090118,0.011224,-0.001419,7.343521,-57.009064,-3.328979,,,,,,,
1522137049.384888,-0.161371,-0.035628,1.678905,-0.000177,-0.024945,-0.020503,-0.160570,0.035621,-0.986381,0.090578,0.010858,-0.052910,6.361786,-57.005768,-4.454468,,,,,,,
1522137049.414862,-0.161493,-0.035418,1.677951,0.012705,-0.029125,-0.036466,-0.160691,0.035410,-0.986369,0.138367,-0.015314,-0.063985,4.186462,-57.445297,-3.778809,,,,,,,
1522137049.444830,-0.164693,-0.030765,1.678578,0.281802,-0.156839,0.049101,-0.163871,0.030761,-0.986002,0.152931,-0.010222,-0.055334,3.440842,-57.366348,-3.179504,,,,,,,
1522137049.474799,-0.162026,-0.029952,1.677318,-0.194193,0.129462,-0.149734,-0.161246,0.029948,-0.986460,0.113959,0.101278,-0.209738,4.052063,-56.917969,-2.055969,,,,,,,
1522137049.504767,-0.164397,-0.038221,1.669394,-0.305975,-0.123701,-0.225210,-0.163538,0.038211,-0.985797,0.113825,0.085751,-0.055539,4.582291,-56.619995,-1.681946,,,,,,,
