timestamp(unix),attitude_roll(radians),attitude_pitch(radians),attitude_yaw(radians),rotation_rate_x(radians/s),rotation_rate_y(radians/s),rotation_rate_z(radians/s),gravity_x(G),gravity_y(G),gravity_z(G),user_acc_x(G),user_acc_y(G),user_acc_z(G),magnetic_field_x(microteslas),magnetic_field_y(microteslas),magnetic_field_z(microteslas),latitude(degree),longitude(degree),altitude(meter),speed(m/s),course(degree),timestamp(unix),User Mark
1522314738.361122,-0.153767,0.041040,1.666985,0.692101,0.126952,-0.055837,-0.153033,-0.041029,-0.987369,-0.073087,0.017027,-0.096829,-7.175858,4.976078,5.223694,,,,,,,1
,,,,,,,,,,,,,,,,25.319082,51.444722,13.948001,8.080000,90.703125,1522314737.996525,1
1522314738.391090,-0.146650,0.053434,1.669238,0.203231,0.252991,0.026772,-0.145916,-0.053409,-0.987854,-0.035236,0.013080,0.032852,-5.385818,3.843266,5.454102,,,,,,,1
1522314738.421059,-0.140183,0.054278,1.670507,-0.027564,0.218439,0.033040,-0.139519,-0.054251,-0.988732,-0.040016,0.009802,0.075097,-4.415039,3.688435,5.005249,,,,,,,1
1522314738.451027,-0.133527,0.049364,1.670827,-0.254655,0.281770,0.024275,-0.132969,-0.049344,-0.989891,-0.092221,-0.035541,0.008034,-2.697311,3.454884,4.182007,,,,,,,1
1522314738.480995,-0.127003,0.046221,1.670672,0.075592,0.079283,-0.009368,-0.126526,-0.046204,-0.990887,-0.100128,-0.086364,-0.035358,-2.929489,2.780857,4.109558,,,,,,,1
1522314738.510963,-0.124123,0.050839,1.670810,0.104112,0.285136,0.022411,-0.123645,-0.050817,-0.991025,-0.087186,-0.047343,-0.093036,-2.860336,2.330326,3.886414,,,,,,,1
1522314738.540932,-0.119718,0.050014,1.670860,-0.138312,-0.005163,-0.012644,-0.119283,-0.049993,-0.991601,-0.067561,-0.077693,-0.058677,-2.108444,2.701633,3.585266,,,,,,,1
1522314738.570900,-0.124501,0.042878,1.669136,-0.320367,-0.181824,-0.060555,-0.124066,-0.042865,-0.991348,-0.043262,-0.049496,0.044036,-2.332809,2.627872,3.810486,,,,,,,1
1522314738.600868,-0.125041,0.033144,1.666158,-0.336253,0.117678,-0.032104,-0.124647,-0.033138,-0.991648,-0.060366,-0.057026,0.017633,-2.182953,2.477421,4.036133,,,,,,,1
1522314738.630836,-0.121635,0.025204,1.665336,-0.235424,0.059572,0.034100,-0.121297,-0.025202,-0.992296,-0.027842,-0.022253,0.027559,-1.201111,3.073154,4.184265,,,,,,,1
1522314738.660805,-0.122386,0.021984,1.665971,-0.067139,-0.018510,0.046031,-0.122052,-0.021982,-0.992280,-0.043506,0.006830,0.073137,-1.270569,2.999516,5.234558,,,,,,,1
1522314738.690773,-0.121545,0.023026,1.666621,0.067903,0.050518,0.005565,-0.121214,-0.023024,-0.992359,-0.056963,0.020186,0.051991,-1.046310,2.923512,5.234924,,,,,,,1
1522314738.720741,-0.118519,0.025591,1.665613,0.048588,0.182812,-0.064900,-0.118203,-0.025589,-0.992660,-0.075325,0.011398,-0.006409,0.608856,3.216434,5.609619,,,,,,,1
1522314738.750709,-0.112876,0.026055,1.663423,-0.027010,0.216031,-0.076715,-0.112598,-0.026052,-0.993299,-0.100018,0.001302,-0.044253,1.511063,3.661991,5.233276,,,,,,,1
1522314738.780678,-0.109520,0.023160,1.661893,-0.126057,0.085243,-0.030831,-0.109272,-0.023158,-0.993742,-0.114559,-0.010290,-0.030657,3.317429,4.029316,5.682739,,,,,,,1
1522314738.810646,-0.105816,0.018582,1.661850,-0.155695,0.240941,0.053160,-0.105600,-0.018581,-0.994235,-0.070257,-0.021992,-0.064176,4.060196,4.024784,4.483093,,,,,,,1
1522314738.840614,-0.089710,0.011663,1.662678,-0.347595,0.787535,0.062057,-0.089583,-0.011663,-0.995911,-0.018159,-0.048685,-0.329940,4.658218,3.647388,4.784912,,,,,,,1
1522314738.870583,-0.048979,-0.006081,1.660785,-0.821637,1.744328,-0.136383,-0.048958,0.006081,-0.998782,-0.028099,-0.051887,-0.564175,4.883652,3.871067,4.484131,,,,,,,1
1522314738.900551,-0.009173,-0.040933,1.649379,-1.306897,0.775537,-0.461824,-0.009165,0.040922,-0.999120,-0.051016,-0.074995,-0.296412,4.140427,4.549412,4.481018,,,,,,,1
1522314738.930519,-0.012137,-0.073463,1.639068,-0.810495,-0.595107,-0.200087,-0.012104,0.073396,-0.997229,0.081669,-0.014162,0.194938,4.287720,4.548298,4.031128,,,,,,,1
1522314738.960487,-0.044754,-0.081096,1.635766,0.113417,-1.284913,-0.048465,-0.044592,0.081007,-0.995715,0.152273,0.114473,0.450504,3.908218,4.549259,3.280884,,,,,,,1
1522314738.990478,-0.076601,-0.065055,1.637632,0.792492,-0.878476,0.091214,-0.076364,0.065009,-0.994958,0.038370,0.124383,0.594217,2.998047,4.252155,2.081604,,,,,,,1
1522314739.020446,-0.105288,-0.041159,1.642271,0.756123,-0.960869,0.033734,-0.105005,0.041148,-0.993620,-0.256781,0.070394,0.614790,2.622452,4.328617,1.856140,,,,,,,1
1522314739.050414,-0.107846,-0.017524,1.642969,0.939019,0.612282,-0.101967,-0.107621,0.017524,-0.994038,-0.412780,-0.134070,0.177463,2.768097,4.252369,1.256592,,,,,,,1
,,,,,,,,,,,,,,,,25.319082,51.444787,13.680445,6.870000,91.406250,1522314738.996513,1
1522314739.080382,-0.082442,0.020364,1.642121,1.375651,0.729813,-0.196595,-0.082331,-0.020363,-0.996397,-0.361730,-0.118324,-0.362932,2.238464,4.104221,0.731873,,,,,,,1
1522314739.110351,-0.054747,0.044174,1.638403,0.081427,0.720072,-0.166650,-0.054667,-0.044159,-0.997528,-0.127966,-0.060516,-0.335160,2.010788,3.655552,1.033508,,,,,,,1
1522314739.140319,-0.072879,0.020946,1.633042,-1.157929,-1.301507,-0.111191,-0.072799,-0.020944,-0.997127,-0.054856,-0.043112,0.082683,2.914200,4.176182,0.731934,,,,,,,1
1522314739.170287,-0.105489,-0.014269,1.626663,-1.113423,-0.653464,-0.103299,-0.105282,0.014269,-0.994340,0.029034,-0.024950,0.259965,2.027863,5.006062,1.628174,,,,,,,1
1522314739.200255,-0.103922,-0.039997,1.623821,-0.680572,0.387496,0.099506,-0.103653,0.039987,-0.993809,0.133972,-0.047051,0.207173,2.029663,5.230991,1.552246,,,,,,,1
1522314739.230224,-0.087279,-0.048773,1.627535,0.076050,0.630580,0.172271,-0.087064,0.048754,-0.995009,0.207807,-0.031710,-0.018846,2.714203,6.053135,1.774292,,,,,,,1
1522314739.260192,-0.059439,-0.036075,1.631663,0.639214,1.323825,0.062249,-0.059366,0.036067,-0.997585,0.094873,-0.063884,-0.470830,2.262726,6.129780,1.398743,,,,,,,1
1522314739.290160,0.000703,-0.018727,1.628421,0.465479,2.152457,-0.302059,0.000703,0.018726,-0.999824,-0.115662,-0.099796,-1.185616,2.035492,5.905811,1.399536,,,,,,,1
1522314739.320128,0.020631,-0.014010,1.614139,0.129734,-0.346531,-0.523555,0.020628,0.014009,-0.999689,-0.225843,-0.078157,-0.686331,1.813034,6.655979,0.571411,,,,,,,1
1522314739.350097,-0.033723,-0.010914,1.608172,0.109037,-2.632877,0.035998,-0.033715,0.010914,-0.999372,-0.064659,0.056057,-0.078478,0.613968,6.661518,0.720825,,,,,,,1
1522314739.380065,-0.107909,-0.009639,1.616333,0.007538,-1.916237,0.463543,-0.107694,0.009639,-0.994137,0.012830,0.112782,0.549618,-1.037155,7.043125,-0.106567,,,,,,,1
1522314739.410033,-0.131684,-0.017036,1.634071,-0.355088,-0.173008,0.666092,-0.131284,0.017035,-0.991198,0.045133,0.001580,0.714206,-0.955276,7.418278,0.417053,,,,,,,1
1522314739.440001,-0.125917,-0.038189,1.650225,-0.796263,0.398176,0.589542,-0.125493,0.038180,-0.991360,0.083958,-0.071704,0.689098,-0.493607,7.867405,1.615479,,,,,,,1
1522314739.469970,-0.106778,-0.059565,1.667063,-0.352213,0.713097,0.678002,-0.106386,0.059530,-0.992541,0.168718,-0.069509,0.432193,-0.629791,8.394444,3.038269,,,,,,,1
1522314739.499938,-0.067065,-0.049635,1.685232,0.942532,1.948841,0.379377,-0.066932,0.049615,-0.996523,0.096946,-0.066613,-0.473020,0.646515,8.164295,3.639832,,,,,,,1
1522314739.529906,-0.015329,-0.015710,1.687575,0.858960,1.144871,-0.258124,-0.015327,0.015709,-0.999759,-0.029778,-0.139397,-0.917859,0.347153,8.090870,3.864990,,,,,,,1
1522314739.559875,-0.028862,-0.012153,1.670062,-0.214967,-1.470760,-0.705949,-0.028855,0.012153,-0.999510,-0.070739,-0.013740,-0.325304,0.949509,8.013691,4.390564,,,,,,,1
1522314739.589843,-0.092330,-0.018457,1.653430,-0.219425,-2.137851,-0.430391,-0.092183,0.018456,-0.995571,-0.113688,0.083641,0.082561,0.874222,7.939106,4.465820,,,,,,,1
1522314739.619811,-0.144873,-0.020222,1.647273,0.109747,-1.392206,-0.051556,-0.144337,0.020221,-0.989322,-0.142497,0.022778,0.343372,0.197006,7.717152,4.466370,,,,,,,1
1522314739.649779,-0.162400,-0.005676,1.652503,0.748207,0.078302,0.196772,-0.161684,0.005676,-0.986826,-0.185850,0.037064,0.324946,0.332336,6.516087,4.021240,,,,,,,1
1522314739.679748,-0.147478,0.014118,1.662407,0.518806,0.586787,0.198221,-0.146929,-0.014117,-0.989046,-0.147535,0.020328,-0.019880,0.174530,5.916508,3.723572,,,,,,,1
1522314739.709716,-0.133231,0.018730,1.667974,0.016508,0.375071,0.109624,-0.132814,-0.018729,-0.990964,-0.077391,0.020407,0.067884,0.313171,4.865742,3.577820,,,,,,,1
1522314739.739684,-0.126784,0.019249,1.668312,0.068695,0.185702,-0.028664,-0.126421,-0.019248,-0.991790,-0.092466,-0.005273,0.080108,-0.216309,4.193501,3.955261,,,,,,,1
1522314739.769652,-0.112914,0.023065,1.667591,0.106050,0.622574,-0.059986,-0.112644,-0.023063,-0.993368,-0.111202,-0.025811,-0.269648,-0.890366,3.972050,4.480835,,,,,,,1
1522314739.799621,-0.102763,0.023142,1.665315,-0.088599,0.025083,-0.101074,-0.102555,-0.023140,-0.994458,-0.113769,-0.031898,-0.263644,-0.519699,3.220921,5.009033,,,,,,,1
1522314739.829589,-0.111987,0.017788,1.661937,-0.242528,-0.440243,-0.059169,-0.111735,-0.017787,-0.993579,-0.133901,-0.080373,-0.071500,-0.522095,2.846149,5.235535,,,,,,,1
1522314739.859557,-0.123183,0.010161,1.662094,-0.248964,-0.281838,0.083448,-0.122865,-0.010161,-0.992371,-0.078948,-0.079667,0.088578,0.533417,2.992069,5.910461,,,,,,,1
1522314739.889525,-0.124532,0.001892,1.664180,-0.277188,0.123964,0.111777,-0.124210,-0.001892,-0.992254,-0.025509,-0.041870,0.107473,0.906021,2.615620,6.137207,,,,,,,1
1522314739.919494,-0.118336,-0.005364,1.666918,-0.166784,0.223535,0.116029,-0.118058,0.005364,-0.992992,0.028870,-0.015984,0.074901,1.732941,2.537357,6.587830,,,,,,,1
1522314739.949462,-0.111501,-0.006974,1.669260,0.037560,0.251065,0.058609,-0.111268,0.006974,-0.993766,-0.039703,-0.026398,-0.013238,2.632904,2.533298,6.588318,,,,,,,1
1522314739.979430,-0.103408,-0.004509,1.669684,0.079506,0.222820,-0.022299,-0.103222,0.004509,-0.994648,-0.111728,-0.032936,-0.107265,2.850540,1.932102,6.365845,,,,,,,1
1522314740.009366,-0.102039,-0.002526,1.668927,0.001393,-0.047955,-0.019962,-0.101861,0.002526,-0.994795,-0.099600,-0.029855,-0.077974,2.393524,1.408863,6.067749,,,,,,,1
1522314740.039335,-0.106409,-0.005086,1.668915,-0.137087,-0.161617,0.024797,-0.106207,0.005086,-0.994331,-0.098185,-0.030782,-0.013237,2.911194,0.806309,5.845398,,,,,,,1
,,,,,,,,,,,,,,,,25.319082,51.444848,13.714350,6.600000,92.812500,1522314739.996502,1
1522314740.069303,-0.108865,-0.006129,1.670772,0.002259,0.023586,0.081195,-0.108648,0.006129,-0.994061,-0.064020,-0.035853,0.032315,3.809189,0.652195,5.771484,,,,,,,1
1522314740.099271,-0.107757,-0.007717,1.673190,-0.088761,-0.017697,0.093940,-0.107546,0.007717,-0.994170,-0.030608,-0.026256,-0.037782,4.472183,-0.101528,5.024841,,,,,,,1
1522314740.129239,-0.115846,-0.012585,1.675428,-0.164030,-0.371401,0.097450,-0.115577,0.012585,-0.993219,-0.024147,-0.001904,0.010766,4.013229,-0.999462,5.028198,,,,,,,1
