timestamp(unix),attitude_roll(radians),attitude_pitch(radians),attitude_yaw(radians),rotation_rate_x(radians/s),rotation_rate_y(radians/s),rotation_rate_z(radians/s),gravity_x(G),gravity_y(G),gravity_z(G),user_acc_x(G),user_acc_y(G),user_acc_z(G),magnetic_field_x(microteslas),magnetic_field_y(microteslas),magnetic_field_z(microteslas),latitude(degree),longitude(degree),altitude(meter),speed(m/s),course(degree),timestamp(unix),User Mark
,,,,,,,,,,,,,,,,25.300253,51.442048,-18.569126,-1.000000,-1.000000,1522138093.089020,
1522138100.877660,-0.220296,0.041285,1.032874,0.695780,-0.172971,-0.162895,-0.218333,-0.041273,-0.975001,0.092737,0.005766,-0.363210,17.019943,-50.750290,-1.024170,,,,,,,
1522138100.907627,-0.252685,0.060286,1.033492,0.450527,-1.396208,-0.051030,-0.249551,-0.060249,-0.966485,0.150689,0.189949,0.053445,17.245834,-50.751160,-0.874023,,,,,,,
1522138100.937595,-0.279914,0.059482,1.035150,-0.313902,-0.471114,0.129680,-0.275784,-0.059447,-0.959379,0.024213,0.135710,0.127729,16.338669,-50.972900,-1.698608,,,,,,,
1522138100.967563,-0.289143,0.047128,1.038565,-0.304885,-0.371583,0.328839,-0.284814,-0.047110,-0.957424,0.119333,0.069968,0.108013,16.260956,-50.973007,-2.148682,,,,,,,
1522138100.997532,-0.300333,0.033281,1.050142,-0.373524,-0.201771,0.534262,-0.295675,-0.033275,-0.954708,0.007314,0.085491,0.235455,15.206497,-50.969009,-2.899231,,,,,,,
1522138101.027500,-0.299336,0.023125,1.056897,-0.169723,0.074327,0.183582,-0.294807,-0.023123,-0.955276,-0.087533,-0.001780,0.216293,15.051697,-51.043991,-3.573975,,,,,,,
1522138101.057468,-0.299766,0.019383,1.052816,-0.119402,-0.034715,-0.346903,-0.295241,-0.019382,-0.955226,-0.112703,0.029468,0.178630,14.828659,-51.117538,-3.123779,,,,,,,
1522138101.087436,-0.301002,0.024034,1.040574,0.212573,0.080931,-0.438412,-0.296391,-0.024032,-0.954764,-0.089092,0.018096,-0.042581,15.359940,-50.669632,-2.825317,,,,,,,
,,,,,,,,,,,,,,,,25.300267,51.441990,-18.858263,0.000186,-1.000000,1522138101.093608,
1522138101.117405,-0.291300,0.054384,1.040378,1.495785,0.421208,-0.322719,-0.286773,-0.054358,-0.956455,0.098067,0.041494,-0.188397,16.118942,-51.120789,-0.573120,,,,,,,
1522138101.147373,-0.261444,0.104802,1.038784,1.428162,1.478271,-0.568905,-0.257058,-0.104610,-0.960717,0.073235,0.038525,-0.272163,16.356842,-51.044846,1.451721,,,,,,,
1522138101.177341,-0.223202,0.134335,1.026554,0.504507,0.607937,-0.685932,-0.219359,-0.133932,-0.966407,-0.244432,0.037740,-0.467812,17.563400,-50.974289,2.427002,,,,,,,
1522138101.207310,-0.234965,0.143822,1.013890,0.015837,-0.964360,-0.262755,-0.230405,-0.143327,-0.962481,-0.133716,-0.106825,-0.047193,18.469055,-50.677917,2.876282,,,,,,,
1522138101.237278,-0.267261,0.132930,1.014447,-0.637230,-0.932755,0.311045,-0.261761,-0.132539,-0.955988,0.008114,-0.034408,0.189341,18.238815,-50.752640,2.126465,,,,,,,
1522138101.267246,-0.284559,0.104662,1.019373,-0.951068,-0.481573,0.484034,-0.279198,-0.104471,-0.954533,0.086846,-0.004721,0.172428,18.229492,-50.379761,-0.050049,,,,,,,
1522138101.297215,-0.299493,0.069674,1.023749,-1.143942,-0.438334,0.448680,-0.294320,-0.069618,-0.953167,0.156792,0.112450,0.131192,17.091476,-50.826080,-1.473816,,,,,,,
1522138101.327183,-0.311010,0.033077,1.024920,-1.141650,-0.318408,0.317501,-0.305853,-0.033071,-0.951504,-0.004847,0.216634,0.126766,15.879059,-50.672943,-3.800049,,,,,,,
1522138101.357152,-0.314465,0.005533,1.020452,-0.687647,-0.066050,0.081043,-0.309303,-0.005533,-0.950947,0.077522,0.062113,-0.016369,16.323914,-50.376297,-5.151062,,,,,,,
1522138101.387094,-0.312560,-0.007916,1.019417,-0.346248,0.294720,0.032988,-0.307486,0.007916,-0.951519,0.146140,-0.072842,0.029308,15.498337,-50.073181,-5.752625,,,,,,,
1522138101.417062,-0.291960,-0.015167,1.016462,-0.212111,0.775573,-0.092070,-0.287796,0.015166,-0.957571,0.078461,-0.110717,0.005316,15.721085,-50.299179,-5.751648,,,,,,,
1522138101.447031,-0.281936,-0.018443,1.013875,-0.114195,0.006985,-0.081629,-0.278168,0.018442,-0.960355,0.063691,0.035696,0.140576,17.073273,-50.080276,-5.751831,,,,,,,
1522138101.476999,-0.287972,-0.018419,1.011527,0.062714,-0.323795,-0.100344,-0.283960,0.018418,-0.958659,-0.036291,0.131454,0.025233,16.171204,-50.376053,-5.601074,,,,,,,
1522138101.506967,-0.298876,-0.010089,1.010269,0.367572,-0.261474,-0.155586,-0.294431,0.010089,-0.955619,0.002530,0.165326,0.022971,16.326889,-49.851669,-5.528137,,,,,,,
1522138101.536935,-0.290440,0.004251,1.014526,0.490380,0.720571,0.074742,-0.286371,-0.004251,-0.958109,0.139612,0.091531,-0.028265,16.858627,-49.852951,-4.402893,,,,,,,
1522138101.566904,-0.248923,0.008763,1.023636,0.045748,1.777681,0.259809,-0.246351,-0.008763,-0.969141,0.086576,0.107594,-0.239569,16.334869,-50.224762,-3.576599,,,,,,,
1522138101.596872,-0.198916,0.006773,1.032807,0.030536,1.282332,0.291191,-0.197602,-0.006773,-0.980259,0.101777,-0.133303,-0.389065,16.490585,-50.374268,-2.375916,,,,,,,
1522138101.626840,-0.192165,0.006366,1.040278,-0.025667,-0.501469,0.111819,-0.190980,-0.006365,-0.981573,0.074037,-0.126996,-0.008570,15.291977,-50.368652,-2.151611,,,,,,,
1522138101.656778,-0.219763,0.007339,1.038064,0.109686,-0.955237,-0.233922,-0.217992,-0.007339,-0.975923,-0.068980,0.044357,0.272538,16.335648,-50.599014,-2.825134,,,,,,,
1522138101.686746,-0.240084,0.015998,1.029404,0.230224,-0.500358,-0.436757,-0.237754,-0.015997,-0.971193,0.050803,0.063727,-0.006666,16.335190,-50.599091,-2.900146,,,,,,,
1522138101.716714,-0.248181,0.020980,1.018311,-0.077375,-0.037468,-0.423588,-0.245587,-0.020979,-0.969147,0.151913,0.166349,-0.075805,17.317169,-50.078217,-2.601685,,,,,,,
1522138101.746683,-0.233762,0.021462,1.004351,-0.027117,0.787843,-0.544788,-0.231585,-0.021460,-0.972578,-0.013120,0.300635,-0.280581,16.792969,-50.225479,-2.226379,,,,,,,
1522138101.776651,-0.210927,0.029083,0.988779,0.190768,0.487070,-0.614646,-0.209278,-0.029079,-0.977423,-0.018322,0.162792,-0.429635,18.376129,-49.856842,-1.477051,,,,,,,
1522138101.806619,-0.213516,0.034011,0.976767,-0.082889,-0.424982,-0.316658,-0.211775,-0.034004,-0.976726,0.048460,0.085960,-0.102619,19.577576,-49.487640,-1.852905,,,,,,,
1522138101.836588,-0.228495,0.027669,0.972407,-0.290720,-0.638455,0.043555,-0.226425,-0.027666,-0.973635,0.109833,-0.032927,0.073855,17.994232,-49.556778,-3.128479,,,,,,,
1522138101.866556,-0.257747,0.014609,0.977435,-0.496767,-1.078442,0.276138,-0.254875,-0.014608,-0.966863,0.059624,0.072912,0.363348,17.462814,-49.929855,-3.577271,,,,,,,
1522138101.896524,-0.286769,-0.003185,0.982636,-0.570438,-0.831772,0.283285,-0.282853,0.003185,-0.959158,0.000505,0.084080,0.435567,17.987167,-49.183563,-4.929932,,,,,,,
1522138101.926492,-0.307056,-0.023835,0.986778,-0.681356,-0.600715,0.255267,-0.302168,0.023833,-0.952956,0.013059,0.156251,0.246261,16.777451,-49.479233,-6.054382,,,,,,,
1522138101.956461,-0.317491,-0.043700,0.980862,-0.649343,-0.045508,-0.285492,-0.311886,0.043686,-0.949114,-0.243580,0.277618,0.086901,16.248703,-49.177994,-7.180847,,,,,,,
1522138101.986429,-0.305132,-0.048154,0.963202,-0.063790,0.657527,-0.586242,-0.300071,0.048135,-0.952701,-0.037393,-0.011957,-0.217297,18.056259,-48.286346,-7.408508,,,,,,,
1522138102.016397,-0.277553,-0.043457,0.956337,0.038140,1.211012,0.001454,-0.273744,0.043443,-0.960821,-0.154723,-0.173906,-0.364375,17.984421,-48.285492,-6.883545,,,,,,,
1522138102.046365,-0.238686,-0.049040,0.964227,-0.203515,1.053011,0.343468,-0.236141,0.049020,-0.970481,-0.160160,-0.122705,-0.414239,18.136688,-48.510437,-6.132568,,,,,,,
1522138102.076334,-0.231494,-0.054842,0.972178,-0.052845,-0.299930,0.173390,-0.229086,0.054815,-0.971861,0.089163,-0.004568,-0.179155,18.516174,-48.286758,-5.758301,,,,,,,
,,,,,,,,,,,,,,,,25.300276,51.441991,-18.855896,0.000326,-1.000000,1522138102.092881,
1522138102.106302,-0.248659,-0.054045,0.976869,0.096537,-0.653571,0.090747,-0.245745,0.054019,-0.967828,0.133624,0.035321,-0.012656,17.228180,-49.181641,-6.430359,,,,,,,
1522138102.136270,-0.263779,-0.052318,0.981813,0.074333,-0.350787,0.106412,-0.260374,0.052295,-0.964090,0.078428,0.078366,0.207239,17.004227,-49.030716,-6.506042,,,,,,,
1522138102.166238,-0.260681,-0.049531,0.979123,0.072475,0.511588,-0.431492,-0.257422,0.049510,-0.965030,-0.057962,0.155797,0.192462,17.153336,-49.256149,-6.280090,,,,,,,
1522138102.196207,-0.241904,-0.036812,0.962434,0.424042,0.500926,-0.702928,-0.239389,0.036804,-0.970226,0.163064,0.048172,-0.064534,18.139694,-48.659698,-5.381958,,,,,,,
1522138102.226175,-0.241557,-0.019088,0.954375,0.495018,-0.236986,-0.208787,-0.239171,0.019087,-0.970790,0.219060,0.058596,-0.031560,18.367966,-48.510422,-5.082458,,,,,,,
1522138102.256143,-0.242884,-0.004437,0.952448,0.448234,0.127478,-0.341318,-0.240500,0.004437,-0.970639,-0.040277,0.085971,-0.068760,18.822174,-48.811264,-3.881042,,,,,,,
1522138102.286111,-0.246831,0.016871,0.941182,0.726379,-0.372442,-0.673050,-0.244297,-0.016870,-0.969553,-0.138302,0.168115,0.034449,18.375351,-48.808731,-3.356262,,,,,,,
1522138102.316080,-0.259467,0.047636,0.929005,0.990644,-0.285764,-0.702771,-0.256274,-0.047618,-0.965430,-0.035764,0.131556,0.121100,19.885330,-48.439468,-2.306946,,,,,,,
1522138102.346048,-0.260867,0.082693,0.926202,1.062965,-0.052191,-0.243716,-0.257037,-0.082599,-0.962865,0.298541,0.102100,-0.061198,20.562881,-48.591843,-1.631042,,,,,,,
1522138102.376013,-0.262380,0.104840,0.924579,0.348733,-0.111636,-0.302789,-0.257956,-0.104648,-0.960472,0.022177,0.177448,-0.330894,20.046326,-48.737885,0.019348,,,,,,,
1522138102.405981,-0.269730,0.104923,0.919350,-0.231654,-0.326897,-0.161288,-0.265006,-0.104731,-0.958542,-0.115258,0.099101,-0.034012,20.116226,-48.888794,-0.580078,,,,,,,
1522138102.435950,-0.280775,0.093701,0.912729,-0.563593,-0.395658,-0.240308,-0.275885,-0.093563,-0.956626,-0.272241,0.096020,0.248984,20.270660,-47.765610,-1.709473,,,,,,,
1522138102.465918,-0.285613,0.078823,0.897815,-0.702438,-0.018604,-0.316452,-0.280871,-0.078742,-0.956510,-0.309003,-0.118219,0.136151,21.015839,-48.069260,-2.007874,,,,,,,
1522138102.495886,-0.279944,0.053103,0.886257,-1.071585,0.240367,-0.143300,-0.275912,-0.053078,-0.959716,0.066012,-0.142372,-0.072053,22.217834,-46.876328,-3.662109,,,,,,,
1522138102.525855,-0.267895,0.023086,0.867466,-1.204445,0.419708,-0.514394,-0.264632,-0.023084,-0.964073,0.148741,0.063306,-0.190209,21.991348,-46.576050,-4.413391,,,,,,,
1522138102.555823,-0.257036,-0.008008,0.840384,-1.201077,0.408642,-0.758374,-0.254207,0.008007,-0.967117,-0.168065,0.297290,0.052764,22.659409,-46.505341,-5.688293,,,,,,,
1522138102.585791,-0.252187,-0.030772,0.817387,-0.775514,-0.173267,-0.358970,-0.249404,0.030767,-0.967910,0.105651,0.143138,0.017532,24.537872,-45.165451,-7.342773,,,,,,,
1522138102.615759,-0.260505,-0.052731,0.816492,-0.729417,-0.117579,0.472120,-0.257210,0.052707,-0.964917,0.146447,0.099347,0.153119,23.637436,-44.936844,-7.794128,,,,,,,
1522138102.645728,-0.250575,-0.080499,0.832165,-0.798875,0.602531,0.696172,-0.247158,0.080412,-0.965633,-0.056568,0.173433,0.067302,22.425049,-45.682205,-8.616699,,,,,,,
1522138102.675696,-0.233087,-0.098610,0.845697,-0.142298,0.322007,0.462527,-0.229860,0.098450,-0.968231,0.030916,0.042678,0.148468,22.272217,-45.607132,-9.217163,,,,,,,
1522138102.705664,-0.226113,-0.091561,0.857661,0.637010,0.273841,0.235136,-0.223252,0.091433,-0.970463,0.157807,-0.091006,0.006458,21.446823,-46.501984,-7.789001,,,,,,,
1522138102.735632,-0.210505,-0.054909,0.874792,1.804262,0.566398,0.228247,-0.208639,0.054882,-0.976451,0.234259,-0.075039,-0.145222,21.155563,-46.574097,-6.213806,,,,,,,
1522138102.765601,-0.190598,0.004162,0.893974,1.963502,0.735561,0.140828,-0.189445,-0.004162,-0.981883,0.121925,0.066051,-0.232992,21.397263,-47.695526,-1.559204,,,,,,,
1522138102.795569,-0.168123,0.048939,0.903784,1.217544,0.597391,-0.044989,-0.167132,-0.048919,-0.984720,0.062502,0.048187,-0.460730,20.729065,-48.140640,0.317261,,,,,,,
1522138102.825537,-0.168217,0.072476,0.907530,0.529508,-0.457084,-0.050836,-0.166985,-0.072413,-0.983297,-0.020774,0.002741,-0.236155,20.585403,-48.138947,1.367188,,,,,,,
1522138102.855505,-0.194881,0.081118,0.910342,0.221096,-1.058216,0.015601,-0.193013,-0.081029,-0.977845,-0.032451,0.043721,0.106156,20.957687,-48.141068,0.917358,,,,,,,
1522138102.885474,-0.221036,0.091862,0.910870,0.459074,-0.610016,-0.189253,-0.218316,-0.091733,-0.971557,-0.058143,-0.009372,0.194824,20.285843,-47.912903,1.066101,,,,,,,
1522138102.915442,-0.229705,0.105290,0.909086,0.287351,-0.162903,-0.245237,-0.226429,-0.105096,-0.968341,0.043384,0.062661,0.036563,20.585388,-47.914322,0.991272,,,,,,,
1522138102.945410,-0.237983,0.104080,0.900068,-0.376465,-0.463343,-0.353045,-0.234467,-0.103892,-0.966556,-0.066559,0.279246,-0.060696,21.783066,-47.920090,0.616882,,,,,,,
1522138102.975378,-0.248831,0.094841,0.887060,-0.378028,-0.391791,-0.402139,-0.245164,-0.094698,-0.964845,-0.015166,0.164340,-0.001478,21.184738,-47.393005,0.014526,,,,,,,
1522138103.005347,-0.259270,0.085625,0.875079,-0.455097,-0.309491,-0.292525,-0.255435,-0.085521,-0.963036,-0.057461,0.134318,0.073525,21.104767,-47.393463,-0.810547,,,,,,,
1522138103.035315,-0.264167,0.073193,0.867327,-0.414950,-0.226709,-0.140211,-0.260406,-0.073127,-0.962726,-0.078751,0.035209,0.020007,22.380020,-46.650406,-2.012878,,,,,,,
1522138103.065283,-0.269758,0.059996,0.863456,-0.482888,-0.176744,0.032304,-0.266019,-0.059960,-0.962101,-0.109729,0.007257,-0.031261,21.627792,-46.872025,-2.012390,,,,,,,
1522138103.095252,-0.275310,0.042098,0.863073,-0.582201,-0.100487,0.102482,-0.271604,-0.042086,-0.961488,-0.131823,0.054049,-0.021483,21.626434,-46.422989,-2.989136,,,,,,,
,,,,,,,,,,,,,,,,25.300299,51.441984,-18.825159,0.001302,-1.000000,1522138103.076435,
1522138103.125220,-0.274973,0.025769,0.864567,-0.494131,0.112287,0.186511,-0.271430,-0.025767,-0.962113,-0.021584,0.040339,-0.061523,21.323410,-46.272369,-3.739929,,,,,,,
1522138103.155158,-0.265896,0.010677,0.868783,-0.484024,0.496724,0.217024,-0.262759,-0.010677,-0.964802,-0.062803,0.017849,-0.105937,21.022079,-46.271240,-3.965088,,,,,,,
1522138103.185126,-0.251198,-0.003696,0.870265,-0.385922,0.342089,0.108575,-0.248563,0.003696,-0.968609,-0.056018,-0.033267,-0.190556,21.323242,-45.972900,-4.266113,,,,,,,
1522138103.215094,-0.249168,-0.015987,0.875359,-0.414288,0.019530,0.355012,-0.246567,0.015987,-0.968994,-0.034165,-0.021190,0.083374,20.869217,-45.971542,-4.941345,,,,,,,
1522138103.245062,-0.244595,-0.031223,0.885744,-0.325745,0.141722,0.475364,-0.242046,0.031218,-0.969763,0.088130,-0.091887,0.060384,20.719528,-46.120560,-4.640869,,,,,,,
1522138103.275031,-0.247557,-0.040886,0.902038,-0.156208,-0.230463,0.605858,-0.244832,0.040874,-0.968704,0.078175,0.017307,0.245284,20.038559,-46.268250,-5.390564,,,,,,,
1522138103.304999,-0.249950,-0.046531,0.911948,0.014391,0.006889,0.035686,-0.247087,0.046514,-0.967876,-0.079496,0.028452,0.263530,20.633728,-46.571213,-5.689087,,,,,,,
1522138103.334967,-0.253181,-0.036234,0.907625,0.415813,-0.248314,-0.384642,-0.250321,0.036226,-0.967485,0.085098,-0.068499,0.298143,19.580017,-46.941483,-5.688110,,,,,,,
1522138103.364935,-0.262129,-0.024245,0.900071,0.158999,-0.176261,-0.416867,-0.259061,0.024243,-0.965557,0.002332,0.147998,0.221248,20.191269,-46.493103,-4.564575,,,,,,,
1522138103.394917,-0.257249,-0.021470,0.883338,-0.120917,0.403388,-0.697883,-0.254363,0.021469,-0.966871,-0.150331,0.099625,-0.055773,21.763931,-46.500565,-4.938782,,,,,,,
1522138103.424885,-0.242538,-0.014697,0.865535,0.244232,0.648962,-0.691467,-0.240141,0.014696,-0.970627,0.094557,0.088530,-0.126251,21.553207,-45.748489,-3.816895,,,,,,,
1522138103.454853,-0.213168,0.009453,0.852648,0.961393,0.980912,-0.549558,-0.211548,-0.009453,-0.977322,0.075333,0.083138,-0.427921,22.007996,-45.899475,-2.766052,,,,,,,
1522138103.484821,-0.204515,0.040983,0.845714,0.865741,-0.206629,-0.430153,-0.202922,-0.040972,-0.978337,-0.081517,0.063127,-0.373088,23.140915,-46.053009,-1.189880,,,,,,,
1522138103.514790,-0.218341,0.060747,0.840180,0.439786,-0.545278,-0.323583,-0.216211,-0.060710,-0.974457,-0.065085,0.084483,-0.148269,23.296890,-45.678329,-0.816284,,,,,,,
1522138103.544758,-0.228482,0.071626,0.835408,0.242223,-0.243462,-0.259035,-0.225919,-0.071565,-0.971514,-0.058337,0.108140,-0.090666,24.347305,-45.682983,-0.740723,,,,,,,
1522138103.574726,-0.235456,0.077739,0.830344,0.047757,-0.231535,-0.221908,-0.232582,-0.077661,-0.969471,-0.029640,0.072824,-0.065563,23.452744,-45.228821,-0.593079,,,,,,,
1522138103.604694,-0.244664,0.070404,0.826252,-0.555629,-0.496131,-0.010037,-0.241630,-0.070346,-0.967815,-0.044610,0.121570,0.008312,23.223984,-45.378159,-0.967590,,,,,,,
1522138103.634663,-0.263010,0.045636,0.822623,-0.980387,-0.581807,0.085624,-0.259718,-0.045620,-0.964606,-0.046572,0.055508,0.121726,23.968979,-45.157715,-2.168091,,,,,,,
1522138103.664631,-0.277432,0.011739,0.819892,-1.243064,-0.443867,0.208883,-0.273868,-0.011738,-0.961696,-0.066769,0.101781,0.246714,23.581970,-45.008224,-4.418884,,,,,,,
1522138103.694599,-0.278452,-0.027082,0.807647,-1.399780,0.350123,-0.375930,-0.274766,0.027079,-0.961130,-0.274809,0.155081,0.229272,22.452179,-44.404938,-6.221863,,,,,,,
1522138103.724567,-0.262141,-0.054635,0.777130,-0.896948,0.500981,-0.852002,-0.258763,0.054607,-0.964396,-0.043682,-0.041073,0.067896,23.805878,-43.586792,-6.974426,,,,,,,
1522138103.754536,-0.256480,-0.065036,0.755252,-0.298647,0.238047,-0.542290,-0.253141,0.064990,-0.965244,0.064299,0.000607,0.058826,24.710907,-42.991013,-7.126343,,,,,,,
1522138103.784504,-0.241620,-0.062467,0.741424,0.129946,0.642477,-0.483768,-0.238809,0.062426,-0.969058,-0.128653,0.114728,-0.123883,25.163879,-42.693039,-7.127319,,,,,,,
1522138103.814472,-0.228228,-0.053177,0.731165,0.187394,0.389248,-0.457895,-0.225932,0.053152,-0.972692,-0.190556,0.196604,-0.126918,27.046890,-42.250931,-6.528137,,,,,,,
1522138103.844441,-0.219471,-0.051447,0.725844,-0.156792,0.148723,0.022636,-0.217425,0.051424,-0.974721,-0.122419,0.074201,-0.149638,26.448715,-42.247925,-6.228455,,,,,,,
1522138103.874409,-0.226858,-0.066587,0.735099,-0.632328,-0.503169,0.565303,-0.224419,0.066538,-0.972219,0.026176,0.048025,0.034719,25.843338,-42.246109,-7.128784,,,,,,,
1522138103.904377,-0.239210,-0.093645,0.749238,-0.807007,-0.309922,0.650212,-0.235897,0.093508,-0.967269,-0.050037,0.023237,0.174620,25.457550,-42.470795,-8.553101,,,,,,,
1522138103.934345,-0.236322,-0.116000,0.760266,-0.453872,0.246974,0.362214,-0.232555,0.115740,-0.965672,-0.127598,-0.035327,0.085163,24.407440,-42.391220,-8.703918,,,,,,,
1522138103.964314,-0.233206,-0.120984,0.767048,0.074421,-0.070427,0.128515,-0.229409,0.120689,-0.965819,-0.008995,-0.021964,0.093748,24.101013,-42.989929,-8.776672,,,,,,,
1522138103.994282,-0.232830,-0.116856,0.773241,0.203916,0.077512,0.198794,-0.229158,0.116590,-0.966382,0.037309,0.015994,0.059155,25.375504,-42.771103,-9.226929,,,,,,,
1522138104.024250,-0.229603,-0.112586,0.783264,0.212363,0.086880,0.224361,-0.226150,0.112348,-0.967592,-0.074494,0.069308,0.056368,23.801346,-43.138260,-8.476257,,,,,,,
1522138104.054218,-0.222722,-0.105054,0.789865,0.345067,0.254195,0.106027,-0.219667,0.104861,-0.969923,-0.038237,-0.049151,-0.005846,23.875443,-43.363373,-8.250244,,,,,,,
1522138104.084187,-0.215752,-0.096008,0.794501,0.294601,0.251170,-0.048520,-0.213096,0.095860,-0.972317,-0.014763,-0.077611,0.013882,24.550598,-43.890503,-7.347839,,,,,,,
,,,,,,,,,,,,,,,,25.300332,51.441974,-18.799456,0.003176,-1.000000,1522138104.084443,
1522138104.114155,-0.208843,-0.086694,0.795285,0.345294,0.129886,-0.046226,-0.206550,0.086586,-0.974597,-0.033639,-0.074821,-0.001721,23.505753,-43.735214,-6.748962,,,,,,,
1522138104.144123,-0.211416,-0.074739,0.796709,0.431046,-0.120550,-0.123700,-0.209259,0.074669,-0.975005,-0.141342,0.010460,0.017181,24.033859,-43.737061,-6.223755,,,,,,,
1522138104.174091,-0.213881,-0.060970,0.798934,0.376208,-0.015328,0.042383,-0.211860,0.060932,-0.975399,-0.058648,0.010479,0.024807,24.710327,-43.590103,-6.223999,,,,,,,
1522138104.204060,-0.208139,-0.055049,0.804423,0.107171,0.305755,0.112187,-0.206327,0.055021,-0.976935,-0.068881,0.025393,-0.049554,23.960983,-43.886124,-5.623108,,,,,,,
1522138104.234028,-0.202941,-0.056166,0.810080,-0.066310,0.071706,0.213516,-0.201233,0.056136,-0.977934,-0.051987,-0.040557,-0.058840,23.886292,-44.035492,-5.322571,,,,,,,
1522138104.263996,-0.203545,-0.061450,0.818666,-0.141948,0.012601,0.334988,-0.201761,0.061411,-0.977508,-0.022513,-0.075006,0.019759,24.483704,-43.888855,-5.997864,,,,,,,
1522138104.293964,-0.198000,-0.066582,0.827268,-0.059881,0.275949,0.180280,-0.196273,0.066533,-0.978289,-0.102890,-0.039280,-0.036756,23.278519,-44.633057,-5.620483,,,,,,,
1522138104.323933,-0.189645,-0.063120,0.829597,0.223147,0.246132,-0.065601,-0.188135,0.063078,-0.980115,-0.044287,-0.104582,-0.141573,23.577606,-44.634552,-5.770386,,,,,,,
1522138104.353901,-0.185583,-0.055116,0.832309,0.222417,0.027238,0.088044,-0.184240,0.055088,-0.981336,0.004247,-0.118213,-0.079729,24.332367,-44.562271,-5.095276,,,,,,,
1522138104.383835,-0.186586,-0.056160,0.837694,-0.146770,-0.057459,0.175224,-0.185213,0.056131,-0.981094,-0.115629,-0.038339,-0.013123,23.357132,-44.857437,-4.644592,,,,,,,
1522138104.413804,-0.191643,-0.063868,0.842798,-0.265044,-0.260030,0.160430,-0.190083,0.063825,-0.979691,-0.087321,-0.063001,0.053895,22.673920,-45.005493,-5.769348,,,,,,,
1522138104.443772,-0.197353,-0.073133,0.845225,-0.348098,-0.094368,0.054707,-0.195550,0.073067,-0.977968,-0.059287,-0.095528,0.084642,23.946594,-45.011581,-6.143677,,,,,,,
1522138104.473740,-0.196522,-0.082979,0.842844,-0.344026,0.130025,-0.123463,-0.194587,0.082884,-0.977377,-0.035210,-0.098188,0.102362,23.275055,-44.483871,-6.446106,,,,,,,
1522138104.503708,-0.193230,-0.088108,0.836691,-0.125872,0.124650,-0.193612,-0.191285,0.087994,-0.977582,-0.060454,-0.066220,0.035306,23.206650,-43.958328,-6.223267,,,,,,,
1522138104.533677,-0.195988,-0.085562,0.832963,0.130044,-0.167250,-0.178209,-0.194023,0.085457,-0.977268,-0.062676,-0.026238,0.044620,23.433594,-43.584671,-6.524658,,,,,,,
1522138104.563645,-0.200783,-0.078123,0.830244,0.215529,-0.091307,-0.127082,-0.198828,0.078043,-0.976922,-0.002725,-0.017649,0.019204,23.431503,-43.884506,-6.373413,,,,,,,
1522138104.593613,-0.200183,-0.074117,0.829451,0.023173,0.157505,-0.082719,-0.198302,0.074049,-0.977340,-0.054429,0.044649,-0.045899,24.780243,-43.965637,-6.447449,,,,,,,
1522138104.623581,-0.196452,-0.073563,0.827609,-0.018837,0.064183,-0.093318,-0.194663,0.073497,-0.978113,-0.026559,-0.003291,-0.085715,24.557358,-43.889404,-6.222839,,,,,,,
1522138104.653550,-0.196634,-0.072073,0.825626,0.082019,-0.036122,-0.069698,-0.194863,0.072011,-0.978184,-0.044273,-0.061497,-0.035885,23.658142,-44.035004,-5.847717,,,,,,,
1522138104.683487,-0.200800,-0.069180,0.825958,0.075009,-0.148867,-0.051477,-0.198977,0.069125,-0.977563,-0.059034,-0.103519,0.036279,24.178192,-44.262772,-6.296570,,,,,,,
1522138104.713456,-0.203950,-0.069689,0.824463,-0.123145,-0.072809,-0.068749,-0.202048,0.069633,-0.976897,-0.023996,-0.070899,0.057845,24.632492,-43.739990,-6.448425,,,,,,,
1522138104.743424,-0.206148,-0.074545,0.822739,-0.224372,-0.023728,-0.063536,-0.204122,0.074476,-0.976108,-0.089838,0.009554,0.013202,23.811127,-43.511047,-6.224731,,,,,,,
1522138104.773392,-0.208430,-0.076582,0.820065,-0.053716,-0.088791,-0.087858,-0.206318,0.076507,-0.975489,-0.007534,-0.002441,-0.020665,24.407501,-43.738968,-6.448486,,,,,,,
1522138104.803360,-0.208301,-0.075893,0.817185,-0.003904,0.167985,-0.204218,-0.206203,0.075820,-0.975567,-0.082082,0.006730,-0.125690,24.035645,-43.287521,-6.675537,,,,,,,
1522138104.833329,-0.205429,-0.072436,0.808821,0.063568,0.041363,-0.354285,-0.203452,0.072373,-0.976406,-0.051629,-0.020005,-0.071934,24.863907,-43.140945,-6.375671,,,,,,,
1522138104.863297,-0.206008,-0.070374,0.799641,-0.025107,0.037266,-0.345817,-0.204048,0.070316,-0.976432,-0.085946,-0.045246,0.059990,25.542023,-42.694214,-6.602173,,,,,,,
1522138104.893265,-0.208749,-0.066740,0.794037,0.137126,-0.185739,-0.119584,-0.206775,0.066691,-0.976113,-0.017087,-0.029749,0.068764,25.469727,-42.693451,-6.152161,,,,,,,
1522138104.923233,-0.211995,-0.063210,0.795137,0.064762,0.021785,0.013340,-0.209990,0.063167,-0.975661,-0.126466,0.090931,-0.014146,25.389038,-42.993546,-6.601013,,,,,,,
1522138104.953202,-0.210343,-0.063521,0.796741,-0.067636,0.072778,0.060083,-0.208374,0.063479,-0.975987,-0.078079,0.067305,-0.059429,26.065369,-42.771729,-6.751526,,,,,,,
1522138104.983170,-0.209361,-0.068761,0.799869,-0.212756,-0.016894,0.170878,-0.207344,0.068707,-0.975852,0.021919,-0.031583,0.042610,26.063416,-42.921799,-6.825928,,,,,,,
1522138105.013138,-0.212496,-0.079279,0.806248,-0.322411,-0.111622,0.232689,-0.210238,0.079196,-0.974437,0.015368,-0.059161,0.124111,24.410019,-42.989807,-7.276550,,,,,,,
1522138105.043106,-0.216050,-0.086415,0.808970,-0.075905,-0.125758,0.040024,-0.213573,0.086308,-0.973107,-0.137807,-0.050511,0.116219,25.158188,-43.218094,-7.200195,,,,,,,
1522138105.073075,-0.220145,-0.082361,0.809283,0.203933,-0.075247,-0.140954,-0.217631,0.082268,-0.972558,-0.141561,-0.057091,0.102838,25.460419,-42.994461,-7.200989,,,,,,,
1522138105.103043,-0.217153,-0.076696,0.806425,0.087075,0.287416,-0.144602,-0.214817,0.076620,-0.973644,-0.048382,-0.037329,-0.028752,25.234833,-43.143295,-7.050537,,,,,,,
,,,,,,,,,,,,,,,,25.300383,51.441958,-18.760319,0.006919,-1.000000,1522138105.093432,
1522138105.133011,-0.203481,-0.073086,0.804630,0.089905,0.515440,-0.081970,-0.201540,0.073021,-0.976755,0.054537,-0.049584,-0.207877,25.841263,-42.770569,-6.601685,,,,,,,
1522138105.162980,-0.192288,-0.074277,0.806372,-0.138886,0.223318,0.135530,-0.190579,0.074209,-0.978863,-0.063389,0.021097,-0.243488,25.465530,-43.068497,-6.225708,,,,,,,
1522138105.192948,-0.193979,-0.079743,0.811777,-0.100711,-0.268993,0.169081,-0.192153,0.079659,-0.978127,-0.096528,-0.045128,-0.055427,24.864059,-42.991180,-6.601318,,,,,,,
1522138105.222916,-0.204329,-0.080288,0.818164,0.071445,-0.368721,0.237501,-0.202256,0.080202,-0.976043,0.002687,-0.134768,0.050659,25.687241,-42.995193,-6.900879,,,,,,,
1522138105.252884,-0.211573,-0.082249,0.825880,-0.100301,-0.167035,0.177497,-0.209288,0.082156,-0.974397,-0.017228,-0.056476,0.065064,24.181458,-43.438629,-7.124817,,,,,,,
1522138105.282853,-0.212461,-0.086292,0.826740,-0.127946,0.046215,-0.068871,-0.210081,0.086185,-0.973878,-0.082613,-0.033741,0.036515,24.483826,-43.289841,-6.975281,,,,,,,
1522138105.312821,-0.211075,-0.089109,0.822431,-0.160768,0.024462,-0.139190,-0.208680,0.088992,-0.973927,-0.092971,-0.053545,0.022541,24.181747,-43.139084,-7.576050,,,,,,,
1522138105.342789,-0.212987,-0.092713,0.818560,-0.138724,-0.050042,-0.130570,-0.210472,0.092580,-0.973206,-0.064064,-0.057760,0.023163,24.783646,-42.991714,-7.501282,,,,,,,
1522138105.372757,-0.215471,-0.092813,0.814336,0.004348,-0.070429,-0.150700,-0.212887,0.092680,-0.972671,-0.040684,-0.103316,0.009491,24.858948,-42.917130,-7.576599,,,,,,,
1522138105.402748,-0.219020,-0.091271,0.811490,0.002424,-0.046903,-0.170971,-0.216369,0.091144,-0.972048,-0.128297,-0.007038,-0.011320,26.062042,-42.472763,-7.802795,,,,,,,
1522138105.432716,-0.220966,-0.086946,0.806078,0.126511,-0.050067,-0.218822,-0.218344,0.086836,-0.972001,-0.075616,-0.015181,0.049820,25.235275,-42.693970,-7.727295,,,,,,,
1522138105.462684,-0.222218,-0.081059,0.802828,0.125214,0.020420,-0.115547,-0.219670,0.080970,-0.972208,-0.056682,-0.046821,0.072016,25.686768,-42.770630,-7.351746,,,,,,,
1522138105.492652,-0.223663,-0.078764,0.802903,0.040338,-0.000151,-0.031411,-0.221115,0.078683,-0.972068,-0.097870,0.022880,-0.007592,26.662903,-42.475327,-7.652466,,,,,,,
1522138105.522621,-0.222015,-0.077004,0.803268,0.015236,0.157957,0.006781,-0.219543,0.076928,-0.972565,-0.045090,-0.013283,-0.063797,25.388718,-42.843842,-6.901611,,,,,,,
1522138105.552589,-0.215329,-0.080437,0.805810,-0.212427,0.270143,0.151412,-0.212978,0.080350,-0.973748,0.032878,-0.010083,-0.129280,25.686630,-42.920395,-7.126160,,,,,,,
1522138105.582557,-0.210866,-0.092061,0.810689,-0.428387,0.043920,0.214334,-0.208421,0.091931,-0.973709,-0.065444,-0.006344,-0.086914,26.358734,-42.849030,-7.726135,,,,,,,
1522138105.612525,-0.211605,-0.104069,0.813296,-0.308728,-0.057714,0.114384,-0.208893,0.103881,-0.972405,-0.120010,-0.104613,-0.019721,25.459808,-42.695053,-7.802185,,,,,,,
1522138105.642494,-0.213901,-0.111853,0.816337,-0.219236,-0.061315,0.145336,-0.210947,0.111620,-0.971104,-0.005270,-0.116426,0.028889,25.155914,-42.769211,-8.327026,,,,,,,
1522138105.672462,-0.212537,-0.117352,0.817224,-0.128990,0.090605,-0.034818,-0.209490,0.117083,-0.970776,0.006655,-0.093386,-0.007770,25.831787,-42.547470,-8.552612,,,,,,,
1522138105.702430,-0.212850,-0.117794,0.814062,-0.013344,-0.002176,-0.179551,-0.209782,0.117522,-0.970660,-0.075969,-0.053999,0.041109,25.083466,-42.468964,-8.403259,,,,,,,
1522138105.732399,-0.214686,-0.110694,0.808263,0.299898,-0.090078,-0.333725,-0.211737,0.110468,-0.971064,-0.072977,-0.033945,0.034800,25.607544,-42.471481,-8.553040,,,,,,,
1522138105.762367,-0.219589,-0.093661,0.803559,0.558512,-0.149907,-0.226924,-0.216874,0.093524,-0.971709,-0.007858,-0.071521,0.046172,26.583099,-42.550629,-8.327209,,,,,,,
1522138105.792335,-0.223188,-0.079323,0.803215,0.346721,-0.078086,-0.089701,-0.220644,0.079240,-0.972130,-0.099241,0.043837,-0.035438,25.840485,-42.396317,-7.353210,,,,,,,
1522138105.822303,-0.226856,-0.071590,0.803766,0.204576,-0.083210,-0.066359,-0.224339,0.071529,-0.971883,-0.072139,0.085087,0.041737,26.364120,-42.623535,-7.202026,,,,,,,
1522138105.852272,-0.226618,-0.066946,0.803253,0.068827,0.082056,-0.098591,-0.224180,0.066896,-0.972249,-0.052492,0.038893,0.009511,25.460861,-42.769760,-7.501831,,,,,,,
1522138105.882240,-0.224414,-0.064550,0.802756,0.128861,0.026946,0.011256,-0.222072,0.064505,-0.972894,-0.005116,-0.020743,-0.027777,26.059967,-42.997238,-7.275696,,,,,,,
1522138105.912208,-0.228552,-0.061639,0.806982,0.118932,-0.148091,0.125433,-0.226138,0.061600,-0.972146,-0.044660,-0.038727,0.040429,26.443619,-42.398499,-6.827881,,,,,,,
1522138105.942176,-0.232033,-0.061889,0.815901,0.030283,-0.128234,0.354442,-0.229516,0.061849,-0.971338,-0.086326,-0.002096,0.039590,26.587921,-42.699600,-7.276611,,,,,,,
1522138105.972145,-0.233173,-0.062492,0.825230,0.076509,0.008715,0.206222,-0.230615,0.062451,-0.971039,-0.153235,-0.031949,-0.004867,25.011948,-43.067062,-6.825928,,,,,,,
1522138106.002113,-0.232066,-0.060713,0.830065,0.063501,0.075368,0.098538,-0.229565,0.060676,-0.971400,-0.100864,-0.120337,0.004024,25.453537,-43.594574,-7.348572,,,,,,,
1522138106.032081,-0.228607,-0.061816,0.834777,-0.062370,0.169854,0.156946,-0.226189,0.061776,-0.972123,-0.018349,-0.084374,-0.080459,25.758011,-43.145950,-7.350220,,,,,,,
1522138106.062049,-0.224947,-0.064408,0.837485,-0.064262,0.090954,0.043019,-0.222593,0.064364,-0.972785,0.046048,-0.071932,-0.132471,25.009857,-43.366913,-6.674744,,,,,,,
1522138106.092018,-0.225140,-0.066666,0.840193,-0.080282,-0.029791,0.144353,-0.222747,0.066616,-0.972598,-0.051942,-0.022625,-0.048688,24.784866,-43.365891,-6.674866,,,,,,,
1522138106.121986,-0.227615,-0.068584,0.845442,0.012139,-0.146827,0.132819,-0.225124,0.068530,-0.971917,0.001888,-0.005603,0.113290,24.851624,-43.966568,-7.047424,,,,,,,
,,,,,,,,,,,,,,,,25.300496,51.442083,-18.719242,0.017802,-1.000000,1522138106.100920,
1522138106.151954,-0.228252,-0.063684,0.847990,0.288286,0.062931,-0.023828,-0.225817,0.063641,-0.972089,-0.114653,-0.041653,0.073636,24.481277,-43.589752,-6.899109,,,,,,,
1522138106.181892,-0.227845,-0.051999,0.850587,0.423357,-0.062749,-0.031055,-0.225573,0.051975,-0.972839,-0.059873,-0.078968,-0.001725,25.758041,-43.595200,-6.598450,,,,,,,
1522138106.211860,-0.229333,-0.040722,0.852585,0.336163,0.000279,-0.046108,-0.227140,0.040711,-0.973011,-0.029300,-0.084596,0.006046,25.009872,-43.816147,-5.922913,,,,,,,
1522138106.241828,-0.230752,-0.033701,0.854468,0.123174,-0.051665,0.010266,-0.228580,0.033694,-0.972942,-0.081509,0.009168,-0.020726,24.711258,-44.039215,-5.322144,,,,,,,
1522138106.271797,-0.233143,-0.032089,0.853746,-0.012814,-0.033556,-0.101724,-0.230918,0.032083,-0.972444,-0.056298,0.018347,-0.008101,24.787582,-43.590088,-5.848938,,,,,,,
1522138106.301765,-0.230075,-0.031213,0.850210,-0.042486,0.223875,-0.128655,-0.227939,0.031208,-0.973175,0.045047,-0.046650,-0.036957,25.235931,-43.891861,-5.622498,,,,,,,
1522138106.331733,-0.222988,-0.032965,0.850109,-0.057232,0.232253,0.045010,-0.221024,0.032959,-0.974711,0.045884,-0.010772,-0.087743,25.388474,-43.817261,-5.322693,,,,,,,
1522138106.361701,-0.220453,-0.033223,0.850509,0.024122,-0.050045,-0.034560,-0.218551,0.033217,-0.975260,-0.099931,-0.065748,-0.032812,25.390732,-43.816895,-4.947693,,,,,,,
1522138106.391664,-0.226805,-0.034594,0.851451,-0.129897,-0.259539,0.042258,-0.224731,0.034587,-0.973807,-0.167252,-0.064693,0.034491,25.385468,-43.892609,-5.697388,,,,,,,
1522138106.421632,-0.235519,-0.040970,0.850196,-0.280023,-0.281830,-0.057998,-0.233152,0.040958,-0.971577,-0.038073,-0.030231,0.101079,24.559006,-43.814270,-6.073120,,,,,,,
1522138106.451600,-0.236588,-0.049631,0.847333,-0.342103,0.187796,-0.030807,-0.234099,0.049611,-0.970946,-0.024843,0.006114,-0.028016,25.756531,-43.520554,-6.973755,,,,,,,
1522138106.481569,-0.229092,-0.056358,0.843958,-0.183166,0.316462,-0.097956,-0.226733,0.056328,-0.972327,0.032519,0.000313,-0.105127,25.083511,-43.592087,-6.523804,,,,,,,
1522138106.511537,-0.222914,-0.059582,0.843945,-0.116682,0.124746,0.091959,-0.220680,0.059547,-0.973527,-0.099129,-0.043327,-0.098830,25.534836,-43.369263,-6.674438,,,,,,,
1522138106.541505,-0.226197,-0.062573,0.845593,-0.031650,-0.312562,-0.007697,-0.223835,0.062532,-0.972619,-0.024533,-0.025469,-0.006278,26.133759,-43.297256,-6.974426,,,,,,,
1522138106.571473,-0.236986,-0.060313,0.845280,0.096992,-0.269939,-0.070509,-0.234347,0.060277,-0.970282,-0.142148,-0.071507,0.165549,25.455795,-43.594208,-6.973572,,,,,,,
1522138106.601442,-0.237042,-0.056659,0.844548,0.126484,0.107282,-0.078334,-0.234451,0.056629,-0.970477,-0.021500,-0.058277,0.083682,26.056091,-43.746613,-6.672668,,,,,,,
1522138106.631410,-0.231559,-0.049319,0.845131,0.290248,0.258443,-0.025081,-0.229216,0.049299,-0.972126,-0.061433,0.002108,-0.024227,26.508911,-43.598419,-6.447998,,,,,,,
1522138106.661378,-0.224631,-0.040210,0.847203,0.286665,0.195634,-0.006909,-0.222567,0.040199,-0.974088,0.001772,0.011864,-0.054232,26.061508,-43.745743,-5.772644,,,,,,,
1522138106.691346,-0.220785,-0.032938,0.848753,0.197015,0.173706,-0.031455,-0.218877,0.032932,-0.975196,-0.063761,0.024929,-0.046593,25.843979,-43.219376,-5.399902,,,,,,,
1522138106.721315,-0.216761,-0.026344,0.850182,0.260188,0.027664,0.012426,-0.214993,0.026341,-0.976260,0.079601,-0.067509,-0.038754,26.365372,-43.671570,-5.247803,,,,,,,
1522138106.751283,-0.221404,-0.020661,0.855548,0.155916,-0.181438,0.170246,-0.219553,0.020659,-0.975382,-0.077841,-0.040236,0.017664,25.539658,-43.742859,-5.247925,,,,,,,
1522138106.781251,-0.224743,-0.019024,0.860446,0.075623,-0.144221,0.041230,-0.222815,0.019023,-0.974675,-0.074792,-0.020197,0.014195,25.313339,-43.966690,-5.097168,,,,,,,
1522138106.811219,-0.228326,-0.016171,0.860980,0.071073,-0.060757,-0.038777,-0.226317,0.016170,-0.973919,0.009322,-0.024242,0.050580,25.989334,-43.595184,-5.548340,,,,,,,
1522138106.841188,-0.227137,-0.015675,0.862484,-0.054740,0.107735,0.072835,-0.225161,0.015674,-0.974195,0.015063,-0.038440,-0.019854,25.235931,-44.341110,-4.870667,,,,,,,
1522138106.871156,-0.225349,-0.020783,0.864918,-0.215399,0.034559,0.107958,-0.223398,0.020782,-0.974506,-0.101294,-0.010101,-0.045544,25.314545,-43.891617,-5.022461,,,,,,,
1522138106.901124,-0.225636,-0.026787,0.865645,-0.162745,-0.012668,0.003630,-0.223646,0.026784,-0.974302,0.017805,-0.020986,-0.032534,25.992035,-43.594757,-5.098328,,,,,,,
1522138106.931092,-0.224513,-0.029259,0.865435,-0.054045,0.151931,-0.019896,-0.222536,0.029255,-0.974485,-0.044859,-0.030704,-0.084917,25.469620,-43.517090,-4.798889,,,,,,,
1522138106.961061,-0.220260,-0.028710,0.866914,0.034384,0.000079,0.087931,-0.218393,0.028706,-0.975438,-0.013601,-0.073200,-0.150813,24.641190,-43.588821,-5.248962,,,,,,,
1522138106.991029,-0.226625,-0.031301,0.870227,-0.122567,-0.238593,0.085916,-0.224581,0.031295,-0.973953,0.000795,-0.004165,0.017913,25.685776,-43.819046,-5.772583,,,,,,,
1522138107.020997,-0.233517,-0.035820,0.870221,-0.173190,-0.249288,-0.040894,-0.231252,0.035813,-0.972234,-0.043879,0.001541,0.052892,24.933090,-43.816101,-6.222961,,,,,,,
1522138107.050966,-0.240020,-0.041131,0.866707,-0.247362,-0.186020,-0.095360,-0.237521,0.041120,-0.970512,-0.087674,-0.034726,0.048408,25.085617,-43.516861,-6.299072,,,,,,,
1522138107.080934,-0.244699,-0.046375,0.862533,-0.163431,-0.072345,-0.122049,-0.242004,0.046358,-0.969167,0.002227,-0.068987,0.133657,25.458038,-43.369217,-6.974487,,,,,,,
1522138107.110902,-0.243497,-0.048650,0.861259,-0.044193,0.061037,0.059047,-0.240813,0.048631,-0.969352,-0.025209,-0.065995,0.017998,25.239487,-42.992798,-6.526123,,,,,,,
,,,,,,,,,,,,,,,,25.300590,51.442196,-18.689621,0.030394,-1.000000,1522138107.096545,
1522138107.140870,-0.244721,-0.050201,0.868191,0.017067,-0.075572,0.273404,-0.241980,0.050180,-0.968983,-0.110010,0.014121,-0.022564,25.010010,-43.441757,-6.524414,,,,,,,
1522138107.170839,-0.243308,-0.048422,0.874793,0.149460,0.167772,0.074003,-0.240632,0.048403,-0.969409,-0.043395,0.041364,-0.087110,25.082474,-43.742004,-6.448181,,,,,,,
1522138107.200807,-0.233990,-0.042162,0.876702,0.211689,0.380693,-0.005015,-0.231655,0.042150,-0.971884,0.149608,-0.086507,-0.177942,24.560043,-43.439728,-6.524658,,,,,,,
1522138107.230775,-0.225245,-0.041216,0.883599,-0.083930,0.118539,0.358376,-0.223155,0.041204,-0.973912,0.051097,-0.111883,-0.180980,25.233215,-43.892303,-6.072510,,,,,,,
1522138107.260743,-0.229687,-0.050756,0.889759,-0.281007,-0.324359,0.095489,-0.227380,0.050735,-0.972484,-0.056220,-0.006469,0.050899,25.079330,-44.191757,-6.221375,,,,,,,
1522138107.290712,-0.241729,-0.055196,0.888659,-0.091471,-0.388501,-0.067335,-0.239017,0.055168,-0.969447,-0.119992,-0.082222,0.190852,24.028305,-43.887711,-6.898132,,,,,,,
1522138107.320680,-0.248120,-0.055056,0.885681,-0.003201,-0.073698,-0.137909,-0.245210,0.055028,-0.967907,0.040300,-0.069371,0.112957,24.180862,-43.588470,-6.974243,,,,,,,
1522138107.350648,-0.244737,-0.053573,0.880166,0.022998,0.188277,-0.227664,-0.241954,0.053547,-0.968809,-0.054692,-0.041187,-0.047777,24.555710,-43.739929,-6.748413,,,,,,,
1522138107.380602,-0.244340,-0.051705,0.876956,0.008712,-0.143599,-0.024877,-0.241593,0.051682,-0.969000,-0.032348,-0.062974,-0.060876,24.636826,-43.215149,-6.600525,,,,,,,
1522138107.410571,-0.250491,-0.054731,0.879364,-0.156795,-0.174172,0.154023,-0.247509,0.054704,-0.967340,-0.058033,0.044051,-0.011008,24.556290,-43.590088,-6.899048,,,,,,,
1522138107.440539,-0.252601,-0.060981,0.882380,-0.174531,0.022156,0.041947,-0.249459,0.060943,-0.966466,0.093727,0.057923,-0.008266,24.705521,-43.441132,-7.274597,,,,,,,
1522138107.470507,-0.245530,-0.064001,0.882390,-0.095080,0.358819,0.041659,-0.242573,0.063957,-0.968023,0.044575,-0.060311,-0.065730,24.331436,-43.439301,-7.124756,,,,,,,
1522138107.500475,-0.235846,-0.068039,0.886333,-0.095439,0.206940,0.183523,-0.233125,0.067987,-0.970067,-0.099319,-0.084512,-0.082804,25.082306,-43.442535,-6.974365,,,,,,,
1522138107.530444,-0.238723,-0.069893,0.891844,0.063729,-0.308496,0.134096,-0.235885,0.069836,-0.969268,-0.089875,-0.078732,0.119766,24.558548,-43.365097,-6.899963,,,,,,,
1522138107.560412,-0.244998,-0.065390,0.894816,0.213260,-0.122161,-0.124902,-0.242036,0.065344,-0.968064,0.027665,0.033411,-0.034545,24.029510,-43.812637,-6.823425,,,,,,,
1522138107.590380,-0.245409,-0.050672,0.887685,0.490242,0.107725,-0.424350,-0.242642,0.050651,-0.968793,0.053570,-0.046287,-0.097476,24.105392,-43.588211,-7.049316,,,,,,,
1522138107.620348,-0.241102,-0.036168,0.879072,0.281619,0.218944,-0.451256,-0.238617,0.036160,-0.970440,0.114853,-0.045285,0.056118,25.163315,-43.516769,-5.849060,,,,,,,
1522138107.650317,-0.242270,-0.029094,0.868201,0.058911,-0.297523,-0.366724,-0.239805,0.029090,-0.970385,-0.065218,-0.052100,0.178530,25.691147,-43.144302,-6.000244,,,,,,,
1522138107.680285,-0.259972,-0.030043,0.861947,-0.220998,-0.740719,-0.102240,-0.256937,0.030038,-0.965961,-0.169012,0.029914,0.186741,26.061768,-42.996948,-6.975708,,,,,,,
1522138107.710223,-0.272786,-0.040604,0.860013,-0.393042,-0.080689,0.087702,-0.269194,0.040593,-0.962230,-0.096438,0.023937,0.165996,25.160278,-42.918259,-7.351440,,,,,,,
1522138107.740191,-0.262102,-0.052601,0.862673,-0.348705,0.656875,0.207396,-0.258753,0.052577,-0.964511,-0.110937,0.049123,-0.117596,25.162079,-42.693329,-7.427368,,,,,,,
1522138107.770159,-0.234845,-0.062007,0.870254,-0.183863,0.959081,0.389429,-0.232245,0.061967,-0.970681,0.132621,0.003234,-0.301703,26.064621,-42.846725,-6.751221,,,,,,,
1522138107.800128,-0.209654,-0.071705,0.884186,-0.267519,0.601053,0.561273,-0.207587,0.071644,-0.975589,0.119178,-0.007572,-0.336727,25.010315,-43.366837,-6.599731,,,,,,,
1522138107.830096,-0.207863,-0.083020,0.895827,-0.265614,-0.297791,0.239329,-0.205658,0.082925,-0.975104,0.100159,0.013724,-0.023385,24.560928,-42.990341,-7.126404,,,,,,,
1522138107.860064,-0.218274,-0.083154,0.891294,0.167489,-0.320392,-0.325070,-0.215796,0.083058,-0.972899,0.045768,-0.145513,0.095778,25.161026,-42.843262,-7.351746,,,,,,,
1522138107.890032,-0.229341,-0.072175,0.885031,0.305844,-0.351974,-0.266325,-0.226744,0.072113,-0.971281,0.022597,-0.128265,0.272779,25.459976,-42.994537,-7.276001,,,,,,,
1522138107.920001,-0.238813,-0.065138,0.880163,0.091824,-0.365822,-0.185490,-0.236048,0.065092,-0.969559,-0.143102,-0.052885,0.346695,25.162231,-42.768188,-7.277039,,,,,,,
1522138107.949969,-0.255993,-0.064721,0.872989,-0.131048,-0.549744,-0.396446,-0.252676,0.064676,-0.965387,-0.141794,-0.033045,0.405359,25.832687,-42.771957,-8.026672,,,,,,,
1522138107.979937,-0.254661,-0.062731,0.865815,0.161011,0.527683,-0.190593,-0.251422,0.062690,-0.965845,-0.007077,0.127923,0.058313,25.085129,-42.843063,-7.501770,,,,,,,
1522138108.009905,-0.229977,-0.048767,0.863350,0.460432,1.139853,-0.161148,-0.227684,0.048748,-0.972514,0.159050,0.186833,-0.343785,26.368500,-42.997208,-5.850525,,,,,,,
1522138108.039874,-0.187677,-0.040860,0.868853,0.190350,1.241253,0.326551,-0.186422,0.040848,-0.981620,0.101919,0.051452,-0.452035,27.199310,-42.775330,-5.250977,,,,,,,
1522138108.069842,-0.177135,-0.041298,0.886379,0.041789,-0.357497,0.613617,-0.176060,0.041287,-0.983513,0.047626,0.004810,-0.274009,26.074097,-43.069824,-4.800415,,,,,,,
1522138108.099810,-0.206175,-0.039347,0.900332,0.248894,-1.229080,0.273672,-0.204559,0.039337,-0.978064,0.084457,-0.158432,-0.074045,25.460617,-43.967804,-5.547119,,,,,,,
,,,,,,,,,,,,,,,,25.300645,51.442266,-18.661686,0.038994,-1.000000,1522138108.091154,
1522138108.129778,-0.239196,-0.030249,0.905155,0.335080,-0.924404,-0.019584,-0.236814,0.030245,-0.971084,-0.049228,-0.137560,0.063675,25.306885,-43.892868,-6.297485,,,,,,,
1522138108.159747,-0.258741,-0.022456,0.906360,0.152589,-0.465755,-0.048955,-0.255799,0.022455,-0.966469,-0.104125,-0.065728,0.259209,24.326660,-44.413452,-6.295898,,,,,,,
1522138108.189715,-0.266695,-0.022431,0.906750,-0.092699,-0.123268,-0.010051,-0.263478,0.022429,-0.964405,-0.088405,0.120256,0.169391,24.548660,-44.489822,-6.670471,,,,,,,
1522138108.219683,-0.259444,-0.023719,0.900580,-0.059434,0.505761,-0.318604,-0.256471,0.023717,-0.966261,0.188463,0.084285,-0.033175,25.680817,-44.044464,-6.221680,,,,,,,
1522138108.249651,-0.236345,-0.024254,0.890986,-0.154885,0.978298,-0.238173,-0.234082,0.024252,-0.971914,0.150540,0.045542,-0.151865,25.156281,-44.042038,-6.146912,,,,,,,
1522138108.279620,-0.208287,-0.034045,0.888037,-0.448087,0.731295,0.084716,-0.206664,0.034038,-0.977820,0.045181,0.072362,-0.191721,25.836502,-43.744720,-5.772766,,,,,,,
1522138108.309588,-0.197910,-0.045850,0.891097,-0.222863,0.104298,0.166487,-0.196414,0.045834,-0.979449,0.054827,-0.007107,-0.084439,26.289612,-43.296997,-5.999329,,,,,,,
1522138108.339556,-0.205630,-0.043434,0.895465,0.296421,-0.424264,0.044875,-0.203992,0.043420,-0.978009,0.110715,-0.091119,0.083768,25.157471,-43.966965,-6.072205,,,,,,,
1522138108.369524,-0.216127,-0.033202,0.898719,0.322763,-0.310351,0.005354,-0.214330,0.033196,-0.976197,0.051153,-0.072228,0.156556,25.454926,-44.268219,-5.995850,,,,,,,
1522138108.399478,-0.226575,-0.028010,0.901251,0.074530,-0.346348,0.075526,-0.224553,0.028006,-0.974059,-0.059596,-0.031515,0.201370,25.152222,-44.491943,-6.070129,,,,,,,
1522138108.429446,-0.232376,-0.030554,0.908729,-0.032598,-0.080404,0.374594,-0.230183,0.030549,-0.972668,-0.183269,-0.035905,0.032620,24.028168,-44.486740,-5.920776,,,,,,,
1522138108.459414,-0.231071,-0.029343,0.918779,0.190363,0.165610,0.214693,-0.228922,0.029339,-0.973003,0.122995,-0.040798,-0.175984,24.326965,-44.563156,-5.995239,,,,,,,
1522138108.489383,-0.212972,-0.029056,0.923579,-0.124152,0.857800,0.112539,-0.211276,0.029052,-0.976995,0.208804,-0.018218,-0.443889,24.928482,-45.089722,-4.867859,,,,,,,
1522138108.519351,-0.193092,-0.039069,0.930322,-0.334980,0.402394,0.427165,-0.191747,0.039059,-0.980667,0.102255,-0.060589,-0.352173,24.334763,-44.412140,-4.945862,,,,,,,
1522138108.549319,-0.193589,-0.051733,0.941519,-0.305750,-0.354487,0.309670,-0.192124,0.051710,-0.980007,0.118531,-0.022978,-0.042789,24.700317,-44.864609,-5.768860,,,,,,,
1522138108.579287,-0.210048,-0.053239,0.944256,0.174568,-0.574141,-0.057351,-0.208211,0.053213,-0.976635,0.096303,-0.138022,0.158215,24.395218,-45.013840,-6.368408,,,,,,,
1522138108.609256,-0.224718,-0.041274,0.943329,0.449958,-0.438283,-0.131874,-0.222642,0.041262,-0.974027,0.041047,-0.153490,0.226407,23.792130,-45.460892,-6.141968,,,,,,,
1522138108.639224,-0.235407,-0.028941,0.942165,0.346218,-0.301634,-0.185367,-0.233141,0.028937,-0.972012,-0.010771,-0.071021,0.233395,24.247177,-45.087708,-5.918213,,,,,,,
1522138108.669192,-0.245350,-0.018472,0.940684,0.283608,-0.345706,-0.091600,-0.242854,0.018471,-0.969887,-0.150700,0.005714,0.152138,24.318008,-45.687729,-5.615723,,,,,,,
1522138108.699160,-0.251044,-0.014211,0.938840,0.025971,-0.035301,-0.169886,-0.248390,0.014210,-0.968556,0.040977,0.147212,-0.070369,23.869522,-45.535706,-5.616577,,,,,,,
1522138108.729129,-0.244817,-0.013359,0.931501,-0.090191,0.400128,-0.245002,-0.242357,0.013359,-0.970095,0.203707,0.032799,-0.241361,25.000153,-45.015732,-5.543152,,,,,,,
1522138108.759097,-0.225581,-0.020579,0.929994,-0.370375,0.744526,0.140169,-0.223625,0.020577,-0.974458,0.134407,0.052680,-0.384932,24.476685,-45.087997,-5.168091,,,,,,,
1522138108.789065,-0.211038,-0.030687,0.933672,-0.168210,0.187847,0.201616,-0.209377,0.030682,-0.977354,-0.004048,-0.001034,-0.209643,24.547501,-45.463394,-5.241516,,,,,,,
1522138108.819033,-0.217707,-0.030990,0.940410,0.140810,-0.428123,0.195006,-0.215887,0.030985,-0.975927,0.031363,-0.068888,0.014394,24.546600,-45.238907,-5.767456,,,,,,,
1522138108.849002,-0.232770,-0.027047,0.946300,0.165385,-0.549605,0.085391,-0.230589,0.027044,-0.972675,0.148207,-0.063390,0.124866,23.721313,-45.310120,-5.692566,,,,,,,
1522138108.878970,-0.246238,-0.020858,0.946891,0.237791,-0.341262,-0.104418,-0.243704,0.020857,-0.969625,0.059958,-0.067518,0.183050,23.793030,-45.460754,-5.991943,,,,,,,
1522138108.908938,-0.252567,-0.013538,0.946065,0.191542,-0.125750,-0.058857,-0.249867,0.013538,-0.968185,-0.038264,-0.046756,0.101669,24.017548,-45.461838,-6.066833,,,,,,,
1522138108.938906,-0.255799,-0.011568,0.948370,-0.014122,-0.146187,0.050753,-0.253001,0.011568,-0.967397,-0.001958,0.053953,-0.003077,23.344833,-45.458435,-5.692139,,,,,,,
1522138108.968875,-0.258623,-0.016827,0.948176,-0.299352,-0.032321,-0.024157,-0.255714,0.016826,-0.966606,0.112571,0.087895,-0.036537,23.195282,-45.233063,-5.993103,,,,,,,
1522138108.998843,-0.256377,-0.027029,0.940996,-0.418936,0.215847,-0.217351,-0.253485,0.027025,-0.966962,0.034323,-0.049196,-0.009143,24.171875,-44.488434,-6.970642,,,,,,,
1522138109.028811,-0.245425,-0.038898,0.934328,-0.423324,0.362533,-0.069400,-0.242784,0.038888,-0.969300,0.091097,-0.047921,-0.063170,23.573090,-44.635284,-6.520386,,,,,,,
1522138109.058780,-0.239662,-0.046340,0.930848,-0.099963,0.045355,-0.110392,-0.237120,0.046323,-0.970375,0.108564,-0.022092,0.024773,24.245071,-44.713684,-6.894714,,,,,,,
1522138109.088748,-0.242393,-0.042931,0.927943,0.136294,-0.141099,-0.123878,-0.239805,0.042918,-0.969872,-0.031985,-0.001780,0.009758,24.924240,-44.341660,-6.820862,,,,,,,
1522138109.118716,-0.244813,-0.038555,0.928475,0.123786,-0.096680,0.061473,-0.242195,0.038546,-0.969462,-0.055840,0.006956,-0.071691,24.322311,-44.713654,-6.519653,,,,,,,
,,,,,,,,,,,,,,,,25.300594,51.442132,-18.614086,0.025272,-1.000000,1522138109.099219,
1522138109.148684,-0.245875,-0.035463,0.933769,0.154695,-0.002829,0.153039,-0.243252,0.035456,-0.969315,0.151150,0.035696,-0.039383,23.649597,-44.710251,-6.145020,,,,,,,
1522138109.178653,-0.240068,-0.032799,0.940768,0.098861,0.296186,0.265635,-0.237641,0.032794,-0.970799,0.155305,0.005445,-0.160686,24.553009,-44.414230,-6.070740,,,,,,,
1522138109.208621,-0.235089,-0.036067,0.952073,-0.097415,0.026834,0.408540,-0.232778,0.036059,-0.971861,0.054907,-0.003176,-0.180788,23.046799,-45.082397,-5.993835,,,,,,,
1522138109.238589,-0.238147,-0.041677,0.960695,-0.075025,-0.206684,0.212734,-0.235698,0.041665,-0.970933,0.026774,-0.037835,-0.041122,22.819992,-45.081665,-6.293945,,,,,,,
1522138109.268557,-0.246119,-0.043918,0.965773,-0.063341,-0.289213,0.155300,-0.243407,0.043904,-0.968930,-0.022203,-0.117283,0.043317,23.418472,-45.009735,-6.668945,,,,,,,
1522138109.298495,-0.254768,-0.048952,0.968618,-0.173381,-0.332312,0.129679,-0.251719,0.048933,-0.966562,0.110057,-0.124021,0.102579,23.044540,-44.858124,-6.744690,,,,,,,
1522138109.328463,-0.262044,-0.056543,0.971012,-0.270833,-0.153580,0.134750,-0.258641,0.056513,-0.964319,-0.012355,-0.031672,0.099771,22.660553,-45.307159,-7.493103,,,,,,,
1522138109.358432,-0.265037,-0.064603,0.970910,-0.241907,-0.040149,0.009995,-0.261399,0.064558,-0.963070,-0.045379,-0.010191,0.060299,22.884323,-45.158600,-7.943604,,,,,,,
1522138109.388402,-0.259930,-0.069804,0.969738,-0.146018,0.341373,-0.030806,-0.256387,0.069747,-0.964055,0.066262,0.001817,-0.051952,22.363861,-44.930893,-7.569763,,,,,,,
1522138109.418370,-0.242858,-0.073497,0.969854,-0.105646,0.683597,0.097806,-0.239828,0.073430,-0.968034,0.104666,-0.073140,-0.253096,22.813980,-45.007767,-7.419250,,,,,,,
1522138109.448338,-0.225851,-0.079892,0.977954,-0.208916,0.368375,0.383611,-0.223221,0.079807,-0.971495,0.067276,-0.008182,-0.312822,23.190598,-44.709686,-7.645264,,,,,,,
1522138109.478307,-0.222625,-0.084231,0.987564,0.118425,-0.102339,0.264988,-0.220008,0.084131,-0.971863,0.133353,-0.046107,-0.094589,22.059219,-45.529297,-7.342529,,,,,,,
1522138109.508275,-0.226088,-0.075659,0.994863,0.430267,-0.073075,0.071271,-0.223525,0.075586,-0.971763,0.065612,-0.077768,-0.044488,21.833786,-45.752975,-7.041809,,,,,,,
1522138109.538243,-0.231537,-0.060619,0.995746,0.532246,-0.299676,-0.229971,-0.229052,0.060582,-0.971527,0.095431,-0.043660,0.004105,22.812958,-45.831558,-6.215942,,,,,,,
1522138109.568211,-0.242394,-0.040393,0.990254,0.670262,-0.387294,-0.360842,-0.239831,0.040382,-0.969974,0.070093,-0.075431,0.128620,22.214478,-45.678864,-6.216858,,,,,,,
1522138109.598180,-0.259758,-0.020248,0.988201,0.560041,-0.719738,-0.191174,-0.256794,0.020247,-0.966254,-0.002789,-0.022520,0.256080,22.439789,-46.054199,-5.540283,,,,,,,
1522138109.628148,-0.283775,-0.004063,0.984052,0.454133,-0.794361,-0.421337,-0.279979,0.004063,-0.959998,0.009044,0.034969,0.266531,23.118057,-45.457718,-5.992249,,,,,,,
1522138109.658116,-0.301734,0.011578,0.971698,0.244244,-0.440805,-0.609377,-0.297157,-0.011578,-0.954758,-0.090645,0.009717,0.182999,22.971802,-45.306671,-5.617920,,,,,,,
1522138109.688084,-0.307606,0.014337,0.955666,-0.311824,0.017491,-0.455755,-0.302746,-0.014337,-0.952963,0.013867,0.154275,0.030569,23.194534,-45.308060,-5.992859,,,,,,,
1522138109.718053,-0.290155,0.005319,0.940962,-0.410187,1.027699,-0.374794,-0.286097,-0.005319,-0.958186,0.076853,0.184610,-0.174093,24.253769,-44.562515,-5.695312,,,,,,,
1522138109.748021,-0.250388,-0.000263,0.931544,-0.189702,1.382753,-0.171466,-0.247780,0.000263,-0.968816,0.120354,0.092602,-0.376063,24.935669,-44.414688,-4.795593,,,,,,,
1522138109.777989,-0.224304,-0.002704,0.930395,-0.036188,0.390556,0.038486,-0.222427,0.002704,-0.974946,0.132324,0.046338,-0.222473,26.059875,-44.494751,-4.794678,,,,,,,
1522138109.807958,-0.227702,-0.001868,0.932123,0.069023,-0.442705,0.026616,-0.225739,0.001868,-0.974186,0.052918,-0.017585,-0.023449,25.238342,-44.190979,-4.721313,,,,,,,
1522138109.837926,-0.248891,-0.000978,0.931540,-0.046122,-0.763674,-0.076497,-0.246329,0.000978,-0.969186,0.102148,0.024306,0.166879,25.164093,-44.115646,-4.721680,,,,,,,
1522138109.867894,-0.269279,-0.006447,0.925418,-0.377724,-0.614011,-0.237793,-0.266030,0.006447,-0.963943,0.048974,0.063972,0.292953,26.060760,-43.820724,-5.772400,,,,,,,
1522138109.897862,-0.281194,-0.018764,0.909702,-0.620722,-0.141701,-0.527210,-0.277454,0.018763,-0.960556,-0.091519,0.095693,0.286773,25.751144,-43.970688,-7.121887,,,,,,,
1522138109.927831,-0.276915,-0.030381,0.890557,-0.445110,0.295119,-0.451860,-0.273263,0.030376,-0.961460,-0.082053,0.036732,0.109866,26.354996,-43.224014,-7.724609,,,,,,,
1522138109.957799,-0.265566,-0.032655,0.877579,0.018558,0.443303,-0.381342,-0.262315,0.032649,-0.964430,0.024278,0.101125,-0.075945,27.257355,-43.077927,-7.574707,,,,,,,
1522138109.987767,-0.255589,-0.022342,0.874780,0.420609,0.270905,-0.032444,-0.252752,0.022340,-0.967273,0.029913,0.170546,-0.121380,27.111710,-43.001663,-6.975159,,,,,,,
1522138110.017735,-0.244804,-0.013088,0.882127,0.284521,0.324063,0.313704,-0.242345,0.013088,-0.970102,0.066732,0.091862,-0.222922,27.039566,-43.075745,-6.374817,,,,,,,
1522138110.047704,-0.241049,-0.014988,0.898289,-0.128217,0.065814,0.617329,-0.238695,0.014988,-0.970979,0.051607,0.029110,-0.149092,27.259628,-43.526794,-6.447937,,,,,,,
1522138110.077672,-0.236035,-0.027427,0.917920,-0.268423,0.182951,0.783327,-0.233762,0.027424,-0.971907,-0.014331,0.009426,-0.204897,25.829895,-44.045288,-6.371582,,,,,,,
1522138110.107640,-0.233200,-0.035801,0.937105,0.013714,-0.012778,0.562102,-0.230944,0.035793,-0.972308,0.053134,-0.040112,-0.156750,24.992493,-45.016968,-6.818115,,,,,,,
1522138110.137608,-0.235405,-0.033662,0.948304,0.228728,-0.137039,0.172410,-0.233105,0.033655,-0.971869,0.186962,-0.031962,-0.062005,25.217194,-45.092896,-6.742676,,,,,,,
,,,,,,,,,,,,,,,,25.300568,51.442049,-18.564205,0.019838,-1.000000,1522138110.117441,
1522138110.167577,-0.239296,-0.024739,0.950988,0.374099,-0.135736,-0.064035,-0.236946,0.024737,-0.971208,0.053551,-0.028673,0.008043,24.769302,-45.015671,-6.518250,,,,,,,
1522138110.197545,-0.247767,-0.011095,0.953119,0.475240,-0.398672,-0.031733,-0.245225,0.011095,-0.969403,-0.000640,-0.046968,0.118283,24.917831,-45.390945,-6.141663,,,,,,,
1522138110.227513,-0.262515,-0.000039,0.955508,0.268942,-0.497774,-0.071207,-0.259510,0.000039,-0.965740,0.068806,-0.052102,0.286221,24.613037,-45.689880,-6.440613,,,,,,,
1522138110.257481,-0.274001,0.003059,0.953457,-0.101417,-0.297737,-0.128163,-0.270584,-0.003059,-0.962692,-0.033097,-0.001640,0.260757,24.463181,-45.539429,-6.666321,,,,,,,
1522138110.287450,-0.278932,-0.005238,0.943846,-0.451633,-0.070124,-0.337498,-0.275325,0.005238,-0.961337,-0.154011,0.095989,0.134127,24.537735,-45.315216,-7.117126,,,,,,,
1522138110.317418,-0.275785,-0.012411,0.930112,-0.286877,0.246081,-0.332361,-0.272281,0.012411,-0.962138,-0.076886,0.017176,-0.049077,25.665497,-44.496201,-8.019897,,,,,,,
1522138110.347386,-0.263099,-0.018862,0.922982,-0.249332,0.556737,-0.097160,-0.260028,0.018861,-0.965417,0.135364,0.076980,-0.260978,25.218216,-44.493744,-7.570068,,,,,,,
1522138110.377355,-0.244336,-0.022763,0.924824,-0.024071,0.637105,0.181033,-0.241850,0.022761,-0.970047,0.131345,0.146123,-0.333451,26.043060,-44.871841,-6.968201,,,,,,,
1522138110.407334,-0.229919,-0.020203,0.930639,0.269316,0.269199,0.111299,-0.227852,0.020202,-0.973486,0.109032,0.079392,-0.239160,26.043503,-44.871780,-6.893188,,,,,,,
1522138110.437302,-0.232348,-0.008307,0.936255,0.465420,-0.303873,0.090701,-0.230255,0.008307,-0.973095,0.137955,-0.074072,-0.025623,25.744125,-45.169830,-6.292175,,,,,,,
1522138110.467270,-0.245276,-0.000298,0.943310,0.167261,-0.466547,0.208921,-0.242824,0.000298,-0.970070,0.010601,-0.129448,0.147637,24.920670,-45.240738,-5.917297,,,,,,,
1522138110.497239,-0.262665,-0.001816,0.949870,-0.073672,-0.672844,0.165259,-0.259654,0.001816,-0.965700,0.026912,0.031891,0.234682,25.667038,-45.020081,-6.892761,,,,,,,
1522138110.527207,-0.281080,-0.002669,0.947674,0.000848,-0.493688,-0.253626,-0.277393,0.002669,-0.960753,-0.052045,0.046586,0.262999,24.013489,-45.237869,-7.117676,,,,,,,
1522138110.557175,-0.286302,0.000861,0.937792,-0.034365,0.097929,-0.358658,-0.282406,-0.000861,-0.959294,-0.017215,0.017447,0.084188,24.539230,-45.165222,-7.117737,,,,,,,
1522138110.587142,-0.270699,-0.001762,0.928497,-0.249602,0.777847,-0.262532,-0.267405,0.001762,-0.963583,0.109125,0.081078,-0.208552,25.740509,-44.945786,-7.268005,,,,,,,
1522138110.617112,-0.244322,-0.005754,0.920536,-0.114682,0.916431,-0.219961,-0.241895,0.005754,-0.970285,0.043134,0.132628,-0.372869,24.846252,-44.865936,-6.443787,,,,,,,
1522138110.647079,-0.222455,-0.003097,0.918319,0.169907,0.412263,0.051407,-0.220623,0.003097,-0.975354,0.063672,0.042832,-0.412250,25.528275,-44.792953,-5.393738,,,,,,,
1522138110.677047,-0.224217,0.000596,0.926912,0.197558,-0.252728,0.316346,-0.222343,-0.000596,-0.974968,0.117455,0.074494,-0.251854,26.051483,-45.020233,-5.317566,,,,,,,
1522138110.707016,-0.234233,0.008118,0.938718,0.433082,-0.355312,0.312373,-0.232089,-0.008118,-0.972661,0.128391,-0.031738,-0.127544,24.774734,-45.464035,-4.866394,,,,,,,
1522138110.736984,-0.243643,0.017518,0.952209,0.333424,-0.260093,0.257850,-0.241203,-0.017518,-0.970317,0.004020,0.060883,-0.057363,24.473267,-45.837296,-4.490051,,,,,,,
1522138110.766953,-0.251976,0.029624,0.955174,0.525310,-0.344732,-0.167062,-0.249208,-0.029620,-0.967997,0.024172,-0.012128,0.047434,24.850494,-45.613998,-4.490784,,,,,,,
1522138110.796921,-0.263457,0.046151,0.957821,0.449115,-0.356012,0.103542,-0.260142,-0.046135,-0.964467,-0.095174,-0.116509,0.155294,24.098282,-45.835617,-4.490295,,,,,,,
1522138110.826889,-0.275047,0.044806,0.966352,-0.246090,-0.400240,0.295915,-0.271320,-0.044792,-0.961446,0.025089,0.082572,0.115102,24.249771,-45.686295,-4.490784,,,,,,,
1522138110.856858,-0.276937,0.031380,0.961710,-0.557485,0.326726,-0.373128,-0.273276,-0.031375,-0.961424,0.178458,0.185229,-0.077181,24.544678,-46.062851,-4.714172,,,,,,,
1522138110.886795,-0.254801,0.021068,0.940837,-0.457966,0.791590,-0.630322,-0.251997,-0.021067,-0.967499,0.130308,0.056498,-0.226120,24.324158,-45.611862,-4.716064,,,,,,,
1522138110.916764,-0.242309,0.015744,0.924530,-0.219765,0.117897,-0.413157,-0.239915,-0.015743,-0.970666,0.005052,0.097820,0.013131,25.981400,-44.569839,-5.244385,,,,,,,
1522138110.946732,-0.249314,0.012823,0.915341,-0.168251,-0.500201,-0.178074,-0.246719,-0.012822,-0.969002,-0.040711,0.063161,0.185769,26.506531,-44.422424,-5.469727,,,,,,,
1522138110.976700,-0.263099,0.006423,0.908831,-0.321044,-0.271443,-0.164575,-0.260069,-0.006423,-0.965569,0.153929,0.115218,0.170052,25.902344,-44.120911,-6.671265,,,,,,,
1522138111.006668,-0.260582,-0.001189,0.900624,-0.312239,0.366882,-0.277087,-0.257643,0.001189,-0.966239,0.132063,0.142686,0.058265,26.277481,-43.972839,-6.896667,,,,,,,
1522138111.036637,-0.247240,-0.009083,0.888434,-0.418109,0.283492,-0.317578,-0.244718,0.009083,-0.969552,0.085646,0.124310,0.037240,26.737625,-42.999832,-6.825317,,,,,,,
