timestamp(unix),attitude_roll(radians),attitude_pitch(radians),attitude_yaw(radians),rotation_rate_x(radians/s),rotation_rate_y(radians/s),rotation_rate_z(radians/s),gravity_x(G),gravity_y(G),gravity_z(G),user_acc_x(G),user_acc_y(G),user_acc_z(G),magnetic_field_x(microteslas),magnetic_field_y(microteslas),magnetic_field_z(microteslas),latitude(degree),longitude(degree),altitude(meter),speed(m/s),course(degree),timestamp(unix),User Mark
1523522274.316114,-0.715837,-0.042824,1.487938,-0.135680,0.139582,-0.096991,-0.655648,0.042811,-0.753852,0.082665,-0.037715,-0.099968,-6.762253,-47.109802,-2.156860,,,,,,,
,,,,,,,,,,,,,,,,25.316200,51.457575,13.615414,10.290000,258.046875,1523522268.999693,
1523522274.346082,-0.715967,-0.045964,1.484107,-0.210029,-0.116072,0.018292,-0.655654,0.045948,-0.753662,0.091445,-0.002948,-0.106476,-7.062546,-46.958771,-2.457581,,,,,,,
1523522274.376050,-0.719872,-0.054109,1.482031,-0.310772,-0.247648,0.180302,-0.658324,0.054083,-0.750790,0.158949,0.000880,-0.141377,-7.291885,-47.257950,-2.681580,,,,,,,
,,,,,,,,,,,,,,,,25.316200,51.457575,13.615414,10.290000,258.046875,1523522274.344655,
1523522274.406019,-0.725686,-0.064718,1.480958,-0.264494,-0.135326,0.207931,-0.662260,0.064673,-0.746478,0.158750,0.008661,-0.102567,-7.438736,-46.807526,-2.908386,,,,,,,
1523522274.435987,-0.726756,-0.073044,1.483156,-0.126469,-0.044445,0.230321,-0.662677,0.072979,-0.745341,0.149417,-0.008053,-0.092534,-7.290405,-46.658722,-3.433960,,,,,,,
1523522274.465955,-0.726925,-0.080162,1.485052,-0.143592,-0.099345,0.187730,-0.662441,0.080076,-0.744822,0.147945,0.017046,-0.085882,-8.043976,-46.880554,-3.658447,,,,,,,
1523522274.495923,-0.729612,-0.086926,1.488618,-0.082349,-0.194442,0.239028,-0.664064,0.086816,-0.742618,0.212220,-0.034830,-0.126980,-8.869690,-46.951843,-3.658569,,,,,,,
,,,,,,,,,,,,,,,,25.316099,51.457049,13.615414,-1.000000,-1.000000,1523522274.480286,
1523522274.525892,-0.731313,-0.091936,1.493387,0.006078,-0.050880,0.193124,-0.665027,0.091806,-0.741155,0.187534,-0.041742,-0.106944,-8.864304,-46.501709,-3.510376,,,,,,,
,,,,,,,,,,,,,,,,25.316099,51.457048,13.615414,-1.000000,-1.000000,1523522274.495011,
1523522274.555860,-0.729384,-0.093810,1.497037,0.025403,0.065748,0.070493,-0.663480,0.093672,-0.742306,0.148710,-0.003462,-0.076602,-8.641251,-46.652786,-3.584595,,,,,,,
1523522274.585828,-0.725368,-0.094547,1.498379,-0.045660,0.107749,0.016055,-0.660448,0.094407,-0.744913,0.162584,0.027374,-0.083059,-9.396622,-46.874908,-4.109131,,,,,,,
1523522274.615797,-0.719008,-0.095439,1.497941,-0.019409,0.217301,-0.008540,-0.655641,0.095295,-0.749035,0.158266,0.025280,-0.165165,-9.168640,-46.575943,-4.110229,,,,,,,
1523522274.645765,-0.707677,-0.093474,1.499013,0.105598,0.404438,-0.069373,-0.647232,0.093338,-0.756557,0.147828,-0.009018,-0.277348,-8.943939,-46.876511,-3.658875,,,,,,,
1523522274.675733,-0.694643,-0.086773,1.500296,0.255321,0.351606,-0.164046,-0.637703,0.086664,-0.765391,0.099449,-0.000437,-0.295751,-9.091537,-46.501053,-3.885498,,,,,,,
1523522274.705701,-0.686012,-0.077549,1.502389,0.242876,0.232409,-0.133036,-0.631552,0.077471,-0.771453,0.107077,-0.031115,-0.239198,-7.584991,-46.431870,-2.909973,,,,,,,
1523522274.735670,-0.680906,-0.073373,1.504242,0.055781,0.114903,0.020386,-0.627804,0.073307,-0.774912,0.124370,-0.059483,-0.207006,-8.638397,-46.727203,-2.984314,,,,,,,
1523522274.765638,-0.680472,-0.075989,1.506582,-0.078173,-0.090698,0.141962,-0.627344,0.075916,-0.775033,0.135370,-0.068256,-0.181831,-8.490799,-46.878021,-3.133667,,,,,,,
1523522274.795606,-0.686496,-0.082022,1.508765,-0.135722,-0.247088,0.190020,-0.631700,0.081930,-0.770871,0.168733,-0.068395,-0.098056,-8.116867,-46.804993,-3.433777,,,,,,,
1523522274.825574,-0.693698,-0.087997,1.510515,-0.121274,-0.222046,0.100493,-0.636911,0.087884,-0.765911,0.123422,-0.044930,-0.044468,-9.166229,-46.875046,-3.208984,,,,,,,
1523522274.855543,-0.696030,-0.090611,1.507892,-0.152106,0.042965,-0.102236,-0.638546,0.090487,-0.764245,0.121182,-0.038241,-0.098227,-9.539703,-46.947998,-2.833862,,,,,,,
1523522274.885511,-0.691635,-0.089972,1.500943,-0.108553,0.061958,-0.249271,-0.635218,0.089851,-0.767089,0.094706,-0.009819,-0.262880,-9.318176,-46.799820,-3.659363,,,,,,,
1523522274.915479,-0.696062,-0.084373,1.494658,0.058267,-0.201483,-0.321333,-0.638920,0.084273,-0.764643,0.071598,0.031648,-0.199712,-8.942001,-46.501816,-3.960388,,,,,,,
1523522274.945447,-0.701651,-0.075923,1.488381,0.061727,-0.185294,-0.357579,-0.643620,0.075850,-0.761577,0.048237,0.040879,-0.078724,-8.415817,-46.653732,-3.509521,,,,,,,
1523522274.975416,-0.707539,-0.069142,1.482216,-0.000666,-0.193160,-0.274505,-0.648412,0.069087,-0.758148,0.073156,0.004994,-0.000611,-6.764236,-46.586014,-3.358948,,,,,,,
1523522275.005384,-0.711304,-0.066123,1.478291,-0.034137,-0.079488,-0.106297,-0.651396,0.066075,-0.755855,0.107298,-0.014851,0.026913,-7.364349,-46.733093,-3.133728,,,,,,,
1523522275.035352,-0.713537,-0.067986,1.475487,-0.199274,-0.130731,-0.013668,-0.653000,0.067933,-0.754305,0.071854,0.001159,0.002779,-6.993866,-46.735504,-3.883484,,,,,,,
1523522275.065320,-0.719881,-0.075396,1.470870,-0.351760,-0.226609,0.073697,-0.657422,0.075325,-0.749748,0.059811,0.020943,0.037514,-6.620544,-46.812332,-4.032959,,,,,,,
1523522275.095289,-0.724465,-0.085497,1.466164,-0.375452,-0.017319,0.088385,-0.660314,0.085393,-0.746118,0.055609,0.038188,-0.020437,-7.596405,-46.583481,-4.559387,,,,,,,
1523522275.125257,-0.720357,-0.094798,1.460988,-0.339775,0.279279,0.056153,-0.656691,0.094656,-0.748195,0.067671,-0.002936,-0.175892,-7.826355,-46.807877,-5.008667,,,,,,,
1523522275.155225,-0.709927,-0.101367,1.457290,-0.157513,0.378091,-0.005619,-0.648433,0.101193,-0.754516,-0.006551,0.060794,-0.360825,-6.848251,-46.362503,-5.234924,,,,,,,
1523522275.185194,-0.695536,-0.095775,1.457249,0.358062,0.576994,-0.218529,-0.637860,0.095628,-0.764192,-0.045383,0.086516,-0.370711,-7.676514,-46.733704,-5.158813,,,,,,,
1523522275.215148,-0.675309,-0.077097,1.462381,0.674858,0.662810,-0.292975,-0.623281,0.077021,-0.778195,-0.027216,0.010687,-0.309177,-6.845535,-46.811325,-4.033081,,,,,,,
1523522275.245116,-0.658040,-0.057512,1.468218,0.532651,0.461837,-0.222554,-0.610556,0.057480,-0.789884,-0.044062,-0.064118,-0.228853,-5.714417,-46.740509,-3.132874,,,,,,,
1523522275.275084,-0.654074,-0.046416,1.470843,0.205053,-0.106464,-0.133788,-0.607769,0.046399,-0.792757,-0.037525,-0.060864,-0.122038,-6.012894,-47.038422,-2.381836,,,,,,,
1523522275.305053,-0.662107,-0.043672,1.469427,-0.083557,-0.367440,-0.091125,-0.614194,0.043658,-0.787946,0.005582,-0.059069,0.038221,-5.716202,-47.190048,-2.681030,,,,,,,
1523522275.335021,-0.675412,-0.047854,1.464832,-0.290431,-0.445125,-0.001694,-0.624503,0.047835,-0.779556,0.071356,-0.060149,0.168533,-5.041092,-46.818695,-3.282166,,,,,,,
1523522275.364989,-0.685593,-0.056680,1.460501,-0.330379,-0.208675,0.084352,-0.632115,0.056650,-0.772800,0.112981,-0.098276,0.269489,-5.716827,-46.666031,-3.658142,,,,,,,
1523522275.394957,-0.685657,-0.062236,1.459559,-0.018108,0.148627,0.088479,-0.631956,0.062196,-0.772505,0.085401,-0.102067,0.285322,-5.265198,-46.368271,-3.884094,,,,,,,
1523522275.424926,-0.677974,-0.060541,1.466380,0.249124,0.276174,0.139699,-0.626067,0.060504,-0.777418,0.037413,-0.118365,0.262190,-5.108307,-45.993469,-3.360535,,,,,,,
1523522275.454894,-0.671439,-0.060061,1.472962,0.016342,0.064046,0.166376,-0.620991,0.060025,-0.781515,0.022664,-0.121533,0.216559,-5.563690,-46.441574,-3.508972,,,,,,,
1523522275.484862,-0.678028,-0.068493,1.473669,-0.353152,-0.399571,0.191078,-0.625787,0.068440,-0.776985,0.068094,-0.091099,0.230705,-5.785980,-45.990860,-3.810852,,,,,,,
1523522275.514830,-0.691286,-0.080781,1.471198,-0.317696,-0.371920,0.174035,-0.635450,0.080693,-0.767914,0.116239,-0.074270,0.215302,-5.261017,-45.543976,-4.562378,,,,,,,
1523522275.544799,-0.696179,-0.085764,1.470151,-0.075700,0.010473,-0.041413,-0.638933,0.085659,-0.764478,0.097246,-0.061764,0.222287,-6.388962,-45.838913,-4.561768,,,,,,,
1523522275.574767,-0.695843,-0.084277,1.464430,-0.154663,-0.015319,-0.275858,-0.638757,0.084177,-0.764790,0.018732,0.040091,0.163334,-6.018188,-45.991028,-5.010986,,,,,,,
1523522275.604796,-0.700682,-0.082841,1.449752,-0.369907,-0.183196,-0.503878,-0.642528,0.082746,-0.761781,-0.113850,0.122896,0.104997,-5.500412,-46.219177,-5.834778,,,,,,,
,,,,,,,,,,,,,,,,25.316135,51.457126,12.498837,3.950000,265.429688,1523522274.999619,
1523522275.634764,-0.707771,-0.081858,1.429641,-0.401756,-0.163875,-0.520965,-0.647965,0.081767,-0.757268,-0.065841,0.171437,-0.103678,-5.052689,-46.221573,-6.209534,,,,,,,
1523522275.664733,-0.708834,-0.081040,1.415042,-0.226748,0.108085,-0.269648,-0.648812,0.080952,-0.756630,-0.042090,0.193936,-0.202690,-3.781784,-46.227966,-6.883911,,,,,,,
1523522275.694701,-0.702459,-0.083012,1.409680,-0.169455,0.321851,-0.014087,-0.643872,0.082917,-0.760627,-0.188450,0.205062,-0.244713,-3.483597,-46.454224,-6.807861,,,,,,,
1523522275.724669,-0.693331,-0.089236,1.407270,-0.260057,0.281802,0.124393,-0.636559,0.089118,-0.766061,-0.174094,0.092416,-0.300055,-4.238831,-46.526566,-7.557983,,,,,,,
1523522275.754638,-0.688498,-0.100576,1.406686,-0.336300,0.108868,0.264097,-0.632167,0.100406,-0.768299,-0.142903,0.042187,-0.218640,-4.385529,-45.926376,-8.010437,,,,,,,
1523522275.784606,-0.684980,-0.110844,1.407714,-0.141481,0.143899,0.199214,-0.628775,0.110617,-0.769679,-0.074075,0.022851,-0.136541,-3.934052,-45.778397,-8.010803,,,,,,,
1523522275.814574,-0.672874,-0.111840,1.412344,0.197476,0.584900,0.075426,-0.619342,0.111607,-0.777148,-0.027035,-0.003407,-0.123792,-4.687164,-46.000168,-8.160278,,,,,,,
1523522275.844542,-0.648235,-0.104361,1.418834,0.394859,0.911329,-0.024912,-0.600495,0.104171,-0.792814,-0.060729,-0.055480,-0.216204,-4.613220,-46.375031,-7.708740,,,,,,,
1523522275.874511,-0.621710,-0.092846,1.427427,0.515715,0.777870,0.023256,-0.579917,0.092712,-0.809383,-0.064828,-0.149246,-0.233952,-3.933899,-46.302505,-7.108704,,,,,,,
1523522275.904479,-0.598140,-0.082798,1.439096,0.479239,0.703424,0.196984,-0.561177,0.082704,-0.823554,-0.026882,-0.191804,-0.185098,-4.156784,-46.226273,-6.884155,,,,,,,
1523522275.934447,-0.579062,-0.074877,1.456605,0.598956,0.506120,0.409310,-0.545706,0.074808,-0.834631,0.000769,-0.243463,-0.185312,-3.323853,-46.153824,-5.684021,,,,,,,
1523522275.964415,-0.567700,-0.065451,1.478751,0.660363,0.178528,0.430999,-0.536543,0.065404,-0.841335,-0.007494,-0.299184,-0.147755,-4.825150,-46.596542,-5.157959,,,,,,,
1523522275.994384,-0.570823,-0.057896,1.495538,0.353580,-0.364463,0.236328,-0.539419,0.057864,-0.840047,0.067343,-0.236255,-0.010356,-4.522720,-46.896988,-4.256653,,,,,,,
1523522276.024352,-0.588040,-0.056250,1.501726,0.043248,-0.719537,0.065974,-0.553854,0.056220,-0.830714,0.143743,-0.125403,0.152873,-4.666718,-46.520966,-3.883179,,,,,,,
1523522276.054320,-0.611596,-0.056325,1.500461,-0.064963,-0.769037,-0.109871,-0.573265,0.056295,-0.817434,0.218315,-0.047842,0.276831,-4.889771,-46.369888,-3.808899,,,,,,,
1523522276.084288,-0.631544,-0.054027,1.496964,0.053690,-0.559637,-0.161141,-0.589530,0.054001,-0.805939,0.215705,-0.001831,0.363770,-5.039001,-46.518845,-3.433411,,,,,,,
,,,,,,,,,,,,,,,,25.316089,51.457112,12.836300,4.260000,270.000000,1523522275.999614,
1523522276.114257,-0.641436,-0.048132,1.495586,0.157895,-0.163647,-0.146544,-0.597654,0.048114,-0.800309,0.179472,0.017118,0.363175,-5.110550,-46.443085,-2.983704,,,,,,,
1523522276.144225,-0.642148,-0.043745,1.496045,0.043068,0.045328,-0.056261,-0.598344,0.043731,-0.800045,0.045960,0.133271,0.327755,-5.106949,-46.442490,-2.383728,,,,,,,
1523522276.174193,-0.642891,-0.043466,1.489751,-0.195291,-0.055448,-0.298218,-0.598945,0.043453,-0.799610,-0.044350,0.135518,0.260135,-5.185242,-46.592438,-2.683167,,,,,,,
1523522276.204161,-0.646716,-0.042029,1.479888,-0.147523,-0.069663,-0.257679,-0.602036,0.042017,-0.797362,0.046708,0.103704,0.161345,-3.985138,-46.448074,-2.908142,,,,,,,
1523522276.234124,-0.649719,-0.043483,1.475178,-0.134527,-0.189545,0.013096,-0.604391,0.043469,-0.795501,0.013402,0.143817,0.004547,-4.816711,-46.969543,-3.131470,,,,,,,
1523522276.264092,-0.658288,-0.049514,1.473567,-0.281473,-0.278791,0.064217,-0.611013,0.049494,-0.790071,-0.039209,0.159261,-0.016203,-5.271469,-47.267792,-3.430481,,,,,,,
1523522276.294060,-0.663151,-0.060237,1.464578,-0.594830,-0.131183,-0.115168,-0.614486,0.060201,-0.786627,-0.132828,0.127772,-0.025339,-4.221985,-46.823349,-4.256775,,,,,,,
1523522276.324028,-0.668689,-0.070575,1.445204,-0.688013,-0.103135,-0.444517,-0.618415,0.070516,-0.782682,-0.181970,0.160502,-0.009417,-4.146408,-46.449219,-4.783203,,,,,,,
1523522276.353997,-0.669823,-0.076758,1.424022,-0.488876,0.119968,-0.357221,-0.619019,0.076682,-0.781623,-0.079559,0.156884,-0.103097,-4.153152,-46.674927,-5.532288,,,,,,,
1523522276.383965,-0.666716,-0.079406,1.416501,-0.019468,0.165449,-0.040447,-0.616460,0.079322,-0.783380,-0.240550,0.156426,-0.181479,-3.030746,-46.755280,-5.831421,,,,,,,
1523522276.413933,-0.657009,-0.075948,1.422620,0.319701,0.322567,0.163165,-0.608990,0.075875,-0.789540,-0.245120,0.011039,-0.155620,-4.003159,-46.900238,-5.156311,,,,,,,
1523522276.443902,-0.649177,-0.072660,1.435669,0.311777,0.142091,0.295455,-0.602936,0.072596,-0.794479,-0.197098,-0.054316,-0.104660,-4.225891,-46.898849,-4.781433,,,,,,,
1523522276.473870,-0.649767,-0.072460,1.447095,0.176825,-0.194419,0.293573,-0.603413,0.072397,-0.794136,-0.135799,-0.127328,-0.060067,-3.628021,-46.976776,-5.005859,,,,,,,
1523522276.503838,-0.653585,-0.073003,1.456306,0.176372,0.084592,0.209103,-0.606417,0.072939,-0.791794,-0.126554,-0.188615,0.031525,-4.825272,-46.970932,-4.556458,,,,,,,
1523522276.533806,-0.636783,-0.068628,1.466429,0.447759,0.764398,0.147900,-0.593212,0.068575,-0.802120,-0.195789,-0.218569,-0.040058,-4.672714,-46.896317,-4.256714,,,,,,,
1523522276.563775,-0.613993,-0.057990,1.479734,0.553645,0.578125,0.155624,-0.575167,0.057957,-0.815980,-0.317029,-0.312886,-0.112869,-4.072739,-47.123642,-3.880493,,,,,,,
1523522276.593743,-0.606931,-0.049388,1.495353,0.482292,0.027142,0.259483,-0.569654,0.049368,-0.820400,-0.254809,-0.277227,-0.008900,-4.741241,-47.194443,-2.680542,,,,,,,
1523522276.623711,-0.608306,-0.042814,1.507199,0.348035,-0.077768,0.115636,-0.570954,0.042800,-0.819865,-0.125091,-0.152496,0.083522,-4.883743,-46.668427,-2.307739,,,,,,,
1523522276.653679,-0.608368,-0.036068,1.511171,0.181867,-0.031052,-0.123212,-0.571157,0.036060,-0.820048,-0.053355,-0.053897,0.078089,-4.130768,-46.821060,-1.556702,,,,,,,
1523522276.683648,-0.614117,-0.029935,1.508521,0.065946,-0.296683,-0.235980,-0.575979,0.029930,-0.816916,-0.013026,0.006920,0.179206,-4.808289,-47.117920,-1.480835,,,,,,,
1523522276.713616,-0.625763,-0.024616,1.502810,0.005947,-0.404584,-0.285983,-0.585539,0.024614,-0.810271,-0.012667,0.052077,0.336867,-3.458481,-47.273788,-1.254578,,,,,,,
1523522276.743584,-0.633479,-0.020619,1.495759,-0.073219,-0.161304,-0.250058,-0.591826,0.020618,-0.805802,-0.037782,0.132687,0.374558,-3.009247,-47.126175,-1.629944,,,,,,,
1523522276.773552,-0.638160,-0.020813,1.490580,-0.132014,-0.189079,-0.056151,-0.595589,0.020811,-0.803019,-0.111671,0.156236,0.254100,-2.938461,-47.501572,-1.703369,,,,,,,
1523522276.803521,-0.646721,-0.024574,1.490641,-0.043903,-0.320248,0.131577,-0.602391,0.024571,-0.797823,-0.132427,0.140758,0.255724,-3.168518,-47.875763,-1.927002,,,,,,,
1523522276.833489,-0.654416,-0.025641,1.495540,0.126758,-0.118783,0.132565,-0.608496,0.025638,-0.793143,-0.107431,0.065655,0.284354,-2.639954,-47.652908,-1.702637,,,,,,,
1523522276.863457,-0.647575,-0.024383,1.500296,0.089922,0.396064,0.067027,-0.603074,0.024380,-0.797312,-0.123610,0.033954,0.117273,-3.690659,-47.947815,-1.326965,,,,,,,
1523522276.893425,-0.636768,-0.024892,1.502206,-0.041721,0.314653,0.056350,-0.594415,0.024889,-0.803773,-0.154379,0.021421,-0.014816,-3.319122,-48.249557,-1.400574,,,,,,,
1523522276.923394,-0.631931,-0.029281,1.502397,-0.155342,0.023512,0.094916,-0.590451,0.029277,-0.806542,-0.168750,-0.009532,-0.020652,-3.693802,-48.172943,-1.476074,,,,,,,
1523522276.953362,-0.634033,-0.033367,1.503360,-0.029763,-0.067125,0.095103,-0.592069,0.033361,-0.805196,-0.152057,-0.056371,0.077261,-3.993027,-48.096603,-1.476562,,,,,,,
1523522276.983330,-0.631512,-0.033311,1.506631,0.112608,0.205824,0.060860,-0.590038,0.033305,-0.806688,-0.183781,-0.079340,0.072053,-3.246048,-48.399948,-1.474976,,,,,,,
1523522277.013299,-0.624303,-0.030379,1.510587,0.157615,0.216545,0.034227,-0.584262,0.030374,-0.810996,-0.234967,-0.100976,0.024589,-2.945633,-48.401230,-1.399780,,,,,,,
1523522277.043267,-0.622525,-0.027693,1.513360,0.083040,-0.027396,-0.003946,-0.582865,0.027689,-0.812097,-0.234869,-0.095743,0.080453,-3.770874,-48.697067,-0.948975,,,,,,,
1523522277.073235,-0.620992,-0.026309,1.514174,0.046301,0.110855,-0.006248,-0.581641,0.026306,-0.813020,-0.192117,-0.090134,0.110215,-3.997803,-49.070755,-0.647644,,,,,,,
,,,,,,,,,,,,,,,,25.316091,51.457100,13.143398,3.950000,266.484375,1523522276.999901,
1523522277.103203,-0.612020,-0.024644,1.516672,0.117877,0.418436,0.048912,-0.574347,0.024642,-0.818241,-0.176736,-0.091018,0.022449,-3.620880,-48.922379,-0.572998,,,,,,,
1523522277.133172,-0.600503,-0.021227,1.521194,0.231624,0.302338,0.045927,-0.564930,0.021225,-0.824865,-0.164944,-0.015015,0.020453,-3.994659,-49.070236,-0.122681,,,,,,,
1523522277.163140,-0.592328,-0.016458,1.524523,0.138813,0.207641,-0.053151,-0.558218,0.016458,-0.829531,-0.132624,-0.002664,-0.047651,-3.242722,-49.148163,0.328003,,,,,,,
