timestamp(unix),attitude_roll(radians),attitude_pitch(radians),attitude_yaw(radians),rotation_rate_x(radians/s),rotation_rate_y(radians/s),rotation_rate_z(radians/s),gravity_x(G),gravity_y(G),gravity_z(G),user_acc_x(G),user_acc_y(G),user_acc_z(G),magnetic_field_x(microteslas),magnetic_field_y(microteslas),magnetic_field_z(microteslas),latitude(degree),longitude(degree),altitude(meter),speed(m/s),course(degree),timestamp(unix),User Mark
1523522615.792806,-0.588195,-0.040077,-0.765847,-0.001411,-0.049038,0.047361,-0.554415,0.040066,-0.831275,0.085741,-0.026012,-0.009866,5.717346,6.599442,-11.740479,,,,,,,
1523522615.822774,-0.586830,-0.039728,-0.764166,0.042936,0.070962,0.041948,-0.553287,0.039717,-0.832043,0.058017,-0.030730,-0.047016,5.643997,6.674927,-11.590820,,,,,,,
,,,,,,,,,,,,,,,,25.315131,51.454356,13.475918,6.490000,76.640625,1523522614.999668,
1523522615.852773,-0.584888,-0.038824,-0.762540,0.054582,0.023272,0.019629,-0.551690,0.038814,-0.833145,0.036080,-0.027233,-0.030716,5.570343,6.675476,-11.365845,,,,,,,
1523522615.882741,-0.584386,-0.037155,-0.761868,0.053606,-0.012508,-0.029352,-0.551306,0.037146,-0.833475,0.016227,-0.027197,-0.002371,5.942184,6.448654,-11.514771,,,,,,,
1523522615.912709,-0.584668,-0.035613,-0.762622,-0.010445,-0.029227,-0.046435,-0.551572,0.035606,-0.833367,-0.005221,-0.024696,-0.035820,6.769699,6.744858,-11.590576,,,,,,,
1523522615.942678,-0.585923,-0.035840,-0.764567,-0.055521,-0.078033,-0.042150,-0.552614,0.035832,-0.832667,-0.043028,-0.013249,-0.012716,6.838852,6.294327,-11.813721,,,,,,,
1523522615.972646,-0.588997,-0.035645,-0.765570,0.011487,-0.088023,-0.003739,-0.555174,0.035638,-0.830970,-0.033876,-0.022088,0.041419,5.945480,6.823563,-11.591309,,,,,,,
1523522616.002614,-0.589603,-0.035524,-0.764194,0.022198,0.000703,0.067575,-0.555680,0.035517,-0.830637,-0.064650,-0.032206,0.049600,6.168365,6.747345,-11.815857,,,,,,,
1523522616.032582,-0.589253,-0.036816,-0.761549,-0.006872,0.000419,0.116579,-0.555363,0.036807,-0.830793,-0.094097,-0.046649,0.039335,6.768799,6.744720,-11.740540,,,,,,,
1523522616.062551,-0.590337,-0.040063,-0.758364,-0.063928,-0.025384,0.181549,-0.556194,0.040052,-0.830087,-0.112675,-0.093748,0.024941,6.017624,6.673019,-11.815613,,,,,,,
,,,,,,,,,,,,,,,,25.315144,51.454417,13.602413,6.460000,72.773438,1523522615.999656,
1523522616.092519,-0.591195,-0.045469,-0.753638,-0.067536,-0.011137,0.272104,-0.556778,0.045453,-0.829417,-0.109864,-0.122083,0.016642,6.091415,6.597610,-11.890320,,,,,,,
1523522616.122487,-0.592682,-0.050606,-0.746394,0.028097,-0.055271,0.320162,-0.557872,0.050584,-0.828384,-0.102208,-0.113695,0.059066,6.090515,6.597473,-12.040283,,,,,,,
1523522616.152455,-0.593804,-0.053362,-0.736863,0.112644,-0.006623,0.323371,-0.558722,0.053337,-0.827638,-0.078211,-0.106895,0.039323,6.385269,6.295761,-12.413879,,,,,,,
1523522616.182424,-0.593726,-0.054574,-0.727861,0.116246,-0.008224,0.246662,-0.558620,0.054546,-0.827628,-0.051975,-0.098354,0.018241,6.462952,6.520493,-12.339844,,,,,,,
1523522616.212392,-0.595024,-0.054567,-0.721555,0.078202,-0.037193,0.147574,-0.559695,0.054540,-0.826902,-0.034528,-0.096242,0.049879,7.435379,6.216187,-12.263123,,,,,,,
1523522616.242360,-0.595689,-0.054835,-0.718248,0.005029,0.012222,0.096329,-0.560236,0.054807,-0.826518,-0.044653,-0.092100,0.055964,6.834045,6.218674,-12.488403,,,,,,,
1523522616.272328,-0.595300,-0.055613,-0.716133,-0.004445,0.026169,0.081387,-0.559890,0.055584,-0.826700,-0.064240,-0.083233,0.049631,6.984024,6.442627,-12.864197,,,,,,,
1523522616.302297,-0.594435,-0.056455,-0.714257,-0.007541,0.044281,0.076036,-0.559149,0.056425,-0.827145,-0.076273,-0.073316,0.029889,7.359619,6.366150,-12.638733,,,,,,,
1523522616.332265,-0.594068,-0.056040,-0.712380,0.049046,0.020904,0.055857,-0.558858,0.056010,-0.827370,-0.083171,-0.038463,0.003014,7.212921,6.517120,-12.339417,,,,,,,
1523522616.362233,-0.594711,-0.053471,-0.709834,0.134480,-0.006730,0.027175,-0.559469,0.053446,-0.827127,-0.069270,-0.030191,0.024942,6.986130,6.517838,-12.639526,,,,,,,
1523522616.392202,-0.594346,-0.049876,-0.706379,0.158093,0.044074,0.047387,-0.559270,0.049855,-0.827485,-0.051905,-0.024327,0.016968,7.059631,6.367508,-12.638916,,,,,,,
1523522616.422170,-0.594169,-0.047295,-0.702165,0.129901,-0.006087,0.087910,-0.559194,0.047278,-0.827688,-0.046733,-0.010718,0.013860,7.134933,6.442093,-12.714172,,,,,,,
1523522616.452138,-0.594236,-0.046040,-0.697319,0.113786,0.023429,0.129412,-0.559282,0.046023,-0.827699,-0.044981,-0.009799,0.030076,8.030991,6.137909,-12.862488,,,,,,,
1523522616.482106,-0.593118,-0.045315,-0.691736,0.128760,0.047670,0.149661,-0.558375,0.045300,-0.828351,-0.045094,-0.026012,0.014401,7.727112,5.839127,-13.011475,,,,,,,
1523522616.512075,-0.592629,-0.043896,-0.685488,0.172282,-0.006625,0.149742,-0.558006,0.043882,-0.828676,-0.041436,-0.041105,0.013414,7.874710,5.688324,-13.160706,,,,,,,
1523522616.542041,-0.593409,-0.042161,-0.678695,0.171036,-0.026933,0.166812,-0.558694,0.042148,-0.828302,-0.044380,-0.043720,0.009104,9.151596,5.832642,-13.085693,,,,,,,
1523522616.572009,-0.594931,-0.040280,-0.671300,0.198616,-0.061058,0.173266,-0.559997,0.040269,-0.827515,-0.043946,-0.050248,0.029832,8.552078,6.060043,-13.386902,,,,,,,
1523522616.601977,-0.596146,-0.038289,-0.663369,0.178391,-0.016539,0.197704,-0.561046,0.038280,-0.826899,-0.041508,-0.063716,0.028101,8.471375,5.535324,-13.459900,,,,,,,
1523522616.631946,-0.596389,-0.038012,-0.655673,0.114243,-0.004888,0.225351,-0.561252,0.038003,-0.826772,-0.046612,-0.064431,0.000233,9.446793,5.755646,-13.760254,,,,,,,
1523522616.661914,-0.597201,-0.038945,-0.648439,0.100232,-0.035638,0.222168,-0.561904,0.038936,-0.826286,-0.046693,-0.064143,0.012931,8.467331,5.310059,-13.758972,,,,,,,
1523522616.691882,-0.597765,-0.039487,-0.641176,0.118561,-0.000573,0.216813,-0.562357,0.039477,-0.825951,-0.048528,-0.072222,0.002099,8.840958,5.308151,-13.983765,,,,,,,
1523522616.721850,-0.597934,-0.039588,-0.633551,0.133430,-0.021891,0.217929,-0.562495,0.039578,-0.825852,-0.053090,-0.085064,-0.002181,9.292282,5.530960,-14.134460,,,,,,,
1523522616.751819,-0.598662,-0.039576,-0.625712,0.137623,-0.026224,0.228590,-0.563096,0.039566,-0.825443,-0.040465,-0.086624,0.027790,9.140335,5.381577,-14.208923,,,,,,,
1523522616.781787,-0.599157,-0.039899,-0.617696,0.121630,-0.006083,0.241343,-0.563498,0.039888,-0.825154,-0.036554,-0.096086,0.032002,9.210709,5.006104,-14.357361,,,,,,,
1523522616.811755,-0.598791,-0.040776,-0.609980,0.098217,0.007803,0.239182,-0.563176,0.040765,-0.825331,-0.037090,-0.103433,0.016416,10.188812,5.226852,-14.207764,,,,,,,
1523522616.841723,-0.599078,-0.041308,-0.602747,0.096135,-0.005848,0.216817,-0.563400,0.041296,-0.825151,-0.037766,-0.100272,0.010362,10.107376,4.851776,-14.656250,,,,,,,
1523522616.871692,-0.599309,-0.041929,-0.595943,0.089758,-0.006850,0.210420,-0.563576,0.041917,-0.825000,-0.054634,-0.091172,-0.003400,9.810074,5.078186,-14.582397,,,,,,,
1523522616.901660,-0.600133,-0.041868,-0.588735,0.138683,-0.044145,0.210479,-0.564257,0.041855,-0.824537,-0.062208,-0.088013,0.017896,10.783844,4.998734,-14.656494,,,,,,,
1523522616.931628,-0.600951,-0.040981,-0.580949,0.151666,-0.002784,0.215783,-0.564952,0.040970,-0.824106,-0.069783,-0.074845,0.034265,9.959473,4.927658,-14.431702,,,,,,,
1523522616.961596,-0.600194,-0.040586,-0.573299,0.137918,0.020680,0.209350,-0.564337,0.040575,-0.824546,-0.074380,-0.068636,0.026557,10.699402,4.323669,-15.103882,,,,,,,
1523522616.991565,-0.600136,-0.039595,-0.566073,0.151911,0.011277,0.180606,-0.564312,0.039585,-0.824612,-0.070988,-0.050312,0.040386,11.075745,4.322189,-14.878723,,,,,,,
1523522617.021533,-0.599482,-0.038504,-0.559580,0.136126,0.036967,0.159260,-0.563796,0.038494,-0.825016,-0.082612,-0.030087,0.028766,10.701645,4.548645,-15.104797,,,,,,,
1523522617.051502,-0.598864,-0.036681,-0.553557,0.174658,0.023277,0.128399,-0.563325,0.036672,-0.825420,-0.081908,-0.021200,0.033688,10.702393,4.623642,-15.105103,,,,,,,
,,,,,,,,,,,,,,,,25.315158,51.454479,13.717373,6.390000,64.335938,1523522616.999644,
1523522617.081470,-0.598626,-0.032835,-0.546869,0.256915,0.021020,0.117808,-0.563204,0.032829,-0.825665,-0.074034,-0.013420,0.044171,11.675995,4.619049,-15.329590,,,,,,,
1523522617.111468,-0.598414,-0.028304,-0.539392,0.251444,0.007133,0.130602,-0.563107,0.028301,-0.825899,-0.074069,-0.010051,0.040391,11.144592,4.021362,-15.402405,,,,,,,
1523522617.141438,-0.599276,-0.024762,-0.531996,0.221309,-0.026905,0.146594,-0.563871,0.024759,-0.825491,-0.082399,-0.012155,0.072927,11.214340,3.720673,-15.776184,,,,,,,
1523522617.171405,-0.600635,-0.022217,-0.524782,0.202090,-0.015257,0.158295,-0.565027,0.022215,-0.824773,-0.103674,-0.017989,0.084096,11.964600,4.016846,-16.226990,,,,,,,
1523522617.201373,-0.601636,-0.020194,-0.517069,0.199827,-0.000662,0.197712,-0.565876,0.020192,-0.824242,-0.126858,-0.060155,0.076211,11.514771,3.944016,-16.076965,,,,,,,
1523522617.231341,-0.602077,-0.019580,-0.508352,0.163254,0.000116,0.250963,-0.566247,0.019579,-0.824003,-0.149574,-0.077135,0.046857,11.812973,3.717758,-16.000916,,,,,,,
1523522617.261310,-0.603390,-0.020153,-0.498975,0.156548,-0.021335,0.285056,-0.567321,0.020152,-0.823249,-0.167053,-0.094081,0.035941,12.412476,3.714981,-16.075623,,,,,,,
1523522617.291278,-0.605011,-0.020654,-0.488525,0.194647,-0.064142,0.313902,-0.568650,0.020652,-0.822320,-0.165725,-0.107520,0.052056,12.179703,3.340347,-16.749207,,,,,,,
1523522617.321246,-0.607280,-0.020691,-0.476562,0.236154,-0.054925,0.348023,-0.570513,0.020689,-0.821027,-0.160810,-0.118651,0.081708,12.252014,2.890335,-16.447388,,,,,,,
1523522617.351214,-0.608492,-0.020654,-0.463239,0.254166,-0.040384,0.388518,-0.571509,0.020653,-0.820335,-0.163034,-0.138390,0.098411,12.696747,2.587952,-16.820984,,,,,,,
1523522617.381183,-0.609412,-0.020968,-0.448519,0.271195,-0.001402,0.431107,-0.572259,0.020967,-0.819804,-0.154990,-0.154176,0.133678,12.770218,2.662247,-17.196228,,,,,,,
1523522617.411151,-0.608464,-0.022227,-0.432798,0.227481,0.071646,0.484284,-0.571466,0.022225,-0.820324,-0.157584,-0.168435,0.135632,13.289673,2.284622,-17.494446,,,,,,,
1523522617.441119,-0.606894,-0.025710,-0.417255,0.165289,0.047191,0.510886,-0.570130,0.025707,-0.821151,-0.161086,-0.182659,0.109878,13.436676,1.983963,-17.493164,,,,,,,
1523522617.471087,-0.607500,-0.029224,-0.401749,0.193908,-0.007045,0.505642,-0.570573,0.029219,-0.820727,-0.152435,-0.193251,0.113466,14.108047,1.755707,-17.716919,,,,,,,
1523522617.501056,-0.607369,-0.030850,-0.385289,0.280631,0.031080,0.492884,-0.570437,0.030845,-0.820761,-0.152356,-0.200538,0.096625,14.175995,1.230103,-18.014771,,,,,,,
1523522617.530992,-0.606614,-0.030079,-0.368446,0.327878,0.036616,0.444961,-0.569831,0.030075,-0.821211,-0.145944,-0.205841,0.098524,14.927017,1.376648,-18.089966,,,,,,,
1523522617.560960,-0.607350,-0.028742,-0.353261,0.266996,-0.040408,0.386402,-0.570457,0.028738,-0.820824,-0.122780,-0.199499,0.098107,14.622543,0.928024,-18.088318,,,,,,,
1523522617.590928,-0.609573,-0.027742,-0.340509,0.216047,-0.031414,0.335203,-0.572297,0.027738,-0.819577,-0.108535,-0.163435,0.094250,15.144669,0.775452,-18.312500,,,,,,,
1523522617.620897,-0.609987,-0.027058,-0.329860,0.178222,0.038170,0.276494,-0.572647,0.027055,-0.819355,-0.121979,-0.140321,0.070591,15.814987,0.397293,-18.460632,,,,,,,
1523522617.650865,-0.608936,-0.025981,-0.320923,0.173229,0.055517,0.227468,-0.571801,0.025978,-0.819980,-0.112967,-0.123741,0.048389,15.589554,0.398224,-18.535767,,,,,,,
1523522617.680833,-0.609070,-0.024245,-0.311963,0.208090,-0.013723,0.239285,-0.571937,0.024242,-0.819939,-0.105843,-0.107921,0.059700,16.712555,0.243103,-18.609558,,,,,,,
1523522617.710802,-0.610116,-0.022446,-0.301748,0.229262,-0.010837,0.275522,-0.572818,0.022444,-0.819375,-0.118009,-0.093214,0.062127,15.735947,0.172348,-18.759766,,,,,,,
1523522617.740770,-0.610476,-0.021302,-0.290315,0.238704,0.002672,0.317062,-0.573127,0.021300,-0.819189,-0.114342,-0.091826,0.054983,16.480225,-0.131454,-19.208191,,,,,,,
1523522617.770738,-0.610686,-0.020158,-0.277808,0.266469,0.024765,0.337315,-0.573313,0.020156,-0.819088,-0.114828,-0.096557,0.079861,17.153091,-0.209702,-19.432556,,,,,,,
1523522617.800706,-0.609664,-0.019013,-0.264684,0.276007,0.033116,0.356486,-0.572489,0.019012,-0.819692,-0.109716,-0.110671,0.047658,17.372711,-0.660843,-19.580627,,,,,,,
1523522617.830675,-0.610942,-0.017006,-0.250155,0.357629,-0.072434,0.377962,-0.573556,0.017005,-0.818990,-0.098472,-0.125510,0.057881,16.695938,-0.882721,-19.505066,,,,,,,
1523522617.860643,-0.612355,-0.014035,-0.234070,0.371673,-0.008877,0.401350,-0.574739,0.014034,-0.818216,-0.100172,-0.123440,0.051660,17.137070,-1.410309,-20.102722,,,,,,,
1523522617.890611,-0.613573,-0.012284,-0.217791,0.324350,-0.050433,0.433330,-0.575749,0.012283,-0.817534,-0.107784,-0.131424,0.039000,17.806503,-2.013245,-20.024963,,,,,,,
1523522617.920579,-0.616348,-0.012531,-0.201373,0.267334,-0.079360,0.488716,-0.578014,0.012531,-0.815931,-0.099064,-0.148242,0.067106,17.281967,-1.786179,-20.326172,,,,,,,
1523522617.950548,-0.617962,-0.015613,-0.184573,0.205368,-0.011686,0.556803,-0.579305,0.015613,-0.814961,-0.097590,-0.158053,0.054357,18.850616,-2.243546,-20.623535,,,,,,,
1523522617.980516,-0.618517,-0.019416,-0.167207,0.231992,-0.024520,0.558968,-0.579718,0.019414,-0.814586,-0.086359,-0.189779,0.030803,18.016968,-3.064850,-20.695679,,,,,,,
1523522618.010484,-0.619631,-0.021174,-0.149121,0.314422,-0.019126,0.519591,-0.580605,0.021173,-0.813910,-0.084114,-0.201959,0.032935,18.609894,-3.368195,-21.369141,,,,,,,
1523522618.040452,-0.619911,-0.021089,-0.131241,0.331706,-0.021009,0.479114,-0.580833,0.021087,-0.813749,-0.104820,-0.220322,0.008574,19.357620,-3.596558,-21.367859,,,,,,,
,,,,,,,,,,,,,,,,25.315170,51.454475,13.701870,3.070000,44.648438,1523522617.999634,
1523522618.070421,-0.620364,-0.021242,-0.114395,0.288010,-0.013414,0.471619,-0.581200,0.021240,-0.813483,-0.112571,-0.229904,-0.010995,19.349976,-4.271683,-21.515198,,,,,,,
1523522618.100389,-0.621064,-0.022952,-0.098475,0.228120,-0.044015,0.463076,-0.581747,0.022950,-0.813046,-0.116922,-0.221299,0.010449,19.346680,-4.646591,-21.438660,,,,,,,
1523522618.130357,-0.622172,-0.025796,-0.084185,0.196239,-0.054313,0.426840,-0.582608,0.025793,-0.812344,-0.103168,-0.193121,0.018246,19.493530,-4.647766,-21.963623,,,,,,,
1523522618.160325,-0.623900,-0.027687,-0.070390,0.232649,-0.052144,0.407685,-0.583981,0.027684,-0.811295,-0.069660,-0.178166,0.051469,19.864471,-5.099365,-21.886597,,,,,,,
1523522618.190294,-0.623336,-0.029154,-0.055813,0.236111,0.043237,0.441694,-0.583499,0.029150,-0.811591,-0.073239,-0.162237,0.032599,19.861023,-5.174805,-22.336304,,,,,,,
1523522618.220262,-0.621806,-0.030658,-0.040557,0.245533,0.016572,0.453444,-0.582231,0.030653,-0.812446,-0.076140,-0.170271,-0.004708,20.982101,-5.704620,-22.108643,,,,,,,
1523522618.250230,-0.623635,-0.031626,-0.025255,0.258919,-0.111903,0.435463,-0.583698,0.031621,-0.811355,-0.084683,-0.178273,0.064163,20.459213,-5.627045,-21.884216,,,,,,,
1523522618.280199,-0.625811,-0.032159,-0.011221,0.221126,-0.030714,0.385285,-0.585452,0.032154,-0.810069,-0.095792,-0.174991,0.109950,20.901871,-6.229248,-22.106567,,,,,,,
1523522618.310167,-0.625843,-0.032583,0.001087,0.197997,0.003625,0.345808,-0.585470,0.032577,-0.810039,-0.103739,-0.164108,0.094982,21.567383,-6.683075,-22.929443,,,,,,,
1523522618.340135,-0.625821,-0.032309,0.012732,0.208828,0.013311,0.324496,-0.585458,0.032303,-0.810059,-0.098747,-0.129547,0.090653,21.419647,-6.906647,-22.178589,,,,,,,
1523522618.370103,-0.626411,-0.030874,0.024359,0.228075,0.021760,0.325564,-0.585961,0.030869,-0.809751,-0.077887,-0.070740,0.066587,21.563644,-7.282684,-22.552002,,,,,,,
1523522618.400102,-0.627243,-0.029426,0.036653,0.267406,-0.025039,0.318181,-0.586661,0.029422,-0.809298,-0.084345,-0.022830,0.050906,22.307632,-7.661392,-22.925110,,,,,,,
1523522618.430070,-0.628748,-0.025597,0.049270,0.374553,-0.007916,0.261777,-0.587940,0.025594,-0.808499,-0.085888,-0.043554,0.074078,21.633850,-7.583282,-22.850769,,,,,,,
1523522618.460039,-0.627430,-0.019678,0.061932,0.382687,0.086938,0.218005,-0.586952,0.019677,-0.809382,-0.090752,-0.053811,0.055400,22.008545,-7.659897,-22.775330,,,,,,,
1523522618.490007,-0.626148,-0.015114,0.072917,0.309873,0.026634,0.206289,-0.585961,0.015113,-0.810198,-0.077980,-0.060935,0.064181,22.975403,-8.114853,-23.372986,,,,,,,
1523522618.519975,-0.627447,-0.011828,0.083299,0.262492,-0.028690,0.234006,-0.587038,0.011828,-0.809473,-0.088422,-0.066225,0.091485,22.598648,-8.562698,-22.921387,,,,,,,
1523522618.549942,-0.626985,-0.010506,0.094521,0.231761,0.090000,0.291399,-0.586673,0.010506,-0.809756,-0.089597,-0.075004,0.054720,22.665100,-9.238297,-23.218628,,,,,,,
1523522618.579911,-0.624983,-0.008926,0.107441,0.307348,0.079991,0.326636,-0.585060,0.008925,-0.810941,-0.084374,-0.107696,0.034955,23.715790,-8.943405,-23.594299,,,,,,,
1523522618.609879,-0.623149,-0.006977,0.123097,0.293327,0.078799,0.351128,-0.583581,0.006977,-0.812025,-0.086585,-0.128666,0.000227,23.259674,-9.691116,-23.366577,,,,,,,
1523522618.639847,-0.623118,-0.007049,0.137308,0.205100,-0.041245,0.377823,-0.583555,0.007049,-0.812043,-0.069918,-0.156859,0.016358,23.032608,-9.989944,-23.215454,,,,,,,
1523522618.669815,-0.625463,-0.008774,0.151459,0.167663,-0.049688,0.383129,-0.585450,0.008773,-0.810661,-0.083296,-0.157318,0.061134,23.551575,-10.367661,-23.588684,,,,,,,
1523522618.699784,-0.625461,-0.011798,0.164789,0.136951,0.051060,0.422431,-0.585430,0.011798,-0.810637,-0.102375,-0.155429,0.019103,23.099350,-10.365997,-23.963928,,,,,,,
1523522618.729752,-0.624054,-0.014610,0.179929,0.218907,0.005080,0.433200,-0.584267,0.014609,-0.811430,-0.116783,-0.164618,-0.037798,23.995728,-10.819885,-23.811707,,,,,,,
1523522618.759720,-0.624465,-0.015663,0.196057,0.275294,-0.011147,0.455627,-0.584591,0.015662,-0.811177,-0.129383,-0.206473,-0.004528,24.664978,-11.123337,-24.260132,,,,,,,
1523522618.789688,-0.625394,-0.017404,0.213807,0.293888,-0.070127,0.524962,-0.585328,0.017403,-0.810610,-0.116927,-0.229760,0.004472,24.207397,-12.245682,-23.655823,,,,,,,
1523522618.819657,-0.627678,-0.019483,0.234343,0.343665,-0.099320,0.578309,-0.587155,0.019482,-0.809240,-0.074863,-0.215726,0.058416,23.605774,-12.318130,-23.805908,,,,,,,
1523522618.849625,-0.629882,-0.020992,0.256426,0.393845,-0.045569,0.624107,-0.588919,0.020990,-0.807919,-0.062310,-0.213327,0.089963,24.570084,-12.848358,-24.703247,,,,,,,
1523522618.879593,-0.629524,-0.022546,0.279718,0.369514,0.019221,0.636810,-0.588610,0.022544,-0.808103,-0.049314,-0.247687,0.072461,23.736740,-13.819382,-24.474792,,,,,,,
1523522618.909562,-0.628631,-0.024221,0.301488,0.325898,0.021659,0.608004,-0.587865,0.024219,-0.808596,-0.055781,-0.286471,0.071230,23.959198,-14.120300,-24.398499,,,,,,,
1523522618.939530,-0.628689,-0.026016,0.320693,0.246175,-0.031559,0.496125,-0.587886,0.026014,-0.808525,-0.064137,-0.248746,0.075050,24.031067,-14.795029,-23.795776,,,,,,,
1523522618.969498,-0.632094,-0.024038,0.335972,0.353445,-0.131475,0.311963,-0.590665,0.024035,-0.806559,-0.043598,-0.236468,0.146510,23.873871,-15.244766,-24.244080,,,,,,,
1523522618.999466,-0.634075,-0.017214,0.348704,0.324950,0.014089,0.171153,-0.592345,0.017213,-0.805501,-0.051668,-0.188462,0.125050,24.469208,-15.397964,-24.768127,,,,,,,
1523522619.029435,-0.630333,-0.015767,0.355288,-0.054283,0.228481,0.190897,-0.589340,0.015767,-0.807731,-0.096298,-0.138981,-0.048501,24.998825,-15.249832,-24.243469,,,,,,,
1523522619.059403,-0.623775,-0.024251,0.357547,-0.300299,0.191497,0.247232,-0.583932,0.024249,-0.811441,-0.142539,-0.097887,-0.195853,24.473572,-15.322388,-24.168457,,,,,,,
,,,,,,,,,,,,,,,,25.315199,51.454495,13.839840,4.060000,14.765625,1523522618.999622,
1523522619.089371,-0.621720,-0.034925,0.360182,-0.153072,-0.024834,0.284846,-0.582079,0.034918,-0.812382,-0.166746,-0.055304,-0.187847,24.397522,-15.471970,-24.092834,,,,,,,
1523522619.119339,-0.625189,-0.038109,0.369053,0.253122,-0.162866,0.277824,-0.584826,0.038100,-0.810264,-0.111311,-0.046599,-0.075372,24.994324,-15.475174,-24.617554,,,,,,,
1523522619.149308,-0.627226,-0.032619,0.382736,0.480412,-0.002690,0.236280,-0.586589,0.032614,-0.809228,-0.046544,-0.009527,0.001519,25.219040,-15.775742,-24.166260,,,,,,,
1523522619.179276,-0.626025,-0.024490,0.397337,0.499786,0.022802,0.229881,-0.585753,0.024487,-0.810120,-0.011889,-0.032300,0.017899,25.215591,-16.075806,-24.240051,,,,,,,
1523522619.209244,-0.624414,-0.017907,0.411047,0.371844,0.065639,0.229732,-0.584528,0.017906,-0.811176,-0.046682,-0.077767,0.021335,25.284592,-16.676102,-24.237610,,,,,,,
1523522619.239212,-0.622186,-0.016446,0.420633,0.115461,0.025952,0.222121,-0.582734,0.016445,-0.812497,-0.065933,-0.123531,-0.002567,25.280853,-17.051086,-24.236145,,,,,,,
1523522619.269181,-0.625509,-0.019967,0.426591,-0.045614,-0.176633,0.225406,-0.585393,0.019966,-0.810503,-0.105143,-0.118003,0.029391,25.954330,-16.979492,-24.611084,,,,,,,
1523522619.299149,-0.629726,-0.024352,0.431813,0.017684,-0.089779,0.242416,-0.588749,0.024350,-0.807949,-0.117245,-0.093671,0.013699,24.528030,-17.197922,-24.460876,,,,,,,
1523522619.329117,-0.631214,-0.024213,0.441784,0.305792,-0.064292,0.294811,-0.589953,0.024211,-0.807075,-0.071867,-0.035746,-0.007684,24.676407,-17.498367,-24.234619,,,,,,,
1523522619.359085,-0.633585,-0.019767,0.457814,0.462256,-0.058998,0.392954,-0.591922,0.019765,-0.805753,-0.003430,-0.018453,0.009900,25.497177,-17.652512,-24.683594,,,,,,,
1523522619.389054,-0.634689,-0.017753,0.475534,0.313737,-0.004899,0.459912,-0.592834,0.017752,-0.805129,0.037505,-0.028448,-0.028901,24.741379,-18.548584,-24.155396,,,,,,,
1523522619.419022,-0.631680,-0.021267,0.489758,0.069040,0.141565,0.420159,-0.590368,0.021265,-0.806854,0.025197,-0.019541,-0.184219,24.513062,-18.697861,-24.454895,,,,,,,
1523522619.448990,-0.630342,-0.028905,0.496858,-0.147912,-0.086342,0.265731,-0.589175,0.028901,-0.807488,-0.028135,0.007568,-0.296180,25.112152,-18.700699,-24.604614,,,,,,,
1523522619.478958,-0.642326,-0.032801,0.499315,0.089986,-0.609322,0.055458,-0.598737,0.032795,-0.800274,-0.056170,-0.002766,-0.086521,23.837646,-18.694885,-24.530273,,,,,,,
1523522619.508927,-0.661094,-0.024972,0.504732,0.431341,-0.555292,-0.043431,-0.613789,0.024969,-0.789075,-0.059490,-0.010763,0.225797,23.908768,-18.995361,-24.679016,,,,,,,
1523522619.538903,-0.671755,-0.012671,0.513043,0.515912,-0.233738,-0.013858,-0.622311,0.012670,-0.782668,-0.043323,0.027231,0.222731,23.979416,-19.295898,-24.902771,,,,,,,
1523522619.568871,-0.676497,-0.000995,0.523482,0.514776,-0.159851,0.059574,-0.626065,0.000995,-0.779770,-0.009967,0.058377,0.229782,23.232300,-19.366943,-24.302856,,,,,,,
1523522619.598840,-0.682658,0.008360,0.536398,0.504326,-0.184204,0.201313,-0.630836,-0.008360,-0.775872,-0.026147,0.049971,0.300423,23.000900,-20.190598,-23.999695,,,,,,,
1523522619.628808,-0.681518,0.013596,0.550842,0.374408,0.228828,0.291381,-0.629915,-0.013596,-0.776545,-0.050109,-0.046707,0.153514,23.370026,-20.642471,-24.222717,,,,,,,
1523522619.658776,-0.668053,0.013621,0.561912,0.090692,0.475332,0.244035,-0.619401,-0.013621,-0.784956,-0.062438,-0.064199,-0.095567,22.916626,-21.389755,-23.544922,,,,,,,
1523522619.688775,-0.662198,0.008422,0.564226,-0.193611,0.023212,0.115347,-0.614830,-0.008422,-0.788615,-0.103996,-0.035951,-0.150304,22.617828,-21.313339,-23.470398,,,,,,,
1523522619.718743,-0.666293,0.002360,0.564289,-0.073196,-0.218588,0.156172,-0.618074,-0.002360,-0.786116,-0.087218,0.017527,-0.128923,23.364655,-21.541855,-23.619080,,,,,,,
1523522619.748710,-0.669295,0.001469,0.571779,0.266753,0.002941,0.265954,-0.620432,-0.001469,-0.784258,-0.051259,0.053471,-0.115522,22.464401,-21.612717,-23.544250,,,,,,,
1523522619.778680,-0.667437,0.004429,0.586880,0.434365,0.113435,0.361857,-0.618968,-0.004429,-0.785403,0.031932,0.093342,-0.119443,22.455872,-22.512604,-23.465698,,,,,,,
1523522619.808647,-0.663486,0.007503,0.602609,0.375737,0.075675,0.311774,-0.615850,-0.007503,-0.787828,0.093633,0.123989,-0.122115,23.128296,-22.815552,-23.389160,,,,,,,
1523522619.838615,-0.665632,0.011097,0.614959,0.315593,-0.143296,0.191549,-0.617518,-0.011097,-0.786478,0.110255,0.093250,-0.076040,22.523407,-23.712158,-22.710876,,,,,,,
1523522619.868583,-0.667511,0.016267,0.622450,0.240482,0.066275,0.033579,-0.618951,-0.016266,-0.785261,-0.017996,0.019242,-0.116152,22.442719,-24.236862,-22.783752,,,,,,,
1523522619.898552,-0.661582,0.015468,0.623016,-0.234803,0.248198,0.019193,-0.614293,-0.015467,-0.788927,-0.214839,-0.101339,-0.361464,23.575607,-23.491882,-22.711243,,,,,,,
1523522619.928520,-0.659132,0.005866,0.615028,-0.437967,-0.106952,-0.025358,-0.612420,-0.005866,-0.790511,-0.289054,-0.082742,-0.220537,23.205246,-22.890457,-22.938782,,,,,,,
1523522619.958488,-0.666341,0.000934,0.613094,0.076085,-0.279441,0.142500,-0.618114,-0.000934,-0.786088,-0.176427,-0.095532,0.000535,22.827255,-22.964127,-23.313660,,,,,,,
1523522619.988456,-0.673729,0.004916,0.629378,0.680883,-0.240840,0.487063,-0.623897,-0.004916,-0.781491,0.012538,-0.068112,0.100049,22.823074,-23.339172,-23.387207,,,,,,,
1523522620.018425,-0.681077,0.014497,0.660275,0.992895,-0.218437,0.665225,-0.629564,-0.014497,-0.776813,0.206057,-0.092788,0.147983,21.993942,-24.159775,-22.709351,,,,,,,
1523522620.048393,-0.685884,0.025105,0.695546,1.008498,-0.089767,0.648048,-0.633158,-0.025102,-0.773615,0.292323,-0.037947,0.136393,21.230072,-26.180283,-21.651611,,,,,,,
,,,,,,,,,,,,,,,,25.315236,51.454493,13.967525,4.660000,355.078125,1523522619.999610,
1523522620.078362,-0.690682,0.038315,0.726244,0.965602,-0.181427,0.399838,-0.636596,-0.038306,-0.770246,0.204421,0.000830,0.111722,21.298050,-26.930496,-21.573608,,,,,,,
1523522620.108330,-0.697643,0.052587,0.745335,0.533050,-0.180910,0.022334,-0.641526,-0.052563,-0.765299,0.099900,-0.011372,0.096872,20.173553,-27.599243,-20.371460,,,,,,,
1523522620.138299,-0.703411,0.056141,0.740653,-0.384735,-0.236845,-0.311809,-0.645804,-0.056111,-0.761438,-0.047128,0.014974,0.084467,20.622482,-27.526566,-20.671509,,,,,,,
1523522620.168267,-0.710695,0.045688,0.719061,-0.894338,-0.263469,-0.273805,-0.651680,-0.045672,-0.757118,-0.105614,0.016985,0.138343,20.779938,-26.103409,-21.802124,,,,,,,
1523522620.198235,-0.711737,0.029361,0.697623,-0.796212,0.118849,-0.127066,-0.652869,-0.029356,-0.756902,-0.293741,0.029356,0.131811,21.076462,-25.955566,-22.627625,,,,,,,
1523522620.228204,-0.697855,0.016959,0.687555,-0.293478,0.640630,0.144487,-0.642483,-0.016958,-0.766112,-0.248004,0.044988,-0.060991,21.158798,-25.355713,-22.404907,,,,,,,
1523522620.258172,-0.684742,0.015172,0.697088,0.454069,0.204867,0.347929,-0.632401,-0.015172,-0.774493,-0.030212,0.074437,-0.141645,22.283142,-25.510620,-22.253784,,,,,,,
1523522620.288140,-0.686456,0.023902,0.717436,0.729027,-0.189790,0.310181,-0.633619,-0.023900,-0.773276,0.096403,0.078129,-0.148080,21.078140,-26.554291,-21.350159,,,,,,,
1523522620.318108,-0.696111,0.037013,0.734125,0.570055,-0.290268,-0.003104,-0.640799,-0.037004,-0.766816,0.010519,0.032274,-0.075148,21.143112,-27.379883,-21.646851,,,,,,,
1523522620.348077,-0.701084,0.045173,0.734455,-0.071629,-0.087277,-0.235005,-0.644389,-0.045157,-0.763364,-0.092947,0.015448,-0.074756,21.825729,-26.932434,-21.123291,,,,,,,
1523522620.378045,-0.699188,0.037432,0.719903,-0.802467,0.114849,-0.160100,-0.643146,-0.037423,-0.764829,-0.176343,0.030526,-0.113055,21.231277,-26.105209,-21.576965,,,,,,,
1523522620.408012,-0.695387,0.017865,0.700955,-0.806785,0.054240,-0.000219,-0.640580,-0.017864,-0.767683,-0.167418,0.013683,-0.036668,21.383652,-25.506500,-22.179260,,,,,,,
1523522620.437980,-0.696870,0.009761,0.699773,0.139652,-0.029534,0.245641,-0.641790,-0.009761,-0.766819,-0.047023,0.053447,0.031986,21.455948,-25.731888,-22.253296,,,,,,,
1523522620.467949,-0.700840,0.015136,0.718556,0.781272,-0.298093,0.432855,-0.644786,-0.015135,-0.764214,0.056849,0.081191,0.019676,21.455215,-26.031509,-21.877136,,,,,,,
1523522620.497917,-0.718038,0.027693,0.746145,0.956004,-0.677534,0.382231,-0.657656,-0.027689,-0.752809,0.109210,0.004328,0.078187,20.319489,-27.151321,-21.798157,,,,,,,
