timestamp(unix),attitude_roll(radians),attitude_pitch(radians),attitude_yaw(radians),rotation_rate_x(radians/s),rotation_rate_y(radians/s),rotation_rate_z(radians/s),gravity_x(G),gravity_y(G),gravity_z(G),user_acc_x(G),user_acc_y(G),user_acc_z(G),magnetic_field_x(microteslas),magnetic_field_y(microteslas),magnetic_field_z(microteslas),latitude(degree),longitude(degree),altitude(meter),speed(m/s),course(degree),timestamp(unix),User Mark
1523696520.670575,-0.513975,-0.068097,-1.622547,-0.260992,0.206317,-0.101847,-0.490503,0.068044,-0.868779,-0.063757,0.111720,-0.012676,-9.024719,40.087139,11.420471,,,,,,,
1523696520.700543,-0.510685,-0.074387,-1.629090,-0.258561,0.052151,-0.088911,-0.487423,0.074318,-0.869997,-0.039005,0.103813,-0.019056,-8.343445,40.534374,11.719055,,,,,,,
1523696520.730512,-0.513423,-0.075855,-1.634514,-0.035554,-0.090101,-0.186635,-0.489749,0.075783,-0.868564,-0.013577,0.068245,0.069949,-8.423828,40.084576,11.570740,,,,,,,
,,,,,,,,,,,,,,,,25.318948,51.459216,12.169638,2.300000,96.328125,1523696519.999054,
1523696520.760480,-0.515649,-0.073227,-1.640973,-0.001764,-0.021675,-0.259131,-0.491778,0.073162,-0.867641,-0.013746,0.084080,0.094891,-9.764038,40.840984,11.942078,,,,,,,
1523696520.790448,-0.514523,-0.070804,-1.649086,-0.063701,0.142536,-0.319009,-0.490887,0.070745,-0.868346,-0.062900,0.083704,0.078002,-10.141724,40.617611,11.867798,,,,,,,
1523696520.820416,-0.508834,-0.069710,-1.659293,-0.131405,0.279787,-0.320261,-0.485976,0.069654,-0.871192,-0.070756,0.093814,0.000434,-9.312714,40.839184,12.167358,,,,,,,
1523696520.850385,-0.502336,-0.070898,-1.669333,-0.205705,0.221073,-0.253141,-0.480265,0.070839,-0.874258,-0.088995,0.081414,-0.098474,-10.661880,40.695629,12.542236,,,,,,,
1523696520.880353,-0.502011,-0.075936,-1.678585,-0.315317,-0.069413,-0.160216,-0.479803,0.075863,-0.874090,-0.070719,0.095127,-0.064844,-10.737625,40.620968,12.542480,,,,,,,
1523696520.910321,-0.507505,-0.083274,-1.685896,-0.308866,-0.184863,-0.064199,-0.484314,0.083178,-0.870931,-0.028808,0.100415,0.047414,-11.108704,40.698162,13.066956,,,,,,,
1523696520.940290,-0.515004,-0.089411,-1.691351,-0.215111,-0.237071,-0.074747,-0.490571,0.089292,-0.866815,-0.008712,0.093478,0.145837,-11.557953,40.775188,13.066467,,,,,,,
1523696520.970258,-0.520475,-0.092007,-1.697345,-0.128649,-0.120798,-0.171749,-0.495189,0.091877,-0.863913,0.000316,0.049480,0.162650,-10.581650,40.771008,13.291992,,,,,,,
1523696521.000226,-0.521990,-0.091298,-1.704549,-0.095377,0.070923,-0.246513,-0.496530,0.091171,-0.863218,-0.027976,-0.014206,0.119215,-11.411392,40.474453,12.992737,,,,,,,
1523696521.030194,-0.517312,-0.090998,-1.714010,-0.172091,0.257549,-0.317070,-0.492499,0.090872,-0.865556,-0.113030,-0.034522,-0.010879,-11.863922,40.176556,13.068665,,,,,,,
1523696521.060163,-0.510478,-0.093146,-1.726975,-0.334235,0.260274,-0.343839,-0.486476,0.093011,-0.868729,-0.137318,-0.012963,-0.122482,-11.335938,40.474178,13.067749,,,,,,,
,,,,,,,,,,,,,,,,25.318939,51.459243,12.279531,2.640000,104.765625,1523696520.999043,
1523696521.090131,-0.507189,-0.099875,-1.740818,-0.470152,0.058074,-0.252101,-0.483302,0.099709,-0.869757,-0.084203,0.083579,-0.059259,-12.835876,40.480938,13.066956,,,,,,,
1523696521.120099,-0.511178,-0.109966,-1.753537,-0.495058,-0.160284,-0.168788,-0.486250,0.109744,-0.866901,-0.054170,0.136792,0.091327,-12.465973,39.430172,13.971375,,,,,,,
1523696521.150067,-0.515908,-0.118192,-1.762469,-0.296472,-0.068896,-0.088815,-0.489883,0.117917,-0.863776,-0.021378,0.125064,0.159248,-11.940720,39.727367,13.520447,,,,,,,
1523696521.180036,-0.515455,-0.120761,-1.767485,-0.065853,0.121020,-0.129323,-0.489341,0.120468,-0.863732,-0.018517,0.093247,0.159997,-12.234085,39.804653,14.495056,,,,,,,
1523696521.210004,-0.508626,-0.117402,-1.771956,0.071176,0.309545,-0.241290,-0.483625,0.117132,-0.867402,0.003767,0.100977,0.084291,-12.234695,39.879436,14.269714,,,,,,,
1523696521.239972,-0.498377,-0.111928,-1.780338,0.016107,0.442666,-0.416208,-0.475010,0.111695,-0.872863,-0.005596,0.139419,-0.014817,-12.754883,40.182064,14.568237,,,,,,,
1523696521.269940,-0.486464,-0.107240,-1.794163,-0.127325,0.462998,-0.535682,-0.464817,0.107035,-0.878913,-0.034862,0.197043,-0.103936,-13.285248,39.958935,14.043884,,,,,,,
1523696521.299912,-0.476111,-0.105575,-1.811683,-0.261347,0.335846,-0.538855,-0.455774,0.105379,-0.883835,-0.041220,0.201017,-0.124557,-14.268143,39.213284,13.971375,,,,,,,
1523696521.329880,-0.467710,-0.105637,-1.828166,-0.227819,0.308487,-0.438637,-0.448330,0.105441,-0.887627,-0.036304,0.234678,-0.089179,-14.411697,39.589382,14.419800,,,,,,,
1523696521.359848,-0.462368,-0.105431,-1.840574,-0.139333,0.185209,-0.315913,-0.443592,0.105236,-0.890029,-0.020245,0.229451,-0.004166,-15.614471,39.219936,14.570618,,,,,,,
1523696521.389816,-0.457844,-0.103827,-1.848706,-0.015962,0.162076,-0.243340,-0.439635,0.103640,-0.892177,-0.006196,0.214307,0.023052,-15.767181,39.220181,14.120605,,,,,,,
1523696521.419785,-0.454120,-0.098666,-1.854541,0.114256,0.135286,-0.258129,-0.436539,0.098506,-0.894277,-0.002457,0.163029,0.006703,-15.918518,39.220638,13.895508,,,,,,,
1523696521.449753,-0.451417,-0.092274,-1.860379,0.072394,0.064320,-0.276201,-0.434385,0.092143,-0.896002,-0.007601,0.110188,-0.052179,-17.192413,39.151669,14.195129,,,,,,,
1523696521.479721,-0.452421,-0.089731,-1.868436,-0.091456,-0.060546,-0.291123,-0.435385,0.089611,-0.895773,-0.009287,0.071003,-0.051141,-17.414719,39.602367,13.893188,,,,,,,
1523696521.509689,-0.456960,-0.091206,-1.879462,-0.243245,-0.154411,-0.338025,-0.439388,0.091079,-0.893668,-0.006932,0.053589,0.026877,-16.888519,39.225826,14.719971,,,,,,,
1523696521.539658,-0.462518,-0.095011,-1.893068,-0.320942,-0.140152,-0.373264,-0.444190,0.094868,-0.890896,-0.012765,0.063946,0.085262,-17.792984,39.004513,14.345398,,,,,,,
1523696521.569626,-0.467071,-0.098892,-1.907662,-0.305609,-0.077364,-0.392493,-0.448073,0.098731,-0.888529,-0.025835,0.078775,0.076898,-17.947006,38.330669,14.798035,,,,,,,
1523696521.599594,-0.468444,-0.101601,-1.921582,-0.262407,0.062592,-0.364892,-0.449170,0.101426,-0.887671,-0.019443,0.079391,0.018362,-17.419922,38.403515,15.023010,,,,,,,
1523696521.629563,-0.468394,-0.104991,-1.934335,-0.279965,0.018732,-0.314793,-0.448968,0.104798,-0.887381,-0.008414,0.108993,-0.015802,-18.320938,38.257641,15.098145,,,,,,,
1523696521.659531,-0.471383,-0.110248,-1.946407,-0.331923,-0.087729,-0.268900,-0.451362,0.110025,-0.885532,0.005592,0.133307,-0.005276,-18.329773,37.282848,15.252075,,,,,,,
1523696521.689499,-0.476995,-0.116442,-1.958151,-0.340835,-0.157903,-0.259250,-0.456003,0.116179,-0.882363,0.019586,0.131059,0.062935,-18.398621,37.583675,15.775818,,,,,,,
1523696521.719467,-0.482930,-0.121789,-1.969482,-0.280778,-0.109103,-0.268846,-0.460936,0.121488,-0.879078,0.010100,0.118792,0.107640,-18.168686,37.808086,16.225037,,,,,,,
1523696521.749436,-0.484767,-0.125528,-1.980617,-0.229809,0.027013,-0.301974,-0.462335,0.125199,-0.877822,0.000970,0.070007,0.061263,-18.995712,37.511959,16.375793,,,,,,,
1523696521.779404,-0.483951,-0.128017,-1.992771,-0.236595,0.100805,-0.368109,-0.461473,0.127668,-0.877920,-0.017913,0.050448,-0.009806,-18.918777,37.437069,16.826111,,,,,,,
1523696521.809372,-0.483263,-0.130290,-2.007349,-0.278932,0.098240,-0.441660,-0.460732,0.129922,-0.877978,-0.029044,0.044333,-0.030103,-19.742386,37.440990,17.050720,,,,,,,
1523696521.839340,-0.481751,-0.132810,-2.023453,-0.315954,0.160066,-0.455606,-0.459251,0.132420,-0.878381,-0.015175,0.098614,-0.021567,-20.045975,36.992519,17.202332,,,,,,,
1523696521.869309,-0.477874,-0.135589,-2.039950,-0.332740,0.239723,-0.443979,-0.455672,0.135174,-0.879825,-0.006197,0.167134,-0.023679,-20.117050,37.292980,17.351135,,,,,,,
1523696521.899277,-0.471884,-0.138791,-2.056185,-0.321996,0.276765,-0.425898,-0.450194,0.138346,-0.882148,0.002272,0.198293,-0.018395,-21.396347,36.549267,17.878479,,,,,,,
1523696521.929276,-0.465446,-0.140624,-2.071166,-0.220543,0.295543,-0.413050,-0.444391,0.140161,-0.884800,0.019617,0.226980,0.010548,-21.998108,36.551678,17.578125,,,,,,,
1523696521.959244,-0.458103,-0.139705,-2.084611,-0.097466,0.345279,-0.426862,-0.437938,0.139251,-0.888155,0.046535,0.252274,0.062593,-22.975021,36.181377,17.879150,,,,,,,
1523696521.989212,-0.447229,-0.135537,-2.097565,0.029618,0.517514,-0.486602,-0.428502,0.135122,-0.893380,0.015645,0.265421,0.038659,-23.726486,36.259380,17.503479,,,,,,,
1523696522.019180,-0.427555,-0.127102,-2.110612,0.167236,0.838848,-0.596571,-0.411303,0.126760,-0.902642,0.037706,0.278895,-0.035438,-24.933929,36.188686,16.378174,,,,,,,
,,,,,,,,,,,,,,,,25.318925,51.459267,12.336436,2.620000,126.210938,1523696521.999033,
1523696522.049149,-0.405073,-0.113736,-2.124601,0.299313,0.732470,-0.627263,-0.391540,0.113491,-0.913136,0.022170,0.274189,-0.114651,-24.938889,35.963253,15.929016,,,,,,,
1523696522.079117,-0.390984,-0.100493,-2.137682,0.209488,0.345219,-0.527855,-0.379175,0.100324,-0.919870,0.015986,0.261340,-0.117712,-26.524475,35.444500,15.030273,,,,,,,
1523696522.109085,-0.389560,-0.092086,-2.148099,0.067742,-0.100890,-0.350644,-0.378172,0.091956,-0.921157,0.013350,0.193673,-0.087708,-26.153839,35.142605,14.806702,,,,,,,
1523696522.139054,-0.401434,-0.088750,-2.155136,-0.021652,-0.577767,-0.202114,-0.389201,0.088633,-0.916879,0.027171,0.132925,-0.074683,-25.924515,35.441799,15.030579,,,,,,,
1523696522.169022,-0.424680,-0.088587,-2.160702,-0.087068,-0.826557,-0.158230,-0.410413,0.088471,-0.907598,0.047666,0.091827,-0.004496,-26.376114,34.919430,15.632507,,,,,,,
1523696522.198990,-0.448280,-0.088876,-2.166845,-0.102223,-0.689122,-0.204196,-0.431705,0.088759,-0.897637,0.050647,0.026048,0.041955,-25.477051,34.465984,16.234741,,,,,,,
1523696522.228958,-0.464140,-0.088772,-2.175303,-0.115168,-0.364278,-0.306821,-0.445891,0.088655,-0.890686,0.010268,-0.082582,0.038635,-25.091125,35.065075,17.057556,,,,,,,
1523696522.258927,-0.471203,-0.087618,-2.187442,-0.165800,-0.136948,-0.431748,-0.452217,0.087506,-0.887605,0.005195,-0.090207,0.012391,-25.467590,34.692135,17.433838,,,,,,,
1523696522.288895,-0.473938,-0.087895,-2.203165,-0.316671,-0.014126,-0.467146,-0.454632,0.087782,-0.886343,0.002697,-0.048476,-0.003306,-24.719269,34.613628,17.284546,,,,,,,
1523696522.318854,-0.476070,-0.092188,-2.221060,-0.451332,-0.020282,-0.449135,-0.456343,0.092057,-0.885029,0.006469,0.031402,0.007786,-26.594604,33.948116,18.336243,,,,,,,
1523696522.348822,-0.477507,-0.096835,-2.238819,-0.399781,0.048642,-0.447033,-0.457413,0.096684,-0.883983,0.019913,0.101818,0.008464,-26.526642,33.197887,18.414307,,,,,,,
1523696522.378791,-0.475917,-0.099119,-2.255430,-0.285140,0.132345,-0.452363,-0.455905,0.098957,-0.884510,0.036685,0.166973,0.021839,-25.850174,33.344845,18.414001,,,,,,,
1523696522.408759,-0.472159,-0.100046,-2.270723,-0.255134,0.184149,-0.426812,-0.452536,0.099879,-0.886135,0.038809,0.211080,0.022854,-27.574188,33.128124,18.939087,,,,,,,
1523696522.438727,-0.469313,-0.102308,-2.285642,-0.308911,0.129899,-0.399097,-0.449909,0.102130,-0.887216,0.042392,0.241437,0.040124,-27.731079,32.528683,18.791382,,,,,,,
1523696522.468695,-0.466922,-0.106063,-2.300133,-0.258739,0.136107,-0.392675,-0.447611,0.105864,-0.887940,0.029947,0.227449,0.032273,-28.033005,32.379971,18.716797,,,,,,,
1523696522.498664,-0.462325,-0.107181,-2.313751,-0.108539,0.231726,-0.445923,-0.443471,0.106976,-0.889882,0.013570,0.191440,-0.007091,-28.855438,32.458965,19.016113,,,,,,,
1523696522.528632,-0.456310,-0.104232,-2.327590,-0.026888,0.267087,-0.515167,-0.438247,0.104043,-0.892813,-0.003785,0.155463,-0.033976,-28.858734,32.308681,18.716675,,,,,,,
1523696522.558600,-0.450897,-0.100757,-2.342447,-0.105240,0.179061,-0.511939,-0.433563,0.100587,-0.895492,-0.013840,0.150436,-0.077775,-29.385941,32.086056,18.717285,,,,,,,
1523696522.588568,-0.449148,-0.099907,-2.357737,-0.209606,0.061027,-0.461824,-0.432033,0.099741,-0.896325,-0.031132,0.138998,-0.083609,-30.435745,32.015926,18.867065,,,,,,,
1523696522.618537,-0.450641,-0.100921,-2.372407,-0.246651,-0.042327,-0.408471,-0.433326,0.100750,-0.895588,-0.007866,0.144565,-0.044888,-30.520020,31.266018,18.570007,,,,,,,
1523696522.648505,-0.455704,-0.101992,-2.386003,-0.222693,-0.153059,-0.387023,-0.437808,0.101815,-0.893285,0.004428,0.141303,0.041280,-29.323364,31.110332,18.271240,,,,,,,
1523696522.678473,-0.460493,-0.102402,-2.399312,-0.183974,-0.099952,-0.396642,-0.442062,0.102224,-0.891141,0.025085,0.122050,0.051221,-30.600250,30.516750,18.947998,,,,,,,
1523696522.708441,-0.463423,-0.102039,-2.412549,-0.158893,-0.003196,-0.413770,-0.444688,0.101862,-0.889875,0.013597,0.089132,0.029492,-30.606079,29.841930,19.100647,,,,,,,
1523696522.738410,-0.463332,-0.101447,-2.426180,-0.145579,0.077717,-0.440481,-0.444633,0.101273,-0.889969,0.007988,0.110778,-0.014526,-30.306091,29.840588,19.100830,,,,,,,
1523696522.768378,-0.462312,-0.100851,-2.440807,-0.179562,0.073821,-0.478861,-0.443753,0.100680,-0.890476,0.000958,0.141034,-0.024029,-31.658112,29.322201,19.627258,,,,,,,
1523696522.798346,-0.462400,-0.101592,-2.456420,-0.254608,0.025008,-0.461819,-0.443798,0.101417,-0.890370,0.025936,0.192437,-0.036785,-31.589096,28.721889,19.629639,,,,,,,
1523696522.828315,-0.465169,-0.104583,-2.472814,-0.341617,-0.087469,-0.455368,-0.446123,0.104393,-0.888863,0.019044,0.206887,-0.004738,-30.988235,28.943951,19.404114,,,,,,,
1523696522.858283,-0.470358,-0.109064,-2.489467,-0.353654,-0.121617,-0.429774,-0.450513,0.108848,-0.886109,0.036817,0.194817,0.016908,-31.739990,28.273159,20.231384,,,,,,,
1523696522.888251,-0.474550,-0.112681,-2.505032,-0.277769,-0.079440,-0.409518,-0.454040,0.112443,-0.883857,0.016220,0.144302,-0.005196,-32.344589,27.676113,20.458496,,,,,,,
1523696522.918219,-0.478114,-0.114023,-2.519040,-0.192211,-0.054102,-0.415876,-0.457118,0.113777,-0.882099,0.013621,0.100686,-0.006680,-31.447327,27.447002,20.384827,,,,,,,
1523696522.948188,-0.480787,-0.114602,-2.533494,-0.212232,-0.042092,-0.455323,-0.459444,0.114352,-0.880815,0.011949,0.096815,0.010286,-32.943329,27.304638,21.284668,,,,,,,
1523696522.978156,-0.482872,-0.115051,-2.549225,-0.196865,0.005954,-0.493717,-0.461255,0.114798,-0.879810,-0.003528,0.076868,0.010883,-32.422104,26.927288,21.286438,,,,,,,
1523696523.008124,-0.483261,-0.113627,-2.565430,-0.172952,0.074046,-0.515074,-0.461673,0.113383,-0.879774,-0.020306,0.070760,-0.032442,-33.398254,26.631985,21.587158,,,,,,,
1523696523.038092,-0.482794,-0.112665,-2.580895,-0.210724,0.058816,-0.451156,-0.461312,0.112427,-0.880086,-0.039313,0.069870,-0.076747,-34.151367,26.410229,21.437622,,,,,,,
,,,,,,,,,,,,,,,,25.318899,51.459292,12.386043,3.330000,151.523438,1523696522.999022,
1523696523.068061,-0.484470,-0.114095,-2.595670,-0.279786,-0.039148,-0.396771,-0.462711,0.113847,-0.879169,-0.028912,0.067458,-0.051862,-33.633606,25.957439,20.989685,,,,,,,
1523696523.098029,-0.488377,-0.116786,-2.609731,-0.299517,-0.111575,-0.363692,-0.465997,0.116521,-0.877080,-0.008750,0.072841,-0.000987,-33.187210,25.505596,21.141724,,,,,,,
1523696523.127997,-0.493925,-0.120002,-2.623361,-0.303906,-0.126520,-0.353022,-0.470676,0.119715,-0.874147,0.003482,0.085013,0.055055,-33.944183,24.534451,21.595276,,,,,,,
1523696523.157965,-0.498442,-0.123304,-2.637472,-0.301433,-0.076447,-0.373310,-0.474428,0.122992,-0.871660,0.015337,0.068216,0.071458,-33.795837,24.234005,21.821533,,,,,,,
1523696523.187934,-0.501464,-0.125063,-2.651556,-0.225191,-0.022219,-0.407394,-0.476955,0.124737,-0.870031,0.002605,0.060199,0.050909,-33.049759,23.930508,21.673157,,,,,,,
1523696523.217902,-0.502703,-0.124710,-2.665794,-0.169125,0.055510,-0.447931,-0.478054,0.124387,-0.869478,-0.001133,0.056354,0.024218,-34.324844,23.561840,22.273926,,,,,,,
1523696523.247901,-0.502771,-0.122955,-2.679674,-0.152134,0.051107,-0.432993,-0.478218,0.122645,-0.869635,-0.026680,0.060018,-0.011148,-34.258698,23.035946,21.676086,,,,,,,
1523696523.277869,-0.503010,-0.121948,-2.693467,-0.186322,0.050121,-0.430891,-0.478485,0.121646,-0.869629,-0.009903,0.079968,-0.045731,-34.636658,22.513027,22.052979,,,,,,,
1523696523.307847,-0.504426,-0.121893,-2.707671,-0.225144,0.015886,-0.385062,-0.479719,0.121592,-0.868956,-0.065554,0.057775,-0.050553,-35.085434,22.365490,22.503296,,,,,,,
1523696523.337815,-0.507484,-0.123575,-2.721067,-0.273872,-0.097914,-0.353020,-0.482274,0.123261,-0.867305,-0.042521,0.056030,-0.035084,-34.343384,21.612087,22.431763,,,,,,,
1523696523.367784,-0.512559,-0.127376,-2.734531,-0.345657,-0.108615,-0.315776,-0.486436,0.127032,-0.864432,-0.021911,0.051130,0.040320,-34.567932,21.388546,22.882507,,,,,,,
1523696523.397752,-0.515777,-0.131943,-2.746900,-0.300529,0.009923,-0.265772,-0.488924,0.131560,-0.862349,-0.011961,0.030046,0.055464,-35.019257,21.165722,23.033203,,,,,,,
1523696523.427720,-0.514568,-0.133938,-2.757558,-0.156946,0.105362,-0.286022,-0.487751,0.133538,-0.862709,-0.033642,-0.015847,0.001030,-36.068604,21.095669,23.257935,,,,,,,
1523696523.457689,-0.512914,-0.132209,-2.766052,-0.038419,0.118795,-0.275284,-0.486436,0.131824,-0.863714,-0.045089,-0.031666,-0.036951,-36.144196,20.946163,23.408508,,,,,,,
1523696523.487657,-0.511644,-0.129851,-2.774118,-0.103834,0.052039,-0.278464,-0.485490,0.129486,-0.864600,-0.020370,0.015182,-0.020761,-35.700363,20.643642,22.884888,,,,,,,
1523696523.517625,-0.512156,-0.130988,-2.784352,-0.254523,0.023679,-0.273215,-0.485859,0.130613,-0.864222,-0.005230,0.061647,0.011195,-36.152603,20.645306,22.509644,,,,,,,
1523696523.547593,-0.512546,-0.132535,-2.795397,-0.190136,0.059849,-0.303032,-0.486097,0.132148,-0.863855,-0.002688,0.094308,0.016306,-36.527725,20.272594,23.111023,,,,,,,
1523696523.577562,-0.510960,-0.131571,-2.806131,-0.124498,0.136445,-0.337167,-0.484788,0.131191,-0.864736,0.020372,0.111896,0.011495,-36.237015,19.745602,22.438293,,,,,,,
1523696523.607530,-0.507743,-0.130391,-2.817367,-0.144451,0.184445,-0.357467,-0.482079,0.130022,-0.866426,0.034066,0.139021,0.034013,-35.193039,19.365536,22.065308,,,,,,,
1523696523.637498,-0.502943,-0.129700,-2.829698,-0.140715,0.255940,-0.400166,-0.477957,0.129336,-0.868809,0.042075,0.158277,0.057728,-36.842087,19.148479,22.590332,,,,,,,
1523696523.667466,-0.494245,-0.127248,-2.842525,-0.056470,0.408055,-0.453531,-0.470532,0.126905,-0.873209,0.019436,0.185809,0.042231,-37.150909,18.624279,21.992310,,,,,,,
1523696523.697435,-0.481303,-0.121895,-2.854640,0.052951,0.510919,-0.463139,-0.459499,0.121594,-0.879815,0.002789,0.212040,-0.013846,-36.335526,18.020016,21.395081,,,,,,,
1523696523.727403,-0.467337,-0.115877,-2.865680,0.054731,0.479819,-0.422620,-0.447489,0.115618,-0.886784,-0.020757,0.204252,-0.100613,-38.291138,17.728359,20.945312,,,,,,,
1523696523.757371,-0.459612,-0.111645,-2.875465,-0.016680,0.140396,-0.331768,-0.440839,0.111413,-0.890645,-0.013248,0.159339,-0.136485,-38.594421,17.579418,20.645691,,,,,,,
1523696523.787339,-0.463083,-0.111466,-2.884630,-0.206769,-0.234919,-0.235623,-0.443936,0.111236,-0.889127,-0.001712,0.140595,-0.020571,-37.544907,17.350002,20.947205,,,,,,,
1523696523.817308,-0.473518,-0.115215,-2.893641,-0.246815,-0.316872,-0.202540,-0.452996,0.114960,-0.884069,0.013177,0.110931,0.058752,-38.513565,17.355404,21.996704,,,,,,,
1523696523.847276,-0.481940,-0.117003,-2.901805,-0.114800,-0.194802,-0.230271,-0.460330,0.116737,-0.880039,0.019946,0.066338,0.041202,-38.216568,17.054073,21.998047,,,,,,,
1523696523.877244,-0.486501,-0.114185,-2.908941,0.035418,-0.092798,-0.283534,-0.464491,0.113937,-0.878217,0.022139,0.039276,0.003172,-38.062241,17.353603,22.221863,,,,,,,
1523696523.907212,-0.489796,-0.109720,-2.917095,-0.000413,-0.066737,-0.350713,-0.467617,0.109500,-0.877122,0.010693,0.008405,-0.026656,-38.658157,17.581585,22.520691,,,,,,,
1523696523.937181,-0.492258,-0.107450,-2.928116,-0.142186,-0.052367,-0.380663,-0.469891,0.107243,-0.876185,0.005749,0.025127,-0.053044,-38.293365,16.829494,22.073914,,,,,,,
1523696523.967149,-0.495678,-0.108592,-2.941139,-0.275906,-0.085109,-0.360490,-0.472826,0.108379,-0.874465,-0.011229,0.064229,-0.025804,-37.474091,16.525356,21.625549,,,,,,,
1523696523.997117,-0.499108,-0.110851,-2.953720,-0.229114,-0.079132,-0.319972,-0.475704,0.110624,-0.872621,-0.009251,0.082247,-0.020110,-38.230331,15.629222,22.078735,,,,,,,
1523696524.027086,-0.503047,-0.111073,-2.963822,-0.123814,-0.119001,-0.278300,-0.479126,0.110845,-0.870719,-0.010559,0.076136,-0.022424,-38.081100,15.553554,22.079102,,,,,,,
,,,,,,,,,,,,,,,,25.318875,51.459303,12.518662,2.940000,176.132812,1523696523.999011,
1523696524.057054,-0.506308,-0.110802,-2.971748,-0.104761,-0.092890,-0.221830,-0.481978,0.110575,-0.869177,-0.002000,0.070822,-0.025979,-37.635162,15.101619,22.156128,,,,,,,
1523696524.087022,-0.510526,-0.111185,-2.979477,-0.144199,-0.084240,-0.228267,-0.485619,0.110956,-0.867100,0.010628,0.038534,0.027836,-38.013290,14.878169,22.006836,,,,,,,
1523696524.116990,-0.512924,-0.111934,-2.988257,-0.124440,-0.014913,-0.272008,-0.487656,0.111700,-0.865860,0.001999,0.027567,0.039490,-38.617584,14.131419,22.534485,,,,,,,
1523696524.146959,-0.513719,-0.110521,-2.998199,-0.094002,0.016401,-0.351943,-0.488421,0.110296,-0.865609,-0.005704,0.016978,0.041344,-36.823959,13.897670,21.861328,,,,,,,
1523696524.176927,-0.513314,-0.107929,-3.008435,-0.083168,0.074676,-0.331748,-0.488209,0.107720,-0.866052,-0.017543,0.037254,-0.000693,-37.877350,13.377711,22.162903,,,,,,,
1523696524.206895,-0.511771,-0.106332,-3.018011,-0.103593,0.076598,-0.298716,-0.486956,0.106131,-0.866954,-0.021024,0.045343,-0.031133,-37.879288,13.227641,22.088501,,,,,,,
1523696524.236863,-0.511592,-0.105012,-3.026105,-0.077443,0.026225,-0.243257,-0.486869,0.104819,-0.867162,-0.002801,0.065301,-0.015589,-37.276794,13.524867,22.012634,,,,,,,
1523696524.266832,-0.510899,-0.104209,-3.033383,-0.080576,0.071710,-0.214525,-0.486309,0.104020,-0.867573,0.004619,0.071929,-0.041561,-37.948593,13.528407,22.537231,,,,,,,
1523696524.296790,-0.508727,-0.103396,-3.039829,-0.067646,0.120425,-0.195386,-0.484464,0.103212,-0.868700,0.006162,0.083906,-0.085859,-38.474777,13.455699,22.462341,,,,,,,
1523696524.326758,-0.507328,-0.102862,-3.046245,-0.100048,0.040834,-0.196410,-0.483275,0.102681,-0.869425,0.024581,0.086910,-0.086263,-38.695862,13.756846,22.610962,,,,,,,
1523696524.356726,-0.508483,-0.103236,-3.053612,-0.121633,-0.053448,-0.231485,-0.484260,0.103053,-0.868833,0.028373,0.091695,-0.040988,-38.106995,13.003596,22.014282,,,,,,,
1523696524.386695,-0.510398,-0.101944,-3.062196,-0.080590,-0.025485,-0.295406,-0.485988,0.101767,-0.868020,0.032359,0.063898,0.007332,-38.714737,12.630656,21.340515,,,,,,,
1523696524.416663,-0.511395,-0.100164,-3.071226,-0.106899,0.048005,-0.308297,-0.486941,0.099997,-0.867691,0.013125,0.045145,0.017471,-37.669449,12.250804,21.192505,,,,,,,
1523696524.446631,-0.510356,-0.099152,-3.081022,-0.112206,0.025847,-0.330644,-0.486088,0.098990,-0.868284,0.008442,0.070505,0.038130,-38.268051,12.253718,21.417175,,,,,,,
1523696524.476599,-0.508719,-0.097537,-3.091487,-0.092486,0.114125,-0.349895,-0.484743,0.097382,-0.869218,0.014544,0.076019,0.057313,-38.118378,11.953502,21.868469,,,,,,,
1523696524.506568,-0.505665,-0.094719,-3.101068,-0.008061,0.156270,-0.328564,-0.482217,0.094577,-0.870931,0.004373,0.080197,0.048619,-38.050262,11.353053,21.720947,,,,,,,
1523696524.536536,-0.501127,-0.090330,-3.109529,0.000521,0.182710,-0.313667,-0.478455,0.090208,-0.873465,-0.010055,0.079318,-0.019632,-38.798126,11.431636,21.945251,,,,,,,
1523696524.566535,-0.496732,-0.088404,-3.117165,-0.072620,0.164228,-0.227400,-0.474694,0.088288,-0.875711,-0.019294,0.087249,-0.124838,-38.505783,10.979793,21.422180,,,,,,,
1523696524.596503,-0.495195,-0.089829,-3.124228,-0.193281,-0.005917,-0.166581,-0.473287,0.089708,-0.876328,-0.006144,0.089369,-0.157837,-38.653656,11.055690,21.646790,,,,,,,
1523696524.626471,-0.500416,-0.094442,-3.131479,-0.246749,-0.220666,-0.132312,-0.477652,0.094302,-0.873472,0.021750,0.096753,-0.054598,-38.729248,10.906184,21.797363,,,,,,,
1523696524.656440,-0.508641,-0.098309,-3.137804,-0.188174,-0.248496,-0.125839,-0.484639,0.098150,-0.869189,0.028691,0.078638,0.029269,-37.898132,11.202968,22.321594,,,,,,,
1523696524.686408,-0.514654,-0.099706,3.139238,-0.096568,-0.137733,-0.194076,-0.489788,0.099541,-0.866139,0.008312,0.025643,0.038350,-37.747543,10.902888,22.922852,,,,,,,
1523696524.716376,-0.516075,-0.097327,3.132160,-0.000186,0.060301,-0.283709,-0.491135,0.097174,-0.865646,0.001388,-0.033011,-0.011918,-39.028473,10.533275,22.548706,,,,,,,
1523696524.746344,-0.512486,-0.093335,3.123883,-0.040131,0.155295,-0.326474,-0.488211,0.093200,-0.867734,-0.008829,-0.027648,-0.098300,-38.807556,10.531611,21.873779,,,,,,,
1523696524.776313,-0.509835,-0.092879,3.112879,-0.251739,0.101624,-0.328692,-0.485930,0.092745,-0.869062,0.001478,0.059858,-0.070086,-39.488495,9.934672,21.875854,,,,,,,
1523696524.806281,-0.509546,-0.097061,3.099492,-0.381453,0.018864,-0.299938,-0.485484,0.096909,-0.868857,0.034831,0.117477,-0.000040,-38.671921,9.405498,21.353394,,,,,,,
1523696524.836249,-0.510868,-0.101420,3.087098,-0.278123,-0.007065,-0.276390,-0.486421,0.101246,-0.867837,0.034029,0.155361,0.072473,-37.854431,8.651820,21.356812,,,,,,,
1523696524.866217,-0.510382,-0.102037,3.078181,-0.063379,0.074989,-0.233695,-0.485969,0.101860,-0.868019,0.046715,0.148583,0.098182,-38.972046,9.032451,21.954712,,,,,,,
1523696524.896186,-0.506221,-0.099452,3.072918,0.078995,0.188171,-0.209203,-0.482479,0.099288,-0.870261,0.033138,0.108643,0.004477,-38.753342,8.581157,21.656677,,,,,,,
1523696524.926154,-0.500568,-0.095199,3.068173,0.068664,0.223482,-0.242267,-0.477750,0.095055,-0.873337,0.027051,0.095512,-0.074203,-38.300674,8.804194,21.731018,,,,,,,
1523696524.956122,-0.496062,-0.092854,3.060902,-0.067237,0.105102,-0.284867,-0.473915,0.092720,-0.875674,0.021370,0.096427,-0.123746,-39.353317,8.583858,21.656372,,,,,,,
1523696524.986090,-0.497391,-0.093304,3.050891,-0.202579,-0.091032,-0.299694,-0.475058,0.093169,-0.875007,0.005378,0.091325,-0.058098,-38.686432,7.905635,21.434387,,,,,,,
1523696525.016059,-0.502033,-0.095513,3.039715,-0.239122,-0.144081,-0.298600,-0.479015,0.095368,-0.872610,-0.015538,0.075942,-0.020167,-38.012360,7.902461,21.284729,,,,,,,
1523696525.046027,-0.507012,-0.097943,3.029582,-0.202074,-0.133000,-0.226122,-0.483239,0.097786,-0.870009,-0.003730,0.041069,-0.022874,-39.133102,7.833323,22.109497,,,,,,,
,,,,,,,,,,,,,,,,25.318845,51.459314,12.505105,2.850000,192.304688,1523696524.999000,
1523696525.075995,-0.510547,-0.100157,3.022348,-0.160601,-0.083659,-0.153693,-0.486205,0.099990,-0.868104,0.000182,0.016877,-0.028121,-39.054367,8.207973,22.108032,,,,,,,
1523696525.105963,-0.513163,-0.101708,3.016758,-0.113553,-0.055171,-0.141963,-0.488398,0.101533,-0.866693,0.031412,0.042510,-0.016364,-38.307251,8.054378,21.883972,,,,,,,
1523696525.135932,-0.513847,-0.102453,3.010976,-0.106641,0.027890,-0.168686,-0.488953,0.102273,-0.866293,0.031067,0.078452,-0.034586,-39.434586,7.684688,22.109924,,,,,,,
1523696525.165900,-0.513346,-0.102708,3.004102,-0.135309,0.012328,-0.212377,-0.488506,0.102527,-0.866515,0.029232,0.086758,-0.075853,-39.367691,7.233790,21.511719,,,,,,,
1523696525.195868,-0.515545,-0.104176,2.994997,-0.215488,-0.073200,-0.263484,-0.490336,0.103988,-0.865306,0.038203,0.080155,-0.019185,-38.100861,6.777492,20.914185,,,,,,,
1523696525.225837,-0.517920,-0.105953,2.984499,-0.192649,-0.025133,-0.305083,-0.492297,0.105755,-0.863977,0.019793,0.066746,0.009501,-38.026718,6.327754,21.515991,,,,,,,
1523696525.255805,-0.518034,-0.105938,2.973259,-0.142971,0.038837,-0.355179,-0.492396,0.105740,-0.863923,0.021953,0.064182,0.021363,-38.708130,5.730739,21.443054,,,,,,,
1523696525.285773,-0.515108,-0.105120,2.961697,-0.160448,0.186590,-0.356405,-0.489909,0.104927,-0.865434,0.013133,0.086250,-0.019850,-38.031967,6.027400,21.142212,,,,,,,
1523696525.315750,-0.510313,-0.105044,2.950345,-0.162724,0.191707,-0.326584,-0.485758,0.104851,-0.867781,0.018686,0.129310,-0.026659,-38.563248,5.354869,21.219666,,,,,,,
1523696525.345719,-0.506506,-0.105161,2.940379,-0.129137,0.135938,-0.264705,-0.482444,0.104967,-0.869613,0.037742,0.172605,-0.007401,-38.338379,5.204082,21.445312,,,,,,,
1523696525.375687,-0.503838,-0.105518,2.932098,-0.121993,0.111190,-0.223120,-0.480104,0.105322,-0.870865,0.019884,0.170725,-0.006424,-37.965057,5.351878,20.919983,,,,,,,
1523696525.405655,-0.502627,-0.106379,2.925200,-0.094802,0.015310,-0.197433,-0.479005,0.106178,-0.871365,0.041337,0.153114,-0.022464,-38.869080,4.906016,20.996338,,,,,,,
1523696525.435623,-0.503325,-0.106005,2.918928,-0.038188,0.006771,-0.211239,-0.479633,0.105807,-0.871065,0.046894,0.114530,0.002612,-38.868484,4.831248,21.221619,,,,,,,
1523696525.465592,-0.502064,-0.104568,2.912709,-0.026010,0.067515,-0.241122,-0.478607,0.104378,-0.871802,0.027969,0.084495,-0.058893,-38.269394,4.828395,21.071899,,,,,,,
1523696525.495560,-0.501144,-0.102597,2.905212,-0.055933,0.015786,-0.279448,-0.477903,0.102418,-0.872420,0.020383,0.083297,-0.082169,-39.325806,4.457698,20.622864,,,,,,,
1523696525.525528,-0.501995,-0.102488,2.896243,-0.166196,-0.023414,-0.257113,-0.478650,0.102309,-0.872023,0.044629,0.110444,-0.061692,-39.548981,4.683635,20.546875,,,,,,,
1523696525.555496,-0.503652,-0.104504,2.886344,-0.208968,-0.043482,-0.260316,-0.479994,0.104314,-0.871046,0.019026,0.103983,-0.057481,-39.030136,3.931529,20.775085,,,,,,,
1523696525.585465,-0.506779,-0.105614,2.877072,-0.157935,-0.074495,-0.248536,-0.482659,0.105418,-0.869440,0.036110,0.085454,-0.036948,-38.436295,3.403712,20.627563,,,,,,,
1523696525.615433,-0.510079,-0.106679,2.868103,-0.186818,-0.094594,-0.252790,-0.485470,0.106477,-0.867744,0.032131,0.084045,-0.006524,-38.507568,3.779033,20.625977,,,,,,,
1523696525.645401,-0.513690,-0.109211,2.857868,-0.236772,-0.080440,-0.283741,-0.488466,0.108994,-0.865747,0.030596,0.093048,0.063471,-37.833176,3.401515,21.152832,,,,,,,
1523696525.675369,-0.513460,-0.109874,2.847205,-0.110662,0.135270,-0.327556,-0.488231,0.109653,-0.865797,0.007747,0.069135,0.020933,-38.359192,3.253963,21.228149,,,,,,,
1523696525.705338,-0.508349,-0.106884,2.838528,-0.002644,0.190153,-0.313674,-0.483958,0.106681,-0.868563,0.009959,0.069878,-0.070020,-38.742874,2.655238,20.780334,,,,,,,
1523696525.735306,-0.504835,-0.105805,2.829372,-0.177151,0.112883,-0.292428,-0.480958,0.105608,-0.870359,0.025483,0.094831,-0.061129,-37.472885,2.424083,20.331909,,,,,,,
1523696525.765274,-0.502858,-0.109392,2.818478,-0.286189,0.116141,-0.263743,-0.479050,0.109174,-0.870970,0.018860,0.134219,-0.064851,-39.048248,2.206462,20.632019,,,,,,,
1523696525.795242,-0.500813,-0.112297,2.807804,-0.209554,0.070184,-0.255105,-0.477114,0.112061,-0.871666,0.029849,0.151336,-0.086388,-38.675949,1.979716,20.558105,,,,,,,
1523696525.825211,-0.501007,-0.114784,2.798663,-0.221900,-0.010855,-0.210282,-0.477148,0.114532,-0.871326,0.053472,0.190354,-0.058285,-38.896469,2.430705,20.556213,,,,,,,
1523696525.855179,-0.503496,-0.117735,2.789647,-0.231748,-0.080857,-0.225138,-0.479150,0.117463,-0.869836,0.084726,0.171599,0.007501,-38.378204,1.753383,20.559143,,,,,,,
1523696525.885147,-0.507431,-0.119628,2.779862,-0.160801,-0.055036,-0.295438,-0.482460,0.119343,-0.867748,0.079857,0.147304,0.083111,-38.161484,1.376658,19.810791,,,,,,,
1523696525.915146,-0.506230,-0.118210,2.769453,-0.039861,0.148221,-0.380795,-0.481499,0.117935,-0.868474,0.059395,0.098984,0.046895,-38.609818,1.453822,19.960205,,,,,,,
1523696525.945114,-0.500125,-0.113799,2.759062,0.023816,0.255630,-0.417076,-0.476433,0.113554,-0.871845,0.021508,0.081545,-0.057003,-38.095001,0.701060,19.513550,,,,,,,
1523696525.975083,-0.493993,-0.110792,2.747844,-0.113298,0.198340,-0.380895,-0.471237,0.110565,-0.875047,0.035629,0.110504,-0.113158,-37.341873,0.698192,20.038879,,,,,,,
1523696526.005051,-0.492688,-0.112428,2.734991,-0.279858,-0.007575,-0.354176,-0.470009,0.112191,-0.875501,0.036857,0.162925,-0.051974,-37.206146,-0.278157,19.292847,,,,,,,
1523696526.035019,-0.494685,-0.116240,2.722033,-0.272596,0.000570,-0.306229,-0.471550,0.115979,-0.874178,0.052696,0.206485,0.054933,-37.954132,-0.349355,19.742798,,,,,,,
1523696526.064987,-0.492779,-0.117154,2.711834,-0.090573,0.136001,-0.288114,-0.469832,0.116886,-0.874981,0.046706,0.163403,-0.024936,-37.658188,-0.575978,19.443848,,,,,,,
,,,,,,,,,,,,,,,,25.318806,51.459316,12.692892,3.330000,209.179688,1523696525.998989,
1523696526.094956,-0.488979,-0.114479,2.704643,0.009676,0.154631,-0.251836,-0.466649,0.114230,-0.877033,0.064870,0.145292,-0.104336,-37.509872,-0.651799,19.294189,,,,,,,
1523696526.124924,-0.487027,-0.112773,2.696824,-0.094210,0.035105,-0.293348,-0.465027,0.112535,-0.878113,0.075958,0.164001,-0.034530,-37.740540,-0.951207,18.845276,,,,,,,
1523696526.154892,-0.486976,-0.112702,2.685996,-0.142844,0.046428,-0.375441,-0.464986,0.112464,-0.878144,0.078908,0.214059,0.027802,-36.922150,-1.480107,18.622803,,,,,,,
1523696526.184860,-0.485222,-0.110346,2.673530,-0.066416,0.114647,-0.434049,-0.463567,0.110122,-0.879190,0.067800,0.199005,0.015055,-37.585312,-0.651525,19.219116,,,,,,,
1523696526.214829,-0.482317,-0.106474,2.661685,-0.043041,0.116562,-0.411662,-0.461205,0.106273,-0.880905,0.036401,0.158238,-0.091660,-38.048447,-1.699895,18.773132,,,,,,,
1523696526.244797,-0.482214,-0.104843,2.650137,-0.159411,-0.045127,-0.346584,-0.461195,0.104651,-0.881104,0.044416,0.125299,-0.145415,-36.927109,-1.705541,18.173706,,,,,,,
1523696526.274765,-0.486925,-0.107821,2.637787,-0.317977,-0.143684,-0.327427,-0.465193,0.107612,-0.878642,0.046858,0.139519,-0.060796,-37.454346,-2.152791,18.550232,,,,,,,
1523696526.304724,-0.492806,-0.112069,2.624050,-0.305986,-0.129653,-0.362595,-0.470131,0.111835,-0.875481,0.075081,0.178830,0.050423,-37.083252,-2.454610,18.401672,,,,,,,
1523696526.334693,-0.495907,-0.113066,2.610856,-0.155878,-0.022515,-0.390291,-0.472791,0.112825,-0.873920,0.070859,0.181944,0.072208,-35.591248,-2.986775,17.954529,,,,,,,
1523696526.364661,-0.494679,-0.110383,2.599802,-0.031533,0.120451,-0.363711,-0.471859,0.110159,-0.874764,0.059643,0.147852,0.009987,-36.041809,-3.359212,18.480713,,,,,,,
1523696526.394629,-0.490064,-0.107879,2.589833,-0.044123,0.179905,-0.353118,-0.467946,0.107670,-0.877172,0.043599,0.110592,-0.112101,-36.193604,-3.358830,18.180664,,,,,,,
1523696526.424598,-0.486709,-0.107937,2.578690,-0.218494,0.113345,-0.345724,-0.464997,0.107728,-0.878732,0.065476,0.163772,-0.092124,-35.601578,-3.886952,17.733093,,,,,,,
1523696526.454566,-0.487265,-0.112607,2.564774,-0.380243,-0.013717,-0.353172,-0.465245,0.112369,-0.878019,0.085607,0.242230,-0.000475,-36.196136,-3.658742,18.256897,,,,,,,
1523696526.484535,-0.487123,-0.117280,2.550232,-0.291151,0.076484,-0.367051,-0.464870,0.117011,-0.877612,0.076808,0.246789,0.001986,-35.384079,-4.637914,17.736206,,,,,,,
1523696526.514503,-0.485064,-0.116758,2.538153,-0.074229,0.119519,-0.366940,-0.463090,0.116493,-0.878621,0.073884,0.209862,-0.054881,-34.557907,-4.341939,17.435425,,,,,,,
1523696526.544472,-0.482830,-0.113434,2.527962,-0.033598,0.124748,-0.371167,-0.461303,0.113191,-0.879991,0.066268,0.189330,-0.075865,-35.608017,-4.486989,17.660522,,,,,,,
1523696526.574440,-0.479193,-0.110813,2.516396,-0.101609,0.148590,-0.412800,-0.458235,0.110586,-0.881924,0.080534,0.187571,-0.095860,-35.616409,-5.012471,17.137573,,,,,,,
1523696526.604408,-0.476920,-0.109248,2.502633,-0.173319,0.065091,-0.451129,-0.456308,0.109030,-0.883116,0.085595,0.218347,-0.054491,-34.793076,-5.091329,16.988281,,,,,,,
1523696526.634376,-0.476699,-0.108466,2.487569,-0.208581,0.051398,-0.456465,-0.456151,0.108253,-0.883292,0.084096,0.232964,-0.025811,-34.800568,-5.616673,16.615356,,,,,,,
1523696526.664345,-0.478698,-0.107354,2.473057,-0.167574,-0.052003,-0.424363,-0.457971,0.107148,-0.882485,0.077082,0.222488,-0.036567,-34.425430,-5.693212,16.765930,,,,,,,
1523696526.694313,-0.481503,-0.106063,2.460051,-0.158261,-0.068251,-0.382790,-0.460509,0.105864,-0.881319,0.074416,0.171922,-0.054244,-33.156784,-6.149205,16.468384,,,,,,,
1523696526.724281,-0.485063,-0.106322,2.448015,-0.191543,-0.083227,-0.358283,-0.463631,0.106122,-0.879649,0.089989,0.193667,-0.023656,-33.085510,-6.749150,16.845825,,,,,,,
1523696526.754249,-0.486650,-0.108394,2.434796,-0.257203,0.018014,-0.375491,-0.464923,0.108182,-0.878716,0.118884,0.210910,-0.018760,-32.866821,-7.200429,16.547729,,,,,,,
1523696526.784218,-0.488112,-0.110078,2.421665,-0.183783,-0.046929,-0.383895,-0.466120,0.109855,-0.877874,0.109888,0.259102,0.005758,-32.121201,-7.504018,16.324280,,,,,,,
1523696526.814186,-0.489330,-0.110065,2.408784,-0.152612,-0.021400,-0.399873,-0.467190,0.109843,-0.877306,0.102917,0.227147,-0.010099,-33.242401,-7.348592,16.698120,,,,,,,
1523696526.844154,-0.491757,-0.109141,2.396036,-0.115405,-0.088252,-0.426415,-0.469366,0.108924,-0.876259,0.069082,0.184823,-0.025764,-32.493027,-7.501821,16.849121,,,,,,,
1523696526.874121,-0.494709,-0.108504,2.382968,-0.148533,-0.072338,-0.409418,-0.471983,0.108291,-0.874931,0.080015,0.115403,-0.062722,-32.187958,-7.127965,17.072754,,,,,,,
1523696526.904091,-0.496411,-0.109300,2.369976,-0.201842,-0.028828,-0.383919,-0.473430,0.109082,-0.874050,0.037975,0.099063,-0.136738,-31.971802,-7.654531,16.474976,,,,,,,
1523696526.934058,-0.499890,-0.109619,2.356826,-0.214958,-0.109470,-0.395570,-0.476452,0.109399,-0.872367,0.039806,0.099784,-0.134988,-31.150742,-7.733754,15.950684,,,,,,,
1523696526.964026,-0.504331,-0.111485,2.342321,-0.350401,-0.070896,-0.392517,-0.480222,0.111254,-0.870062,0.060376,0.147870,-0.101008,-30.478607,-8.111623,16.102539,,,,,,,
1523696526.993994,-0.510317,-0.116272,2.326114,-0.412656,-0.169429,-0.412703,-0.485156,0.116010,-0.866697,0.082339,0.186908,0.024000,-31.083664,-8.484136,15.878723,,,,,,,
1523696527.023963,-0.514007,-0.118919,2.309682,-0.258770,0.037799,-0.468215,-0.488198,0.118639,-0.864630,0.082787,0.209028,0.095069,-30.193741,-9.313436,15.582458,,,,,,,
1523696527.053931,-0.509897,-0.114777,2.295585,0.013477,0.249800,-0.489543,-0.484875,0.114525,-0.867051,0.100567,0.204109,0.040696,-29.363678,-8.941945,15.806458,,,,,,,
,,,,,,,,,,,,,,,,25.318781,51.459318,12.732654,2.580000,230.976562,1523696526.998979,
1523696527.083899,-0.500835,-0.109271,2.284084,-0.037781,0.342852,-0.406561,-0.477294,0.109054,-0.871950,0.090667,0.215531,-0.053374,-30.343292,-9.312688,15.657410,,,,,,,
1523696527.113868,-0.491896,-0.110743,2.272079,-0.257306,0.292867,-0.323558,-0.469405,0.110516,-0.876039,0.112227,0.269428,-0.106719,-29.823257,-9.540471,15.208557,,,,,,,
1523696527.143836,-0.486021,-0.116187,2.259530,-0.319856,0.172836,-0.307501,-0.463961,0.115926,-0.878236,0.122317,0.325282,-0.094801,-29.607559,-10.067113,14.535828,,,,,,,
1523696527.173805,-0.486862,-0.120308,2.246859,-0.239661,-0.102208,-0.361500,-0.464473,0.120018,-0.877416,0.133418,0.359002,0.021703,-29.678833,-9.691792,14.534241,,,,,,,
1523696527.203773,-0.492093,-0.120252,2.233490,-0.150670,-0.101917,-0.433893,-0.469059,0.119962,-0.874980,0.132038,0.278490,0.048290,-28.408356,-10.147511,14.536743,,,,,,,
1523696527.233772,-0.494031,-0.115711,2.221242,0.044069,-0.020507,-0.444485,-0.471007,0.115453,-0.874540,0.084533,0.157145,-0.095827,-28.776001,-9.545629,14.759094,,,,,,,
1523696527.263740,-0.497983,-0.107168,2.210582,0.049872,-0.172374,-0.459243,-0.474914,0.106963,-0.873507,0.064574,0.074540,-0.118223,-28.479004,-9.846974,14.760437,,,,,,,
1523696527.293709,-0.504261,-0.103110,2.196533,-0.218788,-0.112020,-0.484016,-0.480594,0.102927,-0.870881,0.063205,0.079019,-0.087158,-27.733383,-10.150548,14.537048,,,,,,,
1523696527.323654,-0.507685,-0.103858,2.178458,-0.357071,-0.053960,-0.532124,-0.483536,0.103671,-0.869163,0.046753,0.095548,-0.075570,-27.360504,-10.227452,14.312622,,,,,,,
1523696527.353622,-0.510528,-0.107086,2.158701,-0.438117,-0.001878,-0.505598,-0.485839,0.106881,-0.867488,0.061065,0.179465,-0.034200,-27.371277,-11.127690,14.016113,,,,,,,
1523696527.383590,-0.511681,-0.110776,2.140106,-0.357089,0.029456,-0.456556,-0.486642,0.110549,-0.866578,0.064034,0.211396,-0.000671,-26.702469,-11.431233,13.492737,,,,,,,
1523696527.413559,-0.510281,-0.111893,2.125078,-0.211616,0.141444,-0.413949,-0.485368,0.111660,-0.867150,0.079240,0.257664,0.002800,-26.102478,-11.433934,13.493042,,,,,,,
1523696527.443527,-0.506310,-0.111793,2.113082,-0.152159,0.153484,-0.336119,-0.481926,0.111561,-0.869080,0.116295,0.288983,-0.047180,-25.811188,-12.035695,13.045593,,,,,,,
1523696527.473495,-0.503164,-0.112564,2.102172,-0.169573,0.099249,-0.322236,-0.479148,0.112327,-0.870516,0.139594,0.324029,-0.037245,-25.212280,-11.963689,12.745605,,,,,,,
1523696527.503463,-0.501942,-0.111538,2.090567,-0.068770,0.086884,-0.414839,-0.478139,0.111307,-0.871202,0.137684,0.347784,0.012056,-26.183182,-11.734014,13.044189,,,,,,,
1523696527.533432,-0.497060,-0.106544,2.078731,0.065471,0.202702,-0.462797,-0.474139,0.106343,-0.874003,0.124118,0.241359,-0.101919,-25.063004,-12.263982,13.121887,,,,,,,
1523696527.563400,-0.496045,-0.098574,2.068299,0.054566,-0.057714,-0.444449,-0.473640,0.098415,-0.875202,0.067970,0.165990,-0.140698,-24.238663,-12.192922,12.896973,,,,,,,
1523696527.593368,-0.503625,-0.095445,2.055828,-0.231784,-0.295348,-0.400723,-0.480407,0.095301,-0.871852,0.090148,0.140158,-0.109884,-24.834885,-12.039861,13.271057,,,,,,,
1523696527.623336,-0.514633,-0.098678,2.040600,-0.367763,-0.385300,-0.404997,-0.489821,0.098518,-0.866238,0.065580,0.129799,-0.047336,-24.019333,-12.718968,12.824219,,,,,,,
1523696527.653305,-0.527762,-0.101474,2.023675,-0.355510,-0.340290,-0.463637,-0.501010,0.101300,-0.859491,0.080096,0.101688,0.043650,-22.824493,-12.874944,12.225403,,,,,,,
1523696527.683273,-0.534403,-0.103285,2.006556,-0.278473,-0.068446,-0.464919,-0.506613,0.103101,-0.855986,0.061987,0.079486,0.000059,-23.499619,-13.021688,12.450684,,,,,,,
1523696527.713241,-0.534511,-0.103089,1.990684,-0.257641,0.049502,-0.470360,-0.506715,0.102907,-0.855949,0.073656,0.087050,-0.032204,-22.603256,-13.026326,11.851135,,,,,,,
1523696527.743210,-0.533923,-0.106449,1.973617,-0.422078,0.086820,-0.432149,-0.506033,0.106248,-0.855944,0.105459,0.216673,0.030367,-20.890320,-13.784780,11.105042,,,,,,,
1523696527.773178,-0.529700,-0.111308,1.956314,-0.355236,0.250177,-0.415216,-0.502147,0.111079,-0.857618,0.105098,0.287633,0.075773,-21.334152,-13.482259,11.628601,,,,,,,
1523696527.803146,-0.522134,-0.110405,1.942687,-0.064681,0.286622,-0.411839,-0.495694,0.110181,-0.861479,0.102842,0.332049,-0.002748,-21.040298,-13.784093,11.104919,,,,,,,
1523696527.833114,-0.514823,-0.104195,1.932400,0.036569,0.258664,-0.401078,-0.489710,0.104007,-0.865659,0.094737,0.295407,-0.089404,-20.145157,-14.088429,10.806641,,,,,,,
1523696527.863083,-0.509626,-0.101380,1.921877,-0.100813,0.142923,-0.363773,-0.485345,0.101206,-0.868444,0.086023,0.255590,-0.180918,-20.589279,-13.860829,11.405457,,,,,,,
1523696527.893051,-0.511461,-0.100332,1.910500,-0.156610,-0.147085,-0.356063,-0.486990,0.100164,-0.867644,0.098319,0.225825,-0.151460,-20.444092,-14.161778,11.106750,,,,,,,
1523696527.923019,-0.519822,-0.099765,1.897835,-0.199740,-0.292265,-0.398563,-0.494255,0.099599,-0.863591,0.102562,0.220958,-0.056544,-19.164200,-13.942098,11.556519,,,,,,,
1523696527.952987,-0.529251,-0.097257,1.884079,-0.109477,-0.223024,-0.452920,-0.502500,0.097104,-0.859106,0.073988,0.108310,0.016561,-19.914291,-13.863866,11.405823,,,,,,,
1523696527.982956,-0.535800,-0.091368,1.870902,-0.041689,-0.143309,-0.481708,-0.508399,0.091241,-0.856273,0.054328,0.088264,-0.002613,-19.101944,-14.543492,10.433960,,,,,,,
1523696528.012924,-0.537492,-0.088096,1.857521,-0.150107,0.034016,-0.423371,-0.509997,0.087982,-0.855664,0.048877,0.095856,-0.049396,-18.655258,-14.695806,10.134827,,,,,,,
1523696528.042892,-0.536713,-0.086576,1.844831,-0.122503,0.030586,-0.397779,-0.509399,0.086468,-0.856174,0.061218,0.142933,-0.066219,-18.948059,-14.244039,10.582886,,,,,,,
1523696528.072860,-0.537238,-0.084745,1.833813,-0.119806,-0.008125,-0.333804,-0.509928,0.084644,-0.856042,0.092112,0.208661,-0.045676,-18.499268,-14.321126,10.508362,,,,,,,
,,,,,,,,,,,,,,,,25.318755,51.459305,12.636082,3.110000,256.640625,1523696527.998968,
1523696528.102829,-0.539941,-0.085384,1.824130,-0.182895,-0.179583,-0.258023,-0.512212,0.085280,-0.854614,0.078847,0.202913,-0.054917,-17.224930,-14.252095,10.283691,,,,,,,
1523696528.132797,-0.546082,-0.087067,1.815521,-0.139273,-0.173566,-0.222831,-0.517376,0.086957,-0.851328,0.063427,0.140902,-0.055227,-17.903183,-14.623967,10.359863,,,,,,,
1523696528.162765,-0.552162,-0.086551,1.809090,-0.040312,-0.237617,-0.215239,-0.522566,0.086443,-0.848205,0.072294,0.097120,-0.067216,-16.780319,-14.928868,10.511658,,,,,,,
1523696528.192733,-0.558217,-0.085487,1.801993,-0.093225,-0.179819,-0.255827,-0.527740,0.085383,-0.845103,0.099716,0.053381,-0.025777,-16.478989,-14.929997,10.736816,,,,,,,
1523696528.222702,-0.563158,-0.084608,1.792624,-0.117295,-0.166443,-0.336836,-0.531949,0.084507,-0.842548,0.092099,0.055447,0.006580,-16.101151,-14.781468,10.961426,,,,,,,
1523696528.252670,-0.566875,-0.082325,1.781610,-0.089972,-0.082230,-0.384848,-0.535179,0.082232,-0.840726,0.078316,0.052121,0.008984,-15.423340,-14.409673,10.810242,,,,,,,
1523696528.282638,-0.566407,-0.078514,1.771067,-0.054176,0.034624,-0.392400,-0.534950,0.078433,-0.841234,0.038734,0.049405,-0.061552,-15.354034,-14.935048,10.737366,,,,,,,
1523696528.312611,-0.565588,-0.075293,1.759788,-0.120449,0.014612,-0.394559,-0.534394,0.075222,-0.841881,0.040192,0.029667,-0.085960,-15.354782,-14.785420,10.361816,,,,,,,
1523696528.342580,-0.564671,-0.074941,1.748887,-0.192438,0.036357,-0.288079,-0.533636,0.074871,-0.842393,0.032278,0.093327,-0.111678,-15.511826,-15.310018,10.063843,,,,,,,
1523696528.372548,-0.565480,-0.075707,1.740049,-0.149681,-0.092920,-0.203738,-0.534286,0.075635,-0.841913,0.069152,0.109561,-0.087042,-14.382248,-14.715322,9.837036,,,,,,,
1523696528.402516,-0.570220,-0.075878,1.734479,-0.064151,-0.220067,-0.133229,-0.538264,0.075805,-0.839360,0.067698,0.123170,-0.038783,-14.388077,-15.390141,9.989685,,,,,,,
1523696528.432485,-0.578523,-0.074739,1.730937,0.119895,-0.360842,-0.126552,-0.545261,0.074670,-0.834933,0.039661,0.040595,0.201770,-14.314102,-15.540410,10.065369,,,,,,,
1523696528.462453,-0.587156,-0.065292,1.734611,0.308678,-0.161581,-0.121283,-0.552815,0.065245,-0.830745,0.099705,0.037645,-0.034779,-13.702423,-15.541203,12.015686,,,,,,,
1523696528.492421,-0.585975,-0.061754,1.732711,-0.056939,-0.026805,-0.118492,-0.551957,0.061715,-0.831585,0.074723,-0.012047,-0.228580,-13.849869,-15.240621,11.939392,,,,,,,
1523696528.522420,-0.595218,-0.063652,1.727617,-0.220917,-0.380346,-0.102286,-0.559554,0.063609,-0.826349,0.069823,-0.091044,-0.147009,-12.133041,-15.698949,11.342102,,,,,,,
