timestamp(unix),attitude_roll(radians),attitude_pitch(radians),attitude_yaw(radians),rotation_rate_x(radians/s),rotation_rate_y(radians/s),rotation_rate_z(radians/s),gravity_x(G),gravity_y(G),gravity_z(G),user_acc_x(G),user_acc_y(G),user_acc_z(G),magnetic_field_x(microteslas),magnetic_field_y(microteslas),magnetic_field_z(microteslas),latitude(degree),longitude(degree),altitude(meter),speed(m/s),course(degree),timestamp(unix),User Mark
,,,,,,,,,,,,,,,,25.308982,51.444744,11.249794,11.640000,175.781250,1523694434.996400,
1523694435.137740,0.881975,0.020506,0.654776,0.005588,-0.034842,-0.055371,0.771818,-0.020504,-0.635482,-0.068632,-0.077274,0.065840,4.513824,11.058780,2.745972,,,,,,,
1523694435.167708,0.880286,0.018986,0.655851,-0.066580,-0.089367,0.018148,0.770767,-0.018984,-0.636803,-0.025665,-0.055280,-0.052223,4.434311,11.058383,1.995972,,,,,,,
1523694435.197676,0.876578,0.020916,0.657005,0.059999,-0.120935,0.081137,0.768371,-0.020915,-0.639632,-0.033416,-0.008428,-0.099656,3.984924,11.210254,1.845093,,,,,,,
1523694435.227645,0.876378,0.023129,0.656868,-0.015629,0.076290,0.014828,0.768205,-0.023127,-0.639755,-0.012956,-0.022467,-0.028732,4.511246,11.432742,1.694519,,,,,,,
1523694435.257613,0.879940,0.021698,0.659130,-0.113706,0.110531,0.015786,0.770504,-0.021697,-0.637035,0.007099,-0.039354,-0.000813,3.608749,10.912250,2.146179,,,,,,,
1523694435.287581,0.880008,0.020597,0.661881,-0.074887,-0.023557,0.030865,0.770565,-0.020595,-0.636998,0.045902,-0.027699,-0.038463,3.981491,10.685580,2.147217,,,,,,,
1523694435.317550,0.880085,0.020319,0.663096,0.021514,0.025175,0.015981,0.770619,-0.020318,-0.636941,0.027889,-0.022681,-0.078085,4.878769,10.456454,2.073608,,,,,,,
1523694435.347518,0.880321,0.024984,0.660605,0.207770,-0.027805,0.081163,0.770688,-0.024981,-0.636693,0.018589,-0.010069,-0.103893,4.798660,10.530841,1.098206,,,,,,,
1523694435.377486,0.878893,0.029564,0.657810,0.154561,-0.032714,0.042767,0.769682,-0.029560,-0.637712,-0.062742,-0.006054,0.011537,3.603348,10.911380,1.246155,,,,,,,
1523694435.407454,0.879568,0.033202,0.655405,0.093078,0.053564,0.034116,0.770024,-0.033196,-0.637120,-0.057637,-0.008522,0.038579,4.050491,10.534518,1.397888,,,,,,,
1523694435.437423,0.878880,0.032483,0.656368,-0.146235,-0.054854,-0.028814,0.769603,-0.032478,-0.637665,-0.044780,-0.026162,0.044098,3.451294,10.387591,1.773193,,,,,,,
1523694435.467370,0.876246,0.026388,0.660753,-0.283926,-0.101981,-0.077887,0.768059,-0.026385,-0.639805,-0.015770,-0.037549,0.017613,4.049454,10.159976,1.849304,,,,,,,
1523694435.497338,0.873055,0.020944,0.664877,-0.147534,-0.097369,-0.024523,0.766112,-0.020942,-0.642335,-0.015273,-0.051827,-0.007002,5.398636,10.528140,1.098511,,,,,,,
1523694435.527306,0.870638,0.020486,0.665571,0.024378,-0.050241,0.012850,0.764565,-0.020485,-0.644191,-0.033226,-0.049355,-0.020573,4.498825,10.457339,1.248413,,,,,,,
1523694435.557275,0.870554,0.021051,0.665176,0.016092,-0.013974,-0.004239,0.764502,-0.021049,-0.644248,-0.038580,-0.047234,0.002769,4.571884,10.306949,1.174011,,,,,,,
1523694435.587243,0.868932,0.020546,0.665169,-0.041602,-0.050875,-0.026613,0.763464,-0.020545,-0.645494,-0.017721,-0.037027,-0.002135,5.251343,10.529254,1.548462,,,,,,,
1523694435.617211,0.867552,0.019267,0.665723,-0.041691,-0.061526,-0.021285,0.762592,-0.019266,-0.646563,0.026562,-0.033377,-0.075559,5.024414,10.155581,1.849854,,,,,,,
1523694435.647149,0.866076,0.018748,0.665823,0.005554,0.006324,-0.014929,0.761645,-0.018747,-0.647695,0.057981,-0.036689,-0.153987,4.796707,10.380786,1.023865,,,,,,,
1523694435.677117,0.869007,0.020231,0.664850,0.080578,0.122677,0.032968,0.763518,-0.020230,-0.645441,0.005037,-0.055515,-0.078574,5.175888,10.529529,1.473389,,,,,,,
1523694435.707085,0.871835,0.022133,0.664111,0.048473,0.099402,0.028711,0.765308,-0.022131,-0.643253,-0.037968,-0.047800,0.036655,4.424133,10.307986,1.548950,,,,,,,
1523694435.737054,0.874217,0.023149,0.663584,0.012076,0.039178,-0.006424,0.766821,-0.023147,-0.641413,-0.092246,-0.036866,0.098292,4.497772,10.082797,1.699890,,,,,,,
1523694435.767022,0.873149,0.021329,0.664545,-0.134585,-0.080304,-0.037322,0.766167,-0.021328,-0.642258,-0.032265,-0.023579,-0.019256,5.474976,10.528033,1.323608,,,,,,,
1523694435.796990,0.868459,0.017400,0.667953,-0.170242,-0.158962,-0.022345,0.763204,-0.017399,-0.645893,0.011744,-0.005275,-0.103756,4.571716,10.606418,0.647827,,,,,,,
1523694435.826958,0.865211,0.015638,0.669269,0.024481,-0.063854,-0.016964,0.761124,-0.015637,-0.648388,0.024413,-0.009616,-0.075138,4.493576,10.157001,0.874573,,,,,,,
1523694435.856927,0.866787,0.017767,0.665714,0.180164,0.111191,-0.031939,0.762119,-0.017766,-0.647164,0.009839,-0.057048,-0.007819,5.248184,10.528750,1.023499,,,,,,,
1523694435.886895,0.869475,0.020358,0.661165,0.141484,0.061337,-0.029793,0.763818,-0.020356,-0.645081,-0.015130,-0.095641,0.059602,5.098206,10.304797,1.399353,,,,,,,
1523694435.916863,0.869272,0.020467,0.660347,-0.087693,-0.053105,0.005318,0.763685,-0.020466,-0.645235,-0.003400,-0.078243,0.016222,4.948380,10.230624,1.549500,,,,,,,
1523694435.946831,0.866785,0.017887,0.664834,-0.194798,-0.088129,0.038298,0.762115,-0.017886,-0.647165,-0.023056,-0.036344,-0.051779,5.394730,10.452640,0.573853,,,,,,,
1523694435.976800,0.864475,0.016290,0.669132,-0.107174,-0.066086,0.044742,0.760639,-0.016290,-0.648941,-0.013874,0.000420,-0.134445,4.569626,10.081958,1.174927,,,,,,,
1523694436.006768,0.864497,0.016947,0.669904,0.066505,0.049593,0.005321,0.760645,-0.016947,-0.648917,0.005956,0.008081,-0.110025,5.319916,10.153506,1.099976,,,,,,,
1523694436.036736,0.867772,0.017731,0.666964,0.071694,0.146895,-0.084268,0.762756,-0.017730,-0.646414,0.001008,-0.034516,-0.006754,5.697601,10.152255,1.550171,,,,,,,
,,,,,,,,,,,,,,,,25.308871,51.444750,11.460740,12.240000,176.132812,1523694435.996380,
1523694436.066705,0.871555,0.016057,0.664210,0.010614,0.088667,-0.092782,0.765217,-0.016057,-0.643542,0.019192,-0.087444,0.038561,5.097900,10.229877,1.474548,,,,,,,
1523694436.096673,0.871777,0.014892,0.663787,-0.002213,-0.024684,0.014934,0.765374,-0.014892,-0.643383,-0.000573,-0.088303,-0.000934,5.175293,10.604297,1.248169,,,,,,,
1523694436.126641,0.870715,0.017534,0.664396,0.048589,-0.023301,0.102345,0.764657,-0.017533,-0.644168,-0.023660,-0.027984,-0.045392,5.624969,10.527347,1.323669,,,,,,,
1523694436.156609,0.871363,0.020366,0.665401,0.008546,0.049300,0.066024,0.765033,-0.020364,-0.643638,-0.055667,0.022897,-0.008751,5.018402,10.004855,1.100464,,,,,,,
1523694436.186578,0.872246,0.020091,0.666300,-0.062644,0.001378,-0.043740,0.765606,-0.020089,-0.642966,-0.065120,0.000283,0.041663,4.947769,10.080783,1.700134,,,,,,,
1523694436.216546,0.872091,0.016411,0.666233,-0.074096,-0.011952,-0.109792,0.765557,-0.016411,-0.643128,-0.004296,-0.054161,-0.017166,4.873657,10.305881,1.474182,,,,,,,
1523694436.246514,0.870231,0.014108,0.665121,0.021442,-0.071037,-0.053182,0.764387,-0.014108,-0.644573,0.032839,-0.073676,-0.084110,4.722015,10.456042,0.948547,,,,,,,
1523694436.276452,0.869808,0.014456,0.663842,0.054769,0.058063,0.012770,0.764111,-0.014456,-0.644893,0.028660,-0.059412,-0.080754,5.473633,10.527804,1.098572,,,,,,,
1523694436.306420,0.872172,0.016873,0.663175,0.059859,0.057711,0.060725,0.765603,-0.016872,-0.643061,0.002127,-0.028889,-0.019842,5.175293,10.379672,1.624023,,,,,,,
1523694436.336388,0.874041,0.019155,0.663262,0.020457,0.062186,0.043637,0.766773,-0.019154,-0.641602,-0.039264,-0.024135,0.034730,4.124908,10.159701,1.924377,,,,,,,
1523694436.366357,0.873777,0.019203,0.664295,-0.061054,-0.065914,0.004284,0.766602,-0.019202,-0.641804,-0.022126,-0.012003,-0.028758,5.771820,10.526172,0.798767,,,,,,,
1523694436.396325,0.872509,0.017381,0.665922,-0.082007,-0.005120,-0.020301,0.765814,-0.017380,-0.642797,0.008264,-0.018082,-0.107737,5.476624,10.827792,1.097351,,,,,,,
1523694436.426293,0.873854,0.016503,0.666324,0.019834,0.095512,-0.011800,0.766689,-0.016502,-0.641776,-0.007427,-0.020745,-0.061730,4.873367,10.230960,1.549500,,,,,,,
1523694436.456261,0.877185,0.018258,0.664630,0.101946,0.104697,0.013820,0.768799,-0.018257,-0.639199,-0.048111,-0.014595,0.062233,4.947769,10.080783,1.700134,,,,,,,
1523694436.486214,0.878788,0.019878,0.663193,0.033299,0.027318,0.009592,0.769799,-0.019877,-0.637946,-0.056084,-0.021566,0.082435,5.176804,10.305041,1.999329,,,,,,,
1523694436.516182,0.877892,0.019671,0.663850,-0.049235,-0.053196,0.003223,0.769230,-0.019670,-0.638638,-0.014057,-0.001250,-0.002765,5.099091,10.529574,1.173401,,,,,,,
1523694436.546150,0.876437,0.019188,0.664766,-0.013957,-0.034195,0.009618,0.768307,-0.019187,-0.639763,0.002109,-0.014916,-0.048958,4.952255,10.755374,1.322449,,,,,,,
1523694436.576118,0.876018,0.019946,0.665010,0.020124,-0.029107,0.029882,0.768028,-0.019944,-0.640075,-0.019080,-0.013747,-0.034485,4.125488,10.534183,1.397949,,,,,,,
1523694436.606087,0.875616,0.020674,0.665125,0.008699,0.013586,0.006392,0.767759,-0.020672,-0.640375,-0.038236,-0.011570,-0.005835,4.874557,10.081409,2.000061,,,,,,,
1523694436.636055,0.875452,0.020248,0.664734,-0.010442,-0.013712,-0.033023,0.767661,-0.020247,-0.640506,-0.009436,-0.029375,-0.024289,4.954361,10.830600,1.547119,,,,,,,
1523694436.666023,0.875225,0.019346,0.664438,-0.000839,-0.005321,-0.022360,0.767529,-0.019345,-0.640692,-0.005154,-0.050098,-0.047510,5.177094,10.604587,1.548157,,,,,,,
1523694436.695992,0.874564,0.019713,0.664313,0.010591,-0.018445,0.026676,0.767100,-0.019711,-0.641195,0.002554,-0.027865,-0.074534,4.347778,10.532718,0.947998,,,,,,,
1523694436.725960,0.875284,0.020921,0.664961,0.006504,0.047287,0.048986,0.767542,-0.020919,-0.640626,0.004003,-0.003785,-0.052443,4.277435,10.908191,1.096436,,,,,,,
1523694436.755928,0.876473,0.021949,0.665617,-0.005069,0.056022,0.021255,0.768287,-0.021948,-0.639699,-0.021110,-0.003214,-0.009608,4.725906,10.531543,1.473206,,,,,,,
1523694436.785896,0.878720,0.021278,0.665906,-0.038920,0.064985,-0.032058,0.769733,-0.021276,-0.637981,-0.041691,-0.016565,0.035991,4.647034,10.231753,1.324402,,,,,,,
1523694436.815865,0.878939,0.019241,0.666466,-0.061748,-0.028470,-0.033040,0.769905,-0.019240,-0.637838,-0.032951,-0.023729,-0.003748,4.424866,10.832232,0.796814,,,,,,,
1523694436.845833,0.878238,0.018434,0.667116,-0.010570,0.004040,0.009591,0.769470,-0.018433,-0.638387,-0.024459,-0.011383,-0.049113,4.272797,10.533069,0.947998,,,,,,,
1523694436.875801,0.879281,0.019035,0.667140,0.018440,0.045426,0.008498,0.770126,-0.019034,-0.637578,-0.026901,0.010077,-0.028835,4.499283,10.232791,1.699280,,,,,,,
1523694436.905769,0.880430,0.019152,0.666846,-0.012510,0.021228,-0.014943,0.770856,-0.019151,-0.636691,-0.033674,-0.019897,0.030963,4.949585,10.305697,1.624207,,,,,,,
1523694436.935707,0.880083,0.018344,0.667626,-0.044880,-0.026672,0.008522,0.770648,-0.018343,-0.636967,0.006055,-0.024290,-0.024974,4.270096,10.308002,0.873901,,,,,,,
1523694436.965675,0.878942,0.018301,0.668769,-0.026720,0.006048,0.034072,0.769921,-0.018300,-0.637847,0.029716,-0.010264,-0.078050,4.275635,10.683276,1.172363,,,,,,,
1523694436.995644,0.879480,0.017830,0.670426,-0.061776,0.024327,0.015913,0.770270,-0.017829,-0.637439,-0.000296,-0.013314,-0.061826,3.299316,10.687442,0.946899,,,,,,,
1523694437.025612,0.879925,0.017509,0.671755,-0.042722,-0.013969,0.014903,0.770558,-0.017508,-0.637099,-0.010228,0.005545,-0.053147,3.821625,10.010776,1.624817,,,,,,,
1523694437.055580,0.879108,0.016133,0.672935,-0.060662,-0.014718,-0.024529,0.770056,-0.016132,-0.637743,0.019343,-0.002712,-0.099775,5.098206,10.304797,1.399353,,,,,,,
,,,,,,,,,,,,,,,,25.308754,51.444765,11.552558,12.660000,175.781250,1523694436.996358,
1523694437.085548,0.879572,0.015346,0.672895,0.025003,0.048781,-0.018136,0.770361,-0.015346,-0.637393,0.006266,-0.018926,-0.073681,5.099075,10.978824,0.421570,,,,,,,
1523694437.115517,0.881810,0.015990,0.671845,0.042138,0.088935,0.007412,0.771778,-0.015989,-0.635661,-0.023166,-0.032717,-0.016072,3.743744,10.310138,0.648621,,,,,,,
1523694437.145485,0.883954,0.017378,0.671169,0.050432,0.066431,0.033004,0.773121,-0.017377,-0.633991,-0.050938,-0.027408,0.066074,4.496872,10.307284,1.173950,,,,,,,
1523694437.175453,0.885216,0.018977,0.671180,0.001029,0.005951,0.037294,0.773898,-0.018975,-0.632996,-0.056247,-0.002372,0.054947,5.249390,10.379199,1.474060,,,,,,,
1523694437.205421,0.883457,0.018459,0.672736,-0.074904,-0.065870,0.001087,0.772791,-0.018457,-0.634363,-0.040262,0.017267,0.001947,4.947311,10.529956,0.873352,,,,,,,
1523694437.235390,0.882674,0.017263,0.674200,-0.047976,-0.007518,0.005306,0.772310,-0.017262,-0.634982,-0.010469,0.009053,-0.038022,4.723053,10.605960,0.872925,,,,,,,
1523694437.265358,0.881851,0.017358,0.674555,0.030937,-0.026886,0.009658,0.771786,-0.017357,-0.635616,-0.014661,0.006112,-0.030873,4.196442,10.083926,1.474731,,,,,,,
1523694437.295326,0.881872,0.019462,0.672737,0.103475,-0.023946,0.021418,0.771770,-0.019461,-0.635575,-0.005962,-0.021402,0.002060,4.048248,10.084903,1.774658,,,,,,,
1523694437.325294,0.879299,0.020033,0.671896,-0.014041,-0.083952,-0.016969,0.770123,-0.020032,-0.637552,0.000629,-0.019580,-0.041083,4.496140,9.783038,1.926086,,,,,,,
1523694437.355263,0.878116,0.019387,0.672746,-0.042732,-0.015053,0.017040,0.769378,-0.019386,-0.638470,-0.024292,-0.012261,-0.067127,5.096695,10.379428,1.024048,,,,,,,
1523694437.385231,0.876497,0.019440,0.674015,-0.018485,-0.068356,0.032035,0.768343,-0.019438,-0.639714,-0.027025,-0.001146,-0.084086,3.973099,10.384707,1.248413,,,,,,,
1523694437.415199,0.876024,0.020869,0.674145,0.052348,0.019642,0.036255,0.768018,-0.020867,-0.640060,-0.019254,0.001824,-0.065141,3.817413,9.860339,1.175415,,,,,,,
1523694437.445168,0.877810,0.021949,0.673357,0.020926,0.097608,-0.010721,0.769142,-0.021947,-0.638672,-0.038201,-0.028102,0.021072,5.025009,10.305423,1.699280,,,,,,,
1523694437.475139,0.879798,0.021525,0.673266,-0.027430,0.036053,-0.004302,0.770418,-0.021523,-0.637147,-0.022066,-0.029884,0.015581,4.722168,10.156573,1.474670,,,,,,,
1523694437.505107,0.879853,0.021343,0.674182,-0.006359,0.014515,0.029827,0.770456,-0.021341,-0.637107,-0.019433,-0.013190,-0.032021,4.720062,10.305972,0.874084,,,,,,,
1523694437.535075,0.880850,0.022627,0.674487,0.025808,0.052620,0.038344,0.771069,-0.022625,-0.636321,-0.028363,0.005886,-0.044206,4.272202,10.383212,1.098572,,,,,,,
1523694437.565013,0.882639,0.024270,0.674547,0.033330,0.061119,0.036209,0.772176,-0.024267,-0.634917,-0.039800,0.016333,0.005476,4.046890,10.084674,1.549622,,,,,,,
1523694437.594981,0.884157,0.024683,0.674620,-0.016719,0.042409,-0.005366,0.773131,-0.024680,-0.633737,-0.049544,-0.010369,0.042245,5.248505,10.154422,1.700012,,,,,,,
1523694437.624950,0.883194,0.022987,0.675165,-0.073706,-0.093167,-0.046831,0.772552,-0.022985,-0.634507,-0.013549,-0.024699,-0.028274,4.724411,10.381549,1.473755,,,,,,,
1523694437.654918,0.879834,0.020780,0.675840,-0.050257,-0.078478,-0.027653,0.770453,-0.020779,-0.637130,0.026071,-0.044804,-0.106248,4.500015,10.532413,1.323120,,,,,,,
1523694437.684886,0.879281,0.020935,0.676069,0.037368,0.002724,0.028806,0.770098,-0.020933,-0.637554,0.025373,-0.025057,-0.106022,5.705078,10.902209,1.547180,,,,,,,
1523694437.714854,0.880629,0.023251,0.675372,0.059002,0.076965,0.040474,0.770917,-0.023248,-0.636483,0.005969,-0.022467,-0.016777,5.330414,10.529574,2.223511,,,,,,,
1523694437.744823,0.882080,0.024191,0.675439,-0.018007,0.010427,0.009585,0.771822,-0.024188,-0.635350,0.013349,-0.028867,-0.037395,5.552536,10.378360,1.999207,,,,,,,
1523694437.774791,0.881929,0.022928,0.676851,-0.085151,0.018169,-0.008595,0.771750,-0.022926,-0.635485,-0.006430,-0.026543,-0.061552,5.103882,10.829852,1.472168,,,,,,,
1523694437.804759,0.882743,0.022098,0.678326,-0.024388,0.035852,0.024463,0.772281,-0.022096,-0.634868,-0.034152,0.009736,-0.035771,4.280457,10.534305,2.222961,,,,,,,
1523694437.834727,0.883153,0.023389,0.678530,0.054368,0.004690,0.045864,0.772519,-0.023386,-0.634533,-0.034223,0.032649,-0.028721,4.657089,10.607760,2.372864,,,,,,,
1523694437.864696,0.883753,0.025496,0.677700,0.060022,0.040993,0.018133,0.772860,-0.025493,-0.634036,-0.062701,0.029491,0.018604,6.009857,10.751895,2.597961,,,,,,,
1523694437.894664,0.884373,0.025497,0.677150,-0.032853,-0.007352,-0.025573,0.773252,-0.025495,-0.633557,-0.024519,0.001111,0.014722,4.966507,11.281817,2.820312,,,,,,,
1523694437.924632,0.883927,0.024410,0.677984,-0.020186,0.004033,0.012787,0.772991,-0.024408,-0.633919,-0.028255,-0.016852,0.004143,4.667877,11.283389,3.045166,,,,,,,
1523694437.954600,0.883631,0.025489,0.678272,0.030752,-0.026052,0.043746,0.772782,-0.025486,-0.634131,-0.046205,-0.016216,0.023398,5.494629,11.279956,3.345581,,,,,,,
1523694437.984569,0.881275,0.026558,0.678490,-0.004669,-0.111816,0.009725,0.771265,-0.026555,-0.635932,-0.035364,0.002858,-0.013436,4.752319,11.284579,4.620239,,,,,,,
1523694438.014537,0.878543,0.025259,0.678914,-0.062964,-0.073032,-0.042584,0.769550,-0.025256,-0.638059,-0.030552,-0.035169,-0.039355,4.680923,11.734744,4.468323,,,,,,,
1523694438.044505,0.876330,0.022010,0.680355,-0.118339,-0.061099,-0.058615,0.768196,-0.022008,-0.639809,-0.015006,-0.034831,-0.093681,4.157715,11.962024,4.392212,,,,,,,
,,,,,,,,,,,,,,,,25.308647,51.444783,11.713016,13.270000,175.078125,1523694437.996337,
1523694438.074474,0.876994,0.021196,0.680442,0.061206,0.069655,0.021304,0.768634,-0.021194,-0.639311,-0.056185,-0.067353,0.008955,1.085236,12.575244,3.788208,,,,,,,
1523694438.104442,0.876951,0.023779,0.679378,0.065942,-0.041013,0.041666,0.768562,-0.023777,-0.639306,-0.012138,0.002231,-0.032325,1.080276,12.574450,2.963196,,,,,,,
1523694438.134410,0.877117,0.025109,0.679165,-0.000785,0.054933,0.021273,0.768643,-0.025106,-0.639158,-0.020886,0.009420,-0.021044,1.974396,12.794070,1.612793,,,,,,,
1523694438.164378,0.878471,0.024189,0.680761,-0.104311,0.033064,-0.005422,0.769525,-0.024187,-0.638131,-0.027124,0.007463,-0.035987,1.970627,12.868335,0.862488,,,,,,,
1523694438.194316,0.878251,0.022386,0.683123,-0.064153,-0.023549,0.023428,0.769417,-0.022384,-0.638327,-0.021400,0.006134,-0.076928,2.338272,12.491092,0.264221,,,,,,,
1523694438.224284,0.877339,0.023389,0.683589,0.054359,-0.013289,0.033099,0.768817,-0.023387,-0.639014,0.008862,0.012889,-0.134409,3.388351,12.411517,0.414978,,,,,,,
1523694438.254253,0.878357,0.025325,0.682197,0.091204,0.073955,0.004270,0.769431,-0.025322,-0.638201,-0.034690,-0.002662,-0.044218,2.412689,11.667026,1.542480,,,,,,,
1523694438.284221,0.880795,0.026123,0.680649,0.010132,0.061552,-0.018146,0.770968,-0.026120,-0.636310,-0.032046,-0.033038,0.022205,3.387924,11.962192,1.091797,,,,,,,
1523694438.314189,0.879535,0.024592,0.681903,-0.081295,-0.077516,-0.006344,0.770196,-0.024589,-0.637306,-0.023553,-0.016411,-0.054131,3.160690,11.962832,0.716675,,,,,,,
1523694438.344157,0.879535,0.024285,0.682603,0.007789,0.058145,0.015941,0.770202,-0.024283,-0.637310,-0.038696,-0.031213,-0.042026,3.911560,11.959613,0.867065,,,,,,,
1523694438.374126,0.880635,0.024665,0.682639,-0.009429,0.000958,-0.006385,0.770895,-0.024663,-0.636457,-0.053076,-0.027095,-0.012728,3.761261,11.660739,1.318237,,,,,,,
1523694438.404094,0.880010,0.023406,0.683601,-0.083128,-0.008421,-0.007491,0.770521,-0.023404,-0.636958,0.001299,-0.036686,-0.037664,5.113327,11.505252,1.919495,,,,,,,
1523694438.434062,0.879543,0.021627,0.685563,-0.084128,-0.005128,-0.020292,0.770254,-0.021625,-0.637344,0.007868,-0.005978,-0.083680,4.433243,11.357715,1.319763,,,,,,,
1523694438.464014,0.881491,0.019762,0.686232,-0.029111,0.113746,-0.022488,0.771524,-0.019761,-0.635866,0.007071,-0.034011,-0.041609,3.305740,11.287478,1.019470,,,,,,,
1523694438.493983,0.883313,0.020299,0.686399,0.028765,0.001610,0.039455,0.772673,-0.020298,-0.634452,-0.002760,-0.007473,-0.055871,3.682526,11.510715,0.943787,,,,,,,
1523694438.523951,0.882702,0.022842,0.686134,0.067170,0.020458,0.063981,0.772243,-0.022840,-0.634889,-0.027843,0.016645,-0.056181,3.528214,10.761935,1.471680,,,,,,,
1523694438.553919,0.884131,0.023918,0.686088,-0.011414,0.037053,-0.002154,0.773130,-0.023916,-0.633770,-0.054899,0.000799,0.020595,4.052567,11.058978,0.870789,,,,,,,
1523694438.583887,0.884075,0.021993,0.687742,-0.127877,0.000255,-0.017120,0.773128,-0.021991,-0.633841,-0.071072,0.016895,0.030478,4.197922,10.907794,0.346436,,,,,,,
1523694438.613856,0.883330,0.019873,0.690162,-0.064131,-0.031979,0.012785,0.772690,-0.019872,-0.634445,-0.040421,0.029042,-0.017578,3.824295,10.909701,0.571228,,,,,,,
1523694438.643824,0.881930,0.020463,0.690708,0.033939,-0.048276,0.028858,0.771793,-0.020462,-0.635518,0.001035,0.041732,-0.082301,4.946564,10.454959,0.873596,,,,,,,
1523694438.673792,0.881263,0.021229,0.689812,0.032309,0.008358,-0.017010,0.771356,-0.021227,-0.636023,-0.014322,-0.014600,-0.042841,5.021851,10.529544,0.798340,,,,,,,
1523694438.703760,0.880055,0.020233,0.689687,-0.047005,-0.060481,-0.020205,0.770603,-0.020232,-0.636968,-0.015858,-0.017397,-0.014491,4.270828,10.832248,0.121765,,,,,,,
1523694438.733729,0.879635,0.020652,0.689900,0.063992,0.018398,0.056518,0.770329,-0.020651,-0.637286,-0.024769,-0.012155,-0.027326,4.644592,10.980105,-0.328613,,,,,,,
1523694438.763697,0.879439,0.024662,0.689082,0.118160,-0.006435,0.091755,0.770134,-0.024660,-0.637379,-0.055199,0.017366,-0.031383,4.647003,10.905627,0.196655,,,,,,,
1523694438.793665,0.878893,0.027223,0.688681,-0.004512,-0.058799,0.025656,0.769734,-0.027220,-0.637757,-0.048543,0.018935,-0.038513,5.093842,10.453845,0.423706,,,,,,,
1523694438.823603,0.876529,0.024995,0.690746,-0.126902,-0.036844,-0.030932,0.768270,-0.024992,-0.639611,-0.027410,0.036970,-0.058188,5.842590,10.824649,-0.402405,,,,,,,
1523694438.853571,0.877855,0.023148,0.691736,-0.011135,0.093398,-0.006470,0.769151,-0.023146,-0.638621,-0.040925,0.010146,-0.018407,5.021378,10.978717,-0.028442,,,,,,,
1523694438.883540,0.880113,0.024454,0.691183,0.073926,0.077941,0.046881,0.770567,-0.024451,-0.636863,-0.031645,0.009421,0.017829,5.243683,10.528018,0.273499,,,,,,,
1523694438.913508,0.881253,0.026467,0.691212,-0.007628,-0.014296,0.045847,0.771253,-0.026464,-0.635952,-0.028669,0.029180,-0.015049,5.929749,11.050906,1.246704,,,,,,,
1523694438.943476,0.879997,0.024702,0.693395,-0.135506,-0.045377,-0.024529,0.770489,-0.024699,-0.636948,-0.004787,0.021006,-0.058288,4.804352,10.831271,1.547058,,,,,,,
1523694438.973444,0.879443,0.021110,0.695884,-0.110549,0.032211,-0.035248,0.770199,-0.021108,-0.637427,-0.043926,-0.019587,-0.034585,3.979385,10.834979,1.546631,,,,,,,
1523694439.003413,0.881115,0.020701,0.696259,0.037458,0.027107,0.035185,0.771270,-0.020700,-0.636144,-0.028183,-0.016883,-0.040217,4.204086,10.983676,1.246155,,,,,,,
1523694439.033381,0.879653,0.023761,0.695925,0.096778,-0.013786,0.088541,0.770287,-0.023759,-0.637228,0.006767,0.024552,-0.075647,3.379120,10.762759,1.621582,,,,,,,
1523694439.063349,0.881490,0.026824,0.695154,0.052731,0.098260,0.035128,0.771396,-0.026821,-0.635762,-0.003757,0.019009,-0.034739,2.699646,10.765063,0.871277,,,,,,,
,,,,,,,,,,,,,,,,25.308513,51.444818,11.857174,14.290000,174.023438,1523694438.996317,
1523694439.093317,0.883129,0.026265,0.696438,-0.117149,0.027759,-0.003288,0.772449,-0.026262,-0.634506,0.015942,0.031480,-0.037735,4.054199,11.358737,0.644592,,,,,,,
1523694439.123286,0.884756,0.023906,0.699849,-0.118191,0.070041,0.028636,0.773526,-0.023903,-0.633287,-0.004589,0.027306,-0.066771,2.999451,11.063190,0.345215,,,,,,,
1523694439.153254,0.887376,0.023427,0.702193,-0.028358,0.112259,0.037186,0.775191,-0.023425,-0.631264,-0.044997,0.051944,-0.026847,3.674423,11.060153,0.345520,,,,,,,
1523694439.183222,0.888407,0.024173,0.702302,0.027718,-0.036416,0.005407,0.775828,-0.024170,-0.630454,-0.060053,0.032837,0.002722,5.175720,11.053622,0.571350,,,,,,,
1523694439.213190,0.886796,0.024229,0.701668,0.011763,-0.041577,-0.010583,0.774810,-0.024227,-0.631702,-0.006713,0.032360,-0.059857,4.504333,11.506488,0.419189,,,,,,,
1523694439.243159,0.887611,0.024575,0.701178,0.035742,0.091025,0.011684,0.775318,-0.024573,-0.631065,-0.015613,0.006964,-0.030983,5.183365,11.504107,1.094543,,,,,,,
1523694439.273127,0.890445,0.025651,0.701433,-0.007256,0.082321,0.057469,0.777082,-0.025648,-0.628848,-0.048917,0.013441,0.069141,5.104034,10.979617,1.246582,,,,,,,
1523694439.303095,0.889586,0.026339,0.703724,-0.057241,-0.101472,0.068281,0.776528,-0.026336,-0.629504,-0.053368,0.042022,0.039233,4.875015,9.856860,2.450989,,,,,,,
1523694439.333063,0.887016,0.025986,0.705891,-0.063253,-0.080865,0.010719,0.774915,-0.025983,-0.631503,-0.033323,0.045941,-0.045270,5.697601,9.703006,2.302002,,,,,,,
1523694439.363032,0.883862,0.023813,0.707334,-0.089738,-0.092120,-0.040442,0.772961,-0.023811,-0.633979,0.004551,0.035407,-0.134988,5.475449,10.303470,1.774536,,,,,,,
1523694439.393000,0.883327,0.023134,0.707667,0.049323,0.043048,0.028796,0.772634,-0.023132,-0.634403,-0.010900,0.023193,-0.062954,4.190933,9.259418,1.928040,,,,,,,
1523694439.422968,0.884881,0.026084,0.706406,0.099350,0.042749,0.055462,0.773562,-0.026082,-0.633155,-0.032306,0.016438,0.010902,3.884811,8.735644,1.779968,,,,,,,
1523694439.452937,0.885040,0.027550,0.706268,-0.017103,-0.006724,0.028792,0.773633,-0.027546,-0.633007,-0.038663,0.016270,0.024364,5.231888,8.579349,1.556274,,,,,,,
1523694439.482872,0.883152,0.026275,0.708659,-0.130464,-0.076413,0.005339,0.772463,-0.026272,-0.634489,-0.012392,0.020427,-0.062319,4.703461,8.506289,1.106262,,,,,,,
1523694439.512841,0.882204,0.024161,0.711582,-0.073564,0.021057,0.027653,0.771902,-0.024159,-0.635254,-0.009787,0.032155,-0.105453,3.798126,7.835589,1.333557,,,,,,,
1523694439.542809,0.883050,0.025796,0.712094,0.066124,0.017303,0.058662,0.772408,-0.025793,-0.634575,-0.022271,0.050268,-0.054939,4.319489,7.383395,1.485596,,,,,,,
1523694439.572777,0.884012,0.027685,0.711820,0.024860,0.066510,0.027675,0.772979,-0.027682,-0.633800,-0.010391,0.051058,-0.036549,3.269852,7.013782,2.161560,,,,,,,
1523694439.602745,0.886096,0.027483,0.712228,-0.044411,0.053086,-0.005382,0.774303,-0.027479,-0.632191,-0.002727,0.014311,-0.030834,2.741867,7.390033,1.034790,,,,,,,
1523694439.632714,0.887068,0.025907,0.714050,-0.076622,0.039196,0.016983,0.774949,-0.025904,-0.631465,0.007537,0.020426,-0.069707,1.770798,7.919177,0.807190,,,,,,,
1523694439.662682,0.888129,0.026997,0.715018,0.050121,0.034266,0.070351,0.775597,-0.026994,-0.630624,-0.012779,0.033112,-0.080848,1.771988,7.994250,0.881897,,,,,,,
1523694439.692650,0.889245,0.029677,0.714800,0.045038,0.057821,0.044763,0.776241,-0.029673,-0.629710,-0.041500,0.027674,-0.016896,1.550766,8.145617,1.256165,,,,,,,
1523694439.722618,0.891478,0.029295,0.715305,-0.058141,0.075529,-0.017146,0.777654,-0.029291,-0.627983,-0.059087,0.000650,0.038917,2.223297,8.666324,-0.020630,,,,,,,
1523694439.752587,0.892133,0.026603,0.717020,-0.113797,0.021591,-0.035238,0.778123,-0.026599,-0.627520,-0.064958,-0.019192,0.067096,2.147827,9.115832,-0.847412,,,,,,,
1523694439.782555,0.891904,0.024202,0.719238,-0.092914,-0.026625,0.013842,0.778027,-0.024199,-0.627737,-0.038709,0.009932,0.021551,2.665756,9.037448,-1.896851,,,,,,,
1523694439.812523,0.889798,0.024333,0.721326,-0.012262,-0.083457,0.058711,0.776701,-0.024331,-0.629372,0.030977,0.060799,-0.095100,3.409149,8.508883,-2.119385,,,,,,,
1523694439.842491,0.888964,0.025752,0.721694,0.036518,0.048358,0.033047,0.776148,-0.025749,-0.629997,0.063253,0.060981,-0.147270,3.261215,9.034015,-2.646545,,,,,,,
1523694439.872460,0.891739,0.026882,0.721132,0.030550,0.111253,0.005283,0.777870,-0.026879,-0.627822,0.027305,0.032098,-0.037202,4.159668,9.329226,-3.397278,,,,,,,
1523694439.902428,0.895693,0.027995,0.721003,0.043100,0.127790,0.068135,0.780323,-0.027991,-0.624722,-0.045597,-0.002175,0.067548,4.607559,9.251987,-3.621765,,,,,,,
1523694439.932396,0.896587,0.032229,0.721890,0.075932,-0.061001,0.158913,0.780782,-0.032224,-0.623945,-0.096074,0.032681,0.065259,6.407654,8.944415,-3.094604,,,,,,,
1523694439.962364,0.892628,0.034738,0.724071,-0.077637,-0.132225,0.065109,0.778240,-0.034731,-0.626978,-0.105816,0.077929,-0.002584,9.483566,8.631244,-2.416809,,,,,,,
1523694439.992333,0.888510,0.031845,0.727816,-0.188206,-0.136567,-0.031945,0.775726,-0.031839,-0.630238,-0.066727,0.077478,-0.086559,8.888397,8.709598,-1.742432,,,,,,,
1523694440.022301,0.886360,0.028108,0.730355,-0.074424,0.000209,-0.029864,0.774456,-0.028105,-0.631976,-0.026760,0.051390,-0.081784,8.368683,8.787692,-0.992981,,,,,,,
1523694440.052269,0.887455,0.028994,0.729502,0.106936,0.038610,0.034176,0.775128,-0.028990,-0.631111,-0.000516,0.014784,0.010689,8.900421,8.786426,0.132263,,,,,,,
1523694440.082238,0.889049,0.032077,0.727970,0.083517,0.091615,0.062860,0.776060,-0.032072,-0.629816,0.015490,-0.005327,0.051752,7.778931,8.417666,1.333191,,,,,,,
,,,,,,,,,,,,,,,,25.308410,51.444815,12.083738,15.080000,172.617188,1523694439.996296,
1523694440.112206,0.891444,0.033964,0.729079,-0.042813,0.025967,0.073492,0.777517,-0.033957,-0.627916,0.006617,0.012656,-0.012236,7.793610,9.393420,2.154297,,,,,,,
1523694440.142144,0.889382,0.032702,0.732779,-0.154090,-0.081840,0.028776,0.776254,-0.032696,-0.629544,-0.033258,0.033444,-0.066531,7.715317,9.243472,1.854858,,,,,,,
1523694440.172112,0.888121,0.031001,0.736322,-0.089746,-0.008727,0.036204,0.775502,-0.030996,-0.630557,-0.103688,0.054052,-0.027509,5.389679,8.729693,2.605713,,,,,,,
1523694440.202080,0.888897,0.031948,0.737583,0.025637,0.035466,0.058616,0.775967,-0.031943,-0.629936,-0.080334,0.058280,-0.037865,5.159927,7.981174,3.058594,,,,,,,
1523694440.232048,0.889775,0.033912,0.737880,0.034189,0.029109,0.052239,0.776470,-0.033905,-0.629214,-0.024136,0.071350,-0.052091,5.006760,8.430591,1.781799,,,,,,,
1523694440.262017,0.891557,0.033446,0.738567,-0.072925,0.097950,-0.027830,0.777602,-0.033440,-0.627839,0.027848,0.039925,-0.033110,3.128845,8.363666,1.406128,,,,,,,
1523694440.291985,0.893680,0.030713,0.740649,-0.115933,0.058539,-0.001172,0.779002,-0.030708,-0.626242,0.019323,0.027153,0.016135,3.192734,7.612781,0.809082,,,,,,,
1523694440.321953,0.893459,0.030229,0.743254,-0.031391,-0.047389,0.073581,0.778875,-0.030224,-0.626423,0.031276,0.044445,-0.082500,4.020248,7.908984,0.733337,,,,,,,
1523694440.351921,0.892380,0.031893,0.744200,0.033023,-0.004842,0.043756,0.778158,-0.031888,-0.627231,0.013437,0.048673,-0.129407,4.020538,8.208529,0.282166,,,,,,,
1523694440.381890,0.893306,0.032317,0.743699,-0.005912,0.040380,-0.026645,0.778728,-0.032311,-0.626502,-0.026698,-0.001883,-0.042917,4.694427,8.954074,-1.145508,,,,,,,
1523694440.411858,0.894088,0.031036,0.744533,-0.061765,0.016848,0.015954,0.779249,-0.031031,-0.625918,-0.053587,-0.017858,0.023547,5.745285,8.949496,-0.994934,,,,,,,
1523694440.441826,0.893553,0.031677,0.746725,-0.015297,-0.011388,0.087400,0.778899,-0.031672,-0.626322,-0.014723,0.074595,-0.036382,5.447418,8.352191,0.357239,,,,,,,
1523694440.471781,0.894928,0.033237,0.748126,-0.023152,0.090914,0.046812,0.779720,-0.033230,-0.625219,-0.006236,0.060239,-0.024165,6.421646,8.272799,0.358093,,,,,,,
1523694440.501750,0.896471,0.032210,0.750351,-0.115094,0.014923,0.005267,0.780710,-0.032204,-0.624036,0.008322,0.037682,-0.010775,6.427170,9.097323,-0.095154,,,,,,,
1523694440.531718,0.896506,0.029518,0.753495,-0.121577,0.002181,0.007400,0.780796,-0.029513,-0.624061,-0.033985,0.025470,0.013236,5.531250,9.102023,0.579346,,,,,,,
1523694440.561686,0.896158,0.028925,0.755322,-0.008707,-0.030212,0.039490,0.780593,-0.028921,-0.624343,-0.064376,0.045553,0.027770,4.635971,8.807330,1.855042,,,,,,,
1523694440.591654,0.894616,0.029883,0.755770,-0.000156,-0.043949,0.025657,0.779607,-0.029878,-0.625529,-0.059545,0.053209,0.000696,5.982452,8.725833,1.406067,,,,,,,
1523694440.621623,0.893068,0.029661,0.756680,-0.041886,-0.077768,0.013940,0.778643,-0.029657,-0.626738,-0.033450,0.042673,-0.018113,4.712875,9.630939,0.801819,,,,,,,
1523694440.651591,0.890921,0.028577,0.758390,-0.069515,-0.042657,0.018142,0.777321,-0.028573,-0.628429,-0.017830,0.024529,-0.035481,4.560944,9.481540,0.727295,,,,,,,
1523694440.681559,0.890172,0.029003,0.760255,-0.020602,-0.029330,0.069316,0.776840,-0.028999,-0.629003,-0.038925,0.041557,0.006689,4.035065,9.259143,0.952942,,,,,,,
1523694440.711527,0.888552,0.029149,0.761987,-0.064163,-0.037360,0.019202,0.775817,-0.029145,-0.630258,-0.022445,0.026078,-0.004935,4.632507,8.956531,1.029480,,,,,,,
1523694440.741496,0.887214,0.027726,0.764372,-0.101622,-0.073311,0.006428,0.775005,-0.027722,-0.631321,-0.015865,0.047086,-0.070568,4.257950,9.632159,-0.023438,,,,,,,
1523694440.771433,0.886615,0.025465,0.766228,-0.073215,0.045781,-0.014982,0.774673,-0.025462,-0.631823,-0.019241,0.010615,-0.084501,4.258087,9.781924,-0.249023,,,,,,,
1523694440.801402,0.887833,0.025897,0.766959,0.053309,0.009894,0.056543,0.775433,-0.025895,-0.630872,-0.065167,0.035767,-0.033556,4.853561,9.329257,-0.246948,,,,,,,
1523694440.831370,0.887405,0.029340,0.765764,0.105560,0.006509,0.066175,0.775089,-0.029335,-0.631145,-0.029438,0.038476,-0.030110,5.306717,9.327746,0.278320,,,,,,,
1523694440.861338,0.888686,0.030830,0.765827,-0.046589,0.061453,0.012732,0.775862,-0.030826,-0.630123,-0.040343,0.035007,0.007167,6.505890,9.471972,-0.096619,,,,,,,
1523694440.891307,0.889211,0.027218,0.768830,-0.203433,0.015495,-0.045939,0.776275,-0.027215,-0.629781,-0.027251,0.013207,-0.018657,5.155518,9.028720,0.579468,,,,,,,
1523694440.921275,0.889018,0.023464,0.772125,-0.098057,-0.010535,-0.007479,0.776227,-0.023461,-0.629991,-0.034421,0.037911,-0.060057,4.935349,9.105380,1.254028,,,,,,,
1523694440.951243,0.888370,0.023040,0.772130,0.029060,-0.013949,-0.021228,0.775826,-0.023038,-0.630500,-0.000191,0.020810,-0.101678,4.707809,8.581866,1.705994,,,,,,,
1523694440.981211,0.890318,0.022493,0.770918,0.005122,0.099979,-0.043745,0.777062,-0.022491,-0.628995,-0.029672,-0.028412,-0.030078,4.935349,9.105380,1.254028,,,,,,,
1523694441.011180,0.891326,0.020695,0.770907,-0.073113,0.030035,-0.044788,0.777726,-0.020693,-0.628236,-0.027940,-0.047437,0.039079,4.626205,8.730884,0.355347,,,,,,,
1523694441.041148,0.892715,0.019147,0.772678,-0.051142,0.034682,0.043656,0.778622,-0.019146,-0.627174,-0.027646,-0.001743,0.025185,3.419388,7.911532,0.583069,,,,,,,
1523694441.071116,0.892170,0.021736,0.773748,0.073292,-0.005358,0.102395,0.778239,-0.021734,-0.627566,-0.001811,0.049338,-0.024717,3.940445,7.609042,0.434509,,,,,,,
,,,,,,,,,,,,,,,,25.308276,51.444843,11.995574,15.090000,170.156250,1523694440.996275,
1523694441.101084,0.894477,0.024994,0.773868,0.023771,0.106575,0.070270,0.779625,-0.024991,-0.625721,-0.011528,0.060941,-0.013332,4.761948,7.979144,-0.766602,,,,,,,
1523694441.131053,0.895774,0.024395,0.775730,-0.126882,-0.004100,-0.004319,0.780447,-0.024392,-0.624719,0.007745,0.066476,-0.039924,4.239532,8.281421,-0.843018,,,,,,,
1523694441.161021,0.895006,0.021731,0.778807,-0.083299,-0.020328,0.020244,0.780016,-0.021729,-0.625356,-0.005434,0.056138,-0.067607,4.535919,8.054858,-1.067017,,,,,,,
1523694441.190989,0.894335,0.023690,0.778837,0.122437,-0.031858,0.074759,0.779561,-0.023688,-0.625851,0.005564,0.069708,-0.086078,5.288437,8.126773,-0.766907,,,,,,,
1523694441.220957,0.893914,0.027550,0.777095,0.108861,0.025629,0.065098,0.779221,-0.027547,-0.626117,-0.018936,0.050084,-0.018414,6.269821,8.497806,-0.317871,,,,,,,
1523694441.250926,0.894183,0.030080,0.777023,0.015731,-0.032550,0.060823,0.779332,-0.030075,-0.625862,-0.083424,0.025314,0.046852,6.269821,8.722430,-0.693787,,,,,,,
1523694441.280894,0.892216,0.030223,0.778704,-0.056940,-0.071557,0.041633,0.778096,-0.030218,-0.627392,-0.124822,0.033667,0.078106,6.042618,8.049212,0.058777,,,,,,,
1523694441.310862,0.889038,0.030330,0.780545,-0.027190,-0.114079,0.033176,0.776096,-0.030326,-0.629859,-0.073124,0.075949,-0.039773,5.821960,8.125796,0.658386,,,,,,,
1523694441.340830,0.886853,0.030276,0.780634,0.008736,-0.019261,-0.015900,0.774719,-0.030271,-0.631555,-0.009643,0.034117,-0.089698,6.047409,8.349490,0.357544,,,,,,,
1523694441.370799,0.887284,0.030077,0.779756,0.023867,0.004196,-0.031899,0.774996,-0.030072,-0.631224,-0.019106,-0.009357,-0.004335,6.350662,8.947665,-0.094604,,,,,,,
1523694441.400767,0.886091,0.029157,0.779321,-0.036193,-0.029776,-0.012743,0.774264,-0.029153,-0.632166,-0.022417,-0.044470,0.106989,5.075424,8.653857,0.355896,,,,,,,
1523694441.430735,0.885441,0.028749,0.781034,-0.048460,-0.080097,0.044841,0.773861,-0.028745,-0.632677,-0.025128,-0.036456,-0.008559,4.620239,7.681659,1.109558,,,,,,,
1523694441.460673,0.881048,0.029544,0.782578,-0.014519,-0.121689,0.053437,0.771057,-0.029540,-0.636055,0.004028,-0.025285,-0.128654,5.741119,7.675937,0.435120,,,,,,,
1523694441.490629,0.880298,0.029665,0.784397,-0.083085,0.020084,0.014879,0.770577,-0.029661,-0.636631,-0.017388,-0.002963,-0.114147,4.619034,8.055835,0.283081,,,,,,,
1523694441.520598,0.880989,0.026795,0.787262,-0.152281,0.032124,-0.011816,0.771080,-0.026792,-0.636150,-0.029151,-0.018176,-0.068013,4.089539,7.608218,0.284607,,,,,,,
1523694441.550566,0.882662,0.025614,0.789795,-0.028392,0.093135,0.032966,0.772166,-0.025611,-0.634879,-0.042995,0.029090,-0.027078,5.216309,7.154208,1.336975,,,,,,,
1523694441.580534,0.885116,0.026180,0.789629,0.021996,0.096461,-0.004296,0.773711,-0.026177,-0.632973,-0.005873,0.026421,-0.012413,5.288635,6.928805,1.262878,,,,,,,
1523694441.610502,0.888007,0.026448,0.789283,0.003687,0.069914,0.001037,0.775532,-0.026445,-0.630728,-0.018955,0.022661,0.033896,4.243912,7.458499,1.260254,,,,,,,
1523694441.640471,0.887037,0.025187,0.790725,-0.108017,-0.066941,0.009613,0.774945,-0.025185,-0.631501,-0.037488,0.035789,0.036561,5.065720,7.005038,1.487488,,,,,,,
1523694441.670439,0.884583,0.024764,0.793500,-0.025230,-0.107950,0.069389,0.773401,-0.024761,-0.633408,-0.034006,0.085491,-0.030426,3.797714,6.937015,2.762146,,,,,,,
1523694441.700407,0.881381,0.027119,0.793564,0.067903,-0.078330,0.052397,0.771322,-0.027115,-0.635842,0.019450,0.077500,-0.134239,3.499054,7.387836,2.235168,,,,,,,
1523694441.730375,0.880440,0.028177,0.793189,0.003352,-0.012942,-0.004199,0.770700,-0.028173,-0.636549,0.035345,0.053503,-0.139452,4.328644,8.208499,1.632324,,,,,,,
1523694441.760344,0.881227,0.027162,0.793234,-0.015469,0.066867,-0.012823,0.771223,-0.027158,-0.635960,-0.007368,-0.014666,-0.040050,3.349625,7.987597,1.332703,,,,,,,
1523694441.790312,0.882194,0.028534,0.793368,0.062729,-0.019983,0.069375,0.771808,-0.028530,-0.635190,-0.041095,0.008266,0.002575,3.507889,8.362643,2.081299,,,,,,,
1523694441.820280,0.880479,0.031529,0.792778,0.070230,-0.027358,0.057667,0.770649,-0.031524,-0.636455,-0.034137,-0.008912,-0.024846,4.100952,7.984439,1.558044,,,,,,,
1523694441.850248,0.880901,0.032921,0.793387,-0.031960,0.018700,0.040504,0.770882,-0.032915,-0.636102,-0.081002,0.013948,0.018243,4.101089,8.358844,0.956604,,,,,,,
1523694441.880217,0.881194,0.031171,0.796212,-0.166336,0.016063,0.009507,0.771112,-0.031166,-0.635911,-0.091898,0.007179,0.066712,3.950043,8.209598,1.032104,,,,,,,
1523694441.910185,0.881010,0.028187,0.801711,-0.199860,-0.019241,0.057454,0.771063,-0.028184,-0.636109,-0.088904,0.077164,0.057511,4.396729,7.608035,1.484741,,,,,,,
1523694441.940153,0.879852,0.027349,0.805218,-0.033337,-0.042963,0.045890,0.770344,-0.027345,-0.637017,-0.024204,0.080247,-0.024238,4.182266,8.209750,2.232178,,,,,,,
1523694441.970121,0.879304,0.028695,0.805278,0.043813,-0.010018,0.019268,0.769966,-0.028691,-0.637414,0.001595,0.043584,-0.069937,3.808319,8.361362,2.156433,,,,,,,
1523694442.000090,0.879089,0.028390,0.804683,-0.015662,0.001079,-0.028725,0.769835,-0.028386,-0.637586,-0.030654,-0.023463,-0.019000,2.379349,7.917865,2.232483,,,,,,,
1523694442.030058,0.878221,0.028663,0.805118,0.030550,-0.063400,0.059803,0.769276,-0.028659,-0.638249,-0.047123,0.011661,-0.047268,2.752518,7.691257,2.308594,,,,,,,
1523694442.060026,0.874716,0.031731,0.805193,0.070769,-0.108332,0.088648,0.766963,-0.031726,-0.640882,-0.037181,0.003375,-0.112246,2.746979,7.540622,1.634155,,,,,,,
,,,,,,,,,,,,,,,,25.308147,51.444882,12.345044,15.070000,168.398438,1523694441.996255,
1523694442.089994,0.873815,0.034008,0.806281,-0.043855,0.016431,0.066065,0.766328,-0.034001,-0.641524,-0.068727,0.015904,-0.085877,2.750854,8.289996,1.031189,,,,,,,
1523694442.119932,0.873941,0.030907,0.810053,-0.232324,0.004905,-0.041683,0.766486,-0.030902,-0.641493,-0.096259,-0.003934,-0.019396,3.573563,8.061297,1.032532,,,,,,,
1523694442.149900,0.874642,0.026368,0.813966,-0.120189,0.051155,-0.008619,0.767035,-0.026365,-0.641038,-0.069281,0.022077,-0.001509,4.173264,7.534427,1.859924,,,,,,,
1523694442.179869,0.874644,0.026719,0.813652,0.080282,0.004889,0.001172,0.767029,-0.026716,-0.641031,0.003082,0.002164,-0.047644,4.627151,7.607898,2.384827,,,,,,,
1523694442.209837,0.876634,0.028059,0.811893,0.033787,0.098586,-0.009610,0.768275,-0.028055,-0.639480,0.024312,0.011286,-0.053345,4.108444,8.285159,2.306885,,,,,,,
1523694442.239805,0.879116,0.026098,0.812647,-0.115624,0.092739,-0.029972,0.769901,-0.026095,-0.637605,-0.006610,-0.018751,-0.000868,3.207458,7.914660,2.757935,,,,,,,
1523694442.269774,0.881067,0.025306,0.815464,-0.031144,0.019416,0.089519,0.771159,-0.025303,-0.636115,-0.032649,0.041600,-0.042688,3.139984,7.766467,4.258484,,,,,,,
1523694442.299742,0.879856,0.028261,0.815787,0.089468,-0.023182,0.059818,0.770327,-0.028258,-0.636998,-0.014605,0.044768,-0.096431,3.067383,7.916949,4.407837,,,,,,,
1523694442.329710,0.881054,0.030761,0.814748,0.057893,0.051460,0.035205,0.771033,-0.030757,-0.636027,-0.003195,0.029902,-0.109258,1.566513,8.597415,3.129395,,,,,,,
1523694442.359678,0.882953,0.030879,0.814912,-0.051671,0.098751,-0.002219,0.772236,-0.030874,-0.634560,-0.092396,-0.026118,0.073814,0.285721,8.152957,2.905518,,,,,,,
1523694442.389647,0.884741,0.028982,0.818102,-0.138710,0.023194,0.042556,0.773413,-0.028978,-0.633214,-0.109656,0.054400,0.104756,0.201874,7.627734,2.307556,,,,,,,
1523694442.419615,0.881578,0.027365,0.821530,-0.103017,-0.137166,0.018228,0.771442,-0.027362,-0.635685,-0.062198,0.038379,-0.009090,2.370041,7.392230,1.559570,,,,,,,
1523694442.449583,0.878947,0.026011,0.823862,-0.091938,-0.063763,0.003240,0.769795,-0.026008,-0.637736,-0.078053,0.039207,-0.032369,1.247620,7.697207,1.482788,,,,,,,
1523694442.479545,0.876802,0.022440,0.826185,-0.151458,-0.071717,-0.054331,0.768491,-0.022439,-0.639441,-0.029935,-0.005866,-0.039651,0.947510,7.324161,2.084167,,,,,,,
1523694442.509514,0.873341,0.020745,0.828683,-0.025176,-0.099489,0.071532,0.766301,-0.020744,-0.642121,0.025370,0.024284,-0.190765,0.946899,7.398944,1.858826,,,,,,,
1523694442.539482,0.871615,0.026133,0.827342,0.273132,0.044020,0.111023,0.765096,-0.026130,-0.643361,-0.023259,0.010566,-0.112224,0.119965,7.926455,0.656372,,,,,,,
1523694442.569450,0.877567,0.033886,0.822269,0.229110,0.185668,0.078893,0.768732,-0.033880,-0.638647,-0.059595,-0.004496,0.011816,0.046310,8.376269,0.129517,,,,,,,
1523694442.599418,0.879389,0.035894,0.822940,-0.085481,0.018632,0.068173,0.769840,-0.035886,-0.637201,-0.096882,-0.005053,0.025735,0.782623,7.547046,-0.766846,,,,,,,
1523694442.629387,0.879270,0.035887,0.827706,-0.104016,0.009739,0.132092,0.769764,-0.035879,-0.637293,-0.123158,0.054403,0.001291,0.253296,7.024585,-0.614990,,,,,,,
1523694442.659355,0.877441,0.038454,0.830843,0.009856,-0.104063,0.105657,0.768525,-0.038444,-0.638638,-0.029160,0.100059,-0.190738,1.438095,6.492602,-2.262329,,,,,,,
1523694442.689323,0.876274,0.039126,0.832182,-0.039944,0.101852,0.005251,0.767759,-0.039116,-0.639518,-0.034315,0.054634,-0.158852,2.337311,6.862811,-3.013367,,,,,,,
1523694442.719291,0.881351,0.036262,0.832490,-0.104319,0.118864,-0.124810,0.771078,-0.036254,-0.635681,-0.120200,-0.018372,0.086990,2.104980,6.039004,-2.860107,,,,,,,
1523694442.749260,0.882526,0.030423,0.833230,-0.131895,-0.037509,-0.090577,0.771976,-0.030418,-0.634898,-0.022494,-0.046456,-0.035818,2.625183,5.736377,-3.158630,,,,,,,
1523694442.779228,0.877824,0.031004,0.833268,0.112221,-0.188992,0.057871,0.768968,-0.030999,-0.638509,0.050948,-0.028312,-0.233073,4.568497,5.651645,-4.132385,,,,,,,
1523694442.809166,0.876644,0.034687,0.831145,0.103961,0.089587,0.037330,0.768121,-0.034680,-0.639339,0.049277,0.001874,-0.231663,5.846268,6.020755,-4.283203,,,,,,,
1523694442.839134,0.879753,0.034596,0.831311,-0.075073,0.099975,-0.017153,0.770107,-0.034589,-0.636950,-0.063076,-0.024432,-0.005842,6.370529,5.494143,-3.530823,,,,,,,
1523694442.869102,0.882794,0.032827,0.833060,-0.078486,0.075407,0.002050,0.772087,-0.032821,-0.634643,-0.108253,-0.042405,0.074721,8.711945,5.561236,-0.904907,,,,,,,
1523694442.899071,0.881985,0.031084,0.834889,-0.072870,-0.111576,-0.006275,0.771616,-0.031079,-0.635302,-0.105280,-0.028751,-0.028638,7.822174,6.091052,-0.082458,,,,,,,
1523694442.929039,0.878283,0.029917,0.835832,-0.060913,-0.081735,-0.022283,0.769287,-0.029913,-0.638177,-0.024932,-0.013758,-0.117621,5.281570,6.852786,0.213196,,,,,,,
1523694442.959007,0.878354,0.026836,0.838630,-0.180959,0.055595,-0.017176,0.769399,-0.026833,-0.638178,-0.051229,0.031349,-0.100408,5.799210,6.025607,0.366760,,,,,,,
1523694442.988975,0.881562,0.024776,0.841445,-0.052701,0.132549,0.024403,0.771483,-0.024774,-0.635741,-0.064467,0.014245,0.009352,4.825165,5.805514,0.892151,,,,,,,
1523694443.018944,0.883815,0.025312,0.842115,0.013075,0.035709,0.021353,0.772903,-0.025310,-0.633992,-0.077697,0.023662,0.001668,5.052399,6.029498,0.891357,,,,,,,
1523694443.048912,0.882878,0.025862,0.841684,0.003311,-0.029926,-0.008435,0.772298,-0.025859,-0.634707,-0.015507,0.019710,-0.076795,4.158295,6.259112,1.489990,,,,,,,
,,,,,,,,,,,,,,,,25.308006,51.444947,12.804637,15.640000,165.234375,1523694442.996234,
1523694443.078880,0.882993,0.024227,0.842306,-0.050662,0.053223,-0.027735,0.772403,-0.024225,-0.634644,-0.092090,0.014505,-0.031387,3.633774,6.036929,1.940613,,,,,,,
1523694443.108848,0.882660,0.024577,0.842103,0.057293,-0.084553,0.034282,0.772184,-0.024575,-0.634896,-0.129804,0.017708,0.025231,2.431732,5.742496,2.091248,,,,,,,
1523694443.138817,0.878905,0.027656,0.840953,0.106199,-0.105010,0.055646,0.769733,-0.027652,-0.637740,-0.094013,0.054340,-0.084794,2.883484,6.190005,1.639648,,,,,,,
1523694443.168785,0.878108,0.030353,0.839438,0.076019,0.024977,0.017131,0.769165,-0.030348,-0.638303,-0.107925,0.018111,-0.033572,2.129028,5.968020,1.265137,,,,,,,
1523694443.198753,0.878719,0.030236,0.839278,-0.056293,0.012734,-0.008527,0.769557,-0.030231,-0.637835,-0.088329,-0.023816,0.002093,1.298080,5.596393,0.891235,,,,,,,
1523694443.228721,0.877023,0.028964,0.841601,-0.078332,-0.088478,0.036315,0.768503,-0.028960,-0.639164,-0.072748,-0.000505,-0.030254,1.742355,5.069324,0.818542,,,,,,,
1523694443.258690,0.874173,0.029408,0.842349,0.038212,-0.079056,0.014022,0.766669,-0.029404,-0.641343,-0.066626,-0.044845,-0.075744,1.889938,5.817004,-0.834351,,,,,,,
1523694443.288658,0.872249,0.030161,0.841546,0.021299,-0.055544,0.001197,0.765417,-0.030157,-0.642802,-0.053838,-0.031703,-0.136632,2.186615,5.665362,-1.133606,,,,,,,
1523694443.318626,0.870543,0.030229,0.841592,-0.017064,-0.036346,0.004348,0.764317,-0.030224,-0.644107,-0.046925,-0.037387,-0.128446,3.241226,5.586520,-0.232727,,,,,,,
1523694443.348594,0.870938,0.030701,0.842418,0.012012,0.061089,0.040499,0.764561,-0.030696,-0.643795,-0.047748,-0.013967,-0.106114,3.773865,5.810031,0.666626,,,,,,,
1523694443.378563,0.872850,0.032718,0.841548,0.077267,0.061087,0.017109,0.765741,-0.032713,-0.642291,-0.074014,-0.062563,-0.019940,3.774612,6.109653,0.290466,,,,,,,
1523694443.408531,0.873092,0.032510,0.841633,-0.085094,-0.000939,-0.021305,0.765901,-0.032504,-0.642110,-0.076036,-0.058790,-0.017634,2.276627,6.041842,0.739929,,,,,,,
1523694443.438499,0.871977,0.029299,0.844243,-0.140770,-0.034787,-0.022385,0.765261,-0.029295,-0.643027,-0.070833,-0.040544,-0.059213,1.976349,5.968265,0.815063,,,,,,,
1523694443.468440,0.870819,0.027752,0.846153,-0.047985,-0.034098,-0.002071,0.764549,-0.027748,-0.643942,-0.069588,-0.016090,-0.098429,2.793350,5.439136,0.367615,,,,,,,
1523694443.498408,0.869889,0.026619,0.846356,-0.030457,0.010819,-0.048989,0.763974,-0.026616,-0.644672,-0.032788,-0.020442,-0.103451,2.416550,5.665164,-0.308472,,,,,,,
1523694443.528376,0.871083,0.024949,0.845995,-0.024958,0.045894,-0.051157,0.764776,-0.024946,-0.643787,-0.045507,-0.064897,-0.032802,2.420593,6.115069,-0.385315,,,,,,,
1523694443.558345,0.871291,0.024422,0.845402,0.031156,-0.010881,-0.007363,0.764920,-0.024420,-0.643637,-0.024823,-0.060862,-0.074762,2.717743,5.963504,-0.609497,,,,,,,
1523694443.588313,0.870533,0.025974,0.844419,0.064092,-0.007979,0.023549,0.764402,-0.025971,-0.644192,-0.010297,-0.029266,-0.153919,3.100693,6.037982,0.590393,,,,,,,
1523694443.618281,0.870946,0.027997,0.843275,0.063333,0.045178,0.016058,0.764627,-0.027993,-0.643840,-0.059900,-0.039435,-0.094044,3.700638,6.259906,0.214783,,,,,,,
1523694443.648250,0.871984,0.028588,0.843283,-0.035072,0.000825,0.011766,0.765281,-0.028584,-0.643036,-0.054435,-0.018672,-0.104477,3.399765,6.261111,0.064636,,,,,,,
1523694443.678218,0.870893,0.027951,0.844198,-0.005095,0.006161,-0.001009,0.764594,-0.027948,-0.643881,-0.077323,-0.013648,-0.074243,1.977539,6.043338,0.889771,,,,,,,
1523694443.708186,0.871874,0.028955,0.842502,0.091295,0.044360,-0.026554,0.765203,-0.028951,-0.643113,-0.112569,-0.037135,0.006470,2.797562,5.589572,0.817017,,,,,,,
1523694443.738154,0.872784,0.029966,0.840269,0.050459,-0.000262,-0.013750,0.765765,-0.029961,-0.642398,-0.109911,-0.041618,0.004473,3.547058,6.035373,-0.009399,,,,,,,
1523694443.768123,0.870892,0.029013,0.841010,-0.117574,-0.094405,-0.015907,0.764569,-0.029009,-0.643863,-0.080884,-0.009611,-0.057339,1.531158,6.270572,1.113647,,,,,,,
1523694443.798091,0.869064,0.025446,0.844305,-0.146012,-0.006153,-0.013885,0.763466,-0.025443,-0.645322,-0.064995,-0.015344,-0.092273,1.296432,5.296618,1.117432,,,,,,,
1523694443.828059,0.868989,0.025834,0.844886,0.096000,-0.010383,0.049163,0.763409,-0.025831,-0.645373,-0.064847,-0.035891,-0.096708,1.971405,5.068957,1.493652,,,,,,,
1523694443.858027,0.866253,0.029347,0.842966,0.106484,-0.075068,0.027917,0.761567,-0.029342,-0.647397,0.007171,-0.028107,-0.194446,0.772034,5.898089,0.214783,,,,,,,
1523694443.887996,0.869524,0.030258,0.841499,0.025594,0.172964,-0.008611,0.763660,-0.030253,-0.644884,-0.107898,-0.078542,-0.030790,1.370193,5.895099,-0.084900,,,,,,,
1523694443.917964,0.871903,0.029252,0.842553,-0.089157,0.071174,0.000995,0.765215,-0.029248,-0.643085,-0.165620,-0.044833,0.082752,2.345016,5.965549,-0.234741,,,,,,,
1523694443.947932,0.872061,0.027988,0.844827,-0.070650,-0.051280,0.030964,0.765344,-0.027984,-0.642987,-0.157739,0.008148,0.027204,2.118668,5.741717,-0.083923,,,,,,,
1523694443.977900,0.865207,0.026841,0.847156,-0.115321,-0.291061,-0.005059,0.760943,-0.026837,-0.648238,-0.054492,0.026670,-0.176774,2.501266,6.864398,-0.688232,,,,,,,
1523694444.007869,0.860024,0.023978,0.849757,-0.115200,-0.056078,-0.027662,0.757628,-0.023976,-0.652221,0.021531,0.019078,-0.317276,3.252731,7.011020,-0.688477,,,,,,,
1523694444.037837,0.863691,0.023679,0.849858,0.100265,0.199110,0.025510,0.760020,-0.023677,-0.649443,-0.046184,-0.050694,-0.134431,2.659683,6.939960,0.586548,,,,,,,
,,,,,,,,,,,,,,,,25.307858,51.444991,12.784343,16.440001,164.882812,1523694443.996213,
1523694444.067805,0.868449,0.028747,0.846205,0.219426,0.129600,0.045915,0.763000,-0.028743,-0.645734,-0.022293,-0.093465,0.000867,2.505630,6.715350,0.287415,,,,,,,
1523694444.097773,0.871385,0.031877,0.844421,0.037649,0.069461,0.047978,0.764820,-0.031872,-0.643430,-0.146015,-0.075367,0.057111,1.535294,7.544116,-0.316467,,,,,,,
1523694444.127742,0.870884,0.032246,0.845182,-0.061150,-0.111671,0.001203,0.764489,-0.032241,-0.643805,-0.092034,-0.013124,-0.040536,1.685455,7.468585,-0.166077,,,,,,,
1523694444.157710,0.867716,0.029721,0.848340,-0.148434,-0.013908,0.032999,0.762505,-0.029717,-0.646274,-0.024026,0.053764,-0.275174,1.151947,6.571063,-0.087708,,,,,,,
1523694444.187648,0.870311,0.031856,0.848925,0.200251,0.165610,0.069308,0.764129,-0.031850,-0.644251,-0.085265,0.031057,-0.125097,2.564301,5.439502,-0.307495,,,,,,,
1523694444.217616,0.875034,0.034617,0.845418,0.027850,0.142510,-0.059731,0.767093,-0.034610,-0.640576,-0.076373,-0.036511,-0.003360,1.513763,5.519000,-0.533325,,,,,,,
1523694444.247584,0.877782,0.030952,0.845477,-0.107136,0.000667,-0.091644,0.768942,-0.030947,-0.638543,-0.052573,-0.079679,0.022179,2.264923,5.366061,-0.082336,,,,,,,
1523694444.277553,0.876142,0.026917,0.846628,-0.094741,-0.046370,-0.054302,0.767984,-0.026913,-0.639877,-0.015237,-0.085620,-0.104309,2.563110,5.139804,-0.006348,,,,,,,
1523694444.307521,0.873498,0.027404,0.847026,0.078265,-0.126322,0.072703,0.766279,-0.027400,-0.641898,-0.055555,-0.002950,-0.170572,2.642014,5.214969,0.518433,,,,,,,
1523694444.337489,0.872231,0.031743,0.845530,0.119708,0.036304,0.049141,0.765368,-0.031738,-0.642785,-0.091082,-0.004197,-0.100059,2.346664,6.040698,-0.085022,,,,,,,
1523694444.367457,0.874040,0.032928,0.844592,0.005846,0.059279,-0.004245,0.766499,-0.032922,-0.641375,-0.077107,-0.003257,-0.098691,1.311096,6.721622,1.186707,,,,,,,
1523694444.397426,0.874411,0.032187,0.845369,-0.059535,0.002082,-0.006373,0.766755,-0.032182,-0.641106,-0.045289,-0.038497,-0.128410,1.979935,6.193469,1.039185,,,,,,,
1523694444.427394,0.873186,0.029983,0.846902,-0.089469,-0.038026,-0.034060,0.766022,-0.029978,-0.642089,-0.016434,-0.067815,-0.154344,3.178802,6.487399,0.363586,,,,,,,
1523694444.457362,0.872848,0.028664,0.847298,-0.001777,0.020057,-0.012749,0.765835,-0.028660,-0.642373,-0.081783,-0.065685,-0.049995,2.359985,7.016238,0.511108,,,,,,,
1523694444.487323,0.873521,0.028668,0.846672,0.002569,0.021158,-0.022321,0.766267,-0.028664,-0.641857,-0.134050,-0.026237,-0.013218,1.982315,6.792865,0.436768,,,,,,,
1523694444.517292,0.873148,0.028412,0.846407,0.018288,-0.012003,0.004357,0.766033,-0.028409,-0.642147,-0.094891,0.003644,-0.086887,2.576584,6.265109,0.364197,,,,,,,
1523694444.547260,0.873411,0.030606,0.845538,0.088880,0.053456,0.038447,0.766152,-0.030601,-0.641905,-0.075753,0.015938,-0.136874,2.804733,6.264606,0.889343,,,,,,,
1523694444.577228,0.874587,0.032056,0.844448,0.012125,0.021081,-0.013796,0.766872,-0.032050,-0.640974,-0.082164,-0.027184,-0.086428,1.383209,7.020328,0.210571,,,,,,,
1523694444.607196,0.874869,0.030842,0.845170,-0.058433,0.017977,0.000002,0.767082,-0.030837,-0.640782,-0.091758,-0.047029,-0.065791,1.904160,6.792682,-0.088196,,,,,,,
1523694444.637165,0.874057,0.030721,0.846678,-0.003336,-0.016536,0.052294,0.766564,-0.030716,-0.641407,-0.105019,-0.014145,-0.108288,2.199677,5.892108,0.665527,,,,,,,
1523694444.667133,0.872390,0.032975,0.846891,0.048794,-0.063369,0.045981,0.765439,-0.032969,-0.642638,-0.085004,0.022532,-0.205064,2.352661,6.191424,0.664429,,,,,,,
1523694444.697101,0.871785,0.033814,0.846568,0.012255,0.059273,-0.005308,0.765029,-0.033807,-0.643083,-0.092315,-0.011359,-0.136138,3.252579,6.861239,-0.462830,,,,,,,
1523694444.727069,0.873483,0.032872,0.846598,-0.041147,0.020297,-0.035142,0.766144,-0.032866,-0.641803,-0.100388,-0.018205,-0.084744,1.907608,6.868121,0.361450,,,,,,,
1523694444.757038,0.872674,0.031467,0.846718,-0.005009,-0.004311,-0.024432,0.765659,-0.031462,-0.642452,-0.047275,-0.008699,-0.113545,2.052689,5.968143,1.040161,,,,,,,
1523694444.787006,0.873880,0.032232,0.845056,0.095577,0.058071,-0.014835,0.766414,-0.032226,-0.641512,-0.057354,-0.056412,-0.094694,3.629990,6.560443,0.438538,,,,,,,
1523694444.816974,0.874536,0.033208,0.843325,0.056824,0.013380,0.007558,0.766810,-0.033202,-0.640989,-0.067317,-0.064851,-0.109423,2.212662,7.466601,0.209229,,,,,,,
1523694444.846942,0.874897,0.034810,0.843123,0.008711,0.040864,0.044790,0.767000,-0.034803,-0.640677,-0.123476,-0.035952,-0.090707,1.834549,7.018527,0.435791,,,,,,,
1523694444.876880,0.876438,0.034925,0.844848,-0.075536,0.042265,0.026610,0.767983,-0.034918,-0.639492,-0.182870,0.016196,-0.035664,2.585114,6.940372,0.661499,,,,,,,
1523694444.906848,0.875928,0.033244,0.846587,-0.084094,-0.041186,-0.041503,0.767702,-0.033238,-0.639920,-0.183961,-0.021556,-0.024447,2.580627,6.490390,0.663330,,,,,,,
1523694444.936817,0.872283,0.029210,0.848166,-0.141935,-0.127886,-0.081954,0.765461,-0.029206,-0.642795,-0.037036,-0.005874,-0.218335,2.581070,6.939715,-0.013550,,,,,,,
1523694444.966785,0.870234,0.026497,0.848244,0.011291,0.020306,-0.056406,0.764199,-0.026494,-0.644411,-0.026071,-0.041880,-0.229810,3.179993,6.787097,0.062378,,,,,,,
1523694444.996753,0.872653,0.026951,0.846531,0.066772,0.085613,0.006433,0.765747,-0.026948,-0.642553,-0.076370,-0.054366,-0.133509,1.909576,6.793567,0.811768,,,,,,,
1523694445.026722,0.874360,0.029790,0.844946,0.115647,0.071434,0.040584,0.766780,-0.029786,-0.641193,-0.152324,-0.034774,-0.034054,2.358353,6.716464,0.737244,,,,,,,
1523694445.056690,0.874595,0.030309,0.843825,-0.070085,-0.032602,-0.058548,0.766919,-0.030305,-0.641002,-0.132642,-0.048919,-0.067234,3.037643,7.462878,0.209656,,,,,,,
,,,,,,,,,,,,,,,,25.307695,51.445035,12.724481,16.600000,164.882812,1523694444.996192,
1523694445.086658,0.871824,0.026088,0.846125,-0.146267,-0.097342,-0.042558,0.765231,-0.026085,-0.643202,-0.085788,-0.015800,-0.180208,2.136780,7.242160,0.435059,,,,,,,
1523694445.116626,0.869151,0.023994,0.848124,-0.072501,-0.032982,-0.004204,0.763549,-0.023991,-0.645279,-0.079665,0.013509,-0.223831,2.357315,6.566546,0.812866,,,,,,,
1523694445.146595,0.870760,0.024961,0.847759,0.131873,0.109714,0.032028,0.764568,-0.024959,-0.644034,-0.112774,-0.006246,-0.149438,3.029144,6.338382,0.664185,,,,,,,
1523694445.176563,0.873054,0.028689,0.844120,0.140480,0.077034,-0.008422,0.765967,-0.028685,-0.642214,-0.076178,-0.050203,-0.119505,2.887039,7.313708,0.360107,,,,,,,
1523694445.206531,0.875812,0.028576,0.842800,-0.025798,0.115846,-0.028831,0.767737,-0.028572,-0.640101,-0.148948,-0.079338,-0.012547,2.062698,7.242648,0.585022,,,,,,,
1523694445.236499,0.877268,0.027156,0.844190,-0.088440,0.000994,0.007459,0.768699,-0.027153,-0.639008,-0.125862,-0.032830,-0.011352,2.509979,6.790927,0.887085,,,,,,,
1523694445.266468,0.872537,0.027134,0.846557,-0.018270,-0.223863,0.074866,0.765668,-0.027130,-0.642638,-0.085080,0.042191,-0.199967,2.282761,6.566958,0.887817,,,,,,,
1523694445.296436,0.868257,0.029420,0.847036,0.053323,-0.025066,0.034243,0.762861,-0.029416,-0.645868,-0.135130,0.047528,-0.204779,2.658020,7.089435,0.060913,,,,,,,
1523694445.326404,0.870231,0.029289,0.845682,-0.011000,0.041696,-0.066046,0.764137,-0.029285,-0.644363,-0.137535,-0.026608,-0.144730,3.114288,7.537692,0.359375,,,,,,,
1523694445.356372,0.868912,0.028314,0.845405,0.014873,-0.052435,0.011861,0.763309,-0.028311,-0.645388,-0.071094,-0.044962,-0.183729,2.433624,6.791049,0.662048,,,,,,,
1523694445.386341,0.868454,0.030067,0.844859,0.062034,0.014261,0.032065,0.762974,-0.030063,-0.645705,-0.093342,-0.060300,-0.161592,2.583328,6.715457,0.737366,,,,,,,
1523694445.416309,0.868012,0.031765,0.843853,0.052335,-0.022826,0.019317,0.762649,-0.031759,-0.646008,-0.115707,-0.047571,-0.156040,2.583618,7.015002,0.286255,,,,,,,
1523694445.446277,0.866508,0.032537,0.844559,-0.058880,-0.043927,0.036308,0.761657,-0.032531,-0.647139,-0.126342,0.001907,-0.203249,2.364182,7.391284,0.584595,,,,,,,
1523694445.476235,0.865802,0.030804,0.847282,-0.103241,0.021297,-0.003229,0.761242,-0.030799,-0.647712,-0.172909,0.008247,-0.170205,2.358047,6.866168,0.436646,,,,,,,
1523694445.506204,0.866879,0.030360,0.848038,0.019467,0.011354,0.005408,0.761949,-0.030355,-0.646900,-0.171816,-0.009867,-0.149548,3.031845,6.338809,1.114136,,,,,,,
1523694445.536172,0.865441,0.031840,0.846460,0.098447,-0.004736,-0.001971,0.760983,-0.031835,-0.647966,-0.146130,-0.033045,-0.160216,3.106384,6.563022,0.663269,,,,,,,
1523694445.566110,0.866411,0.032636,0.845292,-0.010205,0.049749,-0.004243,0.761592,-0.032631,-0.647211,-0.177470,-0.071206,-0.093100,3.033752,7.162753,0.060852,,,,,,,
1523694445.596078,0.865870,0.030791,0.847650,-0.133540,-0.049948,0.013874,0.761287,-0.030786,-0.647660,-0.165385,-0.023887,-0.098708,2.955460,6.788180,0.137268,,,,,,,
