timestamp(unix),attitude_roll(radians),attitude_pitch(radians),attitude_yaw(radians),rotation_rate_x(radians/s),rotation_rate_y(radians/s),rotation_rate_z(radians/s),gravity_x(G),gravity_y(G),gravity_z(G),user_acc_x(G),user_acc_y(G),user_acc_z(G),magnetic_field_x(microteslas),magnetic_field_y(microteslas),magnetic_field_z(microteslas),latitude(degree),longitude(degree),altitude(meter),speed(m/s),course(degree),timestamp(unix),User Mark
1523522801.363712,-0.668855,-0.040199,1.740130,0.123320,0.124817,0.048425,-0.619587,0.040188,-0.783898,0.157872,-0.037258,-0.099540,-12.567230,-30.244083,-6.696289,,,,,,,
1523522801.393680,-0.664759,-0.038258,1.742896,0.060220,0.057227,0.011155,-0.616418,0.038248,-0.786489,0.129968,-0.037821,-0.112665,-12.787415,-30.167408,-6.021729,,,,,,,
,,,,,,,,,,,,,,,,25.318908,51.456201,16.436794,7.710000,268.242188,1523522800.997365,
1523522801.423648,-0.661709,-0.037979,1.742547,-0.045194,0.062101,-0.040076,-0.614023,0.037970,-0.788374,0.129053,-0.027793,-0.137346,-12.338043,-30.094669,-6.246765,,,,,,,
1523522801.453616,-0.658692,-0.037555,1.740427,-0.020334,0.082512,-0.080568,-0.611652,0.037546,-0.790236,0.131625,0.001943,-0.141863,-12.413040,-30.094318,-6.246765,,,,,,,
1523522801.483585,-0.654585,-0.035013,1.739118,0.065081,0.098139,-0.066666,-0.608457,0.035006,-0.792814,0.129178,0.021589,-0.193331,-11.811417,-30.021870,-6.096802,,,,,,,
1523522801.513553,-0.651990,-0.032668,1.739684,0.063290,0.013757,-0.002658,-0.606445,0.032662,-0.794454,0.144226,0.016425,-0.183894,-11.435226,-29.948490,-6.021912,,,,,,,
1523522801.543521,-0.652004,-0.031857,1.740678,0.022598,0.005245,0.013304,-0.606473,0.031852,-0.794466,0.136792,0.018014,-0.127745,-12.185196,-29.945118,-6.022278,,,,,,,
1523522801.573490,-0.650664,-0.032095,1.741130,0.003512,0.038197,0.017524,-0.605403,0.032090,-0.795272,0.162730,0.005889,-0.135026,-11.889847,-30.321598,-6.170593,,,,,,,
1523522801.603458,-0.649005,-0.032160,1.742732,0.050278,0.047310,0.065496,-0.604081,0.032154,-0.796274,0.196962,-0.016895,-0.104392,-11.284332,-29.949024,-5.871826,,,,,,,
1523522801.633426,-0.645481,-0.032016,1.746435,0.092009,0.119137,0.111278,-0.601274,0.032011,-0.798401,0.190172,-0.023619,-0.146560,-12.412292,-30.019321,-6.247070,,,,,,,
1523522801.663394,-0.641192,-0.032561,1.749981,0.019305,0.074825,0.092087,-0.597834,0.032556,-0.800959,0.179621,-0.032296,-0.219839,-12.338943,-30.094807,-6.396790,,,,,,,
1523522801.693363,-0.639648,-0.034159,1.750958,-0.042659,-0.005359,0.031391,-0.596564,0.034152,-0.801838,0.178138,-0.025683,-0.208416,-11.585526,-29.798115,-6.322571,,,,,,,
1523522801.723321,-0.639531,-0.034908,1.750489,-0.034059,-0.038007,-0.011204,-0.596456,0.034901,-0.801887,0.191778,-0.028096,-0.192132,-12.036255,-29.871098,-6.322510,,,,,,,
1523522801.753289,-0.641320,-0.035838,1.749395,-0.053515,-0.077383,0.002682,-0.597869,0.035830,-0.800792,0.206756,-0.020129,-0.118733,-11.736282,-29.647816,-6.698242,,,,,,,
1523522801.783257,-0.641455,-0.037440,1.749213,-0.038291,0.025358,0.042030,-0.597943,0.037432,-0.800664,0.196270,-0.032106,-0.105769,-12.038071,-29.646763,-6.998413,,,,,,,
1523522801.813256,-0.639101,-0.039236,1.749826,-0.061719,0.054044,0.052629,-0.596015,0.039226,-0.802014,0.168266,-0.024806,-0.155261,-12.714233,-29.943424,-6.697571,,,,,,,
1523522801.843224,-0.637231,-0.041931,1.749240,-0.086321,0.006523,0.019624,-0.594449,0.041919,-0.803040,0.156781,-0.012622,-0.151138,-12.488800,-29.719730,-6.998352,,,,,,,
1523522801.873193,-0.636059,-0.042350,1.748231,-0.007941,0.033330,-0.042149,-0.593497,0.042337,-0.803722,0.153586,-0.007120,-0.155232,-12.638794,-29.719059,-6.998413,,,,,,,
1523522801.903161,-0.634354,-0.041047,1.746961,0.017623,-0.012245,-0.068717,-0.592158,0.041036,-0.804777,0.163340,0.006907,-0.168658,-12.266190,-30.095509,-6.771729,,,,,,,
1523522801.933129,-0.635461,-0.039535,1.745996,0.012845,-0.099502,-0.048394,-0.593085,0.039525,-0.804169,0.178260,0.017482,-0.165817,-11.584778,-29.723118,-6.322876,,,,,,,
1523522801.963097,-0.637344,-0.038371,1.745707,0.028996,-0.033879,-0.017546,-0.594625,0.038362,-0.803088,0.175512,0.029723,-0.117750,-11.666534,-29.723881,-7.447937,,,,,,,
1523522801.993066,-0.635990,-0.037869,1.746129,0.016384,0.047739,0.015397,-0.593548,0.037860,-0.803908,0.175610,0.018506,-0.122377,-12.640289,-29.869053,-6.997803,,,,,,,
1523522802.023034,-0.633094,-0.038726,1.746447,-0.044402,0.073320,0.024920,-0.591198,0.038716,-0.805596,0.156216,-0.001332,-0.148170,-12.413940,-29.869846,-6.772705,,,,,,,
1523522802.053002,-0.630745,-0.040347,1.745984,-0.032736,0.028851,-0.000608,-0.589267,0.040336,-0.806931,0.142200,0.003853,-0.182662,-12.265610,-29.945667,-6.922302,,,,,,,
,,,,,,,,,,,,,,,,25.318910,51.456135,16.667782,6.940000,267.187500,1523522801.997353,
1523522802.082971,-0.631627,-0.039081,1.745595,0.048147,-0.098462,-0.059016,-0.590008,0.039071,-0.806452,0.137798,0.007179,-0.092611,-12.635178,-29.493855,-6.774353,,,,,,,
1523522802.112939,-0.633056,-0.037161,1.744341,0.001408,-0.064191,-0.078278,-0.591203,0.037153,-0.805666,0.113069,0.005190,-0.070692,-11.961563,-29.497105,-6.998962,,,,,,,
1523522802.142907,-0.632257,-0.037143,1.741745,-0.077216,0.032612,-0.066707,-0.590559,0.037134,-0.806139,0.102980,-0.004694,-0.099805,-12.116943,-30.171177,-6.771362,,,,,,,
1523522802.172875,-0.630429,-0.038373,1.739032,-0.106164,0.050456,-0.026249,-0.589057,0.038363,-0.807180,0.076713,-0.016482,-0.164683,-11.968613,-30.022373,-7.296814,,,,,,,
1523522802.202844,-0.628179,-0.042840,1.736883,-0.183495,0.055347,0.063183,-0.587133,0.042827,-0.808357,0.082509,-0.029689,-0.239907,-11.890930,-29.797642,-7.222778,,,,,,,
1523522802.232812,-0.628543,-0.045278,1.736279,0.016123,-0.058230,-0.026053,-0.587364,0.045263,-0.808056,-0.004082,0.026591,-0.114277,-12.494644,-30.169926,-7.221558,,,,,,,
1523522802.262780,-0.630865,-0.042825,1.734254,-0.010199,-0.104129,-0.137911,-0.589302,0.042812,-0.806777,0.088020,0.021534,-0.071610,-12.121155,-30.321598,-7.220764,,,,,,,
1523522802.292748,-0.635166,-0.043452,1.732812,-0.102892,-0.035358,0.088909,-0.592751,0.043439,-0.804213,0.148796,-0.095364,-0.003297,-11.818481,-29.873264,-7.522400,,,,,,,
1523522802.322717,-0.621291,-0.056552,1.729740,-0.704061,0.762485,0.176093,-0.581154,0.056521,-0.811828,-0.172614,-0.004336,-0.358399,-12.495117,-29.720753,-8.048340,,,,,,,
1523522802.352685,-0.606074,-0.081713,1.715331,-0.947171,0.165998,0.010296,-0.567745,0.081622,-0.819148,-0.031453,0.054394,-0.555440,-12.050995,-29.723728,-9.023132,,,,,,,
1523522802.382653,-0.615280,-0.094131,1.705849,-0.270186,-0.306321,-0.003643,-0.574632,0.093992,-0.812997,-0.012923,-0.011442,-0.275321,-11.902954,-29.425220,-9.849243,,,,,,,
1523522802.412621,-0.616849,-0.100810,1.702706,-0.229690,-0.041046,0.035545,-0.575531,0.100640,-0.811564,-0.044709,0.062889,-0.362432,-12.055496,-29.499836,-10.148987,,,,,,,
1523522802.442590,-0.626760,-0.100201,1.701864,0.180001,-0.466341,-0.072414,-0.583582,0.100033,-0.805869,0.068399,0.073932,-0.071603,-13.179993,-29.719318,-9.698669,,,,,,,
1523522802.472558,-0.638287,-0.094341,1.704598,0.129400,-0.254124,-0.011925,-0.593171,0.094201,-0.799546,0.060822,-0.003671,0.086762,-12.346176,-29.197483,-9.100403,,,,,,,
1523522802.502526,-0.642125,-0.094378,1.703638,-0.059915,-0.140726,-0.053734,-0.596233,0.094238,-0.797261,0.030147,-0.009856,0.115727,-13.322784,-29.492863,-8.874634,,,,,,,
1523522802.532494,-0.649203,-0.091045,1.701278,0.121729,-0.254004,-0.178151,-0.602048,0.090919,-0.793266,0.060147,-0.033012,0.216225,-12.949600,-29.719456,-8.798523,,,,,,,
1523522802.562463,-0.656506,-0.083742,1.698784,0.133838,-0.244047,-0.238885,-0.608214,0.083644,-0.789353,0.041259,-0.005840,0.272447,-12.575974,-29.721363,-9.023376,,,,,,,
1523522802.592431,-0.666870,-0.074719,1.695852,0.242308,-0.373745,-0.268511,-0.616804,0.074650,-0.783569,0.092954,0.012753,0.341583,-13.021591,-29.643757,-8.423889,,,,,,,
1523522802.622399,-0.678186,-0.059714,1.697719,0.567829,-0.396896,-0.265047,-0.626263,0.059679,-0.777324,0.121976,0.006132,0.427776,-12.636856,-29.119755,-7.675781,,,,,,,
1523522802.652367,-0.688101,-0.037007,1.706540,0.903536,-0.278803,-0.252135,-0.634636,0.036999,-0.771925,0.151619,0.017902,0.514188,-11.732224,-29.647160,-6.023254,,,,,,,
1523522802.682336,-0.693879,-0.008515,1.721139,1.108882,-0.163714,-0.220132,-0.639501,0.008515,-0.768743,0.198858,0.042266,0.557668,-11.884598,-30.245884,-5.420898,,,,,,,
1523522802.712322,-0.694148,0.020729,1.737087,1.051544,0.150906,-0.213030,-0.639593,-0.020728,-0.768434,0.226599,0.092536,0.587465,-11.649078,-30.320057,-3.545471,,,,,,,
1523522802.742290,-0.682306,0.046333,1.750735,0.849493,0.603836,-0.179532,-0.629908,-0.046317,-0.775287,0.185892,0.048423,0.503345,-10.741608,-30.248020,-2.420349,,,,,,,
1523522802.772259,-0.658951,0.065316,1.759995,0.587833,0.871968,-0.137376,-0.610982,-0.065269,-0.788949,0.077153,-0.010460,0.379754,-10.813141,-30.621494,-1.218933,,,,,,,
1523522802.802257,-0.634168,0.078386,1.765353,0.303074,0.752326,-0.096983,-0.590688,-0.078305,-0.803091,-0.031016,-0.077746,0.180059,-10.590088,-30.772572,-1.293152,,,,,,,
1523522802.832226,-0.615751,0.076134,1.762426,-0.448178,0.499445,0.016715,-0.575899,-0.076060,-0.813975,-0.120985,-0.070149,-0.078939,-9.318924,-30.704044,-2.042786,,,,,,,
1523522802.862194,-0.605243,0.053913,1.752952,-0.958877,0.263957,0.290415,-0.568135,-0.053887,-0.821169,-0.153407,-0.056480,-0.110533,-10.526657,-30.849659,-3.092834,,,,,,,
1523522802.892161,-0.587150,0.019936,1.746406,-1.099024,0.958576,0.536822,-0.553881,-0.019935,-0.832357,-0.107527,-0.016533,-0.303034,-10.380432,-30.551441,-4.218994,,,,,,,
1523522802.922129,-0.551143,-0.015739,1.741933,-1.063902,1.074911,0.452548,-0.523596,0.015738,-0.851821,-0.071603,0.046899,-0.804032,-10.918488,-30.326572,-6.770142,,,,,,,
1523522802.952098,-0.536161,-0.045315,1.734202,-0.911385,0.215934,0.150917,-0.510315,0.045299,-0.858794,-0.098862,0.053761,-0.753450,-11.599777,-30.324558,-7.820496,,,,,,,
1523522802.982066,-0.532184,-0.067469,1.719586,-0.886438,0.159743,-0.178261,-0.506262,0.067418,-0.859740,-0.238565,0.118403,-0.745667,-11.156418,-29.953281,-9.546692,,,,,,,
1523522803.012034,-0.536565,-0.081256,1.698517,-0.562663,-0.331150,-0.449235,-0.509500,0.081167,-0.856634,-0.246893,0.099238,-0.521464,-10.106781,-29.583683,-10.222717,,,,,,,
1523522803.042002,-0.546905,-0.087856,1.683515,-0.493040,-0.204680,-0.175459,-0.518040,0.087743,-0.850844,-0.272853,0.007442,-0.433946,-10.188538,-29.809055,-10.971863,,,,,,,
,,,,,,,,,,,,,,,,25.318921,51.456118,16.860165,4.030000,269.648438,1523522802.997340,
1523522803.071971,-0.552571,-0.102557,1.673851,-0.544618,-0.216938,0.078095,-0.522119,0.102377,-0.846706,-0.300558,0.100580,-0.428624,-10.565918,-29.732883,-11.497314,,,,,,,
1523522803.101939,-0.558857,-0.109277,1.673774,0.058881,-0.108265,0.124264,-0.527055,0.109060,-0.842804,-0.290358,0.074122,-0.269455,-10.791824,-29.732014,-11.647461,,,,,,,
1523522803.131907,-0.560430,-0.106770,1.680755,0.249384,-0.181369,0.177754,-0.528524,0.106567,-0.842203,-0.072611,-0.057083,-0.216391,-11.016052,-29.880634,-11.271973,,,,,,,
1523522803.161875,-0.566828,-0.104890,1.689809,0.153194,-0.140078,0.233050,-0.534008,0.104698,-0.838972,-0.031574,-0.070854,0.022154,-10.860199,-29.431110,-11.048645,,,,,,,
1523522803.191844,-0.567457,-0.106778,1.696452,0.016113,-0.016330,0.213637,-0.534428,0.106575,-0.838468,0.049809,-0.057762,0.122464,-11.157349,-29.279545,-10.824463,,,,,,,
1523522803.221812,-0.566165,-0.110913,1.700804,-0.065646,0.037290,0.173031,-0.533104,0.110685,-0.838778,0.099739,-0.080107,0.175555,-11.760910,-29.502064,-11.048828,,,,,,,
1523522803.251781,-0.566980,-0.113228,1.703282,0.057124,-0.096139,0.062451,-0.533648,0.112987,-0.838125,0.169237,-0.082576,0.254248,-12.284393,-29.349705,-11.049683,,,,,,,
1523522803.281749,-0.570113,-0.106382,1.707811,0.424652,-0.157977,-0.038439,-0.536676,0.106182,-0.837081,0.203485,-0.069805,0.301421,-11.451935,-28.828068,-10.676392,,,,,,,
1523522803.311718,-0.575940,-0.089618,1.714966,0.711043,-0.236526,-0.153216,-0.542438,0.089498,-0.835315,0.229785,-0.029561,0.411700,-12.351883,-29.273273,-9.925049,,,,,,,
1523522803.341686,-0.580998,-0.065772,1.723326,0.881564,-0.149274,-0.227781,-0.547672,0.065724,-0.834108,0.248874,-0.034520,0.484468,-11.451172,-29.651569,-9.173096,,,,,,,
1523522803.371654,-0.583343,-0.039071,1.732273,0.891744,-0.038703,-0.240667,-0.550397,0.039061,-0.833989,0.268262,-0.048262,0.508641,-11.290359,-29.650501,-7.372986,,,,,,,
1523522803.401623,-0.584211,-0.016170,1.739334,0.654429,-0.060702,-0.202457,-0.551469,0.016169,-0.834038,0.291551,-0.033824,0.486199,-11.663376,-29.948002,-6.546997,,,,,,,
1523522803.431591,-0.584847,-0.001390,1.744158,0.377768,0.049658,-0.082371,-0.552072,0.001390,-0.833795,0.294000,-0.013429,0.457758,-11.734619,-29.797291,-6.172607,,,,,,,
1523522803.461559,-0.580660,0.000353,1.746529,-0.150200,0.167506,0.120626,-0.548576,-0.000353,-0.836101,0.257408,-0.022276,0.362804,-10.010864,-30.329380,-5.494629,,,,,,,
1523522803.491526,-0.574703,-0.017684,1.744054,-0.833309,0.243022,0.352330,-0.543500,0.017683,-0.839223,0.144849,-0.015028,0.193883,-11.969818,-30.097446,-7.371582,,,,,,,
1523522803.521496,-0.565053,-0.053824,1.734674,-1.394239,0.407933,0.368803,-0.534685,0.053798,-0.843337,-0.026304,0.045537,-0.014085,-12.199173,-29.722752,-8.723206,,,,,,,
1523522803.551463,-0.555784,-0.094057,1.717198,-1.382775,0.282241,0.106808,-0.525277,0.093918,-0.845732,-0.166892,0.092300,-0.189363,-12.807129,-29.122349,-11.050842,,,,,,,
1523522803.581431,-0.546210,-0.117976,1.699669,-0.610387,0.518280,-0.186942,-0.515841,0.117702,-0.848560,-0.294202,0.123433,-0.348584,-12.209717,-28.975712,-11.726196,,,,,,,
1523522803.611399,-0.537450,-0.112607,1.690700,0.392145,-0.017989,-0.441378,-0.508705,0.112369,-0.853576,-0.270561,0.068386,-0.501618,-11.681137,-28.752872,-11.501770,,,,,,,
1523522803.641368,-0.552660,-0.088934,1.687926,0.676503,-0.695298,-0.480976,-0.522879,0.088816,-0.847767,-0.189005,0.076207,-0.095211,-11.003433,-29.429340,-9.923706,,,,,,,
1523522803.671336,-0.569593,-0.069406,1.686432,0.359831,-0.406647,-0.314217,-0.537991,0.069350,-0.840093,-0.172351,0.087281,0.023687,-10.777679,-29.579975,-9.548035,,,,,,,
1523522803.701293,-0.575504,-0.065667,1.681061,-0.229897,-0.066255,-0.155175,-0.543085,0.065619,-0.837110,-0.167807,0.107247,-0.072436,-9.879684,-29.734089,-9.621948,,,,,,,
1523522803.731261,-0.576267,-0.074672,1.672910,-0.464087,0.025699,-0.003064,-0.543379,0.074603,-0.836166,-0.270250,0.106870,-0.220352,-10.331161,-29.882069,-9.621582,,,,,,,
1523522803.761230,-0.576385,-0.086976,1.666694,-0.413553,-0.038751,0.078018,-0.542937,0.086866,-0.835269,-0.293916,0.070833,-0.261747,-10.409164,-29.507847,-10.748108,,,,,,,
1523522803.791228,-0.576454,-0.094930,1.665658,-0.095122,0.083340,0.132473,-0.542600,0.094788,-0.834626,-0.294100,0.020767,-0.207443,-9.658463,-29.211597,-11.123962,,,,,,,
1523522803.821197,-0.572513,-0.094271,1.671284,0.270940,0.071638,0.154079,-0.539341,0.094132,-0.836810,-0.201397,-0.033386,-0.164029,-11.232178,-29.354069,-10.674133,,,,,,,
1523522803.851165,-0.572544,-0.087123,1.682321,0.438672,-0.084239,0.201234,-0.539717,0.087013,-0.837337,-0.090135,-0.074181,-0.073460,-11.005081,-29.504490,-10.073486,,,,,,,
1523522803.881133,-0.575466,-0.080774,1.694798,0.370687,-0.176930,0.259883,-0.542452,0.080686,-0.836203,0.003526,-0.099806,-0.001214,-10.780838,-29.580494,-10.073059,,,,,,,
1523522803.911102,-0.580075,-0.077238,1.707112,0.278791,-0.171509,0.277917,-0.546452,0.077162,-0.833928,0.053151,-0.088590,0.067647,-11.301178,-29.652256,-9.172974,,,,,,,
1523522803.941070,-0.583374,-0.076198,1.716376,0.138590,-0.100474,0.198892,-0.549245,0.076124,-0.832187,0.082600,-0.063551,0.099964,-12.050079,-29.498966,-9.248962,,,,,,,
1523522803.971038,-0.585484,-0.076102,1.721587,0.080451,-0.078464,0.109336,-0.551003,0.076029,-0.831033,0.079186,-0.050913,0.108773,-11.895752,-29.199436,-9.025146,,,,,,,
1523522804.001006,-0.587366,-0.074473,1.725023,0.115983,-0.087624,0.041166,-0.552634,0.074404,-0.830096,0.041358,-0.053118,0.120517,-12.493484,-28.971745,-9.026367,,,,,,,
1523522804.030975,-0.591210,-0.071134,1.728397,0.181990,-0.146138,0.027424,-0.555957,0.071074,-0.828167,0.036364,-0.057219,0.153011,-12.642120,-28.970844,-8.801392,,,,,,,
1523522804.060943,-0.593469,-0.066923,1.732653,0.175988,-0.042053,0.037963,-0.557989,0.066873,-0.827150,0.021703,-0.028207,0.140260,-12.041687,-28.973469,-8.726135,,,,,,,
,,,,,,,,,,,,,,,,25.318927,51.456070,16.874599,3.770000,270.703125,1523522803.997327,
1523522804.090911,-0.593423,-0.065074,1.734928,0.014137,0.025453,0.014339,-0.558018,0.065028,-0.827277,0.012181,-0.017497,0.135657,-13.091202,-28.968678,-8.651672,,,,,,,
1523522804.120879,-0.590377,-0.067425,1.733418,-0.152725,0.167373,-0.010440,-0.555409,0.067374,-0.828843,0.008824,-0.021186,0.060197,-13.241638,-28.968067,-8.726746,,,,,,,
1523522804.150848,-0.585088,-0.070571,1.730813,-0.090764,0.155649,-0.027430,-0.550898,0.070512,-0.831589,0.002787,-0.022157,-0.001496,-12.572815,-29.271595,-9.250183,,,,,,,
1523522804.180816,-0.583428,-0.069828,1.729981,0.054895,-0.003979,-0.046334,-0.549545,0.069771,-0.832545,-0.013962,0.029762,-0.010549,-12.944641,-29.269398,-8.725403,,,,,,,
1523522804.210784,-0.585204,-0.066469,1.729749,0.083613,-0.080246,-0.090987,-0.551149,0.066420,-0.831759,-0.053526,0.072374,0.009920,-13.015305,-28.968876,-8.501587,,,,,,,
1523522804.240752,-0.586390,-0.063079,1.728256,0.042522,0.014608,-0.115627,-0.552257,0.063037,-0.831287,-0.078816,0.059003,0.035190,-12.266678,-28.972462,-8.726257,,,,,,,
1523522804.270721,-0.584426,-0.060535,1.726068,0.054633,0.087941,-0.122082,-0.550710,0.060498,-0.832501,-0.097422,0.019626,0.023770,-12.713821,-28.820225,-8.502014,,,,,,,
1523522804.300689,-0.581775,-0.054117,1.725859,0.307321,0.212923,-0.152926,-0.548703,0.054090,-0.834266,-0.118472,-0.007887,0.059638,-12.487625,-28.970783,-8.051331,,,,,,,
1523522804.330657,-0.573039,-0.047727,1.724371,0.076913,0.268679,-0.143558,-0.541571,0.047709,-0.839300,-0.173731,0.061788,-0.049479,-11.956650,-28.597813,-7.677551,,,,,,,
1523522804.360625,-0.573906,-0.045966,1.722733,0.007194,-0.159004,-0.044093,-0.542343,0.045950,-0.838900,-0.184784,0.059763,-0.038740,-12.110519,-29.121891,-7.450562,,,,,,,
