timestamp(unix),attitude_roll(radians),attitude_pitch(radians),attitude_yaw(radians),rotation_rate_x(radians/s),rotation_rate_y(radians/s),rotation_rate_z(radians/s),gravity_x(G),gravity_y(G),gravity_z(G),user_acc_x(G),user_acc_y(G),user_acc_z(G),magnetic_field_x(microteslas),magnetic_field_y(microteslas),magnetic_field_z(microteslas),latitude(degree),longitude(degree),altitude(meter),speed(m/s),course(degree),timestamp(unix),User Mark
1522314169.328469,-0.236166,-0.060558,-0.060544,-0.001300,-0.073792,-0.131773,-0.233548,0.060521,-0.970460,0.143964,-0.033468,-0.127456,26.275925,27.915611,-11.981567,,,,,,,1
1522314169.358438,-0.238560,-0.063808,-0.063422,-0.172793,-0.076359,-0.007235,-0.235822,0.063764,-0.969702,0.115491,-0.009138,-0.064081,26.729050,28.363350,-12.208130,,,,,,,1
,,,,,,,,,,,,,,,,25.300709,51.443528,14.658048,7.110000,63.281250,1522314168.997923,1
1522314169.388406,-0.241019,-0.067491,-0.064364,-0.117579,-0.149777,-0.012449,-0.238149,0.067439,-0.968884,0.151922,-0.038310,-0.043842,27.109436,28.811790,-12.059692,,,,,,,1
1522314169.418374,-0.242711,-0.070677,-0.064872,-0.101251,-0.026889,0.034327,-0.239735,0.070618,-0.968267,0.163242,-0.056489,-0.044047,27.326935,28.060814,-12.056580,,,,,,,1
1522314169.448342,-0.242680,-0.072728,-0.063574,-0.028695,-0.012326,0.054604,-0.239669,0.072664,-0.968131,0.202423,-0.028231,-0.053277,26.577850,28.288948,-12.282898,,,,,,,1
1522314169.478313,-0.241483,-0.073135,-0.061999,-0.001966,0.001380,0.059941,-0.238504,0.073070,-0.968389,0.200082,-0.010844,-0.046779,26.951187,28.212120,-12.432373,,,,,,,1
1522314169.508281,-0.239822,-0.070663,-0.060005,0.134979,0.013029,0.016348,-0.236937,0.070604,-0.968956,0.197768,0.002943,-0.062401,26.353317,28.290047,-12.208008,,,,,,,1
1522314169.538249,-0.239383,-0.067516,-0.059854,0.038749,-0.074568,-0.033722,-0.236563,0.067465,-0.969271,0.160711,0.018519,-0.100980,26.276672,28.215233,-12.357788,,,,,,,1
1522314169.568218,-0.241003,-0.068501,-0.061178,-0.070062,-0.047783,-0.027432,-0.238117,0.068448,-0.968822,0.165714,0.037204,-0.084264,26.805084,28.512932,-12.283691,,,,,,,1
1522314169.598186,-0.241359,-0.070101,-0.062125,-0.047687,-0.047896,-0.018893,-0.238436,0.070043,-0.968629,0.157183,0.035868,-0.094939,26.202576,28.215721,-12.207764,,,,,,,1
1522314169.628154,-0.241523,-0.070923,-0.062685,-0.016638,-0.004543,0.001328,-0.238581,0.070864,-0.968534,0.163996,0.000654,-0.074359,27.029327,28.436928,-12.283264,,,,,,,1
1522314169.658122,-0.242280,-0.070905,-0.062667,-0.017028,-0.088503,0.003543,-0.239314,0.070845,-0.968354,0.182246,-0.013564,-0.090423,26.879044,28.362679,-12.208008,,,,,,,1
1522314169.688091,-0.245814,-0.073242,-0.063274,-0.116470,-0.125412,-0.000760,-0.242693,0.073176,-0.967339,0.162340,-0.025615,-0.044090,25.977585,28.216728,-12.207886,,,,,,,1
1522314169.718059,-0.247341,-0.076403,-0.064461,-0.066618,0.005353,-0.028553,-0.244112,0.076329,-0.966738,0.164904,-0.040837,-0.017270,26.652252,28.138771,-12.132263,,,,,,,1
1522314169.748027,-0.245242,-0.076679,-0.065450,0.002941,0.025439,-0.040233,-0.242078,0.076604,-0.967228,0.168362,-0.047109,-0.036022,26.879044,28.362679,-12.208008,,,,,,,1
1522314169.777995,-0.244732,-0.076587,-0.066590,-0.042299,-0.052073,-0.031669,-0.241586,0.076513,-0.967358,0.177027,-0.057882,-0.055347,26.279068,28.365379,-12.208313,,,,,,,1
1522314169.807964,-0.245070,-0.078349,-0.067704,-0.091457,-0.038276,-0.011476,-0.241880,0.078269,-0.967144,0.194547,-0.041236,-0.054310,25.754990,28.367882,-12.058594,,,,,,,1
1522314169.837932,-0.244089,-0.079770,-0.068580,-0.051814,-0.003313,-0.009359,-0.240904,0.079686,-0.967272,0.181471,-0.027562,-0.063337,27.105530,28.511665,-12.208496,,,,,,,1
1522314169.867900,-0.243144,-0.079741,-0.069052,-0.001583,-0.000257,-0.012499,-0.239991,0.079657,-0.967502,0.177170,-0.006506,-0.029721,26.280716,28.665138,-12.434509,,,,,,,1
1522314169.897868,-0.241140,-0.079617,-0.068867,0.016521,0.025030,0.015175,-0.238054,0.079533,-0.967990,0.162950,-0.001103,-0.044430,26.430710,28.664467,-12.434448,,,,,,,1
1522314169.927837,-0.239238,-0.078536,-0.067493,0.044169,0.029026,0.040769,-0.236232,0.078455,-0.968524,0.171291,0.035406,-0.056271,26.662140,29.038872,-11.985840,,,,,,,1
1522314169.957805,-0.235806,-0.077957,-0.065912,0.022961,0.069419,0.047102,-0.232918,0.077878,-0.969373,0.175743,0.035541,-0.052538,26.356903,28.515251,-11.983948,,,,,,,1
1522314169.987773,-0.231785,-0.076982,-0.064162,0.071237,0.126642,0.052408,-0.229035,0.076906,-0.970375,0.198228,0.049086,-0.044517,26.131622,28.441338,-11.908752,,,,,,,1
1522314170.017741,-0.225859,-0.074485,-0.061577,0.107579,0.149834,0.065202,-0.223323,0.074416,-0.971900,0.207118,0.045624,-0.085519,26.277573,28.215385,-12.207764,,,,,,,1
1522314170.047710,-0.222223,-0.072277,-0.059738,0.081850,0.066319,0.013055,-0.219823,0.072214,-0.972863,0.201589,0.013647,-0.122458,26.425919,27.914940,-11.981506,,,,,,,1
,,,,,,,,,,,,,,,,25.300744,51.443553,14.518111,6.230000,54.492188,1522314169.997910,1
1522314170.077678,-0.220866,-0.071449,-0.059947,-0.004727,-0.007510,-0.033825,-0.218515,0.071388,-0.973219,0.208750,-0.019417,-0.128252,27.173798,27.836357,-12.205750,,,,,,,1
1522314170.107646,-0.223442,-0.072191,-0.061298,-0.051164,-0.129566,-0.037998,-0.221010,0.072129,-0.972601,0.222032,-0.012925,-0.065913,26.945511,27.687080,-12.505310,,,,,,,1
1522314170.137645,-0.226936,-0.073257,-0.062768,-0.027512,-0.092444,-0.036951,-0.224390,0.073192,-0.971747,0.183405,-0.026439,-0.033395,26.045853,27.541435,-12.205139,,,,,,,1
1522314170.167613,-0.228382,-0.072080,-0.063495,0.059057,-0.068250,-0.032648,-0.225814,0.072018,-0.971505,0.186569,-0.049969,-0.038658,26.495972,27.689186,-12.430481,,,,,,,1
1522314170.197582,-0.227127,-0.068544,-0.063759,0.139898,0.094173,-0.039145,-0.224651,0.068490,-0.972029,0.191860,-0.067696,-0.106431,26.420074,27.689369,-12.580566,,,,,,,1
1522314170.227550,-0.224886,-0.066061,-0.064350,0.014446,-0.024543,-0.038046,-0.222508,0.066013,-0.972693,0.188314,-0.055286,-0.104623,25.817261,27.317238,-12.429382,,,,,,,1
1522314170.257518,-0.227057,-0.067190,-0.065923,-0.101250,-0.117704,-0.045503,-0.224603,0.067140,-0.972135,0.167795,-0.035569,-0.067233,25.741211,27.392281,-12.729736,,,,,,,1
1522314170.287486,-0.230443,-0.069647,-0.068015,-0.081057,-0.150621,-0.056111,-0.227855,0.069591,-0.971205,0.148021,-0.025020,-0.048662,26.196121,27.840309,-12.656311,,,,,,,1
1522314170.317455,-0.233999,-0.070528,-0.070101,-0.039340,-0.132640,-0.057173,-0.231293,0.070469,-0.970329,0.133194,-0.047245,-0.022057,26.120529,27.915413,-12.881592,,,,,,,1
1522314170.347423,-0.237679,-0.070895,-0.071712,-0.023413,-0.137048,-0.042229,-0.234856,0.070835,-0.969446,0.115029,-0.044270,-0.012869,25.976974,28.291512,-12.433167,,,,,,,1
1522314170.377391,-0.238932,-0.070666,-0.072161,0.021624,-0.042891,0.001394,-0.236075,0.070607,-0.969166,0.111792,-0.035695,-0.035594,26.048370,28.065971,-12.657288,,,,,,,1
1522314170.407359,-0.239481,-0.068991,-0.071548,0.053518,-0.064289,0.009969,-0.236634,0.068937,-0.969150,0.095627,-0.035779,-0.058499,25.146622,28.069725,-12.957703,,,,,,,1
1522314170.437328,-0.240085,-0.067382,-0.070694,0.036567,-0.026012,0.015231,-0.237245,0.067331,-0.969114,0.119356,-0.033640,-0.033923,25.372803,28.143776,-12.882874,,,,,,,1
1522314170.467283,-0.240237,-0.066457,-0.070385,0.026912,-0.067276,-0.009228,-0.237408,0.066408,-0.969138,0.111294,-0.029299,-0.056329,25.750626,28.292305,-12.658325,,,,,,,1
1522314170.497251,-0.241252,-0.065964,-0.071159,-0.041278,-0.070065,-0.040185,-0.238399,0.065916,-0.968928,0.094112,-0.016692,-0.074514,24.849625,28.146431,-12.583191,,,,,,,1
1522314170.527219,-0.244790,-0.068398,-0.073294,-0.122806,-0.165439,-0.048673,-0.241785,0.068344,-0.967920,0.072489,-0.026535,-0.010703,24.401443,28.373375,-12.659302,,,,,,,1
1522314170.557188,-0.247196,-0.070500,-0.075172,-0.058308,-0.055204,-0.034870,-0.244079,0.070442,-0.967194,0.051070,-0.040168,-0.020004,24.625534,28.147591,-12.433289,,,,,,,1
1522314170.587156,-0.247459,-0.071396,-0.075823,-0.041324,-0.029994,0.003462,-0.244317,0.071336,-0.967068,0.041878,-0.056107,-0.011585,24.253540,28.449272,-12.434692,,,,,,,1
1522314170.617124,-0.247192,-0.072311,-0.075746,-0.020912,0.010259,0.014093,-0.244043,0.072248,-0.967069,0.054132,-0.059125,0.005522,25.156235,28.670280,-12.360168,,,,,,,1
1522314170.647092,-0.246003,-0.071372,-0.075339,0.052980,0.044164,0.001331,-0.242909,0.071311,-0.967424,0.061269,-0.049766,-0.027571,23.653580,28.451973,-12.434998,,,,,,,1
1522314170.677061,-0.244020,-0.068752,-0.075130,0.087314,0.059119,-0.019980,-0.241034,0.068698,-0.968082,0.064780,-0.054095,-0.173138,24.101288,28.449577,-12.809753,,,,,,,1
1522314170.707029,-0.240718,-0.064970,-0.075468,0.096441,0.142250,-0.059476,-0.237897,0.064924,-0.969118,0.081739,-0.055464,-0.395033,24.708618,29.047066,-12.586853,,,,,,,1
1522314170.736997,-0.240982,-0.065751,-0.078334,-0.172565,-0.137308,-0.104139,-0.238141,0.065704,-0.969006,0.076123,-0.069473,-0.522175,24.636475,28.972984,-11.986633,,,,,,,1
1522314170.766966,-0.249616,-0.076369,-0.083730,-0.534611,-0.353434,-0.066902,-0.246312,0.076294,-0.966183,0.142461,-0.090653,-0.273197,24.942444,29.571617,-11.988831,,,,,,,1
1522314170.796934,-0.259918,-0.091413,-0.087897,-0.397798,-0.220494,0.019376,-0.255928,0.091286,-0.962376,0.110710,-0.105904,-0.004757,24.640961,29.422966,-11.988403,,,,,,,1
1522314170.826902,-0.260683,-0.097215,-0.086724,-0.067581,0.011482,0.160031,-0.256524,0.097062,-0.961652,0.154885,-0.062775,0.116712,24.341125,29.574089,-12.214172,,,,,,,1
1522314170.856870,-0.259675,-0.099181,-0.079607,0.057994,0.050754,0.273033,-0.255505,0.099018,-0.961724,0.171444,0.001232,0.220620,24.191132,29.574760,-12.214233,,,,,,,1
1522314170.886839,-0.255595,-0.096911,-0.070909,0.176898,0.096391,0.237917,-0.251635,0.096759,-0.962973,0.134310,0.063779,0.220648,24.862503,29.346519,-12.437927,,,,,,,1
1522314170.916807,-0.253448,-0.093574,-0.064867,0.117492,0.036841,0.113268,-0.249647,0.093437,-0.963818,0.103849,0.091102,0.288876,24.113892,29.350121,-12.213379,,,,,,,1
1522314170.946775,-0.251604,-0.093014,-0.063050,-0.022829,0.055985,0.010845,-0.247882,0.092880,-0.964328,0.057818,0.136841,0.361636,23.659714,29.201714,-12.663025,,,,,,,1
1522314170.976743,-0.250565,-0.095033,-0.064240,-0.079286,0.025654,-0.039242,-0.246833,0.094890,-0.964401,-0.001993,0.174061,0.405472,24.033356,29.199806,-12.887817,,,,,,,1
1522314171.006712,-0.250001,-0.093130,-0.065864,0.219959,0.023174,-0.096546,-0.246333,0.092995,-0.964713,-0.098286,0.121955,0.235923,22.986404,29.279884,-12.513611,,,,,,,1
1522314171.036680,-0.243718,-0.076805,-0.065563,0.613654,0.413386,-0.116898,-0.240601,0.076730,-0.967587,-0.135468,0.074470,-0.106693,23.286072,29.428246,-12.814087,,,,,,,1
,,,,,,,,,,,,,,,,25.300804,51.443581,14.018424,6.160000,50.625000,1522314170.997899,1
1522314171.066648,-0.233325,-0.068034,-0.065302,-0.012881,0.098641,-0.015821,-0.230679,0.067982,-0.970652,-0.150196,0.035336,-0.220205,22.693436,29.806511,-12.215881,,,,,,,1
1522314171.096616,-0.235046,-0.076554,-0.065044,-0.361309,-0.040762,0.137490,-0.232205,0.076479,-0.969655,-0.096942,-0.015459,0.003591,23.813889,29.576088,-12.589417,,,,,,,1
1522314171.126585,-0.235116,-0.086198,-0.062568,-0.204199,0.001314,0.142893,-0.232091,0.086092,-0.968877,-0.017070,-0.099748,0.099248,24.266129,29.574425,-12.214172,,,,,,,1
1522314171.156553,-0.233280,-0.087863,-0.060132,0.075474,0.109675,0.044974,-0.230278,0.087750,-0.969160,0.078163,-0.172162,0.032317,25.385681,29.343864,-12.737732,,,,,,,1
1522314171.186521,-0.228801,-0.081432,-0.060325,0.261277,0.146604,-0.133939,-0.226059,0.081342,-0.970712,0.084167,-0.279492,-0.189079,24.488571,29.498131,-12.513733,,,,,,,1
1522314171.216489,-0.225799,-0.073930,-0.065595,0.120910,0.068489,-0.309776,-0.223274,0.073863,-0.971953,0.041801,-0.325969,-0.317048,25.160400,29.269951,-12.662537,,,,,,,1
1522314171.246458,-0.230447,-0.073568,-0.077321,-0.219848,-0.329459,-0.416180,-0.227795,0.073502,-0.970931,-0.017322,-0.291168,-0.348252,25.466507,29.793724,-12.514465,,,,,,,1
1522314171.276426,-0.246747,-0.080194,-0.091836,-0.368138,-0.495105,-0.378841,-0.243466,0.080108,-0.966596,-0.071445,-0.215651,-0.206805,24.421494,30.473122,-12.817688,,,,,,,1
1522314171.306394,-0.258978,-0.087230,-0.102429,-0.212583,-0.361807,-0.199842,-0.255119,0.087120,-0.962977,-0.153115,-0.192405,-0.089101,24.200546,30.924034,-12.894592,,,,,,,1
1522314171.336363,-0.265023,-0.084148,-0.103317,0.317004,-0.072635,0.046399,-0.261004,0.084049,-0.961672,-0.175428,-0.145908,-0.188398,23.977646,31.000267,-12.670044,,,,,,,1
1522314171.366331,-0.264554,-0.074265,-0.096076,0.329302,-0.018406,0.190191,-0.260759,0.074197,-0.962549,-0.138640,-0.030618,-0.319098,23.976135,30.850273,-12.669434,,,,,,,1
1522314171.396299,-0.263463,-0.072439,-0.087625,-0.009359,0.014874,0.260238,-0.259742,0.072376,-0.962962,-0.016915,0.108639,-0.290334,24.422394,30.473274,-12.667725,,,,,,,1
1522314171.426267,-0.265402,-0.079560,-0.083918,-0.284480,-0.063196,0.126917,-0.261467,0.079476,-0.961935,-0.052345,0.061942,-0.108668,24.269684,30.473518,-13.117798,,,,,,,1
1522314171.456236,-0.262441,-0.088386,-0.084435,-0.279590,0.193591,0.025437,-0.258426,0.088271,-0.961990,-0.095319,0.005159,0.015792,24.197830,30.698982,-12.968689,,,,,,,1
1522314171.486198,-0.256142,-0.096440,-0.085308,-0.235785,0.237890,0.057389,-0.252173,0.096291,-0.962879,-0.038018,0.037148,0.190434,24.271637,30.398949,-12.667480,,,,,,,1
1522314171.516166,-0.243157,-0.101704,-0.083285,-0.086849,0.491715,0.175519,-0.239524,0.101529,-0.965567,-0.041329,0.068851,0.257559,25.171021,30.469673,-12.892273,,,,,,,1
1522314171.546134,-0.229396,-0.103170,-0.075104,0.093379,0.401893,0.343034,-0.226180,0.102987,-0.968626,-0.012605,0.105250,0.295286,23.969406,30.175316,-12.666748,,,,,,,1
1522314171.576103,-0.216055,-0.101746,-0.062645,0.125970,0.384249,0.424051,-0.213269,0.101570,-0.971699,0.032437,0.148857,0.258977,24.419418,29.948662,-12.290588,,,,,,,1
1522314171.606071,-0.207892,-0.105302,-0.048266,-0.140623,0.095205,0.521105,-0.205255,0.105107,-0.973048,0.133890,0.160441,0.316081,24.255936,28.824028,-12.661194,,,,,,,1
1522314171.636039,-0.206578,-0.114449,-0.034785,-0.219042,-0.055253,0.484982,-0.203770,0.114200,-0.972335,0.174260,0.130155,0.461120,24.396805,27.998253,-12.807800,,,,,,,1
1522314171.666007,-0.208061,-0.120831,-0.021180,0.029317,-0.148289,0.482058,-0.205057,0.120537,-0.971299,0.212320,0.116829,0.442445,24.616394,27.547112,-12.955872,,,,,,,1
1522314171.695976,-0.209895,-0.108448,-0.006130,0.878598,-0.025809,0.291840,-0.207133,0.108235,-0.972307,0.164012,0.016673,0.210924,23.713745,27.101479,-12.654602,,,,,,,1
1522314171.725944,-0.199465,-0.076011,0.004302,1.120703,0.536639,0.008021,-0.197573,0.075938,-0.977342,0.006136,-0.153193,-0.249342,24.006119,26.425011,-12.801697,,,,,,,1
1522314171.755912,-0.191792,-0.058192,0.004576,0.092522,-0.165007,-0.187029,-0.190295,0.058160,-0.980003,0.000705,-0.169671,-0.483819,23.777527,26.200813,-13.025940,,,,,,,1
1522314171.785880,-0.217427,-0.070425,-0.005356,-0.697815,-1.021073,-0.264548,-0.215183,0.070367,-0.974035,-0.083050,-0.023553,-0.170023,23.484421,26.802284,-12.878479,,,,,,,1
1522314171.815849,-0.250674,-0.084424,-0.019297,-0.319737,-1.192961,-0.435640,-0.247174,0.084324,-0.965295,-0.306125,-0.093418,-0.069815,23.112869,27.328651,-13.180725,,,,,,,1
1522314171.845817,-0.274862,-0.080478,-0.033212,0.131128,-0.239481,-0.489542,-0.270535,0.080391,-0.959348,-0.436084,-0.165413,-0.118259,22.667664,27.855583,-13.258118,,,,,,,1
1522314171.875785,-0.266150,-0.071283,-0.047130,0.184247,0.562103,-0.563824,-0.262351,0.071223,-0.962341,-0.473855,-0.280283,-0.169358,22.829193,29.054771,-13.337830,,,,,,,1
1522314171.905753,-0.250123,-0.063183,-0.056700,0.178205,0.414682,-0.147059,-0.247030,0.063141,-0.966949,-0.307597,-0.335709,-0.203431,23.060318,29.354256,-12.813904,,,,,,,1
1522314171.935722,-0.244681,-0.058640,-0.051303,0.136034,0.071819,0.272004,-0.241831,0.058606,-0.968547,-0.090368,-0.199735,0.033580,24.024658,28.824013,-13.711304,,,,,,,1
1522314171.965690,-0.238662,-0.061435,-0.041492,-0.118288,0.336578,0.337613,-0.235957,0.061396,-0.969822,0.081920,-0.059062,0.117268,23.498764,28.376991,-13.109802,,,,,,,1
1522314171.995658,-0.222641,-0.064720,-0.033640,0.175060,0.622490,0.224591,-0.220344,0.064674,-0.973276,0.230552,-0.010582,-0.060568,23.640717,27.251869,-12.580200,,,,,,,1
1522314172.025627,-0.204051,-0.049943,-0.029599,0.689719,0.464251,-0.123288,-0.202386,0.049922,-0.978033,0.083215,-0.143886,-0.580271,24.309525,26.948341,-13.103699,,,,,,,1
,,,,,,,,,,,,,,,,25.300878,51.443681,13.878384,7.240000,49.921875,1522314171.997886,1
1522314172.055595,-0.202290,-0.035699,-0.032361,0.103004,-0.219143,-0.197629,-0.200786,0.035691,-0.978985,-0.017766,-0.119034,-0.523029,24.534973,26.722786,-12.652649,,,,,,,1
1522314172.085563,-0.217080,-0.046521,-0.042676,-0.760781,-0.575497,-0.292739,-0.215146,0.046504,-0.975474,0.036602,-0.030177,-0.166890,24.464615,27.322868,-12.880066,,,,,,,1
1522314172.115531,-0.236345,-0.074690,-0.057151,-1.123594,-0.634901,-0.177876,-0.233498,0.074621,-0.969490,0.010460,-0.029851,0.100471,24.699463,28.446587,-13.109497,,,,,,,1
1522314172.145500,-0.256906,-0.105990,-0.063336,-0.950327,-0.576504,0.222828,-0.252664,0.105792,-0.961753,-0.040107,-0.028018,0.363013,23.355530,29.052635,-13.112549,,,,,,,1
1522314172.175468,-0.267389,-0.123683,-0.056039,-0.215907,-0.295445,0.492670,-0.262195,0.123368,-0.957097,-0.115292,-0.007447,0.509953,23.139206,29.654045,-12.665100,,,,,,,1
1522314172.205436,-0.275046,-0.128176,-0.044302,0.053665,-0.365143,0.334183,-0.269363,0.127825,-0.954518,-0.041855,-0.022265,0.456456,23.144730,30.478569,-13.118408,,,,,,,1
1522314172.235404,-0.283363,-0.126820,-0.034994,0.180966,-0.197890,0.227562,-0.277341,0.126481,-0.952410,0.096875,0.024307,0.504351,22.091324,30.407860,-13.568604,,,,,,,1
1522314172.265373,-0.281956,-0.124041,-0.031318,0.049947,0.256030,-0.054300,-0.276097,0.123723,-0.953133,0.075048,0.023952,0.401879,22.167694,30.407738,-13.343567,,,,,,,1
1522314172.295341,-0.268693,-0.122404,-0.039148,0.003840,0.552747,-0.375363,-0.263485,0.122099,-0.956905,-0.094516,-0.032957,-0.064930,23.296097,30.478111,-12.893250,,,,,,,1
1522314172.325309,-0.260403,-0.109562,-0.050599,0.358733,0.007720,-0.516255,-0.255926,0.109343,-0.960492,-0.188394,-0.105452,-0.266772,23.297440,30.478340,-12.668274,,,,,,,1
1522314172.355277,-0.275743,-0.096556,-0.064177,0.288525,-0.674151,-0.539053,-0.270994,0.096406,-0.957741,-0.256884,-0.022874,-0.093528,22.921249,30.629570,-13.119080,,,,,,,1
1522314172.385246,-0.292887,-0.086733,-0.071198,0.210027,-0.347236,-0.152669,-0.287633,0.086625,-0.953815,-0.188487,0.057312,-0.051922,23.292328,30.777000,-14.019470,,,,,,,1
1522314172.415214,-0.296206,-0.081097,-0.068035,0.276707,-0.088368,0.183832,-0.290935,0.081008,-0.953307,-0.054158,0.129929,0.074019,21.941315,30.633156,-13.944580,,,,,,,1
1522314172.445182,-0.301833,-0.071136,-0.052811,0.558782,-0.191990,0.464385,-0.296519,0.071076,-0.952378,-0.017125,0.115707,-0.030151,22.235031,30.181541,-14.242676,,,,,,,1
1522314172.475165,-0.293429,-0.061577,-0.035912,0.332720,0.493441,0.386804,-0.288688,0.061538,-0.955443,0.039924,-0.028838,-0.239198,22.908218,29.953590,-14.166382,,,,,,,1
1522314172.505134,-0.283932,-0.061486,-0.029289,-0.112778,0.068509,0.073639,-0.279603,0.061447,-0.958147,0.086656,-0.150192,-0.213667,22.829926,29.354393,-13.714050,,,,,,,1
1522314172.535102,-0.287169,-0.070501,-0.032400,-0.444120,-0.167736,-0.061697,-0.282534,0.070442,-0.956667,0.183566,-0.150307,-0.080015,23.280075,29.277519,-13.563477,,,,,,,1
1522314172.565070,-0.290036,-0.081188,-0.038803,-0.286725,0.058862,-0.155571,-0.285045,0.081099,-0.955077,0.029231,-0.219938,-0.039598,23.883316,29.649727,-13.639648,,,,,,,1
1522314172.595038,-0.287217,-0.081759,-0.046115,0.030892,0.061956,-0.253373,-0.282338,0.081667,-0.955832,-0.213359,-0.254000,-0.126611,23.218521,30.627785,-13.568909,,,,,,,1
1522314172.625007,-0.290010,-0.077619,-0.053064,0.084066,-0.236718,-0.263673,-0.285101,0.077541,-0.955356,-0.310114,-0.257640,-0.116620,23.599045,31.226006,-13.646118,,,,,,,1
1522314172.654975,-0.305176,-0.071886,-0.057667,0.158710,-0.559871,-0.118396,-0.299685,0.071824,-0.951331,-0.263746,-0.235414,0.008612,22.405075,32.055992,-14.025024,,,,,,,1
1522314172.684943,-0.315587,-0.066514,-0.054999,0.225432,-0.165375,0.122069,-0.309688,0.066465,-0.948512,-0.086690,-0.118909,0.130824,22.704163,31.829872,-13.799011,,,,,,,1
1522314172.714912,-0.305794,-0.062374,-0.048920,0.135099,0.668818,0.147799,-0.300464,0.062333,-0.951754,0.005405,-0.029420,0.101687,22.920334,31.303307,-14.396790,,,,,,,1
1522314172.744880,-0.279637,-0.059282,-0.045608,0.255131,0.852209,0.015582,-0.275522,0.059247,-0.959467,-0.008383,0.002490,-0.343267,23.668365,30.925240,-14.094910,,,,,,,1
1522314172.774848,-0.265760,-0.050581,-0.045636,0.123503,0.133156,-0.137224,-0.262307,0.050559,-0.963659,-0.054450,0.032815,-0.413050,22.992661,30.404030,-13.343140,,,,,,,1
1522314172.804816,-0.272029,-0.058301,-0.050387,-0.550860,-0.353708,-0.022161,-0.268229,0.058268,-0.961591,-0.005803,0.036809,0.017408,23.290253,30.027916,-13.116516,,,,,,,1
1522314172.834785,-0.281684,-0.078918,-0.052208,-0.676787,-0.286100,0.230211,-0.277109,0.078836,-0.957599,0.036005,0.027289,0.305392,22.923950,31.079262,-13.420898,,,,,,,1
1522314172.864753,-0.284675,-0.094804,-0.046175,-0.260790,0.054952,0.394258,-0.279584,0.094662,-0.955443,0.048368,-0.000210,0.435546,22.620209,30.705635,-13.419556,,,,,,,1
1522314172.894721,-0.273513,-0.099898,-0.036540,0.024849,0.521532,0.278926,-0.268769,0.099732,-0.958027,0.106064,-0.051956,0.461308,22.844284,30.704475,-13.569397,,,,,,,1
1522314172.924689,-0.254893,-0.097205,-0.032136,0.205978,0.579420,-0.008693,-0.250952,0.097052,-0.963122,0.103002,-0.103141,0.275607,22.990417,30.179039,-13.342224,,,,,,,1
1522314172.954658,-0.238175,-0.087272,-0.032853,0.318674,0.571469,-0.127936,-0.235032,0.087161,-0.968072,0.116578,-0.142993,0.024315,23.513901,29.577446,-12.589600,,,,,,,1
1522314172.984626,-0.219262,-0.083115,-0.037923,-0.074660,0.566969,-0.255026,-0.216758,0.083020,-0.972689,-0.000984,-0.135663,-0.175215,24.408646,29.048409,-12.587036,,,,,,,1
1522314173.014594,-0.227286,-0.086334,-0.046287,-0.206566,-0.918628,-0.198220,-0.224495,0.086227,-0.970653,-0.030281,0.029404,0.057506,24.336487,29.198967,-12.362671,,,,,,,1
1522314173.044562,-0.265702,-0.093087,-0.050150,-0.205834,-1.236706,0.002429,-0.261450,0.092952,-0.960731,-0.170466,0.171971,0.123222,22.540283,30.031288,-13.116882,,,,,,,1
,,,,,,,,,,,,,,,,25.300872,51.443730,14.134227,6.270000,59.414062,1522314172.997874,1
1522314173.074531,-0.291293,-0.090918,-0.049964,0.289627,-0.542782,-0.025616,-0.286005,0.090793,-0.953917,-0.311346,0.186093,0.056242,21.491364,30.410561,-13.568909,,,,,,,1
1522314173.104499,-0.297691,-0.077391,-0.043714,0.635479,-0.126192,0.145784,-0.292435,0.077314,-0.953155,-0.273605,0.115786,0.020873,21.264999,30.411354,-13.794067,,,,,,,1
1522314173.134467,-0.302866,-0.057419,-0.033448,0.741274,-0.201319,0.062827,-0.297765,0.057387,-0.952912,-0.153956,-0.035552,-0.147750,20.816223,30.488457,-13.719543,,,,,,,1
1522314173.164435,-0.302506,-0.041061,-0.031354,0.294409,0.101150,-0.179686,-0.297662,0.041050,-0.953788,-0.026618,-0.127628,-0.235055,22.226517,29.281654,-14.164062,,,,,,,1
1522314173.194404,-0.302980,-0.043595,-0.040556,-0.466308,-0.194487,-0.332320,-0.298082,0.043582,-0.953545,0.075075,-0.102480,-0.195305,21.848541,28.983360,-14.163025,,,,,,,1
1522314173.224372,-0.322055,-0.057951,-0.056552,-0.573827,-0.862412,-0.357309,-0.315986,0.057919,-0.946994,0.117469,-0.106610,-0.067700,21.693283,28.459068,-14.161011,,,,,,,1
1522314173.254340,-0.347183,-0.063502,-0.068924,-0.121238,-0.608764,-0.322062,-0.339564,0.063460,-0.938439,0.075679,-0.099211,-0.018958,22.750870,29.354073,-14.389038,,,,,,,1
1522314173.284309,-0.359227,-0.058798,-0.081056,0.034358,-0.357412,-0.459651,-0.350943,0.058764,-0.934551,-0.164148,-0.200900,-0.094288,21.630997,29.958961,-14.542053,,,,,,,1
1522314173.314277,-0.382650,-0.051546,-0.095849,0.066985,-1.079195,-0.583569,-0.372884,0.051523,-0.926446,-0.219248,-0.244852,-0.084312,20.960495,30.861229,-15.296021,,,,,,,1
1522314173.344245,-0.419617,-0.044366,-0.110067,-0.025595,-1.102160,-0.457882,-0.407009,0.044351,-0.912346,-0.153828,-0.201883,0.134682,21.113800,31.235451,-15.372437,,,,,,,1
1522314173.374213,-0.443399,-0.044743,-0.118924,-0.171906,-0.512116,-0.145320,-0.428582,0.044728,-0.902394,-0.050605,-0.112081,0.140309,19.459656,31.092445,-15.822632,,,,,,,1
1522314173.404182,-0.447953,-0.045406,-0.122411,0.036332,0.043737,-0.082861,-0.432675,0.045390,-0.900406,-0.010364,-0.021907,0.148468,19.609070,30.941933,-15.671997,,,,,,,1
1522314173.434150,-0.442459,-0.041700,-0.122333,0.149277,0.272717,-0.045712,-0.427791,0.041688,-0.902915,-0.021153,0.016067,0.094215,19.763382,31.241463,-15.448059,,,,,,,1
1522314173.464114,-0.438361,-0.033910,-0.123002,0.259591,-0.041170,-0.177437,-0.424212,0.033903,-0.904928,-0.052778,-0.012892,-0.082163,19.085876,30.944588,-15.372253,,,,,,,1
1522314173.494082,-0.448604,-0.022991,-0.124852,0.269830,-0.428718,-0.223924,-0.433593,0.022989,-0.900815,-0.046067,0.009604,-0.080402,19.678070,30.341621,-15.669556,,,,,,,1
1522314173.524051,-0.458575,-0.018391,-0.127774,-0.003160,-0.202616,-0.093297,-0.442596,0.018390,-0.896532,0.022048,0.014829,-0.019194,19.678513,30.341698,-15.594543,,,,,,,1
1522314173.554019,-0.462321,-0.016161,-0.130002,0.109444,-0.132548,-0.126305,-0.445968,0.016160,-0.894902,-0.041200,-0.017900,0.027028,19.074493,29.894493,-15.518066,,,,,,,1
1522314173.583987,-0.467420,-0.007502,-0.130790,0.329653,-0.148568,-0.192191,-0.450572,0.007502,-0.892708,-0.021230,0.032949,0.027397,18.995590,29.819313,-16.042786,,,,,,,1
1522314173.613955,-0.469728,0.005597,-0.133840,0.319099,-0.068782,-0.352112,-0.452636,-0.005597,-0.891677,-0.052323,-0.000796,0.013244,18.992004,29.369484,-15.890991,,,,,,,1
1522314173.643924,-0.473683,0.015962,-0.142707,0.079922,-0.235105,-0.491703,-0.456109,-0.015961,-0.889780,-0.075935,-0.037536,-0.034353,18.090424,29.073769,-15.665283,,,,,,,1
1522314173.673892,-0.485023,0.023794,-0.158420,-0.014053,-0.432387,-0.659937,-0.466096,-0.023791,-0.884413,-0.050719,-0.064389,-0.069047,18.460007,28.846581,-16.189148,,,,,,,1
1522314173.703860,-0.499355,0.036492,-0.177504,0.159503,-0.477478,-0.809988,-0.478541,-0.036484,-0.877306,0.019373,-0.069153,-0.051801,18.082611,28.922752,-16.714661,,,,,,,1
1522314173.733828,-0.506787,0.052675,-0.193169,0.217035,-0.055971,-0.628170,-0.484697,-0.052651,-0.873095,0.002840,-0.081169,0.010577,17.181442,28.851738,-16.789856,,,,,,,1
1522314173.763797,-0.505392,0.067193,-0.204353,0.282325,0.082435,-0.538751,-0.483058,-0.067143,-0.873010,0.029521,-0.068279,0.108422,17.179626,29.076073,-17.465759,,,,,,,1
1522314173.793765,-0.498269,0.084137,-0.216202,0.278591,0.244100,-0.708345,-0.476215,-0.084037,-0.875303,0.052189,-0.051995,0.154356,17.700882,28.698723,-17.463989,,,,,,,1
1522314173.823733,-0.495740,0.103341,-0.237120,0.181278,-0.242799,-1.097903,-0.473144,-0.103157,-0.874924,0.100403,-0.048897,0.117310,17.475418,29.148903,-18.290894,,,,,,,1
1522314173.853701,-0.515996,0.124535,-0.271759,0.006153,-1.187371,-1.500926,-0.489580,-0.124213,-0.863065,0.121279,-0.069390,0.130918,16.276825,29.154533,-18.066467,,,,,,,1
1522314173.883670,-0.548634,0.148920,-0.311086,0.027003,-1.192327,-1.408202,-0.515749,-0.148370,-0.843794,-0.082899,-0.186454,0.060133,15.007980,30.359261,-19.046997,,,,,,,1
1522314173.913638,-0.560827,0.161682,-0.338768,-0.182830,0.013272,-0.664754,-0.524949,-0.160978,-0.835771,-0.189421,-0.172914,0.031175,14.486893,30.661751,-18.898438,,,,,,,1
1522314173.943606,-0.545055,0.159305,-0.348299,-0.307495,0.569141,-0.030361,-0.511900,-0.158632,-0.844271,-0.059603,-0.009978,-0.096861,14.792572,31.185448,-18.825317,,,,,,,1
1522314173.973575,-0.536351,0.150760,-0.358500,-0.450310,0.038184,-0.332542,-0.505206,-0.150189,-0.849829,0.068240,0.074658,-0.023203,14.647980,31.411629,-18.301331,,,,,,,1
1522314174.003543,-0.541243,0.149778,-0.381275,-0.396149,-0.515781,-0.756028,-0.509433,-0.149219,-0.847473,-0.006802,-0.024228,0.005386,13.604736,32.315941,-18.680481,,,,,,,1
1522314174.033511,-0.551306,0.152324,-0.408249,-0.387770,-0.376239,-0.808369,-0.517734,-0.151735,-0.841977,-0.140576,-0.106154,0.033063,13.914322,32.690514,-17.706787,,,,,,,1
1522314174.063479,-0.552404,0.152889,-0.429129,-0.273265,0.124487,-0.427334,-0.518614,-0.152294,-0.841335,-0.178468,-0.138599,0.079448,13.241882,33.218086,-18.159241,,,,,,,1
,,,,,,,,,,,,,,,,25.300839,51.443706,14.097677,4.240000,67.500000,1522314173.997862,1
1522314174.093448,-0.532330,0.158426,-0.436028,0.287660,0.899617,-0.242291,-0.501186,-0.157764,-0.850836,-0.051640,-0.059720,-0.090967,13.172302,33.443932,-17.635254,,,,,,,1
1522314174.123416,-0.509145,0.174645,-0.439997,0.398912,0.385950,-0.522994,-0.480016,-0.173759,-0.859879,-0.017359,-0.030755,-0.189102,13.695175,33.366356,-17.859619,,,,,,,1
1522314174.153384,-0.521353,0.193870,-0.455966,0.221071,-0.940027,-0.937345,-0.488723,-0.192657,-0.850900,-0.009232,-0.077591,-0.091070,12.572464,33.596397,-17.861145,,,,,,,1
1522314174.183352,-0.547086,0.211245,-0.480213,-0.004042,-0.951897,-0.981197,-0.508637,-0.209677,-0.835058,-0.051315,-0.143793,0.002249,12.197021,33.822639,-18.312256,,,,,,,1
1522314174.213321,-0.561114,0.226376,-0.504433,0.116666,-0.315564,-0.850677,-0.518553,-0.224448,-0.825060,-0.107759,-0.184427,0.042864,12.490707,33.595650,-18.986145,,,,,,,1
1522314174.243289,-0.554383,0.245396,-0.517171,0.431967,0.302369,-0.586817,-0.510647,-0.242941,-0.824753,-0.103687,-0.142313,0.034119,11.955841,32.697899,-19.132874,,,,,,,1
1522314174.273257,-0.551292,0.267838,-0.523458,0.575977,-0.186885,-0.574489,-0.505112,-0.264647,-0.821476,-0.034362,-0.078386,0.047001,11.800751,32.548012,-19.732300,,,,,,,1
1522314174.303225,-0.556401,0.291075,-0.531060,0.437584,-0.153219,-0.625787,-0.505917,-0.286982,-0.813442,-0.000781,-0.025075,-0.000081,12.987671,31.641991,-20.403076,,,,,,,1
1522314174.333194,-0.558206,0.308658,-0.544778,0.155771,-0.267614,-0.732420,-0.504634,-0.303781,-0.808121,0.009853,-0.019477,0.023438,12.308807,31.344902,-20.552246,,,,,,,1
1522314174.363162,-0.553719,0.327278,-0.559901,0.413633,0.340546,-0.722184,-0.497942,-0.321467,-0.805426,0.026064,-0.006856,0.052161,12.450851,30.818810,-21.000122,,,,,,,1
1522314174.393130,-0.535058,0.351485,-0.573138,0.474173,0.336124,-0.870246,-0.478717,-0.344292,-0.807645,0.041492,-0.034553,0.038206,12.673279,30.742516,-21.299683,,,,,,,1
1522314174.423098,-0.531414,0.379106,-0.595392,0.408417,-0.406373,-1.187078,-0.470771,-0.370090,-0.800878,0.066032,-0.050244,0.116049,12.602493,31.117897,-21.226196,,,,,,,1
1522314174.453067,-0.532718,0.405227,-0.626814,0.133305,-0.469670,-1.307619,-0.466745,-0.394228,-0.791664,0.097329,-0.098387,0.098885,12.224655,30.969383,-21.450745,,,,,,,1
1522314174.483012,-0.533246,0.422252,-0.661830,-0.182540,-0.425699,-1.101188,-0.463684,-0.409816,-0.785523,0.044830,-0.159063,0.053864,12.304291,31.568794,-21.678162,,,,,,,1
1522314174.512980,-0.524620,0.430444,-0.692095,-0.200668,0.100723,-0.854523,-0.455194,-0.417274,-0.786562,-0.016837,-0.118432,0.026216,11.184570,31.874199,-21.304932,,,,,,,1
1522314174.542949,-0.508776,0.440146,-0.717158,-0.006362,0.194258,-0.773503,-0.440681,-0.426071,-0.790102,0.009392,-0.123016,0.049395,11.334564,32.098152,-21.680786,,,,,,,1
1522314174.572917,-0.497440,0.452590,-0.738624,0.052268,-0.074683,-0.781703,-0.429134,-0.437296,-0.790325,0.029903,-0.111043,0.063961,11.484558,32.097481,-21.680664,,,,,,,1
1522314174.602885,-0.493240,0.461738,-0.759923,-0.110119,-0.153988,-0.627248,-0.423899,-0.445504,-0.788564,0.008005,-0.089621,0.083837,10.436096,32.252190,-21.681824,,,,,,,1
1522314174.632853,-0.491155,0.466068,-0.776942,-0.094208,-0.205231,-0.447111,-0.421339,-0.449377,-0.787738,-0.016878,-0.064478,0.049960,10.665726,32.626320,-21.533203,,,,,,,1
1522314174.662822,-0.489932,0.472764,-0.787103,0.073364,-0.005005,-0.266060,-0.418951,-0.455349,-0.785580,0.010870,-0.052617,0.069973,11.190552,32.698799,-21.683228,,,,,,,1
1522314174.692790,-0.486577,0.479043,-0.789800,0.123370,0.164640,-0.082905,-0.414967,-0.460930,-0.784438,0.055165,-0.021705,0.045394,10.813766,32.475563,-21.607544,,,,,,,1
1522314174.722758,-0.480477,0.482369,-0.788667,0.079363,0.210934,0.000118,-0.409464,-0.463879,-0.785591,0.047205,-0.006885,0.021080,10.886826,32.325172,-21.681885,,,,,,,1
1522314174.752726,-0.475556,0.485140,-0.788692,0.038845,0.148789,-0.063781,-0.405003,-0.466332,-0.786451,0.021931,-0.057044,0.033582,11.710434,32.321236,-21.906433,,,,,,,1
1522314174.782695,-0.472978,0.485080,-0.791126,-0.094614,-0.066715,-0.045550,-0.402987,-0.466279,-0.787517,0.017702,-0.077254,0.013301,10.661087,32.251183,-21.681702,,,,,,,1
1522314174.812663,-0.474557,0.482816,-0.793588,-0.126543,0.029614,0.018261,-0.404711,-0.464275,-0.787817,0.045610,-0.063175,0.043158,11.185760,32.173897,-21.606140,,,,,,,1
1522314174.842631,-0.464523,0.475995,-0.794515,-0.337648,0.438597,0.110393,-0.398196,-0.458223,-0.794651,0.042788,-0.080763,-0.006436,11.864166,32.695549,-21.907837,,,,,,,1
1522314174.872599,-0.451852,0.464185,-0.798504,-0.467450,0.232134,0.049771,-0.390430,-0.447694,-0.804446,-0.007702,-0.084304,-0.027494,10.748962,33.001686,-20.784668,,,,,,,1
1522314174.902568,-0.449502,0.454232,-0.804402,-0.353524,-0.138631,-0.004106,-0.390456,-0.438772,-0.809334,-0.033235,-0.127299,0.020028,10.668732,32.701668,-21.158508,,,,,,,1
1522314174.932536,-0.449292,0.445916,-0.806930,-0.259243,0.030576,0.078900,-0.391857,-0.431285,-0.812675,-0.001789,-0.078374,0.008475,10.972305,32.925529,-20.934265,,,,,,,1
1522314174.962504,-0.450228,0.441262,-0.811374,-0.200331,-0.181604,-0.141410,-0.393486,-0.427081,-0.814106,-0.012596,-0.078122,-0.009411,10.451218,33.228020,-20.785706,,,,,,,1
1522314174.992472,-0.451097,0.438483,-0.819387,-0.204926,-0.024298,-0.146893,-0.394711,-0.424566,-0.814829,-0.050968,-0.084436,0.036493,10.148392,33.079155,-21.010315,,,,,,,1
1522314175.022441,-0.442835,0.435736,-0.822997,-0.095153,0.366341,0.023277,-0.388463,-0.422077,-0.819113,-0.089809,-0.109905,0.080770,11.351349,33.373756,-21.010864,,,,,,,1
1522314175.052409,-0.434033,0.435225,-0.820085,0.099339,0.256929,0.100252,-0.381328,-0.421615,-0.822696,-0.055271,-0.097184,0.094470,10.824860,33.226112,-21.010559,,,,,,,1
,,,,,,,,,,,,,,,,25.300863,51.443738,14.069172,3.660000,58.007812,1522314174.997849,1
1522314175.082377,-0.432502,0.441754,-0.815426,0.287259,0.152967,0.008862,-0.378907,-0.427526,-0.820762,-0.014617,-0.110133,0.134711,10.820496,33.150536,-21.610229,,,,,,,1
1522314175.112345,-0.427725,0.448591,-0.811431,0.134004,0.254343,0.002251,-0.373760,-0.433696,-0.819884,0.012951,-0.117177,0.092757,11.494873,32.997658,-21.459229,,,,,,,1
1522314175.142314,-0.424164,0.452715,-0.811906,0.075187,0.076904,-0.131865,-0.370099,-0.437409,-0.819572,0.013226,-0.092849,0.088585,11.345490,32.923546,-21.234070,,,,,,,1
1522314175.172282,-0.421585,0.458740,-0.816859,0.047558,-0.018940,-0.241549,-0.366900,-0.442819,-0.818104,-0.009214,-0.119788,0.071522,10.970642,33.075005,-21.459839,,,,,,,1
1522314175.202250,-0.422314,0.463406,-0.823972,0.011625,-0.175062,-0.241414,-0.366645,-0.446998,-0.815943,-0.016671,-0.139260,0.083140,10.596558,33.076851,-21.310059,,,,,,,1
1522314175.232219,-0.423997,0.468370,-0.829354,0.063009,-0.051449,-0.159447,-0.367100,-0.451433,-0.813292,-0.016872,-0.137312,0.063201,10.294922,33.003059,-21.459839,,,,,,,1
1522314175.262187,-0.421382,0.469079,-0.832218,-0.132464,0.110540,-0.004198,-0.364841,-0.452065,-0.813958,-0.001446,-0.105217,0.059105,10.672455,33.301277,-21.535889,,,,,,,1
1522314175.292155,-0.418647,0.468679,-0.832816,-0.000341,0.044362,-0.009357,-0.362687,-0.451708,-0.815117,0.004517,-0.094739,0.058983,10.299576,33.602806,-21.687317,,,,,,,1
1522314175.322123,-0.420466,0.471731,-0.833767,0.025932,-0.144263,-0.092261,-0.363605,-0.454429,-0.813194,0.018680,-0.087762,0.031028,11.125748,33.449532,-21.236267,,,,,,,1
1522314175.352092,-0.424599,0.473954,-0.836031,-0.001811,-0.063897,-0.026301,-0.366545,-0.456408,-0.810762,-0.000276,-0.101377,0.077165,11.723022,33.446404,-21.685974,,,,,,,1
1522314175.382060,-0.423056,0.475274,-0.834267,0.032811,0.147865,0.069410,-0.365047,-0.457582,-0.810776,0.004237,-0.097120,0.018967,11.348480,33.223534,-21.235229,,,,,,,1
1522314175.412028,-0.419586,0.476708,-0.831793,0.058303,0.077916,0.034337,-0.361963,-0.458856,-0.811438,0.041330,-0.093634,0.017752,10.977554,33.450508,-20.936340,,,,,,,1
1522314175.441996,-0.422967,0.479507,-0.833163,-0.041812,-0.292622,-0.127319,-0.364176,-0.461342,-0.809035,0.048746,-0.132546,-0.014817,11.575729,33.447517,-21.236023,,,,,,,1
1522314175.471978,-0.430296,0.475803,-0.839127,-0.313628,-0.302276,-0.016703,-0.370805,-0.458053,-0.807892,0.000581,-0.145432,0.000153,10.679047,33.826469,-21.312988,,,,,,,1
1522314175.501946,-0.432999,0.464295,-0.839965,-0.378677,-0.002055,0.228022,-0.375175,-0.447792,-0.811618,0.009086,-0.116463,0.003299,10.607803,33.977165,-20.938660,,,,,,,1
1522314175.531914,-0.434052,0.451134,-0.838016,-0.406778,-0.053140,0.249363,-0.378476,-0.435987,-0.816499,0.018994,-0.070376,0.049119,11.884842,34.271263,-21.089172,,,,,,,1
1522314175.561882,-0.438533,0.441991,-0.836123,-0.115240,-0.199523,0.110138,-0.383807,-0.427740,-0.818370,0.031069,-0.040476,0.115367,11.212570,34.274742,-20.639526,,,,,,,1
1522314175.591851,-0.445132,0.446761,-0.834723,0.239304,-0.155571,-0.070780,-0.388316,-0.432047,-0.813969,-0.002279,-0.053808,0.078464,11.058090,34.050072,-21.013733,,,,,,,1
1522314175.621819,-0.448478,0.454301,-0.833430,0.183146,-0.023893,-0.038988,-0.389614,-0.438834,-0.809706,-0.020130,-0.046624,0.061903,11.507751,34.197746,-21.314087,,,,,,,1
1522314175.651787,-0.446826,0.458298,-0.831382,0.083127,0.154271,0.048126,-0.387515,-0.442422,-0.808760,-0.006864,-0.037925,0.060744,10.456757,34.052544,-21.239014,,,,,,,1
1522314175.681755,-0.443703,0.458782,-0.828372,0.043402,0.148751,0.088609,-0.384895,-0.442857,-0.809773,-0.012322,-0.001464,0.056538,10.603149,33.826668,-21.463013,,,,,,,1
1522314175.711754,-0.444033,0.461609,-0.823709,0.211464,0.013378,0.090991,-0.384623,-0.445389,-0.808512,-0.037557,-0.049743,0.098170,10.453598,34.052040,-21.764038,,,,,,,1
1522314175.741722,-0.444672,0.468669,-0.815173,0.378701,0.238839,0.155888,-0.383777,-0.451700,-0.805407,-0.024563,-0.081595,0.139254,10.448212,33.601906,-21.912170,,,,,,,1
1522314175.771691,-0.440340,0.478459,-0.804447,0.413183,0.257146,0.110073,-0.378381,-0.460412,-0.803023,-0.029700,-0.104865,0.044707,10.818832,33.300026,-22.135864,,,,,,,1
1522314175.801659,-0.440574,0.487813,-0.799409,0.247450,-0.004735,-0.067720,-0.376716,-0.468695,-0.799004,-0.027275,-0.074350,-0.035972,11.410873,32.996529,-22.959290,,,,,,,1
1522314175.831627,-0.445828,0.493836,-0.800918,0.038118,-0.325752,-0.128294,-0.379685,-0.474007,-0.794453,-0.043441,-0.111076,0.001835,10.140411,33.227623,-22.585815,,,,,,,1
1522314175.861596,-0.455005,0.495390,-0.803897,-0.009768,-0.236706,-0.081533,-0.386635,-0.475375,-0.790272,-0.070533,-0.117719,0.075718,10.435165,32.925926,-22.959473,,,,,,,1
1522314175.891564,-0.456957,0.495406,-0.803412,0.016234,0.072159,0.112097,-0.388174,-0.475389,-0.789509,-0.018198,-0.092894,0.079823,10.962387,33.148552,-22.960144,,,,,,,1
1522314175.921532,-0.453696,0.496440,-0.797241,0.162291,0.308460,0.153529,-0.385381,-0.476298,-0.790329,0.008962,-0.084371,0.038208,10.214218,33.152214,-22.660522,,,,,,,1
1522314175.951500,-0.449886,0.500567,-0.790711,0.170406,0.116697,0.069551,-0.381509,-0.479923,-0.790014,0.055154,-0.070965,-0.010584,10.739639,33.149925,-22.585205,,,,,,,1
1522314175.981469,-0.451106,0.503628,-0.788172,0.044128,-0.018578,0.008859,-0.381831,-0.482606,-0.788222,0.059046,-0.057463,-0.039887,12.011749,32.993980,-22.809021,,,,,,,1
1522314176.011437,-0.451233,0.504598,-0.788849,-0.012100,0.023255,-0.025331,-0.381727,-0.483455,-0.787752,0.051114,0.001995,-0.057478,10.885742,32.849113,-22.734009,,,,,,,1
1522314176.041405,-0.448305,0.505234,-0.790383,-0.006412,0.090226,-0.032844,-0.379285,-0.484012,-0.788590,0.048154,-0.001447,-0.013794,10.363159,33.001625,-22.584839,,,,,,,1
,,,,,,,,,,,,,,,,25.300876,51.443772,14.160833,3.710000,58.710938,1522314175.997837,1
1522314176.071373,-0.445618,0.508836,-0.790549,0.207154,0.017926,-0.101875,-0.376410,-0.487161,-0.788028,0.052985,-0.027274,0.014926,11.785858,32.994850,-22.959106,,,,,,,1
1522314176.101342,-0.444875,0.518680,-0.791329,0.305732,0.020274,-0.167870,-0.373743,-0.495735,-0.783940,0.040643,-0.099434,0.023701,11.409378,32.846535,-22.958679,,,,,,,1
1522314176.131310,-0.443401,0.524957,-0.793618,0.042724,-0.011254,-0.125409,-0.371245,-0.501176,-0.781663,0.035903,-0.103942,-0.019805,10.731400,32.774223,-23.333740,,,,,,,1
1522314176.161278,-0.441854,0.524412,-0.799857,-0.191457,-0.168511,-0.193626,-0.370152,-0.500705,-0.782484,0.046101,-0.050397,-0.075411,11.333466,33.071358,-23.484619,,,,,,,1
1522314176.191246,-0.444236,0.521412,-0.811030,-0.264374,-0.263819,-0.214892,-0.372658,-0.498105,-0.782953,0.005135,-0.044727,-0.007971,10.214218,33.376839,-23.036438,,,,,,,1
1522314176.221215,-0.442721,0.517044,-0.816439,-0.160319,0.140058,0.039437,-0.372400,-0.494313,-0.785475,0.022898,-0.048580,-0.011446,10.666000,33.375114,-22.736206,,,,,,,1
1522314176.251183,-0.435590,0.511659,-0.815351,-0.148496,0.260519,0.129904,-0.367907,-0.489625,-0.790512,0.013934,-0.062728,0.013153,10.521393,33.825905,-22.588074,,,,,,,1
1522314176.281151,-0.430051,0.506244,-0.813108,-0.143564,0.156466,0.117222,-0.364624,-0.484896,-0.794936,0.039489,-0.049207,-0.020829,10.898621,34.049202,-22.588745,,,,,,,1
1522314176.311119,-0.430534,0.503098,-0.811719,-0.020227,-0.001921,0.080187,-0.365642,-0.482142,-0.796142,0.056896,-0.054967,0.066864,11.344864,33.672203,-22.587036,,,,,,,1
1522314176.341088,-0.428363,0.505668,-0.807302,0.217741,0.218427,0.090804,-0.363397,-0.484392,-0.795805,0.064950,-0.017790,0.039533,11.946045,33.744576,-22.512085,,,,,,,1
1522314176.371056,-0.426621,0.513067,-0.801694,0.282123,-0.006638,0.038865,-0.360517,-0.490852,-0.793152,0.036787,0.008644,-0.034454,11.344727,33.522423,-22.361450,,,,,,,1
1522314176.401024,-0.431593,0.518890,-0.798693,0.121442,-0.156907,0.009053,-0.363255,-0.495916,-0.788740,0.057545,0.068243,-0.050966,11.639450,33.445351,-23.110962,,,,,,,1
1522314176.430993,-0.435154,0.519894,-0.797756,-0.020325,-0.078069,0.031238,-0.365851,-0.496788,-0.786989,0.034414,0.054222,-0.049497,12.462463,33.291573,-23.184998,,,,,,,1
1522314176.460965,-0.434904,0.517059,-0.797767,-0.111732,0.036778,0.051300,-0.366246,-0.494325,-0.788355,0.016118,0.026415,-0.025945,11.567764,33.595970,-22.811646,,,,,,,1
1522314176.490933,-0.431938,0.512621,-0.797118,-0.073114,0.155212,0.119407,-0.364821,-0.490463,-0.791422,0.000685,0.011017,0.016123,12.090942,33.368690,-22.735474,,,,,,,1
1522314176.520901,-0.429160,0.510992,-0.791962,0.112280,0.119381,0.162205,-0.362953,-0.489043,-0.793158,0.040367,0.025954,-0.018732,12.389725,33.292274,-22.809998,,,,,,,1
1522314176.550870,-0.430062,0.513974,-0.785285,0.217082,0.108782,0.120740,-0.363059,-0.491642,-0.791501,0.070517,0.058170,-0.044619,12.466827,33.367149,-22.585266,,,,,,,1
1522314176.580838,-0.427437,0.518494,-0.780426,0.158977,0.110817,0.003483,-0.360055,-0.495572,-0.790422,0.067162,0.011899,-0.046538,13.435791,32.987419,-22.958252,,,,,,,1
1522314176.610806,-0.426392,0.521858,-0.781773,0.071341,-0.050688,-0.118954,-0.358537,-0.498492,-0.789275,0.038408,0.000429,0.018935,12.385376,32.992073,-23.033813,,,,,,,1
1522314176.640774,-0.422421,0.526834,-0.782008,0.278399,0.298682,-0.008337,-0.354379,-0.502799,-0.788420,0.041528,0.034964,0.028685,12.605423,32.765633,-23.482788,,,,,,,1
1522314176.670743,-0.413888,0.537392,-0.777469,0.434413,0.291092,-0.041248,-0.345484,-0.511898,-0.786511,0.053187,0.048824,-0.057544,13.877975,32.609764,-23.631531,,,,,,,1
1522314176.700711,-0.411792,0.549290,-0.774483,0.334098,0.000559,-0.095367,-0.341373,-0.522081,-0.781597,0.039386,-0.000440,-0.117482,13.280991,32.687813,-23.257141,,,,,,,1
1522314176.730679,-0.411106,0.553926,-0.776439,-0.008387,0.010176,-0.132925,-0.339865,-0.526030,-0.779604,0.054770,0.003111,-0.116515,12.376099,32.241814,-23.330811,,,,,,,1
1522314176.760647,-0.404221,0.554764,-0.780325,0.076649,0.224235,-0.079799,-0.334317,-0.526743,-0.781519,0.021801,-0.026098,-0.078497,12.751831,32.315132,-23.330872,,,,,,,1
1522314176.790616,-0.401699,0.560780,-0.779412,0.265363,-0.033626,-0.046363,-0.331100,-0.531847,-0.779429,0.072662,0.010607,-0.090795,12.526825,32.540764,-23.706909,,,,,,,1
1522314176.820584,-0.404666,0.567867,-0.778101,0.192567,-0.100232,-0.067666,-0.331918,-0.537835,-0.774959,0.122323,0.039773,-0.113163,12.227448,32.467339,-23.481812,,,,,,,1
1522314176.850552,-0.406197,0.570584,-0.780726,-0.050567,-0.095024,-0.118992,-0.332526,-0.540124,-0.773104,0.136542,0.044930,-0.163312,12.978745,32.913429,-24.008240,,,,,,,1
1522314176.880520,-0.405803,0.566944,-0.787259,-0.270564,-0.119888,-0.130858,-0.332995,-0.537057,-0.775037,0.114352,0.011605,-0.156985,12.230286,32.842171,-23.633301,,,,,,,1
1522314176.910489,-0.407057,0.558830,-0.796303,-0.394016,-0.252505,-0.116964,-0.335681,-0.530194,-0.778595,0.139270,-0.000461,-0.100525,11.781799,32.994194,-23.634155,,,,,,,1
1522314176.940457,-0.409949,0.548527,-0.806074,-0.417621,-0.291680,-0.128664,-0.340090,-0.521431,-0.782589,0.181674,0.051628,-0.120518,12.687302,33.590034,-23.710999,,,,,,,1
1522314176.970425,-0.411119,0.539781,-0.819396,-0.399672,-0.278958,-0.283161,-0.342815,-0.513948,-0.786341,0.120159,0.060136,-0.116826,11.870422,34.268929,-23.489197,,,,,,,1
1522314177.000393,-0.408553,0.534888,-0.831290,-0.163060,0.013912,-0.156485,-0.341791,-0.509744,-0.789517,0.192835,0.061350,-0.067722,12.018326,33.968422,-23.337891,,,,,,,1
1522314177.030362,-0.402556,0.537038,-0.842343,0.033941,-0.201284,-0.449151,-0.336621,-0.511594,-0.790542,0.134670,0.056561,-0.136857,12.097351,34.642616,-23.790527,,,,,,,1
1522314177.060330,-0.404946,0.544713,-0.857897,0.092972,-0.327102,-0.410612,-0.336952,-0.518172,-0.786103,0.009071,-0.017503,-0.081908,10.594269,34.199608,-23.564514,,,,,,,1
,,,,,,,,,,,,,,,,25.300896,51.443821,14.084878,3.920000,54.492188,1522314176.997825,1
1522314177.090298,-0.404070,0.548312,-0.860026,0.079694,0.112745,0.058834,-0.335528,-0.521247,-0.784678,0.085864,0.012977,-0.128713,10.674515,34.499611,-23.190674,,,,,,,1
1522314177.120267,-0.400607,0.545757,-0.858583,-0.186094,0.143066,0.072455,-0.333327,-0.519065,-0.787059,0.100722,0.052619,-0.133763,11.794220,34.194206,-23.563904,,,,,,,1
1522314177.150235,-0.399535,0.533813,-0.858343,-0.435807,-0.087141,0.258967,-0.334870,-0.508820,-0.793071,0.015351,0.041748,-0.147328,11.050400,34.498070,-23.040466,,,,,,,1
1522314177.180203,-0.406312,0.519755,-0.851348,-0.193121,-0.026451,0.456221,-0.343031,-0.496667,-0.797276,0.049574,0.079004,-0.013271,11.345596,34.196449,-23.339111,,,,,,,1
1522314177.210171,-0.410562,0.519113,-0.835390,0.415827,0.113418,0.298824,-0.346543,-0.496110,-0.796103,0.169129,0.174943,-0.030938,11.871323,34.269081,-23.339172,,,,,,,1
1522314177.240140,-0.415802,0.532845,-0.828253,0.489390,-0.174895,-0.133431,-0.347925,-0.507986,-0.787970,0.054224,0.112905,-0.042948,11.340668,33.521767,-23.036438,,,,,,,1
1522314177.270108,-0.422768,0.543275,-0.828646,0.241351,-0.244450,-0.128215,-0.351213,-0.516942,-0.780652,-0.006178,0.074498,-0.023593,10.809525,33.223640,-23.560547,,,,,,,1
1522314177.300076,-0.423569,0.545363,-0.828051,0.032339,0.046863,0.074852,-0.351394,-0.518728,-0.779385,0.021880,0.065008,-0.089344,11.408752,33.145943,-23.559937,,,,,,,1
1522314177.330044,-0.425714,0.543471,-0.828061,-0.053596,-0.235605,-0.070914,-0.353470,-0.517110,-0.779522,0.058731,0.062703,-0.066608,10.880783,32.848320,-23.559021,,,,,,,1
1522314177.360013,-0.433134,0.543956,-0.834931,-0.025705,-0.403449,-0.240138,-0.359138,-0.517525,-0.776650,0.002708,0.010735,-0.034248,10.729584,32.998543,-24.009705,,,,,,,1
1522314177.389981,-0.439617,0.548630,-0.841268,0.208532,-0.256672,-0.192158,-0.363132,-0.521519,-0.772108,-0.037503,0.025043,-0.001848,9.679337,32.928352,-23.934937,,,,,,,1
1522314177.419949,-0.440858,0.558460,-0.840501,0.399623,0.110757,-0.075178,-0.361885,-0.529881,-0.766983,-0.000939,0.068043,-0.007171,10.127975,32.701485,-23.783752,,,,,,,1
1522314177.449917,-0.439408,0.569631,-0.837172,0.363833,-0.064170,-0.119782,-0.358232,-0.539321,-0.762102,0.030046,0.074203,-0.074735,10.198929,32.475868,-24.082825,,,,,,,1
1522314177.479873,-0.448222,0.580230,-0.839002,0.267652,-0.496387,-0.272864,-0.362438,-0.548217,-0.753721,0.044627,0.054824,-0.059069,10.420013,32.399345,-24.607422,,,,,,,1
1522314177.509841,-0.463488,0.588907,-0.845654,0.147586,-0.640404,-0.302636,-0.371760,-0.555453,-0.743817,0.080317,0.036150,-0.058673,9.445221,32.328880,-24.457581,,,,,,,1
1522314177.539809,-0.471903,0.589837,-0.855658,-0.261562,-0.400627,-0.256297,-0.377771,-0.556226,-0.740202,0.099664,0.017133,-0.111269,8.315323,32.108513,-24.907288,,,,,,,1
1522314177.569777,-0.471927,0.581516,-0.868431,-0.370291,-0.207877,-0.124454,-0.379880,-0.549291,-0.744290,0.081128,-0.032649,-0.036349,7.950821,32.710899,-24.159912,,,,,,,1
1522314177.599746,-0.476187,0.578850,-0.876589,-0.002573,-0.421935,-0.187893,-0.383718,-0.547061,-0.743964,0.099782,-0.036572,-0.049798,7.804688,33.236336,-24.387085,,,,,,,1
1522314177.629714,-0.487959,0.586300,-0.882419,0.233381,-0.513370,-0.265403,-0.390527,-0.553283,-0.735775,0.076608,-0.036545,-0.059086,7.351562,33.237846,-24.912292,,,,,,,1
1522314177.659682,-0.495484,0.594829,-0.888249,0.094532,-0.274015,-0.254029,-0.393794,-0.560367,-0.728637,0.109553,-0.057385,-0.053086,7.579269,33.237267,-24.462158,,,,,,,1
1522314177.689651,-0.494590,0.595274,-0.897189,-0.243531,-0.093104,-0.172416,-0.393025,-0.560736,-0.728769,0.075687,-0.070428,-0.084341,6.752930,33.240761,-24.687622,,,,,,,1
1522314177.719619,-0.493086,0.589272,-0.907534,-0.291290,-0.215489,-0.128644,-0.393514,-0.555756,-0.732311,0.064733,-0.047974,-0.087467,6.608353,33.466942,-24.163574,,,,,,,1
1522314177.749587,-0.496912,0.584847,-0.913249,-0.174443,-0.237695,-0.033705,-0.397481,-0.552072,-0.732955,0.056462,-0.023032,-0.077531,7.429398,33.612343,-25.063782,,,,,,,1
1522314177.779555,-0.495267,0.579427,-0.921141,-0.423765,0.109720,-0.240949,-0.397692,-0.547544,-0.736230,-0.013365,0.014204,-0.089530,6.161514,33.918724,-24.390625,,,,,,,1
1522314177.809524,-0.472879,0.569459,-0.940653,-0.610220,0.541308,-0.351267,-0.383577,-0.539177,-0.749770,-0.002806,0.052208,-0.066865,6.542801,34.367302,-24.092224,,,,,,,1
1522314177.839492,-0.439146,0.560805,-0.963716,-0.435547,0.780818,-0.472853,-0.360042,-0.531868,-0.766475,0.044078,0.031014,-0.091343,6.400574,34.968239,-23.794678,,,,,,,1
1522314177.869460,-0.413989,0.558077,-0.976955,-0.098273,0.419613,-0.149383,-0.341230,-0.529556,-0.776615,0.093900,0.074508,-0.053875,6.921967,34.740669,-24.018555,,,,,,,1
1522314177.899428,-0.408838,0.559308,-0.973344,0.190436,0.154306,0.152648,-0.336967,-0.530600,-0.777763,0.063422,0.048010,-0.068566,7.899612,34.961342,-23.943909,,,,,,,1
1522314177.929397,-0.410193,0.559431,-0.967574,-0.066323,0.023278,0.138738,-0.337994,-0.530704,-0.777246,0.045849,0.022281,-0.030875,7.222839,34.964088,-24.244263,,,,,,,1
1522314177.959365,-0.403473,0.549406,-0.971294,-0.483933,0.243512,-0.053599,-0.334835,-0.522181,-0.784354,0.010662,0.004969,-0.049753,7.378067,35.263771,-23.870422,,,,,,,1
1522314177.989333,-0.386435,0.537257,-0.983720,-0.439925,0.361318,-0.200726,-0.323791,-0.511781,-0.795762,0.028792,0.007280,-0.095351,8.057999,35.710777,-23.796814,,,,,,,1
1522314178.019301,-0.371664,0.531943,-0.990936,-0.094903,0.352931,-0.035308,-0.312984,-0.507209,-0.802981,0.068645,0.018363,-0.080503,7.837204,35.862221,-23.347534,,,,,,,1
1522314178.049270,-0.366116,0.531654,-0.987440,0.080659,0.170672,0.130177,-0.308578,-0.506959,-0.804842,0.061507,-0.002989,-0.038435,7.761749,35.862495,-23.422607,,,,,,,1
1522314178.079238,-0.362399,0.531046,-0.985338,-0.090672,0.182445,0.029865,-0.305693,-0.506435,-0.806271,0.099608,-0.032978,0.015897,7.612671,35.863304,-23.272705,,,,,,,1
1522314178.109206,-0.348965,0.524017,-0.987997,-0.252871,0.431533,0.024170,-0.296044,-0.500363,-0.813630,0.079186,-0.059269,-0.038726,8.963516,35.857384,-23.121948,,,,,,,1
,,,,,,,,,,,,,,,,25.300922,51.443845,13.866612,2.750000,56.953125,1522314177.997813,1
1522314178.139174,-0.332068,0.519396,-0.991882,-0.152725,0.498970,-0.081313,-0.283005,-0.496356,-0.820693,0.047959,-0.027783,-0.003617,8.441833,36.010033,-22.822876,,,,,,,1
1522314178.169143,-0.314819,0.518322,-0.997791,-0.052182,0.419733,-0.183443,-0.268973,-0.495423,-0.825959,0.033285,-0.063156,0.033235,9.787872,35.928444,-23.346802,,,,,,,1
1522314178.199111,-0.302280,0.522705,-1.006493,0.115037,0.171633,-0.320526,-0.257946,-0.499225,-0.827186,0.028149,-0.097683,0.035850,9.716171,36.079079,-23.047485,,,,,,,1
1522314178.229079,-0.291509,0.528207,-1.016334,0.038460,0.249319,-0.310005,-0.248229,-0.503986,-0.827272,0.003279,-0.076291,0.038973,9.043900,36.307167,-22.973694,,,,,,,1
1522314178.259047,-0.279343,0.533238,-1.026617,0.108658,0.156901,-0.338630,-0.237444,-0.508325,-0.827783,0.034365,-0.087058,0.007272,10.088608,36.002098,-23.346985,,,,,,,1
1522314178.289016,-0.273277,0.541148,-1.035602,0.181399,0.023449,-0.275574,-0.231325,-0.515120,-0.825311,0.053301,-0.069505,0.055856,9.337143,35.855476,-23.346741,,,,,,,1
1522314178.318984,-0.270218,0.548974,-1.041933,0.189473,-0.030009,-0.231826,-0.227717,-0.521812,-0.822104,0.039897,-0.063423,0.066031,8.959305,35.706947,-23.571411,,,,,,,1
1522314178.348952,-0.269698,0.558408,-1.050449,0.253295,-0.257584,-0.381784,-0.225968,-0.529837,-0.817441,0.060684,-0.065576,0.057279,9.032043,35.481621,-23.570435,,,,,,,1
1522314178.378921,-0.278141,0.570203,-1.062491,0.238874,-0.664235,-0.424003,-0.231129,-0.539803,-0.809438,0.081105,-0.065132,0.073568,8.280579,35.335014,-23.570251,,,,,,,1
1522314178.408889,-0.293069,0.576664,-1.074441,-0.020216,-0.699388,-0.318679,-0.242173,-0.545231,-0.802542,0.062410,-0.065976,0.068579,7.305191,35.339317,-23.645752,,,,,,,1
1522314178.438857,-0.302024,0.574711,-1.083084,-0.214748,-0.283717,-0.124256,-0.249667,-0.543592,-0.801357,0.040942,-0.059893,0.030971,7.981506,35.561134,-23.796265,,,,,,,1
1522314178.468824,-0.302452,0.569280,-1.087704,-0.237679,-0.034694,-0.016911,-0.250886,-0.539025,-0.804056,0.026902,-0.056205,0.031305,6.858063,35.266930,-23.045654,,,,,,,1
1522314178.498793,-0.305232,0.563567,-1.088256,-0.171909,-0.199543,0.129295,-0.254041,-0.534205,-0.806279,0.040586,-0.043371,0.018392,6.711502,35.567665,-22.971924,,,,,,,1
1522314178.528761,-0.318776,0.559479,-1.081073,-0.022123,-0.387157,0.314986,-0.265620,-0.530745,-0.804832,0.000865,-0.093264,0.007209,7.681503,35.562477,-23.796448,,,,,,,1
1522314178.558729,-0.329561,0.556772,-1.070301,-0.008459,0.003006,0.283702,-0.274748,-0.528449,-0.803277,-0.026170,-0.064157,-0.007377,6.709854,35.492531,-23.121643,,,,,,,1
1522314178.588697,-0.326310,0.553813,-1.063148,-0.088709,0.372297,0.228941,-0.272636,-0.525934,-0.805644,0.002128,-0.074484,0.032527,6.936661,35.716423,-23.197449,,,,,,,1
1522314178.618666,-0.314332,0.548018,-1.057817,-0.172063,0.544961,0.186074,-0.263904,-0.520997,-0.811736,0.000126,-0.077896,0.025771,8.507233,35.184517,-23.044495,,,,,,,1
1522314178.648634,-0.298735,0.542593,-1.054793,-0.138327,0.598520,0.111466,-0.252040,-0.516358,-0.818443,0.019451,-0.085143,0.022422,8.280441,35.185234,-23.344604,,,,,,,1
1522314178.678602,-0.281064,0.538678,-1.052100,-0.131628,0.674931,0.122053,-0.238098,-0.513002,-0.824704,0.031188,-0.070296,0.026502,9.178909,35.031197,-23.343567,,,,,,,1
1522314178.708570,-0.261708,0.531728,-1.048963,-0.291723,0.713429,0.144270,-0.223008,-0.507024,-0.832582,0.023881,-0.105205,0.026613,10.007019,35.252617,-23.194031,,,,,,,1
1522314178.738539,-0.237978,0.521181,-1.050608,-0.427938,0.825644,-0.049873,-0.204439,-0.497905,-0.842789,-0.000258,-0.074589,0.036988,9.262299,35.556343,-22.820618,,,,,,,1
1522314178.768507,-0.210798,0.508627,-1.057177,-0.487929,0.739997,-0.087135,-0.182753,-0.486979,-0.854080,0.049574,-0.084631,0.057479,10.393265,35.702003,-22.070679,,,,,,,1
1522314178.798475,-0.191698,0.495617,-1.063391,-0.445642,0.373469,-0.115487,-0.167601,-0.475574,-0.863561,0.017317,-0.062069,0.046377,11.671341,36.146019,-22.296753,,,,,,,1
1522314178.828443,-0.183626,0.487527,-1.070278,-0.229157,0.046920,-0.144835,-0.161322,-0.468443,-0.868640,0.033011,-0.062197,0.041492,11.074829,36.224159,-21.847351,,,,,,,1
1522314178.858412,-0.183778,0.485615,-1.074014,-0.036025,-0.105113,-0.049710,-0.161618,-0.466753,-0.869495,0.023312,-0.063078,0.036029,11.079163,36.524361,-21.623596,,,,,,,1
1522314178.888380,-0.184179,0.486107,-1.074562,-0.027031,0.057057,0.004480,-0.161924,-0.467187,-0.869204,0.022459,-0.074637,0.039401,11.076920,36.299370,-21.622681,,,,,,,1
1522314178.918348,-0.178802,0.482345,-1.074245,-0.245404,0.236781,0.062735,-0.157560,-0.463858,-0.871785,0.015226,-0.077264,0.055333,11.452362,36.297752,-21.547485,,,,,,,1
1522314178.948316,-0.174783,0.472511,-1.072463,-0.362004,0.039954,0.139561,-0.154840,-0.455123,-0.876862,0.013071,-0.057038,0.031479,12.136475,36.670586,-20.648682,,,,,,,1
1522314178.978285,-0.182100,0.464374,-1.069798,-0.203449,-0.340705,0.117690,-0.161917,-0.447863,-0.879318,0.018698,-0.051069,0.023712,12.206375,36.519661,-21.247986,,,,,,,1
1522314179.008253,-0.192728,0.461435,-1.065530,-0.037732,-0.207747,0.190142,-0.171505,-0.445234,-0.878836,0.013852,-0.048236,0.018118,11.158676,36.524757,-20.873535,,,,,,,1
1522314179.038221,-0.198505,0.461014,-1.059078,0.002489,-0.035773,0.200651,-0.176616,-0.444857,-0.878014,0.027874,-0.010145,-0.001823,11.604919,36.147743,-20.871826,,,,,,,1
1522314179.068190,-0.200113,0.457875,-1.053425,-0.155060,0.044458,0.180208,-0.178305,-0.442043,-0.879093,0.005362,-0.024830,-0.016705,12.205185,36.219963,-20.946838,,,,,,,1
1522314179.098158,-0.201236,0.453196,-1.050220,-0.106842,-0.023042,0.089746,-0.179703,-0.437842,-0.880909,-0.025299,-0.023020,-0.024670,11.911636,36.596748,-20.498474,,,,,,,1
,,,,,,,,,,,,,,,,25.300935,51.443857,14.079609,2.130000,51.328125,1522314178.997800,1
1522314179.128126,-0.202911,0.452422,-1.048596,0.057616,-0.054010,0.054730,-0.181246,-0.437145,-0.880939,-0.015867,-0.065022,-0.025754,11.607010,36.447594,-21.023010,,,,,,,1
1522314179.158094,-0.204560,0.455156,-1.046326,0.069826,0.028960,0.037609,-0.182455,-0.439602,-0.879465,-0.028391,-0.036365,0.015909,11.456863,36.298485,-20.797485,,,,,,,1
1522314179.188063,-0.203585,0.454190,-1.046372,-0.080510,0.017974,-0.010435,-0.181683,-0.438735,-0.880058,-0.016330,-0.006883,-0.000084,11.455963,36.298347,-20.947510,,,,,,,1
1522314179.218031,-0.203456,0.452434,-1.047597,-0.042254,-0.029865,-0.018892,-0.181726,-0.437156,-0.880835,0.010339,-0.012918,-0.041452,12.729111,36.292305,-21.246826,,,,,,,1
1522314179.247999,-0.205248,0.454625,-1.047576,0.123181,-0.041984,-0.017684,-0.183108,-0.439126,-0.879568,0.010546,-0.001777,-0.026804,12.129898,36.145378,-20.871521,,,,,,,1
1522314179.277967,-0.206120,0.457712,-1.047116,0.082554,-0.032424,-0.000686,-0.183597,-0.441896,-0.878077,0.035510,-0.036726,-0.008932,11.453415,36.223061,-21.247192,,,,,,,1
1522314179.307936,-0.207435,0.459145,-1.046335,0.053647,-0.040916,0.007828,-0.184621,-0.443182,-0.877214,0.028386,-0.018976,-0.012786,11.827042,36.221153,-21.471985,,,,,,,1
1522314179.337904,-0.208208,0.461915,-1.046184,0.121243,-0.013199,-0.030501,-0.185044,-0.445663,-0.875866,0.035462,-0.018204,0.024716,11.979599,36.295753,-21.172180,,,,,,,1
1522314179.367872,-0.209075,0.465552,-1.046325,0.089957,-0.058970,-0.008102,-0.185466,-0.448916,-0.874114,0.053035,-0.028928,0.030212,11.079941,36.150108,-20.872070,,,,,,,1
