timestamp(unix),attitude_roll(radians),attitude_pitch(radians),attitude_yaw(radians),rotation_rate_x(radians/s),rotation_rate_y(radians/s),rotation_rate_z(radians/s),gravity_x(G),gravity_y(G),gravity_z(G),user_acc_x(G),user_acc_y(G),user_acc_z(G),magnetic_field_x(microteslas),magnetic_field_y(microteslas),magnetic_field_z(microteslas),latitude(degree),longitude(degree),altitude(meter),speed(m/s),course(degree),timestamp(unix),User Mark
1523524434.487348,-0.608377,-0.049377,2.363800,-0.177335,-0.098965,-0.043293,-0.570833,0.049357,-0.819568,0.035738,0.147497,-0.054669,-15.310410,1.726669,10.121399,,,,,,,
1523524434.517316,-0.611184,-0.055267,2.359167,-0.193126,-0.062701,-0.056133,-0.572955,0.055239,-0.817709,0.068820,0.161222,0.004507,-14.560150,2.022842,9.670593,,,,,,,
,,,,,,,,,,,,,,,,25.315098,51.422636,22.741134,15.690000,238.710938,1523524432.999008,
1523524434.547284,-0.611055,-0.055997,2.356083,0.094728,-0.001287,-0.127370,-0.572826,0.055968,-0.817750,0.092800,0.169954,0.018845,-14.108658,1.946182,10.046143,,,,,,,
1523524434.577252,-0.612396,-0.052924,2.353893,0.046508,-0.084846,-0.165679,-0.574018,0.052899,-0.817118,0.051435,0.135196,-0.031728,-14.035156,1.795853,10.046753,,,,,,,
1523524434.607221,-0.610829,-0.055655,2.347623,-0.293073,0.123287,-0.177858,-0.572652,0.055626,-0.817895,0.035253,0.143486,-0.046973,-14.194000,1.270981,9.448792,,,,,,,
1523524434.637189,-0.607365,-0.064277,2.336339,-0.428168,-0.009142,-0.185291,-0.569521,0.064232,-0.819449,0.045946,0.159950,-0.015893,-13.135513,2.166138,9.370728,,,,,,,
1523524434.667157,-0.611935,-0.073521,2.323791,-0.448175,-0.192898,-0.190440,-0.572894,0.073455,-0.816317,0.044207,0.106538,-0.011426,-13.894028,1.718872,8.697144,,,,,,,
1523524434.697125,-0.618609,-0.081687,2.314702,-0.297246,-0.215303,-0.079491,-0.577962,0.081596,-0.811959,0.028874,0.127220,-0.062964,-14.122620,1.719299,8.097046,,,,,,,
1523524434.727094,-0.620164,-0.084808,2.308447,-0.109544,0.105793,-0.172379,-0.579072,0.084706,-0.810849,0.039552,0.112377,-0.041538,-13.974731,1.418777,8.248291,,,,,,,
1523524434.757062,-0.617353,-0.083356,2.302636,-0.028629,-0.008782,-0.227610,-0.576862,0.083259,-0.812573,0.053241,0.124916,0.002774,-13.298264,1.565735,8.248047,,,,,,,
1523524434.787030,-0.624145,-0.079439,2.295165,0.013291,-0.319388,-0.346613,-0.582554,0.079356,-0.808894,0.057514,0.115957,-0.000737,-13.821274,1.493546,8.698120,,,,,,,
1523524434.817029,-0.633767,-0.075032,2.287101,-0.011499,-0.314407,-0.293343,-0.590511,0.074961,-0.803525,0.092663,0.114385,-0.041766,-12.249191,1.336258,8.474487,,,,,,,
1523524434.846997,-0.643013,-0.073457,2.280953,-0.083714,-0.332022,-0.179373,-0.597985,0.073391,-0.798124,0.070031,0.109730,0.028837,-12.700790,0.813873,9.076416,,,,,,,
1523524434.876965,-0.646798,-0.077642,2.275402,-0.246504,-0.031957,-0.028491,-0.600811,0.077564,-0.795603,0.066875,0.142986,0.039911,-12.326431,1.111603,8.475342,,,,,,,
1523524434.906934,-0.645242,-0.084948,2.271024,-0.270962,0.056950,0.030007,-0.599216,0.084846,-0.796063,-0.004834,0.104150,-0.036793,-12.022980,1.185684,8.925232,,,,,,,
1523524434.936902,-0.643366,-0.094254,2.265745,-0.358227,0.088166,0.003277,-0.597222,0.094115,-0.796519,-0.012077,0.094972,-0.072118,-12.929413,1.038940,8.100342,,,,,,,
1523524434.966870,-0.640977,-0.101799,2.259744,-0.203095,0.068157,-0.076508,-0.594875,0.101623,-0.797352,-0.015598,0.131226,-0.100780,-12.556519,0.737411,8.251770,,,,,,,
1523524434.996839,-0.641788,-0.102591,2.254638,-0.059108,-0.058084,-0.157255,-0.595474,0.102411,-0.796804,0.022628,0.106466,-0.055765,-12.339630,0.285828,7.653687,,,,,,,
1523524435.026807,-0.643935,-0.100689,2.250277,-0.006632,-0.032666,-0.164695,-0.597298,0.100519,-0.795679,0.052895,0.125356,0.004724,-12.483490,0.811630,7.801453,,,,,,,
1523524435.056775,-0.643357,-0.098365,2.246086,-0.025277,0.090679,-0.169100,-0.596977,0.098206,-0.796208,0.048790,0.128951,0.021596,-11.511810,0.656952,7.502625,,,,,,,
1523524435.086743,-0.637862,-0.097941,2.240480,-0.100557,0.208812,-0.168211,-0.592618,0.097785,-0.799510,0.052854,0.131692,-0.022694,-12.112549,0.584656,7.502563,,,,,,,
1523524435.116712,-0.634836,-0.099086,2.235756,-0.113394,0.038380,-0.105179,-0.590129,0.098924,-0.801209,0.025447,0.112349,-0.071349,-11.216324,0.205627,7.504578,,,,,,,
1523524435.146688,-0.638802,-0.102089,2.231432,-0.151952,-0.214506,-0.094293,-0.593122,0.101912,-0.798620,-0.010683,0.121035,-0.030832,-10.845078,0.053589,7.130371,,,,,,,
1523524435.176656,-0.642634,-0.105994,2.225868,-0.190599,-0.028406,-0.099845,-0.595935,0.105796,-0.796017,0.005465,0.118981,-0.023243,-10.995697,0.129044,6.904968,,,,,,,
1523524435.206624,-0.640122,-0.108722,2.220067,-0.154456,0.139610,-0.129825,-0.593759,0.108508,-0.797277,0.001809,0.133039,-0.057703,-11.821106,-0.091949,7.205444,,,,,,,
1523524435.236593,-0.637793,-0.109779,2.214921,-0.078952,0.073504,-0.126494,-0.591832,0.109558,-0.798565,0.014714,0.102585,-0.049640,-11.596863,0.281296,6.454041,,,,,,,
1523524435.266561,-0.637731,-0.108461,2.212091,0.018775,-0.025653,-0.114594,-0.591868,0.108248,-0.798717,0.019236,0.130048,-0.005497,-11.373093,0.205215,6.379456,,,,,,,
1523524435.296529,-0.638408,-0.107585,2.208739,-0.080619,-0.047669,-0.118926,-0.592465,0.107377,-0.798392,-0.003696,0.127273,0.005652,-10.772949,0.127655,6.530090,,,,,,,
1523524435.326497,-0.640288,-0.109399,2.202255,-0.189244,-0.038599,-0.162696,-0.593847,0.109181,-0.797119,-0.029108,0.140514,0.025528,-10.322388,0.275482,6.379700,,,,,,,
1523524435.356466,-0.639361,-0.110271,2.195392,-0.083885,0.093069,-0.187253,-0.593051,0.110048,-0.797592,0.001986,0.138259,0.035706,-10.398895,0.350449,6.004395,,,,,,,
1523524435.386434,-0.637150,-0.108300,2.191392,0.097548,0.124237,-0.148799,-0.591413,0.108089,-0.799075,0.007383,0.176793,0.045489,-10.253830,-0.100266,5.931213,,,,,,,
1523524435.416402,-0.634895,-0.104792,2.189759,0.089798,0.068937,-0.141281,-0.589831,0.104600,-0.800707,-0.040570,0.148039,0.014650,-9.949646,0.273422,6.004883,,,,,,,
1523524435.446370,-0.635131,-0.102923,2.186874,-0.010760,-0.002910,-0.164722,-0.590136,0.102741,-0.800724,-0.015562,0.142056,0.007633,-10.402344,0.275009,5.554688,,,,,,,
1523524435.476339,-0.634893,-0.103379,2.181015,-0.112782,0.071929,-0.192583,-0.589917,0.103195,-0.800826,-0.012119,0.183442,0.012954,-10.025696,0.573105,5.328674,,,,,,,
1523524435.506307,-0.634200,-0.104279,2.172596,-0.171143,0.076755,-0.255488,-0.589307,0.104090,-0.801160,-0.000400,0.156881,0.006741,-9.495056,1.320404,5.026001,,,,,,,
1523524435.536275,-0.632352,-0.104436,2.163787,-0.088710,0.122264,-0.258669,-0.587816,0.104247,-0.802234,0.014757,0.190889,0.024616,-10.179581,0.498260,4.803894,,,,,,,
1523524435.566243,-0.631715,-0.102099,2.157624,-0.015750,0.006012,-0.223336,-0.587447,0.101922,-0.802803,0.009276,0.138175,0.006752,-10.025421,0.872650,4.877502,,,,,,,
1523524435.596212,-0.632666,-0.100350,2.151782,-0.053338,-0.032180,-0.216944,-0.588314,0.100182,-0.802386,0.009198,0.164436,0.026584,-9.718521,1.246796,5.401184,,,,,,,
1523524435.626180,-0.632205,-0.101036,2.144719,-0.130561,0.129490,-0.212894,-0.587904,0.100864,-0.802602,0.040769,0.150464,0.077672,-10.395004,1.099838,5.401428,,,,,,,
1523524435.656148,-0.626358,-0.102165,2.136988,-0.126594,0.270956,-0.235402,-0.583134,0.101987,-0.805933,0.012302,0.171404,0.063975,-10.696182,0.801483,5.702454,,,,,,,
1523524435.686117,-0.620358,-0.103950,2.128318,-0.220184,0.132960,-0.221488,-0.578181,0.103763,-0.809268,-0.003957,0.140744,-0.049817,-9.345764,0.795486,5.778137,,,,,,,
1523524435.716085,-0.621553,-0.111233,2.117851,-0.411222,-0.010479,-0.155423,-0.578692,0.111004,-0.807940,-0.014447,0.153309,-0.041989,-9.880493,-0.177109,5.781799,,,,,,,
1523524435.746053,-0.624246,-0.120777,2.106211,-0.433844,-0.074070,-0.171357,-0.580220,0.120483,-0.805483,-0.021419,0.153412,-0.031736,-9.059860,-0.481018,5.558350,,,,,,,
1523524435.776021,-0.628356,-0.126128,2.096172,-0.176105,-0.018168,-0.204248,-0.583139,0.125794,-0.802558,-0.020743,0.188675,0.011344,-10.114609,-0.776581,5.259033,,,,,,,
1523524435.805990,-0.626817,-0.122827,2.090283,0.050805,0.044344,-0.258486,-0.582143,0.122519,-0.803786,-0.002162,0.139551,-0.071000,-8.245514,-1.235214,5.036804,,,,,,,
1523524435.835958,-0.629399,-0.117580,2.085257,0.022165,-0.121533,-0.232767,-0.584587,0.117309,-0.802790,0.005577,0.177460,-0.020300,-7.346313,-1.538864,5.413513,,,,,,,
1523524435.865926,-0.633873,-0.114236,2.079232,-0.003312,-0.118113,-0.257293,-0.588402,0.113988,-0.800477,0.063973,0.190379,0.121904,-6.819977,-1.316391,5.262817,,,,,,,
1523524435.895894,-0.635212,-0.109673,2.073660,0.066824,0.044313,-0.259540,-0.589775,0.109453,-0.800100,0.003868,0.191206,0.074193,-7.120422,-1.315109,5.187683,,,,,,,
1523524435.925863,-0.630334,-0.108254,2.066545,-0.205838,0.235983,-0.220509,-0.585956,0.108043,-0.803092,-0.050686,0.091939,-0.111551,-6.372253,-1.543411,5.263977,,,,,,,
1523524435.955831,-0.627484,-0.118457,2.054786,-0.625737,0.080985,-0.091737,-0.582988,0.118181,-0.803824,-0.043019,0.138411,-0.121133,-5.401199,-1.623306,4.739746,,,,,,,
1523524435.985799,-0.631788,-0.134775,2.040046,-0.669721,-0.201546,-0.092558,-0.585225,0.134367,-0.799644,-0.047511,0.165208,-0.078423,-6.305374,-1.320435,3.538147,,,,,,,
1523524436.015767,-0.641137,-0.143342,2.029749,-0.216969,-0.215299,-0.112439,-0.591965,0.142852,-0.793186,-0.034515,0.135743,-0.021862,-6.012436,-1.622437,2.864441,,,,,,,
1523524436.045736,-0.642767,-0.141405,2.026962,0.094737,0.018712,-0.104986,-0.593422,0.140934,-0.792440,-0.002678,0.134350,-0.054438,-6.011841,-1.697205,3.089783,,,,,,,
1523524436.075704,-0.643252,-0.137687,2.025523,0.017876,0.005175,-0.117812,-0.594116,0.137253,-0.792566,-0.022797,0.100815,-0.001883,-6.080673,-1.171738,3.237610,,,,,,,
1523524436.105672,-0.644349,-0.136986,2.020405,-0.135620,-0.004671,-0.174391,-0.595043,0.136558,-0.791990,-0.000279,0.106438,0.070051,-4.884338,-1.402344,3.014160,,,,,,,
1523524436.135627,-0.644616,-0.137784,2.012528,-0.157523,0.046806,-0.232008,-0.595189,0.137348,-0.791744,0.000386,0.169628,0.013897,-4.587204,-1.553909,2.789917,,,,,,,
1523524436.165626,-0.644777,-0.137784,2.002643,-0.187782,0.088996,-0.329030,-0.595316,0.137348,-0.791648,-0.023169,0.156353,0.013404,-4.817734,-2.152802,2.867126,,,,,,,
1523524436.195595,-0.639548,-0.137326,1.991100,-0.170777,0.345884,-0.297312,-0.591206,0.136895,-0.794801,0.006581,0.152671,-0.052001,-4.519257,-2.079514,2.492004,,,,,,,
1523524436.225563,-0.634489,-0.139874,1.982725,-0.232705,0.075929,-0.118067,-0.586969,0.139419,-0.797498,-0.022742,0.170243,-0.091738,-3.916122,-1.857086,2.641418,,,,,,,
1523524436.255531,-0.638124,-0.146059,1.975873,-0.276858,-0.170949,-0.052849,-0.589338,0.145541,-0.794652,-0.004350,0.120969,-0.025218,-4.819702,-1.628998,1.665100,,,,,,,
1523524436.285499,-0.644721,-0.149080,1.971005,-0.053221,-0.113763,-0.101771,-0.594301,0.148528,-0.790391,-0.037382,0.073747,0.076264,-4.068817,-1.856857,2.191345,,,,,,,
1523524436.315468,-0.646446,-0.146554,1.969217,0.070931,-0.074607,-0.124086,-0.595888,0.146030,-0.789662,0.019533,0.107998,0.092259,-4.297562,-2.230820,2.192749,,,,,,,
1523524436.345436,-0.646576,-0.143989,1.966179,-0.027498,0.078900,-0.158416,-0.596214,0.143492,-0.789881,0.004997,0.083803,0.088205,-3.993210,-1.931961,2.416748,,,,,,,
1523524436.375404,-0.644049,-0.144954,1.959639,-0.189264,0.175035,-0.173544,-0.594133,0.144446,-0.791274,0.014086,0.137628,0.018782,-4.669846,-1.779449,1.890747,,,,,,,
1523524436.405372,-0.641819,-0.147463,1.949670,-0.233615,0.182181,-0.265235,-0.592148,0.146929,-0.792304,-0.016205,0.067716,0.023276,-3.248657,-2.160828,1.893005,,,,,,,
1523524436.435341,-0.638740,-0.149502,1.940831,-0.179118,0.105623,-0.129772,-0.589526,0.148946,-0.793881,0.089571,0.095256,-0.004779,-3.254364,-2.236633,1.068298,,,,,,,
1523524436.465309,-0.637348,-0.154387,1.936589,-0.212944,0.087868,-0.008320,-0.587980,0.153775,-0.794107,-0.044665,0.140949,-0.052863,-3.326508,-1.861465,0.916809,,,,,,,
1523524436.495277,-0.635795,-0.161294,1.930197,-0.318455,0.029227,-0.094646,-0.586102,0.160595,-0.794146,-0.084766,0.115848,-0.134001,-3.554047,-1.935745,0.616943,,,,,,,
1523524436.525245,-0.638683,-0.163773,1.922942,-0.115867,-0.093096,-0.148714,-0.588153,0.163042,-0.792127,0.030155,0.110380,-0.077914,-3.331467,-2.311508,0.843567,,,,,,,
1523524436.555214,-0.641723,-0.162927,1.918180,-0.027071,-0.019145,-0.118887,-0.590641,0.162207,-0.790446,0.047810,0.086847,-0.122946,-2.433151,-2.166077,0.318420,,,,,,,
1523524436.585182,-0.644989,-0.162614,1.915283,-0.077929,-0.144569,-0.096418,-0.593250,0.161898,-0.788553,-0.003415,0.090864,-0.090841,-3.104523,-1.937836,0.542175,,,,,,,
1523524436.615150,-0.648697,-0.162199,1.910242,-0.089937,-0.075853,-0.192399,-0.596210,0.161489,-0.786401,-0.045483,0.093470,-0.078009,-3.104828,-2.012772,0.617432,,,,,,,
1523524436.645118,-0.653423,-0.160100,1.903014,-0.099653,-0.146741,-0.232824,-0.600125,0.159417,-0.783842,0.032132,0.053702,0.026136,-2.131653,-2.017441,0.317993,,,,,,,
1523524436.675087,-0.657642,-0.159291,1.896991,-0.084975,-0.096424,-0.139102,-0.603505,0.158618,-0.781405,0.028264,0.083905,0.082232,-2.504410,-2.015381,0.692749,,,,,,,
1523524436.705055,-0.661288,-0.158746,1.893137,-0.033751,-0.095539,-0.132668,-0.606403,0.158080,-0.779267,-0.069730,0.065583,0.072434,-2.954681,-2.088287,0.767822,,,,,,,
1523524436.735023,-0.663777,-0.156941,1.888511,-0.038498,-0.044046,-0.200915,-0.608515,0.156298,-0.777979,-0.067007,0.086165,0.093698,-1.981079,-2.092896,0.543396,,,,,,,
1523524436.764991,-0.662893,-0.155734,1.882150,-0.080149,0.185589,-0.203301,-0.607943,0.155105,-0.778665,-0.076765,0.042267,0.007470,-2.581802,-2.165176,0.543396,,,,,,,
1523524436.794960,-0.661166,-0.157841,1.875446,-0.218908,0.076836,-0.101008,-0.606395,0.157186,-0.779454,0.003856,0.058100,-0.062984,-2.126862,-1.717163,0.616760,,,,,,,
1523524436.824928,-0.663880,-0.161671,1.870547,-0.116250,-0.092559,-0.074125,-0.608133,0.160968,-0.777325,-0.030142,0.142911,-0.029758,-1.534256,-2.095428,0.018616,,,,,,,
1523524436.854896,-0.665401,-0.159859,1.868525,0.111926,0.037803,-0.107116,-0.609493,0.159179,-0.776627,-0.017673,0.052827,-0.010345,-2.359207,-2.316330,0.394043,,,,,,,
1523524436.884865,-0.663660,-0.156238,1.868550,0.033675,0.034404,-0.049630,-0.608492,0.155604,-0.778136,-0.010435,0.030996,-0.025911,-1.983917,-2.243103,0.318970,,,,,,,
1523524436.914833,-0.662357,-0.158837,1.866346,-0.157525,0.068564,-0.003990,-0.607227,0.158170,-0.778607,0.037845,0.027438,0.045758,-1.158508,-2.246750,0.394409,,,,,,,
1523524436.944801,-0.661448,-0.161636,1.863145,-0.079521,0.037846,-0.044398,-0.606244,0.160933,-0.778806,0.031934,-0.001326,0.089018,-2.134827,-2.242584,0.168884,,,,,,,
1523524436.974769,-0.660066,-0.161782,1.861535,-0.034326,0.114246,-0.045505,-0.605153,0.161077,-0.779625,0.007832,-0.029180,0.063057,-2.060867,-2.392838,0.244507,,,,,,,
1523524437.004738,-0.653014,-0.164554,1.858486,-0.207727,0.273953,-0.028747,-0.599367,0.163812,-0.783515,-0.044706,-0.020364,-0.068643,-1.164215,-2.322525,-0.430359,,,,,,,
1523524437.034706,-0.650212,-0.170495,1.851574,-0.337828,0.007926,-0.081846,-0.596569,0.169671,-0.784403,-0.066746,-0.007790,-0.150305,-1.989777,-2.244049,-0.656006,,,,,,,
1523524437.064674,-0.654042,-0.176894,1.843522,-0.324288,-0.067528,-0.083899,-0.598896,0.175973,-0.781234,-0.081539,0.040839,-0.200806,-1.692947,-2.245911,-1.180908,,,,,,,
1523524437.094642,-0.657775,-0.181368,1.836058,-0.194026,-0.100597,-0.112534,-0.601321,0.180375,-0.778363,-0.062711,0.023559,-0.153263,-1.544159,-2.097031,-1.631409,,,,,,,
1523524437.124611,-0.663135,-0.180942,1.832673,0.020006,-0.191697,-0.079241,-0.605532,0.179956,-0.775188,0.008760,0.022971,-0.051655,-2.143829,-2.244034,-1.331116,,,,,,,
1523524437.154588,-0.668442,-0.178808,1.832526,0.065845,-0.144361,-0.025983,-0.609873,0.177857,-0.772263,0.054621,0.029937,0.021424,-2.141739,-2.168823,-1.106445,,,,,,,
1523524437.184556,-0.670557,-0.177158,1.831887,-0.031526,-0.001431,-0.067761,-0.611687,0.176233,-0.771201,-0.008064,0.007666,0.026862,-1.767502,-2.245514,-1.105957,,,,,,,
1523524437.214524,-0.670369,-0.178527,1.825734,-0.251723,0.066732,-0.163888,-0.611391,0.177581,-0.771126,-0.022169,0.014497,0.042976,-2.215683,-2.018555,-1.182068,,,,,,,
1523524437.244493,-0.669177,-0.182179,1.814638,-0.321384,0.151394,-0.242865,-0.610065,0.181173,-0.771340,-0.071545,0.048899,0.030084,-2.218979,-2.168839,-1.481445,,,,,,,
1523524437.274461,-0.666528,-0.185760,1.801664,-0.403404,0.164556,-0.270653,-0.607614,0.184694,-0.772439,-0.143393,0.068297,-0.089667,-1.469162,-2.097366,-1.631409,,,,,,,
1523524437.304429,-0.667950,-0.190612,1.787834,-0.381136,-0.064215,-0.234178,-0.608151,0.189460,-0.770861,-0.177784,0.049157,-0.147428,-1.543564,-1.947189,-1.781982,,,,,,,
1523524437.334397,-0.673967,-0.193763,1.778697,-0.150566,-0.156066,-0.098588,-0.612402,0.192553,-0.766717,-0.116068,0.086912,-0.064108,-1.394928,-1.723450,-2.382874,,,,,,,
1523524437.364366,-0.677491,-0.191718,1.777128,0.123177,-0.060076,-0.095282,-0.615345,0.190546,-0.764860,0.022419,0.071143,0.059965,-0.194809,-2.028320,-1.856018,,,,,,,
1523524437.394334,-0.676581,-0.184528,1.778846,0.267980,0.069314,-0.111287,-0.615490,0.183483,-0.766468,0.098645,0.053181,0.127705,-0.570557,-2.101639,-1.855896,,,,,,,
1523524437.424333,-0.673129,-0.177648,1.780637,0.137827,0.110970,-0.095444,-0.613614,0.176715,-0.769557,0.106214,0.070782,0.103206,-0.344360,-2.027588,-1.781067,,,,,,,
1523524437.454301,-0.669250,-0.176723,1.776770,-0.208548,0.188687,-0.145855,-0.610726,0.175804,-0.772060,0.037606,0.051308,0.022411,0.181061,-1.805252,-2.081665,,,,,,,
1523524437.484268,-0.665614,-0.182846,1.765352,-0.463626,0.159877,-0.189704,-0.607238,0.181829,-0.773414,0.012176,0.061747,0.006767,0.409943,-1.506119,-1.932800,,,,,,,
1523524437.514238,-0.665917,-0.189270,1.751490,-0.362271,0.046492,-0.271553,-0.606738,0.188142,-0.772296,-0.081982,0.095122,-0.014463,0.252747,-1.731247,-2.757019,,,,,,,
1523524437.544205,-0.666592,-0.189418,1.739848,-0.148625,0.026086,-0.314009,-0.607242,0.188287,-0.771864,-0.065243,0.041327,0.008787,0.924133,-1.959488,-2.980713,,,,,,,
1523524437.574173,-0.667200,-0.185222,1.733421,0.074120,0.017605,-0.244574,-0.608195,0.184165,-0.772108,-0.064336,0.083459,-0.003054,1.371857,-1.961868,-3.355469,,,,,,,
1523524437.604141,-0.665900,-0.179643,1.730983,0.120872,0.075259,-0.149758,-0.607816,0.178678,-0.773695,0.002241,0.080813,-0.026537,1.901337,-1.738892,-2.981140,,,,,,,
1523524437.634110,-0.665325,-0.176284,1.730694,0.076192,0.020285,-0.022936,-0.607739,0.175373,-0.774512,0.077603,0.066128,-0.014475,1.449112,-1.961853,-2.980469,,,,,,,
1523524437.664078,-0.666239,-0.176517,1.730776,-0.036213,-0.047422,-0.025087,-0.608421,0.175602,-0.773924,0.014168,0.081326,-0.106463,1.451065,-2.036407,-2.530151,,,,,,,
1523524437.694046,-0.670757,-0.178077,1.726694,-0.167506,-0.174845,-0.142268,-0.611740,0.177137,-0.770952,0.028823,0.072237,-0.039137,2.053421,-1.664352,-2.756348,,,,,,,
1523524437.724015,-0.673783,-0.177951,1.719127,-0.096908,-0.024501,-0.241458,-0.614084,0.177014,-0.769114,0.020868,0.053318,0.006205,1.974518,-1.739517,-3.281067,,,,,,,
1523524437.753983,-0.676220,-0.176643,1.712177,-0.102916,-0.113051,-0.189160,-0.616101,0.175726,-0.767795,-0.014743,0.022806,0.013599,1.376358,-1.736526,-2.981384,,,,,,,
1523524437.783952,-0.681159,-0.179165,1.706137,-0.242360,-0.113558,-0.066732,-0.619604,0.178208,-0.764396,-0.095972,-0.012009,0.001091,1.301956,-1.586334,-3.132080,,,,,,,
1523524437.813920,-0.684235,-0.186637,1.700155,-0.325874,-0.085168,0.004574,-0.621093,0.185555,-0.761434,-0.154267,-0.017098,-0.089091,1.446396,-1.737671,-3.806396,,,,,,,
1523524437.843888,-0.689889,-0.192702,1.695487,-0.165494,-0.229275,0.041067,-0.624661,0.191511,-0.757027,-0.094241,-0.013166,-0.000389,1.596069,-1.588638,-4.106873,,,,,,,
1523524437.873857,-0.698751,-0.192210,1.696058,0.147606,-0.257156,-0.034322,-0.631405,0.191029,-0.751534,-0.037952,0.015255,0.105049,2.051453,-1.140533,-3.958435,,,,,,,
1523524437.903825,-0.700579,-0.185247,1.697447,0.191390,0.067730,-0.163540,-0.633620,0.184189,-0.751377,-0.026659,0.026153,0.051090,1.378143,-1.286987,-3.433228,,,,,,,
1523524437.933793,-0.696211,-0.178666,1.693310,-0.002444,0.274151,-0.284304,-0.631096,0.177717,-0.755051,0.013527,0.021212,0.035858,2.124374,-1.889969,-3.055420,,,,,,,
1523524437.963761,-0.689849,-0.174002,1.685301,-0.029030,0.284929,-0.296058,-0.626800,0.173125,-0.759682,0.069824,0.058351,0.073388,2.649933,-1.517853,-3.581604,,,,,,,
1523524437.993730,-0.685294,-0.169596,1.679036,0.004189,0.149409,-0.228757,-0.623810,0.168784,-0.763113,0.079468,0.084450,0.088552,3.102768,-1.594299,-2.981079,,,,,,,
1523524438.023698,-0.682884,-0.169568,1.672480,-0.265389,0.145163,-0.133060,-0.621973,0.168757,-0.764618,-0.036658,0.028646,-0.065704,2.946777,-1.744339,-3.730591,,,,,,,
1523524438.053666,-0.679863,-0.178614,1.662085,-0.479420,0.098564,-0.078833,-0.618675,0.177666,-0.765275,-0.047859,0.018318,-0.158462,3.169083,-1.970413,-3.804565,,,,,,,
1523524438.083635,-0.683939,-0.185986,1.652854,-0.257462,-0.168661,-0.083733,-0.620944,0.184915,-0.761711,-0.012631,0.077643,-0.015450,3.319962,-1.521683,-4.406250,,,,,,,
1523524438.113603,-0.689640,-0.185162,1.649476,0.084620,-0.102398,-0.108051,-0.625373,0.184106,-0.758276,0.024787,0.066916,0.083715,3.774109,-1.148666,-4.332520,,,,,,,
1523524438.143543,-0.687286,-0.178980,1.650317,0.191490,0.148151,-0.114612,-0.624297,0.178026,-0.760611,-0.004625,0.010740,0.016302,3.846115,-1.448990,-4.331299,,,,,,,
1523524438.173511,-0.682737,-0.175715,1.648425,-0.072037,0.157514,-0.143590,-0.621194,0.174812,-0.763890,-0.002265,0.022164,-0.024241,3.172668,-1.520584,-3.956360,,,,,,,
1523524438.203480,-0.680482,-0.178344,1.640427,-0.279201,0.114646,-0.171395,-0.619179,0.177400,-0.764929,0.042580,0.076873,0.031637,3.768433,-1.673721,-4.405457,,,,,,,
1523524438.233448,-0.679997,-0.181204,1.629722,-0.271574,0.063084,-0.245926,-0.618486,0.180214,-0.764832,0.029604,0.082573,0.034836,4.818527,-1.304047,-5.006409,,,,,,,
1523524438.263416,-0.680569,-0.181883,1.620016,-0.174819,-0.001073,-0.223411,-0.618846,0.180882,-0.764383,-0.007435,0.090435,-0.027472,4.819122,-1.154190,-5.156982,,,,,,,
1523524438.293384,-0.682657,-0.182387,1.613486,-0.073946,-0.032691,-0.144457,-0.620384,0.181378,-0.763018,-0.033227,0.064304,-0.028120,4.667496,-1.453278,-4.930908,,,,,,,
1523524438.323353,-0.682954,-0.181794,1.611191,0.030259,-0.007108,-0.041051,-0.620677,0.180794,-0.762917,-0.009953,0.023658,-0.012931,5.342133,-1.081985,-5.607056,,,,,,,
1523524438.353321,-0.686209,-0.183284,1.612180,-0.032067,-0.192713,0.081631,-0.622986,0.182259,-0.760683,0.019013,0.021613,0.018023,4.818680,-1.154266,-5.231995,,,,,,,
1523524438.383289,-0.691621,-0.188145,1.612423,-0.165443,-0.171141,0.083639,-0.626522,0.187037,-0.756609,-0.040058,0.002584,-0.048582,4.443237,-1.152649,-5.307190,,,,,,,
1523524438.413257,-0.697010,-0.192819,1.608714,-0.180359,-0.116846,-0.078380,-0.630021,0.191626,-0.752543,-0.063186,-0.014243,-0.042303,4.886444,-1.155777,-6.432007,,,,,,,
1523524438.443226,-0.698166,-0.193782,1.601725,-0.171378,0.075248,-0.200032,-0.630772,0.192571,-0.751673,0.007023,0.002100,0.033472,4.360275,-1.228470,-6.506958,,,,,,,
1523524438.473194,-0.695657,-0.192654,1.594650,-0.078358,0.112176,-0.194677,-0.629023,0.191464,-0.753419,-0.006994,0.010547,-0.011458,4.589905,-0.854355,-6.358337,,,,,,,
1523524438.503161,-0.694582,-0.190166,1.589764,-0.012549,0.078746,-0.148774,-0.628515,0.189021,-0.754459,-0.009607,-0.004650,-0.003796,5.487183,-1.083466,-6.431946,,,,,,,
1523524438.533129,-0.693186,-0.188773,1.586589,-0.047146,0.053956,-0.086972,-0.627630,0.187654,-0.755537,-0.020106,0.008528,-0.010439,5.034210,-1.381439,-6.431030,,,,,,,
1523524438.563098,-0.692023,-0.189134,1.583183,-0.107984,0.064698,-0.081701,-0.626707,0.188008,-0.756214,-0.019121,-0.005879,-0.032116,5.034653,-1.156738,-6.731873,,,,,,,
1523524438.593066,-0.691362,-0.191761,1.578074,-0.213758,0.062746,-0.068991,-0.625890,0.190588,-0.756245,-0.026271,-0.001547,-0.045635,4.960831,-1.081314,-6.657227,,,,,,,
1523524438.623065,-0.689809,-0.194880,1.572769,-0.156074,0.070044,-0.068958,-0.624333,0.193649,-0.756754,-0.029842,0.013092,-0.075338,4.735703,-1.005463,-6.807678,,,,,,,
1523524438.653033,-0.690031,-0.194508,1.568926,-0.023756,-0.022295,-0.132690,-0.624547,0.193284,-0.756671,-0.055492,-0.000550,-0.061597,4.512192,-0.854462,-6.808350,,,,,,,
1523524438.683002,-0.692540,-0.192206,1.565299,-0.022786,-0.060443,-0.147572,-0.626726,0.191025,-0.755442,-0.007979,0.006866,0.023645,5.942078,-0.410828,-6.734436,,,,,,,
1523524438.712970,-0.691731,-0.189868,1.561574,-0.022042,0.104247,-0.146666,-0.626398,0.188729,-0.756290,0.009088,0.030936,0.035633,5.409637,-1.158432,-6.731689,,,,,,,
1523524438.742939,-0.689501,-0.188669,1.557239,-0.086371,0.067069,-0.126428,-0.624853,0.187552,-0.757859,0.005652,0.017541,-0.016875,5.783707,-0.935638,-7.257446,,,,,,,
1523524438.772907,-0.689669,-0.188774,1.552277,-0.111191,0.007633,-0.127453,-0.624968,0.187655,-0.757739,0.001616,0.016050,-0.058652,6.838135,-0.490372,-7.258667,,,,,,,
1523524438.802875,-0.691702,-0.189043,1.547260,-0.090189,-0.062583,-0.122044,-0.626475,0.187919,-0.756428,0.019633,0.024056,-0.030956,6.230087,-0.938232,-7.857178,,,,,,,
1523524438.832844,-0.694099,-0.188401,1.543856,-0.033797,-0.071460,-0.090018,-0.628363,0.187288,-0.755017,0.016653,-0.005327,-0.002826,5.856293,-0.861481,-7.782654,,,,,,,
1523524438.862812,-0.696378,-0.188231,1.541907,-0.070533,-0.111015,-0.042062,-0.630103,0.187121,-0.753607,-0.031991,-0.005389,-0.033319,5.932922,-0.786682,-7.632935,,,,,,,
1523524438.892780,-0.700142,-0.191164,1.538331,-0.169797,-0.100149,-0.040022,-0.632578,0.190002,-0.750807,-0.036214,-0.026367,-0.053820,6.158981,-0.637772,-7.708374,,,,,,,
1523524438.922748,-0.703287,-0.193012,1.534820,-0.086505,-0.104575,-0.045279,-0.634708,0.191815,-0.748545,-0.004223,-0.014951,-0.040731,6.081848,-0.263412,-8.684937,,,,,,,
1523524438.952717,-0.708002,-0.193416,1.532603,-0.050413,-0.146162,-0.038808,-0.638180,0.192212,-0.745485,-0.017994,-0.020230,-0.017485,6.156876,-0.488358,-8.309021,,,,,,,
1523524438.982685,-0.711729,-0.193177,1.530467,-0.041459,-0.087550,-0.066561,-0.640983,0.191977,-0.743136,-0.034264,-0.046210,-0.028349,5.336838,-0.259216,-7.860352,,,,,,,
1523524439.012653,-0.715000,-0.192908,1.527831,-0.056601,-0.122633,-0.059076,-0.643445,0.191714,-0.741073,-0.031101,-0.078966,-0.024002,5.110199,-0.108734,-8.386047,,,,,,,
1523524439.042620,-0.719606,-0.193308,1.526002,-0.043132,-0.145378,-0.001511,-0.646800,0.192106,-0.738044,-0.013020,-0.066435,-0.008995,5.863159,0.187881,-8.386902,,,,,,,
1523524439.072590,-0.725534,-0.193970,1.525602,-0.026478,-0.214672,0.023087,-0.651079,0.192756,-0.734102,-0.039610,-0.091880,0.001314,5.036850,-0.033249,-8.236389,,,,,,,
1523524439.102557,-0.731055,-0.193937,1.525828,0.002723,-0.143485,0.013450,-0.655126,0.192724,-0.730501,-0.024866,-0.085637,0.013170,4.813065,0.042831,-8.161804,,,,,,,
1523524439.132525,-0.733391,-0.192328,1.526314,0.039676,-0.033895,-0.018606,-0.657038,0.191145,-0.729197,-0.061300,-0.128202,-0.001851,4.667557,0.268860,-7.787781,,,,,,,
1523524439.162500,-0.733054,-0.190288,1.525683,-0.006812,0.020718,-0.063439,-0.657052,0.189142,-0.729707,-0.055488,-0.136606,-0.013152,4.517258,0.194611,-7.712524,,,,,,,
1523524439.192469,-0.734339,-0.189417,1.523911,-0.058643,-0.052796,-0.016526,-0.658099,0.188287,-0.728984,0.000827,-0.130700,-0.035634,5.118759,0.341904,-7.712830,,,,,,,
1523524439.222437,-0.736914,-0.189062,1.523012,-0.034313,-0.061626,0.020801,-0.660019,0.187938,-0.727337,-0.038162,-0.160030,-0.010563,4.819214,0.343323,-7.638000,,,,,,,
1523524439.252405,-0.737398,-0.188150,1.523227,0.008874,0.024481,0.001560,-0.660486,0.187042,-0.727144,-0.032171,-0.169235,-0.014113,5.272034,0.491516,-7.413330,,,,,,,
1523524439.282373,-0.734419,-0.186625,1.523564,0.017904,0.134979,0.001448,-0.658508,0.185544,-0.729319,-0.019089,-0.168576,-0.006735,5.795837,0.414078,-7.487793,,,,,,,
1523524439.312342,-0.731769,-0.184854,1.523720,-0.004946,0.033022,-0.000582,-0.656791,0.183803,-0.731305,-0.003243,-0.147792,-0.010547,4.745117,0.119186,-7.112122,,,,,,,
1523524439.342310,-0.732455,-0.183315,1.523195,-0.023299,-0.016846,-0.004808,-0.657481,0.182290,-0.731064,-0.007116,-0.148613,-0.009003,4.815460,-0.031662,-7.636536,,,,,,,
1523524439.372278,-0.731529,-0.181657,1.522212,-0.032324,0.088540,-0.027303,-0.657004,0.180660,-0.731896,-0.006127,-0.161220,-0.005332,6.240402,-0.038071,-7.635803,,,,,,,
1523524439.402247,-0.728562,-0.181365,1.520732,-0.093203,0.111846,0.001416,-0.654865,0.180373,-0.733881,-0.015316,-0.131499,-0.003240,5.115906,-0.032928,-7.561340,,,,,,,
1523524439.432215,-0.726475,-0.182268,1.518714,-0.113781,0.047116,-0.001744,-0.653224,0.181260,-0.735124,-0.055516,-0.124177,-0.077620,5.563614,-0.035324,-7.936096,,,,,,,
1523524439.462183,-0.725891,-0.183236,1.515572,-0.124284,0.034708,-0.046495,-0.652677,0.182212,-0.735374,-0.051348,-0.113395,-0.101891,6.541580,0.260284,-7.936829,,,,,,,
1523524439.492151,-0.725340,-0.182020,1.513079,0.029641,0.044088,-0.074098,-0.652419,0.181016,-0.735899,0.007567,-0.085664,-0.013903,5.714508,-0.035858,-7.786011,,,,,,,
1523524439.522120,-0.724172,-0.177016,1.514634,0.187287,0.006195,-0.032373,-0.652151,0.176093,-0.737330,0.028402,-0.076957,0.036021,5.487137,-0.184982,-7.935547,,,,,,,
1523524439.552088,-0.723917,-0.173340,1.517250,0.043932,-0.007558,0.010153,-0.652387,0.172474,-0.737976,-0.025210,-0.084858,-0.049591,6.463577,-0.039368,-7.935669,,,,,,,
1523524439.582056,-0.723816,-0.174429,1.515630,-0.136309,-0.003681,-0.024082,-0.652188,0.173545,-0.737901,-0.048298,-0.150260,-0.097869,5.634125,-0.485626,-7.934265,,,,,,,
1523524439.612024,-0.725538,-0.176113,1.513109,-0.070487,-0.074053,-0.013307,-0.653262,0.175204,-0.736557,-0.002027,-0.117786,0.045929,5.484451,-0.410034,-8.009705,,,,,,,
1523524439.641993,-0.725819,-0.174221,1.513391,0.085728,0.007346,-0.007949,-0.653689,0.173341,-0.736620,-0.058500,-0.157716,-0.017760,6.310287,-0.188980,-8.235107,,,,,,,
1523524439.671961,-0.726507,-0.171959,1.514734,0.022373,-0.048954,0.012304,-0.654454,0.171112,-0.736462,-0.084255,-0.190399,-0.058613,5.333389,-0.559280,-7.934143,,,,,,,
1523524439.701960,-0.726761,-0.172253,1.514955,-0.022226,0.024331,0.031386,-0.654608,0.171403,-0.736257,-0.031565,-0.148606,0.008413,5.557632,-0.635284,-7.933716,,,,,,,
1523524439.731928,-0.726152,-0.171329,1.516001,0.052514,0.014664,0.020790,-0.654264,0.170492,-0.736774,-0.026965,-0.143118,0.014759,6.155823,-0.638275,-8.233398,,,,,,,
1523524439.761896,-0.725613,-0.168647,1.517410,0.043974,0.015726,0.022919,-0.654168,0.167848,-0.737466,0.009499,-0.140337,-0.027137,5.482651,-0.634949,-7.933777,,,,,,,
1523524439.791864,-0.724579,-0.167518,1.517805,-0.029236,0.099959,0.007864,-0.653530,0.166736,-0.738284,-0.019718,-0.162158,-0.086668,5.778748,-0.936432,-8.082397,,,,,,,
1523524439.821833,-0.722619,-0.168263,1.516299,-0.077336,0.071484,-0.005994,-0.651999,0.167470,-0.739470,-0.008218,-0.169713,-0.040254,6.306854,-0.489029,-8.308960,,,,,,,
1523524439.851801,-0.720493,-0.166944,1.515766,0.041186,0.062742,-0.014417,-0.650571,0.166170,-0.741020,-0.007693,-0.179536,0.017494,5.406448,-0.485062,-8.384399,,,,,,,
1523524439.881769,-0.719325,-0.163466,1.517090,0.069773,0.020123,-0.006902,-0.650082,0.162739,-0.742209,-0.029148,-0.171803,0.001136,5.853302,-0.936844,-8.157349,,,,,,,
1523524439.911738,-0.717052,-0.161374,1.517852,0.013373,0.073317,0.003660,-0.648616,0.160674,-0.743940,-0.022863,-0.184554,-0.037829,6.604156,-0.715439,-8.382874,,,,,,,
1523524439.941706,-0.715662,-0.159118,1.518362,0.041015,0.034015,-0.008002,-0.647817,0.158447,-0.745113,-0.009989,-0.185608,-0.060506,5.854492,-0.637146,-8.458557,,,,,,,
1523524439.971674,-0.715256,-0.156557,1.518779,0.000255,0.011655,0.011180,-0.647779,0.155918,-0.745679,-0.010546,-0.182361,-0.023608,5.858383,-0.337021,-8.309753,,,,,,,
1523524440.001642,-0.715035,-0.155750,1.518284,-0.032746,0.033002,0.010064,-0.647696,0.155121,-0.745917,-0.033441,-0.205689,-0.003076,6.979874,-0.417526,-8.758911,,,,,,,
1523524440.031611,-0.713875,-0.154664,1.518867,0.033245,-0.001220,0.018667,-0.646941,0.154048,-0.746795,-0.023363,-0.203746,-0.024384,5.854782,-0.562225,-8.533875,,,,,,,
1523524440.061579,-0.712680,-0.151682,1.521048,0.103975,0.081348,0.038880,-0.646345,0.151101,-0.747912,-0.009615,-0.202508,-0.023893,5.555222,-0.336182,-8.834900,,,,,,,
1523524440.091547,-0.710524,-0.149174,1.523696,0.068662,0.081320,0.054840,-0.644976,0.148621,-0.749589,-0.021742,-0.212265,-0.006499,6.077942,-0.338898,-9.209595,,,,,,,
1523524440.121515,-0.707973,-0.146211,1.526956,0.091898,0.036541,0.066631,-0.643346,0.145691,-0.751563,-0.005443,-0.195297,-0.042047,5.934692,-0.112518,-8.460571,,,,,,,
1523524440.151487,-0.707453,-0.143827,1.529759,0.060596,-0.049371,0.056033,-0.643179,0.143332,-0.752159,-0.038691,-0.208701,-0.062615,5.335480,-0.034821,-8.461182,,,,,,,
1523524440.181454,-0.709405,-0.141727,1.531747,0.060749,-0.052360,0.026209,-0.644840,0.141253,-0.751129,-0.035489,-0.211200,-0.020005,5.188629,0.190979,-8.312195,,,,,,,
1523524440.211422,-0.709059,-0.139449,1.533439,0.053677,0.042215,0.029299,-0.644788,0.138998,-0.751594,-0.001819,-0.214285,0.042152,5.339676,0.340240,-8.387756,,,,,,,
1523524440.241390,-0.706458,-0.136510,1.535936,0.102761,0.057898,0.048499,-0.643093,0.136086,-0.753577,0.016872,-0.232460,0.021811,5.416183,0.489899,-8.388306,,,,,,,
1523524440.271359,-0.706049,-0.132942,1.539587,0.109727,-0.028347,0.070966,-0.643096,0.132551,-0.754204,0.001327,-0.232145,-0.017525,5.570206,0.714493,-8.089111,,,,,,,
1523524440.301327,-0.709254,-0.130129,1.542472,0.055970,-0.152307,0.036960,-0.645750,0.129762,-0.752419,-0.082094,-0.249299,-0.068535,4.676712,0.869339,-7.265198,,,,,,,
1523524440.331295,-0.713896,-0.127923,1.543732,0.035782,-0.153174,0.016698,-0.649422,0.127575,-0.749627,-0.088326,-0.278820,-0.065619,4.824020,0.418976,-6.963257,,,,,,,
1523524440.361264,-0.717115,-0.125471,1.544712,0.048901,-0.086241,0.014504,-0.652034,0.125142,-0.747766,-0.033924,-0.286168,0.001184,4.899155,0.568420,-7.188843,,,,,,,
1523524440.391232,-0.718087,-0.123011,1.547374,0.122495,-0.053796,0.058218,-0.652962,0.122701,-0.747362,-0.027717,-0.302221,-0.029250,5.198990,0.192657,-6.587158,,,,,,,
1523524440.421201,-0.719964,-0.120894,1.551527,0.136203,-0.091056,0.061473,-0.654533,0.120600,-0.746328,-0.040779,-0.328272,-0.093378,5.573227,0.340607,-6.962585,,,,,,,
1523524440.451169,-0.721933,-0.118966,1.554948,0.111949,-0.041988,0.044351,-0.656153,0.118685,-0.745212,-0.011098,-0.332598,-0.046094,5.272797,-0.107361,-6.285950,,,,,,,
1523524440.481137,-0.722094,-0.117257,1.558114,0.103593,0.010058,0.051743,-0.656406,0.116988,-0.745257,0.008289,-0.344695,-0.007947,4.746780,-0.030304,-6.586487,,,,,,,
1523524440.511106,-0.722531,-0.114515,1.562099,0.138409,-0.066660,0.067838,-0.656942,0.114265,-0.745207,-0.001078,-0.366340,-0.014757,5.720230,-0.184677,-6.585388,,,,,,,
1523524440.541074,-0.723454,-0.111604,1.566765,0.125656,-0.011614,0.102931,-0.657847,0.111373,-0.744847,0.014491,-0.355559,0.006718,5.196014,-0.331940,-6.210083,,,,,,,
1523524440.571042,-0.722610,-0.109929,1.571577,0.096580,-0.036194,0.131713,-0.657341,0.109708,-0.745541,-0.013817,-0.339581,-0.006504,4.670456,-0.704041,-5.683899,,,,,,,
1523524440.601011,-0.724435,-0.107667,1.576883,0.140196,-0.080872,0.123265,-0.658863,0.107459,-0.744524,-0.049236,-0.344001,-0.021010,4.744400,-0.629684,-5.984131,,,,,,,
1523524440.630979,-0.725143,-0.104899,1.582079,0.112729,-0.021242,0.116783,-0.659584,0.104707,-0.744277,-0.029396,-0.325868,-0.007707,4.517761,-0.928436,-5.758057,,,,,,,
1523524440.660947,-0.724722,-0.102956,1.586861,0.105414,0.008544,0.113557,-0.659405,0.102774,-0.744705,-0.042591,-0.304969,-0.008682,4.216125,-1.002228,-5.907898,,,,,,,
1523524440.690946,-0.723919,-0.101318,1.591081,0.081959,0.008648,0.107147,-0.658917,0.101145,-0.745360,-0.057071,-0.341455,-0.019502,5.561432,-1.383423,-6.055725,,,,,,,
1523524440.720914,-0.722380,-0.100038,1.594820,0.052312,0.078766,0.119839,-0.657854,0.099871,-0.746469,0.004229,-0.315356,0.047922,4.810730,-1.455048,-6.055847,,,,,,,
1523524440.750881,-0.718604,-0.099725,1.598991,0.059781,0.111489,0.148579,-0.655052,0.099559,-0.748972,0.008049,-0.288036,0.030908,5.040802,-1.080856,-5.832153,,,,,,,
1523524440.780851,-0.716993,-0.098389,1.603738,0.090342,0.005256,0.133791,-0.653931,0.098230,-0.750126,-0.002716,-0.272256,-0.022808,5.264130,-1.157013,-5.981750,,,,,,,
1523524440.810818,-0.716302,-0.097011,1.608059,0.038130,0.024548,0.129467,-0.653501,0.096859,-0.750679,-0.015063,-0.282849,-0.082924,4.589157,-1.153976,-5.982117,,,,,,,
1523524440.840786,-0.716621,-0.096922,1.611954,0.073004,-0.044692,0.140225,-0.653745,0.096771,-0.750477,-0.016405,-0.290481,-0.043178,4.289337,-1.227478,-5.831970,,,,,,,
1523524440.870754,-0.717482,-0.095412,1.617240,0.101854,-0.055266,0.124264,-0.654487,0.095267,-0.750023,-0.029259,-0.302237,-0.003868,5.116394,-0.931351,-5.982727,,,,,,,
1523524440.900723,-0.717699,-0.094294,1.621409,0.061507,-0.026360,0.107160,-0.654719,0.094154,-0.749961,-0.040471,-0.324379,-0.039621,4.217468,-1.002014,-5.682922,,,,,,,
1523524440.930691,-0.718269,-0.094554,1.624636,0.035768,-0.045459,0.112487,-0.655131,0.094413,-0.749569,-0.002706,-0.323814,-0.044102,4.140823,-1.076813,-5.832642,,,,,,,
1523524440.960660,-0.720065,-0.094621,1.629846,0.145211,-0.102432,0.165908,-0.656471,0.094480,-0.748386,0.017982,-0.295789,-0.003140,4.820892,-0.480026,-5.984680,,,,,,,
1523524440.990628,-0.722220,-0.091984,1.637623,0.223316,-0.073881,0.158477,-0.658245,0.091855,-0.747154,0.002330,-0.300686,0.014900,3.622757,-0.698959,-5.309448,,,,,,,
1523524441.020597,-0.721467,-0.087714,1.645171,0.202485,0.002920,0.124286,-0.657936,0.087602,-0.747937,0.007285,-0.289827,0.023373,3.699570,-0.923630,-4.633484,,,,,,,
1523524441.050565,-0.721696,-0.084296,1.650888,0.117940,-0.054191,0.114697,-0.658301,0.084197,-0.748007,-0.025430,-0.281752,-0.007456,4.149673,-0.775879,-4.858826,,,,,,,
1523524441.080533,-0.724208,-0.082812,1.654866,0.042837,-0.125245,0.122166,-0.660260,0.082718,-0.746443,-0.055362,-0.317718,-0.062349,2.878204,-0.694702,-4.409790,,,,,,,
1523524441.110501,-0.727810,-0.082056,1.658717,0.063086,-0.113714,0.138149,-0.662985,0.081964,-0.744107,-0.064035,-0.338770,-0.040073,3.176697,-0.846054,-4.409058,,,,,,,
1523524441.140460,-0.729200,-0.082121,1.663983,0.117982,-0.002387,0.151941,-0.664016,0.082028,-0.743180,-0.055101,-0.319379,-0.014876,3.325195,-0.996719,-4.408386,,,,,,,
1523524441.170428,-0.726848,-0.082438,1.669260,0.099301,0.098735,0.134771,-0.662248,0.082345,-0.744721,-0.014907,-0.323159,-0.019042,3.406616,-0.621643,-3.959839,,,,,,,
1523524441.200396,-0.723723,-0.082620,1.674636,0.136669,0.101804,0.137994,-0.659908,0.082526,-0.746775,-0.003925,-0.301749,-0.017110,3.253647,-0.920944,-3.958679,,,,,,,
1523524441.230365,-0.720975,-0.081210,1.681017,0.174936,0.059221,0.134874,-0.657929,0.081120,-0.748673,0.025681,-0.307088,0.019471,3.554382,-0.847305,-3.958862,,,,,,,
1523524441.260333,-0.717675,-0.080270,1.686951,0.087470,0.109199,0.161393,-0.655505,0.080184,-0.750897,-0.027707,-0.300552,-0.033481,2.653503,-1.068008,-3.733459,,,,,,,
1523524441.290301,-0.716762,-0.080122,1.691970,0.060050,-0.056468,0.157276,-0.654827,0.080036,-0.751504,-0.036106,-0.320759,-0.058707,2.808609,-0.693497,-3.509888,,,,,,,
1523524441.320269,-0.717290,-0.080224,1.696861,0.080587,0.008262,0.163613,-0.655218,0.080138,-0.751153,-0.032297,-0.322356,-0.011878,2.804565,-0.918777,-3.808960,,,,,,,
1523524441.350238,-0.715529,-0.078766,1.703078,0.170490,0.045295,0.154054,-0.653971,0.078685,-0.752392,-0.014288,-0.297511,0.001706,2.507294,-1.141617,-2.983215,,,,,,,
1523524441.380206,-0.713988,-0.076222,1.709745,0.151187,0.016713,0.145544,-0.652940,0.076148,-0.753548,0.018144,-0.290580,-0.000007,1.980652,-1.214386,-3.133179,,,,,,,
1523524441.410174,-0.712603,-0.074330,1.715815,0.139468,0.038950,0.160432,-0.651989,0.074262,-0.754560,0.033565,-0.280973,0.022580,1.978561,-1.514236,-2.981995,,,,,,,
1523524441.440142,-0.711384,-0.072361,1.722436,0.161866,0.038878,0.163641,-0.651163,0.072298,-0.755463,-0.010733,-0.280504,-0.023040,2.277222,-1.740417,-2.830933,,,,,,,
1523524441.470111,-0.709951,-0.070144,1.728879,0.108378,0.018757,0.170030,-0.650182,0.070086,-0.756515,-0.010264,-0.302005,-0.015717,2.575562,-1.816925,-2.980469,,,,,,,
1523524441.500079,-0.708645,-0.068361,1.734377,0.082837,0.028437,0.162543,-0.649274,0.068308,-0.757457,-0.029574,-0.315439,0.000988,2.354752,-1.665482,-2.531189,,,,,,,
1523524441.530047,-0.708221,-0.066262,1.740405,0.164901,-0.021581,0.145598,-0.649044,0.066213,-0.757840,-0.018192,-0.324301,-0.018237,1.452271,-1.961349,-2.455444,,,,,,,
1523524441.560015,-0.707796,-0.063549,1.746711,0.145867,0.017777,0.145549,-0.648837,0.063506,-0.758250,0.013629,-0.317382,-0.007116,1.975128,-2.263550,-2.304016,,,,,,,
1523524441.589984,-0.707833,-0.061821,1.752800,0.130790,-0.009809,0.145562,-0.648935,0.061782,-0.758308,-0.001410,-0.283583,0.003273,2.277374,-2.039902,-2.304749,,,,,,,
1523524441.619952,-0.707550,-0.059725,1.758483,0.130892,-0.006501,0.128509,-0.648803,0.059689,-0.758588,0.006042,-0.282483,0.010893,1.753754,-2.037323,-2.079956,,,,,,,
1523524441.649951,-0.705927,-0.057318,1.764053,0.108617,0.052871,0.154014,-0.647663,0.057286,-0.759748,0.025409,-0.282262,0.003080,1.601944,-2.261566,-2.004211,,,,,,,
1523524441.679919,-0.704239,-0.056636,1.769926,0.091247,0.032489,0.189175,-0.646404,0.056606,-0.760870,-0.020145,-0.297847,-0.044718,1.453323,-2.036041,-2.155151,,,,,,,
1523524441.709887,-0.704087,-0.055436,1.776437,0.140140,-0.026003,0.179676,-0.646333,0.055407,-0.761019,-0.016936,-0.314731,-0.025236,1.381012,-2.035263,-1.705200,,,,,,,
1523524441.739856,-0.703257,-0.053625,1.783058,0.132040,0.039015,0.152973,-0.645764,0.053600,-0.761630,-0.042651,-0.305675,-0.023389,2.433517,-1.740082,-1.780823,,,,,,,
1523524441.769824,-0.702557,-0.052382,1.788360,0.107310,-0.019248,0.135965,-0.645273,0.052358,-0.762133,-0.025518,-0.313726,-0.035505,1.460815,-1.735336,-1.406372,,,,,,,
1523524441.799792,-0.703219,-0.052020,1.793777,0.098512,-0.026964,0.178588,-0.645790,0.051997,-0.761720,0.026344,-0.278269,0.017121,1.009491,-1.733521,-1.631592,,,,,,,
1523524441.829760,-0.702956,-0.050490,1.801122,0.190353,-0.012363,0.186096,-0.645641,0.050469,-0.761949,-0.009480,-0.276436,-0.032957,2.063187,-1.363251,-1.632568,,,,,,,
1523524441.859729,-0.703797,-0.048323,1.808621,0.178591,-0.037724,0.169070,-0.646351,0.048304,-0.761488,-0.014843,-0.300380,-0.001421,1.616776,-1.136032,-1.408691,,,,,,,
1523524441.889697,-0.703205,-0.045842,1.815435,0.122277,0.032514,0.175342,-0.645975,0.045826,-0.761959,0.013605,-0.251590,0.053921,0.716843,-1.356598,-1.033203,,,,,,,
1523524441.919665,-0.702005,-0.044529,1.821202,0.089105,0.009240,0.171086,-0.645099,0.044515,-0.762779,-0.017621,-0.271627,-0.037315,0.715652,-1.656311,-0.732056,,,,,,,
1523524441.949633,-0.702559,-0.043748,1.826807,0.091015,-0.030137,0.179648,-0.645543,0.043734,-0.762448,-0.039439,-0.302798,-0.055194,0.493347,-1.430222,-0.658020,,,,,,,
1523524441.979602,-0.702452,-0.043560,1.833556,0.136976,0.000404,0.199912,-0.645468,0.043546,-0.762523,-0.056544,-0.287977,-0.032353,-0.105423,-1.352463,-0.583618,,,,,,,
1523524442.009570,-0.702208,-0.041664,1.841481,0.197863,-0.004959,0.187166,-0.645334,0.041652,-0.762742,-0.025656,-0.285839,0.012346,0.643509,-1.505753,-0.507690,,,,,,,
1523524442.039538,-0.700483,-0.040312,1.848011,0.095983,0.081688,0.142245,-0.644052,0.040301,-0.763897,-0.027777,-0.288485,-0.015613,-0.180099,-1.726440,0.092773,,,,,,,
1523524442.069506,-0.697877,-0.040743,1.852595,0.107806,0.068030,0.115630,-0.642048,0.040731,-0.765560,-0.011470,-0.301214,-0.075642,-0.482635,-1.800385,-0.207031,,,,,,,
1523524442.099475,-0.694668,-0.040134,1.858251,0.149544,0.129280,0.152907,-0.639605,0.040124,-0.767635,0.012911,-0.295907,0.000865,0.794403,-1.730896,0.018311,,,,,,,
1523524442.129443,-0.690756,-0.037838,1.866477,0.236700,0.093695,0.196690,-0.636654,0.037829,-0.770200,0.000957,-0.259860,0.018812,-0.177399,-1.725998,0.542786,,,,,,,
1523524442.159405,-0.688554,-0.035434,1.874471,0.151185,0.046251,0.174295,-0.635012,0.035427,-0.771668,-0.033765,-0.288372,-0.011336,-0.401779,-1.799774,0.767944,,,,,,,
1523524442.189373,-0.687029,-0.034270,1.880013,0.097956,0.026498,0.129531,-0.633860,0.034263,-0.772667,-0.028554,-0.302177,-0.020378,0.046249,-1.727234,0.317871,,,,,,,
1523524442.219342,-0.685385,-0.032166,1.885396,0.171782,0.058243,0.124215,-0.632634,0.032160,-0.773762,-0.009288,-0.300974,-0.000331,-0.099701,-1.725906,0.992798,,,,,,,
1523524442.249310,-0.682034,-0.027690,1.892664,0.210417,0.138679,0.156131,-0.630121,0.027687,-0.775982,0.007471,-0.291969,0.011105,-0.327087,-1.875031,0.843323,,,,,,,
1523524442.279278,-0.679098,-0.024627,1.899756,0.161973,0.045320,0.151927,-0.627891,0.024625,-0.777891,-0.024911,-0.307492,-0.050295,0.124680,-1.652145,0.767639,,,,,,,
1523524442.309246,-0.679023,-0.023583,1.905724,0.093243,-0.011009,0.178566,-0.627848,0.023581,-0.777958,-0.021825,-0.315207,-0.054638,-0.402695,-2.024551,0.993835,,,,,,,
1523524442.339215,-0.678499,-0.025090,1.912280,0.088884,0.008940,0.213709,-0.627418,0.025088,-0.778258,-0.057000,-0.285677,-0.047517,-0.397430,-1.724197,1.367676,,,,,,,
1523524442.369183,-0.678083,-0.026206,1.918987,0.123135,-0.003726,0.188182,-0.627076,0.026203,-0.778497,-0.027938,-0.303623,-0.009009,0.276642,-1.727371,1.218018,,,,,,,
1523524442.399151,-0.676719,-0.025823,1.925503,0.149333,0.067777,0.136972,-0.626020,0.025820,-0.779359,-0.004870,-0.300859,-0.015151,-0.544128,-1.573227,1.666992,,,,,,,
1523524442.429120,-0.673926,-0.025959,1.930346,0.056598,0.106257,0.138987,-0.623838,0.025956,-0.781102,0.016813,-0.314805,-0.034938,-0.848450,-1.872086,1.443054,,,,,,,
1523524442.459088,-0.672216,-0.028336,1.935177,0.064422,0.001698,0.192400,-0.622462,0.028332,-0.782117,0.002421,-0.304318,-0.034182,-0.171234,-1.650131,1.442505,,,,,,,
1523524442.489056,-0.674214,-0.027785,1.942783,0.212281,-0.102876,0.204325,-0.624032,0.027781,-0.780884,0.024393,-0.289286,0.008759,-0.919418,-1.421844,1.366150,,,,,,,
1523524442.519024,-0.675218,-0.024664,1.951980,0.230768,-0.021109,0.207441,-0.624867,0.024662,-0.780321,-0.004924,-0.287876,0.011568,-0.763718,-1.346725,2.190979,,,,,,,
1523524442.548993,-0.675304,-0.022060,1.960444,0.164594,-0.023047,0.203138,-0.624973,0.022058,-0.780314,0.007083,-0.303644,-0.006963,-0.617615,-1.647537,2.042297,,,,,,,
1523524442.578961,-0.676302,-0.021653,1.967252,0.083390,-0.040876,0.198831,-0.625756,0.021651,-0.779697,-0.022361,-0.296645,-0.041897,-1.740463,-1.567245,2.266357,,,,,,,
1523524442.608960,-0.676265,-0.020993,1.973830,0.146718,0.014331,0.182842,-0.625737,0.020991,-0.779731,-0.018184,-0.309993,-0.031899,-1.510376,-1.417679,2.865845,,,,,,,
1523524442.638928,-0.674174,-0.018534,1.981093,0.155535,0.070645,0.179599,-0.624135,0.018533,-0.781076,-0.009487,-0.322580,-0.026159,-0.985550,-1.345200,2.715881,,,,,,,
1523524442.668896,-0.672390,-0.019306,1.987554,0.095618,0.054807,0.188085,-0.622731,0.019305,-0.782177,0.020574,-0.309787,0.007748,-1.505875,-1.192322,3.239990,,,,,,,
1523524442.698864,-0.670374,-0.019561,1.993936,0.119256,0.089771,0.192341,-0.621151,0.019559,-0.783427,0.034374,-0.277784,0.004588,-1.581024,-1.117142,3.089661,,,,,,,
1523524442.728833,-0.667114,-0.017594,2.001222,0.190801,0.069561,0.171097,-0.618616,0.017593,-0.785477,0.029581,-0.307007,-0.039337,-1.208740,-1.343887,3.015747,,,,,,,
1523524442.758801,-0.667088,-0.014880,2.009216,0.169002,-0.002797,0.193528,-0.618623,0.014879,-0.785527,0.027268,-0.274584,-0.001948,-2.103912,-1.039566,3.314087,,,,,,,
1523524442.788769,-0.665406,-0.013889,2.016037,0.099820,0.044113,0.194503,-0.617309,0.013889,-0.786578,0.005782,-0.297062,-0.037686,-2.031158,-1.264893,3.315002,,,,,,,
1523524442.818737,-0.664185,-0.012006,2.023065,0.187351,0.022760,0.178602,-0.616364,0.012006,-0.787350,0.010498,-0.323529,-0.029102,-1.577881,-0.892014,3.238708,,,,,,,
1523524442.848706,-0.662642,-0.008836,2.031661,0.203215,0.035196,0.218025,-0.615168,0.008836,-0.788327,0.036494,-0.300370,0.015072,-2.023071,-0.814331,3.913269,,,,,,,
1523524442.878674,-0.661883,-0.006999,2.040468,0.181530,-0.027512,0.227663,-0.614579,0.006999,-0.788804,0.002244,-0.292018,-0.043257,-2.173965,-0.813797,3.763123,,,,,,,
1523524442.908642,-0.663255,-0.004294,2.048840,0.193418,-0.050581,0.179744,-0.615670,0.004294,-0.787973,0.030083,-0.291785,0.013559,-1.499451,-0.592285,3.312561,,,,,,,
1523524442.938610,-0.662908,-0.001522,2.055793,0.158907,0.067671,0.146581,-0.615401,0.001522,-0.788193,0.039794,-0.261226,0.049210,-2.546844,-0.736893,3.987610,,,,,,,
1523524442.968579,-0.657950,0.002096,2.062047,0.119803,0.150680,0.142209,-0.611486,-0.002095,-0.791233,0.045186,-0.244059,-0.022853,-2.696091,-0.661224,3.987244,,,,,,,
1523524442.998547,-0.655088,0.003866,2.067124,0.058297,0.050701,0.178485,-0.609215,-0.003866,-0.792976,0.027199,-0.273401,-0.054543,-2.617813,-0.286652,3.910828,,,,,,,
1523524443.028515,-0.653631,0.004858,2.073732,0.146669,0.049121,0.222231,-0.608057,-0.004858,-0.793860,-0.012427,-0.257090,-0.089731,-2.914490,-0.135025,4.210083,,,,,,,
1523524443.058484,-0.650638,0.007264,2.082956,0.232392,0.115857,0.221164,-0.605669,-0.007264,-0.795664,-0.029402,-0.272277,-0.071844,-2.010788,0.235901,4.209045,,,,,,,
1523524443.088452,-0.645642,0.008836,2.091245,0.166838,0.208779,0.177331,-0.601679,-0.008836,-0.798671,0.023966,-0.245086,-0.020223,-2.085785,0.236237,4.208984,,,,,,,
1523524443.118420,-0.638829,0.009130,2.097736,0.137103,0.225930,0.164518,-0.596222,-0.009130,-0.802749,0.041108,-0.244700,-0.008911,-3.358185,0.317276,4.508057,,,,,,,
1523524443.148376,-0.635095,0.010782,2.105935,0.246993,0.034042,0.215926,-0.593211,-0.010782,-0.804957,0.034266,-0.272421,-0.010961,-2.983643,0.540131,4.057312,,,,,,,
1523524443.178346,-0.636742,0.012167,2.116275,0.207754,-0.089477,0.265043,-0.594527,-0.012167,-0.803966,-0.022386,-0.248728,-0.057759,-3.204285,0.616730,4.656921,,,,,,,
1523524443.208313,-0.639758,0.011430,2.124667,0.112941,-0.093158,0.219148,-0.596953,-0.011429,-0.802176,-0.042344,-0.293670,-0.074151,-3.724182,0.994293,4.880127,,,,,,,
1523524443.238281,-0.640965,0.012354,2.132131,0.172181,-0.002884,0.202071,-0.597915,-0.012354,-0.801447,-0.000642,-0.277182,0.003061,-2.598038,1.288925,4.579529,,,,,,,
1523524443.268250,-0.639608,0.014511,2.140483,0.210926,0.073523,0.205204,-0.596810,-0.014510,-0.802234,0.019356,-0.281739,-0.036633,-3.568802,1.668365,4.652527,,,,,,,
1523524443.298218,-0.638882,0.015193,2.149497,0.192151,-0.029735,0.237266,-0.596221,-0.015193,-0.802658,0.014892,-0.276922,-0.026458,-3.715210,1.894257,4.876526,,,,,,,
1523524443.328187,-0.640490,0.016277,2.159237,0.254191,-0.008605,0.233027,-0.597501,-0.016276,-0.801685,0.020826,-0.238134,-0.025128,-3.118683,1.816116,4.427124,,,,,,,
1523524443.358155,-0.637870,0.019242,2.169405,0.259207,0.131795,0.211580,-0.595367,-0.019241,-0.803206,-0.010056,-0.250718,-0.004442,-3.936600,2.120453,5.100525,,,,,,,
1523524443.388123,-0.637124,0.022593,2.177974,0.180532,-0.066511,0.181889,-0.594726,-0.022591,-0.803593,0.025070,-0.237449,-0.022121,-4.386124,2.122559,5.175293,,,,,,,
1523524443.418092,-0.638303,0.024615,2.185483,0.148622,0.003465,0.216948,-0.595645,-0.024612,-0.802853,0.007968,-0.268189,-0.008502,-4.309479,2.197372,5.325073,,,,,,,
1523524443.448060,-0.638563,0.026993,2.194955,0.256158,-0.045802,0.233066,-0.595816,-0.026990,-0.802649,-0.010003,-0.268954,0.015174,-4.681473,2.499039,5.323669,,,,,,,
1523524443.478028,-0.638863,0.030715,2.204813,0.211669,-0.016713,0.191452,-0.595993,-0.030710,-0.802384,-0.031082,-0.268591,-0.042816,-5.200607,2.951599,5.546570,,,,,,,
1523524443.507996,-0.640900,0.031536,2.210839,0.035148,-0.121303,0.167979,-0.597611,-0.031530,-0.801148,0.028687,-0.264597,-0.024429,-4.451538,2.948090,5.396973,,,,,,,
1523524443.537995,-0.644387,0.030828,2.216028,0.100312,-0.097159,0.185064,-0.600414,-0.030823,-0.799076,0.042141,-0.235321,-0.005321,-5.501938,2.728119,5.697327,,,,,,,
1523524443.567964,-0.647553,0.032939,2.223928,0.205771,-0.119887,0.208595,-0.602900,-0.032933,-0.797118,0.037501,-0.229289,0.008300,-5.724380,3.029037,5.620972,,,,,,,
1523524443.597932,-0.649603,0.035663,2.232689,0.158158,-0.016740,0.214849,-0.604477,-0.035656,-0.795806,0.010589,-0.220219,-0.033494,-5.274857,3.026932,5.546204,,,,,,,
1523524443.627900,-0.649847,0.035865,2.239135,0.073792,-0.060934,0.181806,-0.604666,-0.035857,-0.795653,-0.021402,-0.260377,-0.086504,-6.179169,2.506149,5.697876,,,,,,,
1523524443.657868,-0.650988,0.036417,2.245557,0.138185,0.020671,0.189232,-0.605562,-0.036409,-0.794946,0.032762,-0.236571,0.034830,-7.002319,2.734787,5.621521,,,,,,,
1523524443.687837,-0.649792,0.038619,2.253450,0.173126,-0.036817,0.193570,-0.604561,-0.038609,-0.795604,0.027122,-0.195812,0.065257,-6.402939,2.806870,5.396545,,,,,,,
1523524443.717805,-0.652833,0.041225,2.260617,0.126813,-0.162941,0.162766,-0.606914,-0.041213,-0.793679,-0.018803,-0.220109,-0.080008,-7.376404,2.511993,6.147278,,,,,,,
1523524443.747773,-0.658469,0.040756,2.265614,0.019781,-0.203177,0.179779,-0.611390,-0.040745,-0.790261,-0.026855,-0.238079,-0.127433,-7.156494,2.135773,5.923828,,,,,,,
1523524443.777740,-0.662683,0.040150,2.271610,0.153856,-0.056919,0.187187,-0.614729,-0.040139,-0.787697,0.029417,-0.219046,-0.001442,-6.631393,2.507812,5.322632,,,,,,,
1523524443.807710,-0.660990,0.042576,2.279499,0.196282,0.107740,0.178529,-0.613333,-0.042563,-0.788657,0.032462,-0.202402,0.031119,-7.678802,2.363205,5.997681,,,,,,,
1523524443.837677,-0.657343,0.043790,2.286746,0.100912,0.051557,0.194489,-0.610420,-0.043776,-0.790848,-0.009376,-0.186357,-0.025925,-7.755005,2.513092,5.547058,,,,,,,
1523524443.867646,-0.659298,0.041560,2.292498,0.056562,-0.077992,0.195663,-0.612024,-0.041548,-0.789728,-0.032920,-0.214663,-0.078833,-7.228378,2.585876,5.697021,,,,,,,
1523524443.897614,-0.660612,0.041040,2.299093,0.114417,-0.028234,0.200986,-0.613074,-0.041029,-0.788940,-0.004602,-0.202929,-0.004471,-8.204514,2.739822,5.245911,,,,,,,
1523524443.927583,-0.660056,0.041576,2.305880,0.128729,0.063160,0.195571,-0.612622,-0.041564,-0.789263,0.041593,-0.172227,0.061495,-8.280411,2.515381,5.471741,,,,,,,
1523524443.957551,-0.657210,0.043314,2.312870,0.140621,0.079176,0.180645,-0.610328,-0.043301,-0.790945,0.011497,-0.168430,0.021109,-8.278915,2.665375,5.471130,,,,,,,
1523524443.987519,-0.655315,0.045058,2.319108,0.103556,0.114517,0.153948,-0.608781,-0.045043,-0.792040,0.010774,-0.187242,-0.031462,-8.651947,2.592514,5.921265,,,,,,,
1523524444.017487,-0.644557,0.045607,2.323590,0.035896,0.479264,0.137555,-0.600210,-0.045591,-0.798523,-0.021433,-0.189608,-0.077377,-8.878601,2.743011,5.395569,,,,,,,
1523524444.047456,-0.634155,0.044615,2.327286,-0.007012,0.227389,0.160141,-0.591899,-0.044600,-0.804760,0.005382,-0.150560,-0.049702,-8.576065,3.266174,4.943665,,,,,,,
1523524444.077424,-0.630980,0.044351,2.332177,0.090545,0.098423,0.179533,-0.589348,-0.044336,-0.806644,0.038796,-0.157263,-0.023266,-9.255829,2.744339,5.020386,,,,,,,
,,,,,,,,,,,,,,,,25.315071,51.421499,22.935875,10.730000,249.609375,1523524443.998897,
1523524444.107392,-0.623839,0.045348,2.339081,0.144790,0.307522,0.194277,-0.583547,-0.045332,-0.810796,0.019521,-0.144151,-0.009165,-9.476486,3.045532,5.244080,,,,,,,
1523524444.137360,-0.617370,0.046038,2.345578,0.094990,0.120837,0.164592,-0.578271,-0.046022,-0.814529,0.019067,-0.126738,-0.037247,-8.881470,3.042038,4.419373,,,,,,,
1523524444.167329,-0.617328,0.046220,2.350473,0.043030,-0.044771,0.159398,-0.578232,-0.046204,-0.814546,0.033387,-0.121582,-0.001265,-9.477539,3.120239,4.943787,,,,,,,
1523524444.197297,-0.617957,0.046380,2.355122,0.078508,-0.004375,0.145525,-0.578740,-0.046364,-0.814176,0.037221,-0.122414,-0.011919,-10.157288,2.822998,4.644653,,,,,,,
1523524444.227265,-0.617700,0.048090,2.360877,0.129517,-0.032289,0.167969,-0.578484,-0.048072,-0.814259,0.034158,-0.126000,-0.005718,-10.455933,2.824570,4.869446,,,,,,,
1523524444.257234,-0.617524,0.049613,2.367721,0.123140,0.017434,0.203068,-0.578298,-0.049593,-0.814300,0.012075,-0.124007,0.002975,-10.378845,2.899445,5.094177,,,,,,,
1523524444.287202,-0.617550,0.050263,2.374873,0.102422,-0.065509,0.216999,-0.578300,-0.050242,-0.814258,-0.012260,-0.121832,-0.060894,-9.700851,2.971771,5.469238,,,,,,,
1523524444.317170,-0.620985,0.049899,2.381054,0.065959,-0.135301,0.183995,-0.581104,-0.049878,-0.812282,-0.026638,-0.146030,-0.063099,-10.380798,2.974014,4.643921,,,,,,,
1523524444.347138,-0.622937,0.050120,2.386665,0.112591,-0.016197,0.151959,-0.582682,-0.050099,-0.811137,-0.012045,-0.124095,-0.023228,-11.357864,2.678558,4.794556,,,,,,,
1523524444.377107,-0.624500,0.051658,2.392571,0.147638,-0.068258,0.140306,-0.583904,-0.051635,-0.810162,0.002819,-0.113694,-0.030308,-11.437195,2.154053,4.946655,,,,,,,
1523524444.407075,-0.626627,0.053269,2.398675,0.121907,-0.077851,0.153086,-0.585576,-0.053244,-0.808850,0.006001,-0.111444,-0.007465,-10.382141,2.299911,5.546570,,,,,,,
1523524444.437043,-0.629035,0.054774,2.404928,0.163581,-0.074761,0.150990,-0.587474,-0.054747,-0.807371,0.013240,-0.110506,-0.010622,-11.365189,1.853745,4.947876,,,,,,,
1523524444.467011,-0.627816,0.056866,2.411280,0.134604,0.126185,0.146496,-0.586421,-0.056835,-0.807992,0.013667,-0.114200,-0.025855,-11.140930,1.777725,4.948303,,,,,,,
