timestamp(unix),attitude_roll(radians),attitude_pitch(radians),attitude_yaw(radians),rotation_rate_x(radians/s),rotation_rate_y(radians/s),rotation_rate_z(radians/s),gravity_x(G),gravity_y(G),gravity_z(G),user_acc_x(G),user_acc_y(G),user_acc_z(G),magnetic_field_x(microteslas),magnetic_field_y(microteslas),magnetic_field_z(microteslas),latitude(degree),longitude(degree),altitude(meter),speed(m/s),course(degree),timestamp(unix),User Mark
1523521491.792287,-0.735623,-0.085866,-0.095481,-0.452982,0.202341,-0.267785,-0.668576,0.085761,-0.738681,0.108090,0.263940,-0.121274,19.427216,2.547371,-27.492859,,,,,,,
,,,,,,,,,,,,,,,,25.312976,51.452122,8.857632,18.340000,329.414062,1523521417.999398,
,,,,,,,,,,,,,,,,25.312976,51.452122,8.857632,18.340000,329.414062,1523521425.999398,
1523521491.822256,-0.733612,-0.089776,-0.108604,-0.299075,0.005352,-0.264275,-0.666860,0.089656,-0.739769,0.113027,0.254826,-0.088280,18.831589,2.850288,-27.269409,,,,,,,
1523521491.852224,-0.734488,-0.091995,-0.120623,-0.357446,0.053532,-0.293149,-0.667373,0.091866,-0.739035,0.093810,0.258415,-0.038232,19.728699,2.920647,-27.869202,,,,,,,
1523521491.882162,-0.729497,-0.098044,-0.137438,-0.605345,0.287682,-0.258411,-0.663294,0.097887,-0.741929,0.111429,0.211333,-0.109832,19.729294,3.070488,-28.019836,,,,,,,
1523521491.912130,-0.725543,-0.106515,-0.153061,-0.462550,0.052127,-0.205860,-0.659781,0.106313,-0.743899,0.111380,0.273386,-0.174604,20.116394,4.193901,-27.874084,,,,,,,
,,,,,,,,,,,,,,,,25.319222,51.448061,8.857632,-1.000000,-1.000000,1523521491.889471,
1523521491.942098,-0.726965,-0.110134,-0.165196,-0.295054,0.009259,-0.215271,-0.660578,0.109911,-0.742668,0.096262,0.235288,-0.079964,19.509979,3.596550,-27.947021,,,,,,,
,,,,,,,,,,,,,,,,25.319222,51.448060,8.857632,-1.000000,-1.000000,1523521491.900147,
1523521491.972066,-0.727794,-0.109723,-0.174117,-0.132613,-0.012076,-0.262006,-0.661224,0.109503,-0.742153,0.130966,0.246545,-0.069279,19.440674,4.121941,-27.874146,,,,,,,
1523521492.002035,-0.726561,-0.108445,-0.183737,-0.233239,0.161438,-0.268659,-0.660400,0.108232,-0.743072,0.094925,0.197890,-0.055115,20.118942,4.493797,-27.950317,,,,,,,
1523521492.032003,-0.722880,-0.110927,-0.195772,-0.402241,0.135029,-0.231462,-0.657481,0.110699,-0.745295,0.085291,0.192523,-0.142126,19.673309,4.796043,-27.726746,,,,,,,
1523521492.061971,-0.721804,-0.117540,-0.210916,-0.543314,0.069684,-0.259197,-0.656181,0.117270,-0.745435,0.065681,0.246546,-0.095095,19.452499,5.172112,-27.653381,,,,,,,
1523521492.091939,-0.722304,-0.122371,-0.227602,-0.404204,0.033842,-0.349626,-0.656171,0.122066,-0.744674,0.087949,0.274540,-0.063004,20.360077,5.843163,-27.505554,,,,,,,
1523521492.121908,-0.724770,-0.120639,-0.241725,-0.214230,-0.057537,-0.416529,-0.658145,0.120347,-0.743210,0.037600,0.274490,-0.066070,19.534683,5.846809,-27.580994,,,,,,,
1523521492.151876,-0.728687,-0.118511,-0.255416,-0.313887,-0.085251,-0.369687,-0.661219,0.118234,-0.740816,0.052699,0.239676,-0.035063,19.686020,5.846352,-27.355957,,,,,,,
1523521492.181844,-0.732676,-0.120922,-0.271483,-0.487879,-0.041443,-0.341099,-0.663977,0.120628,-0.737958,0.040442,0.260079,0.037275,19.318222,6.523079,-27.283813,,,,,,,
1523521492.211812,-0.733523,-0.126003,-0.289982,-0.541699,0.103150,-0.334881,-0.664183,0.125670,-0.736931,0.024809,0.236101,-0.009117,19.247421,6.898476,-27.210327,,,,,,,
1523521492.241750,-0.731769,-0.132109,-0.306503,-0.480260,0.106614,-0.242152,-0.662364,0.131726,-0.737510,0.007167,0.215275,-0.080941,19.480042,7.797188,-27.438843,,,,,,,
1523521492.271718,-0.732339,-0.137849,-0.320324,-0.426455,0.004236,-0.207917,-0.662268,0.137413,-0.736558,0.010656,0.250145,-0.042342,19.785706,8.320885,-27.365784,,,,,,,
1523521492.301687,-0.734844,-0.141303,-0.332428,-0.287575,-0.039318,-0.259976,-0.663789,0.140833,-0.734540,0.046327,0.263388,0.009320,19.484970,8.471870,-27.741577,,,,,,,
1523521492.331655,-0.737432,-0.139438,-0.341722,-0.060061,-0.066188,-0.299191,-0.665863,0.138987,-0.733013,0.057617,0.271887,-0.010257,19.040070,8.849098,-27.518250,,,,,,,
1523521492.361623,-0.741566,-0.133808,-0.349257,-0.061221,-0.096905,-0.310894,-0.669405,0.133409,-0.730820,0.042498,0.252440,-0.012451,19.271378,9.073723,-26.844055,,,,,,,
1523521492.391591,-0.744673,-0.131307,-0.359389,-0.233929,-0.035949,-0.305751,-0.671896,0.130930,-0.728980,0.046347,0.238149,-0.000818,18.966431,8.849648,-27.293335,,,,,,,
1523521492.421560,-0.745539,-0.133353,-0.372650,-0.379858,0.060973,-0.286773,-0.672345,0.132958,-0.728199,0.050259,0.274589,0.004230,18.897598,9.150490,-26.769531,,,,,,,
1523521492.451528,-0.746018,-0.136751,-0.386787,-0.378826,0.073592,-0.268669,-0.672383,0.136325,-0.727541,0.035847,0.270001,-0.002302,18.379196,9.902657,-26.922791,,,,,,,
1523521492.481496,-0.744491,-0.139598,-0.399373,-0.292293,0.109343,-0.246260,-0.671006,0.139145,-0.728278,0.045670,0.259353,-0.052972,18.759720,10.276253,-26.624146,,,,,,,
1523521492.511465,-0.744827,-0.139939,-0.409858,-0.190181,-0.017119,-0.281217,-0.671218,0.139483,-0.728018,0.026565,0.284132,-0.002985,19.364777,10.873375,-26.776184,,,,,,,
1523521492.541426,-0.747008,-0.138147,-0.420143,-0.186854,-0.012708,-0.303605,-0.672973,0.137708,-0.726735,0.054687,0.254565,0.014012,18.770187,11.326195,-26.628296,,,,,,,
1523521492.571364,-0.747459,-0.137886,-0.431000,-0.253039,0.022294,-0.272778,-0.673325,0.137449,-0.726458,0.058213,0.250734,-0.036436,17.948975,11.704887,-26.630249,,,,,,,
1523521492.601332,-0.749157,-0.139124,-0.443082,-0.323553,-0.008228,-0.289847,-0.674441,0.138676,-0.725188,0.040164,0.270702,-0.016832,18.326797,11.853416,-26.405640,,,,,,,
1523521492.631300,-0.750129,-0.141680,-0.456543,-0.394744,0.074825,-0.286799,-0.674902,0.141207,-0.724270,0.045508,0.301969,-0.031528,17.956299,12.305077,-26.407593,,,,,,,
1523521492.661268,-0.748367,-0.145479,-0.470363,-0.387136,0.151016,-0.245309,-0.673255,0.144967,-0.725060,0.044806,0.311271,-0.067191,18.037888,12.829933,-26.184692,,,,,,,
1523521492.691237,-0.745558,-0.149586,-0.483091,-0.390622,0.134800,-0.204804,-0.670806,0.149029,-0.726505,0.044952,0.277943,-0.122571,18.496399,13.503166,-25.887146,,,,,,,
1523521492.721205,-0.745806,-0.151207,-0.494686,-0.195412,-0.021182,-0.305726,-0.670822,0.150632,-0.726160,0.038086,0.318362,-0.069540,17.448547,13.583107,-25.662964,,,,,,,
1523521492.751173,-0.751992,-0.144546,-0.500894,0.176983,-0.262529,-0.266847,-0.675971,0.144043,-0.722714,0.090217,0.345154,0.032543,17.597336,13.507362,-25.737610,,,,,,,
1523521492.781141,-0.760064,-0.130099,-0.502306,0.320126,-0.253971,-0.477721,-0.683146,0.129732,-0.718666,0.126749,0.381696,0.054909,17.976379,13.730965,-25.438354,,,,,,,
1523521492.811110,-0.763873,-0.120277,-0.510693,-0.196131,0.054283,-0.307935,-0.686726,0.119987,-0.716945,0.091313,0.279610,-0.042638,17.677444,13.657600,-25.138184,,,,,,,
1523521492.841078,-0.758861,-0.125630,-0.524721,-0.557261,0.325586,-0.228560,-0.682673,0.125300,-0.719901,0.040049,0.326879,-0.080590,17.081375,13.960442,-24.989685,,,,,,,
1523521492.871046,-0.752102,-0.133689,-0.542009,-0.534368,0.181062,-0.236912,-0.677079,0.133291,-0.723738,0.077561,0.315699,-0.098817,17.087494,14.710182,-25.217712,,,,,,,
1523521492.900984,-0.753719,-0.137123,-0.555515,-0.255487,-0.060476,-0.286557,-0.677932,0.136693,-0.722304,0.072585,0.342494,-0.066728,16.946930,15.610878,-25.146362,,,,,,,
1523521492.930952,-0.758478,-0.132615,-0.564565,-0.002470,-0.137185,-0.348090,-0.681778,0.132227,-0.719510,0.074112,0.340170,0.000119,16.875977,15.836494,-24.847351,,,,,,,
1523521492.960920,-0.761811,-0.125541,-0.575010,-0.176455,0.053754,-0.393150,-0.684801,0.125211,-0.717892,0.066423,0.232775,0.024594,17.333298,16.434669,-24.624451,,,,,,,
1523521492.990889,-0.759298,-0.126297,-0.587348,-0.369348,0.082876,-0.233501,-0.682929,0.125961,-0.719543,0.048560,0.257339,-0.109940,17.111908,16.660881,-24.400513,,,,,,,
1523521493.020857,-0.760609,-0.131423,-0.603282,-0.633805,0.058627,-0.317854,-0.683418,0.131045,-0.718169,-0.004967,0.285123,0.002578,16.743347,17.262627,-24.328064,,,,,,,
1523521493.050825,-0.756554,-0.142307,-0.625935,-0.824976,0.335047,-0.271385,-0.679481,0.141827,-0.719854,0.069038,0.255481,-0.047357,17.423553,17.784554,-24.329834,,,,,,,
1523521493.080793,-0.750663,-0.153203,-0.645939,-0.585676,0.195894,-0.212457,-0.674134,0.152605,-0.722672,0.041611,0.265776,-0.208663,16.681381,18.388191,-24.032593,,,,,,,
1523521493.110762,-0.755194,-0.155366,-0.658012,-0.177117,-0.261161,-0.336372,-0.677174,0.154742,-0.719368,0.045414,0.354230,-0.061226,16.908173,18.612099,-24.108398,,,,,,,
1523521493.140730,-0.764548,-0.146948,-0.667719,0.102407,-0.232203,-0.474705,-0.684750,0.146420,-0.713917,0.092007,0.332126,0.108067,17.141098,19.136497,-23.660400,,,,,,,
1523521493.170698,-0.771732,-0.132224,-0.673848,0.166990,-0.151425,-0.502431,-0.691290,0.131839,-0.710448,0.092230,0.282346,0.057494,15.785904,19.066841,-24.410767,,,,,,,
1523521493.200667,-0.768000,-0.128611,-0.686320,-0.479249,0.338140,-0.229572,-0.688960,0.128257,-0.713361,0.044582,0.204095,-0.155353,16.014938,19.291115,-24.111572,,,,,,,
1523521493.230635,-0.767740,-0.139653,-0.702921,-0.675676,-0.074011,-0.180286,-0.687750,0.139200,-0.712477,0.004263,0.304663,-0.071428,16.701584,20.413094,-24.040710,,,,,,,
1523521493.260573,-0.770426,-0.148080,-0.721547,-0.545394,0.075011,-0.262390,-0.688819,0.147539,-0.709761,0.096946,0.303068,0.034910,16.105667,20.641075,-23.741943,,,,,,,
1523521493.290541,-0.770998,-0.149259,-0.734548,-0.154641,-0.014700,-0.336595,-0.689104,0.148706,-0.709241,0.062684,0.309378,-0.015872,15.958954,20.792030,-23.442566,,,,,,,
1523521493.320509,-0.772390,-0.143713,-0.743135,-0.063933,-0.024490,-0.336517,-0.690655,0.143219,-0.708861,0.030392,0.289276,-0.040193,16.337540,21.240181,-23.594177,,,,,,,
1523521493.350477,-0.773149,-0.141243,-0.753778,-0.300637,0.107489,-0.283548,-0.691438,0.140774,-0.708588,0.069276,0.229984,-0.012024,15.815704,21.467674,-23.445312,,,,,,,
1523521493.380446,-0.772218,-0.143349,-0.765996,-0.305468,0.007439,-0.260000,-0.690569,0.142859,-0.709017,0.050723,0.279657,-0.096113,15.592361,21.543831,-23.295776,,,,,,,
1523521493.410414,-0.773707,-0.144486,-0.779587,-0.405070,0.095306,-0.329421,-0.691510,0.143984,-0.707872,0.007413,0.275770,-0.020064,15.520966,21.769371,-23.071655,,,,,,,
1523521493.440382,-0.770045,-0.148277,-0.798949,-0.594231,0.239569,-0.376598,-0.688528,0.147734,-0.710002,0.005103,0.257768,-0.135777,15.003036,22.297005,-22.774048,,,,,,,
1523521493.470350,-0.769256,-0.152896,-0.815244,-0.345279,-0.020337,-0.224838,-0.687486,0.152300,-0.710047,0.078035,0.305509,-0.204138,15.457794,22.595253,-22.475037,,,,,,,
1523521493.500319,-0.776033,-0.151619,-0.824640,-0.121365,-0.202955,-0.325713,-0.692418,0.151039,-0.705510,0.084920,0.371590,0.047429,15.913452,23.118279,-22.401917,,,,,,,
1523521493.530293,-0.782434,-0.143779,-0.832224,0.139654,-0.175474,-0.397998,-0.697733,0.143284,-0.701882,0.122355,0.330105,0.134362,15.011124,22.747566,-22.175903,,,,,,,
1523521493.560261,-0.789173,-0.129474,-0.836527,0.199948,-0.131635,-0.457671,-0.703830,0.129112,-0.698536,0.151188,0.289879,0.109333,14.562469,22.974434,-22.326965,,,,,,,
1523521493.590229,-0.781650,-0.124876,-0.848116,-0.467691,0.496641,-0.259549,-0.698966,0.124551,-0.704225,0.031532,0.189612,-0.246245,15.163956,22.897102,-21.951355,,,,,,,
1523521493.620167,-0.778696,-0.137436,-0.866795,-0.827131,-0.026964,-0.168723,-0.695729,0.137003,-0.705118,0.004460,0.351354,-0.199316,14.272400,23.651268,-21.804871,,,,,,,
1523521493.650135,-0.782474,-0.148672,-0.888460,-0.665036,0.042442,-0.275218,-0.697259,0.148125,-0.701348,0.122933,0.365410,-0.034583,14.275543,23.876396,-21.655762,,,,,,,
1523521493.680104,-0.786037,-0.149696,-0.903212,-0.153937,-0.128249,-0.360971,-0.699645,0.149137,-0.698752,0.114913,0.370226,-0.040109,14.434799,24.625984,-21.358704,,,,,,,
1523521493.710072,-0.790502,-0.142042,-0.911881,-0.014660,-0.065631,-0.399291,-0.703549,0.141565,-0.696404,0.051770,0.327139,-0.004249,13.757584,24.404030,-21.358154,,,,,,,
1523521493.740040,-0.790494,-0.138191,-0.923291,-0.334407,0.158755,-0.311314,-0.703926,0.137752,-0.696787,0.078865,0.253422,-0.024846,13.086639,24.856972,-21.435303,,,,,,,
1523521493.770008,-0.785723,-0.143624,-0.938981,-0.579148,0.232985,-0.201827,-0.700054,0.143130,-0.699599,0.041087,0.236035,-0.152192,14.294708,25.302132,-20.836426,,,,,,,
1523521493.799977,-0.783633,-0.151628,-0.957673,-0.647399,0.127603,-0.305114,-0.697759,0.151048,-0.700226,0.014242,0.267425,-0.067306,13.470169,25.305916,-20.761902,,,,,,,
1523521493.829945,-0.782521,-0.156582,-0.977660,-0.554748,0.178157,-0.423381,-0.696444,0.155943,-0.700463,0.028475,0.348055,-0.051796,13.703552,26.279640,-20.990662,,,,,,,
1523521493.859913,-0.782347,-0.157641,-0.994415,-0.301020,0.004455,-0.293010,-0.696205,0.156989,-0.700466,0.084526,0.264001,-0.165653,14.086334,26.653587,-20.316956,,,,,,,
1523521493.889882,-0.786769,-0.157479,-1.003883,-0.251396,-0.091455,-0.270506,-0.699314,0.156829,-0.697399,0.075794,0.354798,0.028026,12.513504,26.735893,-20.093079,,,,,,,
1523521493.919850,-0.788444,-0.156401,-1.015803,-0.164315,-0.010575,-0.317414,-0.700600,0.155764,-0.696345,0.139199,0.266935,0.058146,12.363800,26.811485,-20.168457,,,,,,,
1523521493.949788,-0.795053,-0.146133,-1.023369,0.157016,-0.231154,-0.497013,-0.706291,0.145613,-0.692784,0.126702,0.295290,0.092579,12.438660,26.661385,-19.942810,,,,,,,
1523521493.979756,-0.794025,-0.138314,-1.033713,-0.277949,0.284478,-0.380649,-0.706370,0.137873,-0.694286,0.036768,0.245992,-0.112111,12.142426,26.813087,-19.568604,,,,,,,
1523521494.009724,-0.791334,-0.146030,-1.052506,-0.818978,0.058345,-0.218856,-0.703721,0.145512,-0.695416,0.029786,0.365902,-0.167636,12.520386,27.336006,-19.945496,,,,,,,
1523521494.039692,-0.792387,-0.157907,-1.075405,-0.742579,0.140298,-0.263641,-0.703173,0.157252,-0.693412,0.099901,0.366033,-0.009835,12.001694,27.564018,-19.271667,,,,,,,
1523521494.069661,-0.792170,-0.161398,-1.091346,-0.240774,0.067229,-0.326059,-0.702627,0.160698,-0.693175,0.126989,0.389183,0.003554,11.554703,27.866020,-19.273071,,,,,,,
1523521494.099629,-0.791632,-0.154662,-1.100033,0.003851,0.052015,-0.364223,-0.703008,0.154046,-0.694297,0.049017,0.301231,-0.054344,12.159210,28.088676,-18.898682,,,,,,,
1523521494.129597,-0.789437,-0.150990,-1.109472,-0.307520,0.226532,-0.288981,-0.701879,0.150417,-0.696233,0.052877,0.211781,-0.046733,11.190384,28.393562,-18.375366,,,,,,,
1523521494.159565,-0.783086,-0.156845,-1.124984,-0.587665,0.255202,-0.185866,-0.696810,0.156203,-0.700040,0.040026,0.229600,-0.201663,11.789322,28.240944,-18.299438,,,,,,,
1523521494.189534,-0.783609,-0.163618,-1.140713,-0.429592,-0.072941,-0.272780,-0.696414,0.162889,-0.698910,0.071277,0.296508,-0.126682,11.268082,28.393669,-17.925293,,,,,,,
1523521494.219502,-0.788798,-0.162644,-1.154465,-0.266279,-0.007540,-0.413376,-0.700143,0.161928,-0.695398,0.072427,0.377501,0.058024,11.266281,28.168739,-17.849426,,,,,,,
1523521494.249470,-0.784953,-0.160994,-1.173635,-0.498669,0.349829,-0.378744,-0.697652,0.160300,-0.698273,0.061055,0.160638,-0.124984,10.821259,28.396202,-17.400574,,,,,,,
1523521494.279438,-0.781398,-0.167299,-1.187621,-0.423806,-0.023060,-0.113006,-0.694439,0.166520,-0.700018,0.096569,0.280807,-0.302790,10.973663,28.545662,-17.251099,,,,,,,
1523521494.309376,-0.787406,-0.171888,-1.202653,-0.441559,-0.135548,-0.282308,-0.698084,0.171043,-0.695286,0.060038,0.254784,0.027729,10.301987,28.698982,-16.952026,,,,,,,
1523521494.339344,-0.796724,-0.167698,-1.212762,0.078608,-0.318199,-0.482065,-0.705039,0.166913,-0.689246,0.195990,0.372073,0.145240,9.477310,28.777626,-17.027771,,,,,,,
1523521494.369313,-0.802986,-0.152116,-1.220683,0.088123,0.089010,-0.519752,-0.711126,0.151530,-0.686541,0.104131,0.229085,0.107012,9.629562,28.777306,-16.652710,,,,,,,
1523521494.399281,-0.795033,-0.150104,-1.234557,-0.614387,0.328435,-0.318071,-0.705859,0.149541,-0.692387,0.027881,0.291576,-0.222103,8.734558,28.782158,-15.828186,,,,,,,
1523521494.429249,-0.794728,-0.163196,-1.257614,-0.865306,0.007187,-0.181540,-0.704190,0.162473,-0.691171,0.096692,0.355685,-0.144507,8.740845,29.232430,-15.529968,,,,,,,
1523521494.459217,-0.799867,-0.170627,-1.276421,-0.429171,-0.058689,-0.337777,-0.706847,0.169800,-0.686683,0.115905,0.389984,0.042183,9.269119,29.604973,-15.606140,,,,,,,
1523521494.489186,-0.803030,-0.164278,-1.287038,0.094445,-0.081515,-0.448194,-0.709777,0.163540,-0.685179,0.087204,0.390537,0.015547,7.922455,29.536705,-14.931580,,,,,,,
1523521494.519154,-0.807264,-0.152030,-1.293759,0.050614,-0.056162,-0.413080,-0.714065,0.151445,-0.683502,0.106613,0.289763,0.053115,7.246460,29.389824,-14.856323,,,,,,,
1523521494.549124,-0.806098,-0.148269,-1.304688,-0.352413,0.198034,-0.301764,-0.713674,0.147727,-0.684723,0.089178,0.306344,-0.007629,7.622482,29.538063,-14.931702,,,,,,,
1523521494.579093,-0.801850,-0.154151,-1.322416,-0.621601,0.209085,-0.266813,-0.710122,0.153542,-0.687133,0.063699,0.293877,-0.116029,6.504425,29.918617,-14.408813,,,,,,,
1523521494.609061,-0.800722,-0.158622,-1.341017,-0.399687,0.055120,-0.364505,-0.708847,0.157957,-0.687449,0.063003,0.299303,-0.141882,6.658768,29.993523,-13.809021,,,,,,,
1523521494.639030,-0.802058,-0.153929,-1.356165,-0.227863,0.065546,-0.547663,-0.710289,0.153322,-0.687009,-0.027076,0.386992,-0.079837,7.107101,29.916359,-13.958496,,,,,,,
1523521494.668967,-0.802073,-0.151162,-1.370077,-0.286270,0.003078,-0.254632,-0.710602,0.150587,-0.687290,0.088898,0.303057,-0.190045,5.839508,30.297661,-13.360657,,,,,,,
1523521494.698936,-0.807875,-0.152603,-1.381536,-0.361725,-0.132891,-0.234305,-0.714420,0.152012,-0.683005,0.113880,0.301892,0.037894,5.315277,30.150383,-12.985291,,,,,,,
1523521494.728903,-0.808606,-0.155262,-1.394690,-0.330223,0.151153,-0.294226,-0.714624,0.154639,-0.682201,0.162409,0.277780,0.157741,5.620682,30.374535,-12.461060,,,,,,,
1523521494.758873,-0.802821,-0.150436,-1.407586,-0.153652,0.340699,-0.413628,-0.711194,0.149870,-0.686834,0.059095,0.185824,-0.072077,4.718613,30.303368,-12.686218,,,,,,,
1523521494.788840,-0.795857,-0.148264,-1.418545,-0.316309,0.160677,-0.293162,-0.706625,0.147722,-0.691996,0.019262,0.308424,-0.217138,4.874146,30.902596,-12.763550,,,,,,,
1523521494.818808,-0.798538,-0.152863,-1.435348,-0.607904,-0.051435,-0.248412,-0.707983,0.152268,-0.689618,0.117514,0.323562,-0.092074,5.030579,31.277336,-12.314941,,,,,,,
1523521494.848776,-0.804832,-0.156552,-1.452555,-0.378999,-0.152837,-0.416491,-0.711900,0.155913,-0.684754,0.132203,0.393403,0.071076,4.056686,30.982399,-11.639282,,,,,,,
1523521494.878745,-0.809362,-0.151264,-1.466156,-0.124057,0.013479,-0.433519,-0.715582,0.150687,-0.682082,0.111013,0.360421,0.060835,3.455978,30.685478,-11.263367,,,,,,,
1523521494.908713,-0.809243,-0.145735,-1.477883,-0.246846,0.103531,-0.352714,-0.716092,0.145220,-0.682732,0.069120,0.273131,-0.035332,4.208496,30.757393,-10.963318,,,,,,,
1523521494.938681,-0.807065,-0.146891,-1.490748,-0.389230,0.108680,-0.277182,-0.714482,0.146363,-0.684173,0.052647,0.310546,-0.057114,3.235489,30.687218,-10.513489,,,,,,,
1523521494.968649,-0.806689,-0.147829,-1.505188,-0.288613,0.076023,-0.353790,-0.714126,0.147291,-0.684346,0.056777,0.287462,-0.012828,3.091187,30.988319,-10.064758,,,,,,,
1523521494.998618,-0.806916,-0.144770,-1.516227,-0.145837,0.027729,-0.337645,-0.714602,0.144265,-0.684493,0.086780,0.323020,-0.018754,2.342422,31.066765,-9.990479,,,,,,,
1523521495.028555,-0.806439,-0.142350,-1.526561,-0.247085,0.105343,-0.306904,-0.714526,0.141870,-0.685073,0.075839,0.328345,-0.029145,2.118057,30.768379,-9.389404,,,,,,,
1523521495.058524,-0.804352,-0.142979,-1.540656,-0.411495,0.118397,-0.294239,-0.713030,0.142492,-0.686501,0.043276,0.277338,-0.085777,2.871445,31.289680,-9.691101,,,,,,,
1523521495.088492,-0.804771,-0.144572,-1.555010,-0.346566,0.058854,-0.310124,-0.713153,0.144069,-0.686044,0.058750,0.282337,-0.083717,2.199188,31.068535,-8.865540,,,,,,,
1523521495.118460,-0.804426,-0.144312,-1.569395,-0.325236,0.014385,-0.342021,-0.712944,0.143812,-0.686315,0.015480,0.265932,-0.084528,0.778748,31.300301,-8.492188,,,,,,,
1523521495.148428,-0.809463,-0.143487,-1.583459,-0.339451,-0.086373,-0.364305,-0.716477,0.142995,-0.682798,0.084214,0.291133,0.063779,1.079788,31.224236,-8.191711,,,,,,,
1523521495.178397,-0.809283,-0.144003,-1.599750,-0.433379,0.175179,-0.350796,-0.716301,0.143505,-0.682875,0.058159,0.273945,0.025542,0.257095,31.228325,-7.817139,,,,,,,
1523521495.208365,-0.807308,-0.145694,-1.615987,-0.401739,0.111210,-0.331530,-0.714775,0.145179,-0.684120,0.023338,0.301675,-0.053093,0.260529,31.528374,-7.743347,,,,,,,
1523521495.238333,-0.806682,-0.146029,-1.630741,-0.325018,0.086502,-0.321850,-0.714311,0.145510,-0.684534,0.027040,0.311353,-0.064490,-0.190643,31.455330,-7.818298,,,,,,,
1523521495.268301,-0.808488,-0.143892,-1.643359,-0.211356,-0.072976,-0.349311,-0.715769,0.143396,-0.683456,0.051814,0.367209,-0.021821,-0.485535,31.607262,-7.219055,,,,,,,
1523521495.298270,-0.810711,-0.140550,-1.655870,-0.235360,0.048217,-0.349447,-0.717630,0.140087,-0.682189,0.061548,0.335041,0.005553,-0.712631,31.308434,-7.067932,,,,,,,
1523521495.328238,-0.810453,-0.138806,-1.668953,-0.303602,0.086517,-0.332484,-0.717630,0.138361,-0.682542,0.057703,0.307501,0.010911,-0.561264,31.307976,-6.842896,,,,,,,
1523521495.358207,-0.808221,-0.138898,-1.683199,-0.344174,0.120422,-0.303781,-0.716095,0.138452,-0.684133,0.023591,0.286917,-0.081843,-1.081467,31.385994,-6.168457,,,,,,,
1523521495.388144,-0.810078,-0.137848,-1.697133,-0.287973,-0.044986,-0.373903,-0.717470,0.137412,-0.682902,0.015214,0.302087,-0.027807,-2.132172,31.315727,-6.168701,,,,,,,
1523521495.418113,-0.812453,-0.135272,-1.710860,-0.250578,-0.036606,-0.370683,-0.719344,0.134860,-0.681437,0.039977,0.310590,-0.029226,-2.131851,31.166023,-5.868103,,,,,,,
1523521495.448081,-0.816786,-0.133344,-1.723866,-0.313909,-0.076007,-0.337650,-0.722478,0.132950,-0.678491,0.050389,0.311005,0.033425,-3.024017,31.545708,-5.195068,,,,,,,
1523521495.478050,-0.818716,-0.133834,-1.739437,-0.415727,0.065651,-0.347466,-0.723739,0.133435,-0.677050,0.051574,0.287540,0.104312,-3.471436,31.623024,-4.895630,,,,,,,
1523521495.508017,-0.817129,-0.134639,-1.754198,-0.327922,0.141807,-0.329358,-0.722585,0.134232,-0.678124,0.044729,0.255401,0.019341,-2.955170,31.020241,-5.342957,,,,,,,
1523521495.537969,-0.816430,-0.135285,-1.768236,-0.349787,0.029241,-0.330334,-0.722047,0.134872,-0.678570,-0.014021,0.265732,-0.045658,-3.772766,31.174904,-4.368958,,,,,,,
1523521495.567938,-0.818740,-0.136025,-1.782814,-0.339403,-0.050391,-0.343032,-0.723540,0.135606,-0.676832,0.016600,0.321120,-0.001986,-4.222595,31.102074,-4.218933,,,,,,,
1523521495.597906,-0.824495,-0.135073,-1.796873,-0.277776,-0.136511,-0.358878,-0.727517,0.134662,-0.672744,0.061593,0.322094,0.103698,-3.771393,30.950493,-3.768066,,,,,,,
1523521495.627874,-0.825368,-0.133732,-1.810803,-0.314985,0.150398,-0.346408,-0.728236,0.133334,-0.672231,0.010249,0.285810,0.075246,-4.599655,30.354683,-3.316101,,,,,,,
1523521495.657842,-0.821504,-0.134247,-1.824841,-0.320701,0.131926,-0.287780,-0.725583,0.133844,-0.674993,-0.030627,0.287940,-0.101954,-5.349625,30.358055,-3.316467,,,,,,,
1523521495.687811,-0.822708,-0.133164,-1.836438,-0.226533,-0.041612,-0.273683,-0.726501,0.132771,-0.674217,-0.021332,0.283824,-0.040581,-5.045273,30.656898,-3.092529,,,,,,,
1523521495.717779,-0.824851,-0.131582,-1.846966,-0.207074,0.019942,-0.268410,-0.728098,0.131203,-0.672800,0.020898,0.268089,0.044641,-6.391922,30.588646,-2.417969,,,,,,,
1523521495.747717,-0.824474,-0.129496,-1.856243,-0.153747,0.037684,-0.241748,-0.728043,0.129134,-0.673259,0.021638,0.235184,-0.017202,-6.391174,30.663628,-2.418274,,,,,,,
1523521495.777685,-0.825412,-0.127461,-1.864770,-0.187967,0.012338,-0.252400,-0.728866,0.127116,-0.672752,0.006576,0.233525,0.039985,-6.390427,30.738625,-2.418518,,,,,,,
1523521495.807653,-0.825462,-0.126217,-1.874157,-0.185782,0.036715,-0.242842,-0.729015,0.125882,-0.672822,0.014919,0.220782,-0.001463,-7.215225,30.218239,-1.516846,,,,,,,
1523521495.837621,-0.826667,-0.124847,-1.882900,-0.187104,-0.022801,-0.242772,-0.729952,0.124523,-0.672060,-0.022963,0.240711,-0.039610,-7.962036,30.222130,-0.992188,,,,,,,
1523521495.867590,-0.828753,-0.125562,-1.892437,-0.267306,-0.011138,-0.209817,-0.731286,0.125232,-0.670475,0.024316,0.258084,-0.035030,-7.135727,30.218636,-0.766785,,,,,,,
1523521495.897558,-0.828418,-0.125955,-1.902835,-0.222039,0.049532,-0.239683,-0.731025,0.125623,-0.670687,-0.003868,0.235202,-0.029478,-8.029984,30.298485,0.057434,,,,,,,
1523521495.927526,-0.831103,-0.124325,-1.911229,-0.125476,-0.097285,-0.250109,-0.732974,0.124005,-0.668859,0.025103,0.259998,0.077550,-8.699554,30.751640,0.205261,,,,,,,
1523521495.957494,-0.832252,-0.121399,-1.917430,-0.045958,0.061645,-0.211856,-0.734007,0.121101,-0.668257,0.055891,0.287819,0.096511,-8.625748,30.676247,0.130615,,,,,,,
1523521495.987463,-0.827480,-0.118071,-1.924557,-0.140783,0.255787,-0.285638,-0.731103,0.117797,-0.672022,-0.007133,0.207612,0.006357,-9.669266,31.056389,0.578552,,,,,,,
1523521496.017431,-0.821470,-0.117730,-1.934428,-0.242797,0.195066,-0.227054,-0.727080,0.117458,-0.676431,-0.009188,0.221348,-0.135077,-9.214188,31.204933,1.178223,,,,,,,
1523521496.047399,-0.822873,-0.117859,-1.945339,-0.225798,-0.124460,-0.279987,-0.728017,0.117586,-0.675400,-0.001185,0.260588,-0.038711,-9.131104,31.879784,1.400513,,,,,,,
1523521496.077368,-0.828623,-0.114791,-1.955252,-0.106022,-0.136110,-0.327835,-0.732151,0.114539,-0.671443,0.023945,0.269128,0.089412,-10.255157,31.884987,1.549988,,,,,,,
1523521496.107305,-0.829832,-0.109802,-1.962888,-0.057211,0.084487,-0.284335,-0.733375,0.109581,-0.670934,0.026954,0.216270,0.113531,-9.876877,32.033592,1.849548,,,,,,,
1523521496.137274,-0.825597,-0.107959,-1.970235,-0.176847,0.185071,-0.188636,-0.730674,0.107750,-0.674170,0.009818,0.148827,0.010306,-9.427811,32.256050,1.323853,,,,,,,
1523521496.167242,-0.823139,-0.109644,-1.977737,-0.179931,0.011622,-0.154358,-0.728880,0.109424,-0.675840,0.003599,0.170513,-0.000597,-10.245575,32.485542,2.147583,,,,,,,
1523521496.197210,-0.828646,-0.108004,-1.983620,-0.011713,-0.191181,-0.237134,-0.732723,0.107794,-0.671936,0.046886,0.184717,0.109970,-10.323273,32.485451,1.697510,,,,,,,
1523521496.227178,-0.831096,-0.102559,-1.988898,0.008752,0.028021,-0.287422,-0.734789,0.102379,-0.670525,0.067171,0.182014,0.127419,-10.091675,33.009621,1.920532,,,,,,,
1523521496.257147,-0.827625,-0.099246,-1.996482,-0.197825,0.209899,-0.237685,-0.732703,0.099083,-0.673297,0.019675,0.151130,0.052889,-9.721191,32.782585,1.546631,,,,,,,
1523521496.287115,-0.823307,-0.101296,-2.006807,-0.276487,0.106666,-0.187556,-0.729639,0.101123,-0.676315,-0.024603,0.160230,-0.032471,-10.022232,32.634010,1.622131,,,,,,,
1523521496.317083,-0.825407,-0.103017,-2.014379,-0.154599,-0.070170,-0.168105,-0.730928,0.102835,-0.674662,-0.012007,0.186899,0.011118,-9.195023,32.855293,1.621643,,,,,,,
1523521496.347051,-0.824857,-0.104152,-2.020542,-0.135846,0.119659,-0.120336,-0.730471,0.103964,-0.674984,0.002657,0.206110,-0.042637,-9.493942,32.781944,1.921753,,,,,,,
1523521496.377020,-0.822014,-0.103822,-2.024886,-0.044186,0.066389,-0.134060,-0.728574,0.103635,-0.677081,0.004835,0.196123,-0.055356,-9.653549,32.182060,1.324036,,,,,,,
1523521496.406988,-0.822411,-0.101020,-2.027459,0.022699,-0.032474,-0.149906,-0.729053,0.100848,-0.676987,0.000827,0.169187,-0.012161,-9.126175,32.554466,1.097839,,,,,,,
1523521496.436956,-0.823414,-0.098688,-2.030620,-0.041387,-0.024973,-0.137169,-0.729901,0.098528,-0.676414,0.015851,0.143202,-0.033089,-9.735718,31.507362,1.251770,,,,,,,
1523521496.466894,-0.822665,-0.098648,-2.036977,-0.220958,0.117099,-0.180064,-0.729397,0.098488,-0.676963,-0.008426,0.135307,-0.029687,-9.662231,31.581657,0.876526,,,,,,,
1523521496.496862,-0.820291,-0.099571,-2.047124,-0.246559,0.050639,-0.240748,-0.727721,0.099407,-0.678630,0.007171,0.119419,-0.054921,-9.438431,31.280952,1.177795,,,,,,,
1523521496.526830,-0.825867,-0.096420,-2.055301,-0.019409,-0.306581,-0.294564,-0.731721,0.096271,-0.674771,0.026216,0.151242,0.022702,-9.817612,31.132195,0.728210,,,,,,,
1523521496.556787,-0.835864,-0.089271,-2.059995,0.075906,-0.246217,-0.298818,-0.738922,0.089152,-0.667867,0.025253,0.186834,0.099370,-9.598892,30.456291,0.806030,,,,,,,
1523521496.586756,-0.837312,-0.084164,-2.065694,-0.103435,0.052464,-0.249164,-0.740217,0.084064,-0.667092,-0.023211,0.139065,0.007515,-10.347061,30.459969,1.105591,,,,,,,
1523521496.616723,-0.836770,-0.084130,-2.074115,-0.232029,0.024709,-0.184242,-0.739857,0.084030,-0.667496,-0.011699,0.118011,-0.062836,-10.123428,30.458733,0.880737,,,,,,,
1523521496.646691,-0.836985,-0.086115,-2.082104,-0.193930,0.008326,-0.134119,-0.739875,0.086008,-0.667223,-0.013863,0.130895,-0.028425,-10.426865,30.160027,0.806763,,,,,,,
1523521496.676660,-0.838706,-0.085680,-2.087945,-0.057408,-0.067204,-0.171230,-0.741050,0.085575,-0.665974,-0.005593,0.163906,0.046940,-10.355011,29.709923,1.033630,,,,,,,
1523521496.706628,-0.839826,-0.081939,-2.091179,0.048658,-0.005730,-0.187191,-0.742029,0.081848,-0.665353,-0.003592,0.139222,0.030694,-11.485489,29.115089,1.110413,,,,,,,
1523521496.736596,-0.840655,-0.078022,-2.094303,-0.013480,-0.036487,-0.173356,-0.742813,0.077943,-0.664946,-0.007095,0.112624,0.008788,-11.858078,29.266914,1.259644,,,,,,,
1523521496.766564,-0.841713,-0.076675,-2.099344,-0.124315,0.011583,-0.170288,-0.743594,0.076600,-0.664229,-0.014768,0.119994,0.022642,-12.236649,28.818764,1.411255,,,,,,,
1523521496.796533,-0.841825,-0.076911,-2.107250,-0.203258,-0.005011,-0.199108,-0.743655,0.076835,-0.664134,0.002413,0.128106,0.015910,-12.083054,29.043297,1.635437,,,,,,,
1523521496.826501,-0.842681,-0.076960,-2.115965,-0.195480,0.036556,-0.220450,-0.744220,0.076884,-0.663494,-0.010022,0.136845,0.028591,-11.715546,28.516273,1.262756,,,,,,,
1523521496.856439,-0.841217,-0.076250,-2.123152,-0.101605,0.045708,-0.195877,-0.743289,0.076176,-0.664619,-0.033155,0.115169,0.002067,-12.394730,28.144264,1.188843,,,,,,,
1523521496.886407,-0.841266,-0.074063,-2.127060,-0.010347,0.005658,-0.123315,-0.743444,0.073995,-0.664692,-0.043101,0.076197,0.004032,-12.322281,27.844017,1.265137,,,,,,,
1523521496.916375,-0.840226,-0.073979,-2.129004,-0.048891,0.089038,-0.029657,-0.742757,0.073912,-0.665469,-0.016093,0.092226,-0.007489,-11.568710,28.290459,1.113708,,,,,,,
1523521496.946344,-0.837436,-0.074544,-2.130479,-0.024238,0.103902,-0.036050,-0.740866,0.074475,-0.667511,-0.007059,0.098621,0.010803,-12.172134,27.768486,1.415466,,,,,,,
1523521496.976312,-0.834569,-0.073618,-2.131324,0.028094,0.071057,-0.067946,-0.739000,0.073552,-0.669678,-0.018034,0.068782,0.015747,-12.556412,27.244545,0.742371,,,,,,,
1523521497.006280,-0.836727,-0.070496,-2.130743,0.121848,-0.217111,-0.072912,-0.740610,0.070437,-0.668232,-0.046331,0.011517,-0.030865,-12.108063,27.167366,0.592896,,,,,,,
1523521497.036248,-0.844467,-0.067474,-2.129383,0.089662,-0.214090,-0.038835,-0.745916,0.067423,-0.662619,-0.003154,0.030600,-0.006204,-13.090805,26.346870,0.670715,,,,,,,
1523521497.066217,-0.846369,-0.066597,-2.130134,-0.063897,0.049914,-0.052004,-0.747218,0.066548,-0.661238,-0.003377,0.031887,0.015944,-13.172394,25.822014,0.447754,,,,,,,
1523521497.096185,-0.842499,-0.067904,-2.133780,-0.125346,0.152103,-0.055352,-0.744588,0.067851,-0.664066,-0.015849,0.009266,0.012516,-12.732605,25.069588,0.000977,,,,,,,
1523521497.126153,-0.842402,-0.067618,-2.136552,0.021970,-0.128566,-0.087988,-0.744538,0.067566,-0.664151,-0.045165,-0.030213,0.013516,-14.160843,24.701088,0.076782,,,,,,,
1523521497.156121,-0.849029,-0.064892,-2.136282,0.081083,-0.222557,-0.039902,-0.749059,0.064846,-0.659321,-0.037028,-0.034710,-0.008601,-13.790176,23.949959,0.604919,,,,,,,
1523521497.186090,-0.853892,-0.063285,-2.135124,0.034490,-0.111034,-0.016605,-0.752334,0.063243,-0.655739,0.003875,0.009877,0.017967,-14.319763,23.352562,0.832092,,,,,,,
1523521497.216027,-0.853696,-0.062487,-2.136331,-0.063573,0.106345,-0.066985,-0.752243,0.062446,-0.655919,-0.014069,-0.008186,0.026174,-15.893936,22.760780,1.958679,,,,,,,
1523521497.245996,-0.850474,-0.063991,-2.140774,-0.221865,0.089443,-0.026587,-0.750055,0.063947,-0.658276,-0.048010,-0.028974,-0.041675,-16.344833,22.538033,2.184265,,,,,,,
1523521497.275964,-0.849610,-0.068914,-2.146239,-0.230819,0.036104,0.006491,-0.749240,0.068859,-0.658709,-0.030484,0.001591,-0.001600,-16.268921,22.537834,2.334351,,,,,,,
1523521497.305932,-0.846972,-0.070714,-2.149284,-0.034751,0.122093,-0.050991,-0.747406,0.070655,-0.660600,-0.021240,0.021051,0.004289,-18.129288,22.923012,4.131897,,,,,,,
1523521497.335900,-0.845324,-0.068603,-2.149767,0.022439,0.024148,-0.045518,-0.746426,0.068549,-0.661928,-0.030491,-0.006751,-0.045744,-19.025223,23.152336,4.430481,,,,,,,
1523521497.365869,-0.843401,-0.069755,-2.149806,-0.066359,0.102248,0.059838,-0.745092,0.069699,-0.663309,-0.006937,-0.013165,0.030390,-18.856781,24.502403,5.250183,,,,,,,
1523521497.395837,-0.839735,-0.073485,-2.152251,-0.196215,0.151742,0.021314,-0.742457,0.073419,-0.665858,-0.007727,-0.002420,-0.014745,-19.299423,24.879997,5.848450,,,,,,,
1523521497.425805,-0.835462,-0.079239,-2.158070,-0.309229,0.154316,-0.004334,-0.739279,0.079156,-0.668730,-0.020364,0.008796,-0.080584,-19.425583,26.681526,6.816223,,,,,,,
