timestamp(unix),attitude_roll(radians),attitude_pitch(radians),attitude_yaw(radians),rotation_rate_x(radians/s),rotation_rate_y(radians/s),rotation_rate_z(radians/s),gravity_x(G),gravity_y(G),gravity_z(G),user_acc_x(G),user_acc_y(G),user_acc_z(G),magnetic_field_x(microteslas),magnetic_field_y(microteslas),magnetic_field_z(microteslas),latitude(degree),longitude(degree),altitude(meter),speed(m/s),course(degree),timestamp(unix),User Mark
1522314628.806731,-0.198073,0.012981,-2.920943,0.102259,-0.191486,-0.040010,-0.196764,-0.012981,-0.980365,-0.211729,-0.050267,0.142154,-28.558029,-6.997772,14.076294,,,,,,,1
1522314628.836699,-0.199498,0.021353,-2.921230,0.334442,0.117373,-0.072109,-0.198132,-0.021351,-0.979943,-0.219227,-0.055386,0.090157,-28.552322,-6.697357,14.525146,,,,,,,1
1522314628.866668,-0.195978,0.027532,-2.922306,-0.044656,0.119283,-0.057481,-0.194652,-0.027528,-0.980486,-0.220997,-0.025557,-0.123350,-26.376495,-6.931610,15.052185,,,,,,,1
1522314628.896624,-0.198072,0.020475,-2.923881,-0.264233,-0.193062,0.011928,-0.196738,-0.020474,-0.980242,-0.218896,-0.032093,0.041857,-26.449692,-6.706360,14.976257,,,,,,,1
,,,,,,,,,,,,,,,,25.319069,51.444906,12.993003,3.290000,270.703125,1522314627.997746,1
1522314628.926592,-0.204989,0.016293,-2.923723,-0.077350,-0.144871,0.045044,-0.203530,-0.016292,-0.978933,-0.196846,-0.002293,0.065023,-26.898468,-6.629272,15.050720,,,,,,,1
1522314628.956560,-0.206250,0.015295,-2.923282,0.006948,0.035809,0.007643,-0.204767,-0.015294,-0.978691,-0.208929,-0.018763,0.035881,-26.148819,-6.482941,14.750488,,,,,,,1
1522314628.986529,-0.206667,0.015451,-2.923339,-0.032798,-0.033059,-0.006173,-0.205174,-0.015450,-0.978603,-0.198771,-0.016975,0.006985,-25.923996,-6.409103,14.600281,,,,,,,1
1522314629.016497,-0.208329,0.011840,-2.923618,-0.149422,-0.047912,0.029992,-0.206811,-0.011840,-0.978309,-0.205299,-0.041718,0.050255,-25.999725,-6.259140,14.224670,,,,,,,1
1522314629.046465,-0.212096,0.007569,-2.923426,-0.124980,-0.062905,0.038547,-0.210504,-0.007569,-0.977564,-0.205695,-0.054656,0.088556,-25.476562,-6.261795,13.924927,,,,,,,1
,,,,,,,,,,,,,,,,25.319078,51.444879,13.131711,2.910000,270.351562,1522314628.997735,1
1522314629.076433,-0.213433,0.004927,-2.922922,-0.054008,0.026339,0.017191,-0.211813,-0.004927,-0.977298,-0.211786,-0.057939,0.064532,-26.000351,-5.959747,13.623474,,,,,,,1
1522314629.106402,-0.215402,0.004045,-2.922945,-0.030749,-0.041621,0.002358,-0.213738,-0.004045,-0.976883,-0.187324,-0.042387,0.056930,-26.597031,-5.582123,13.546692,,,,,,,1
1522314629.136370,-0.218427,0.003462,-2.922827,-0.021203,-0.040670,0.015150,-0.216693,-0.003462,-0.976234,-0.203122,-0.021440,0.061424,-26.227753,-5.884247,13.098083,,,,,,,1
1522314629.166338,-0.220111,0.002729,-2.922119,-0.032642,0.033691,0.021463,-0.218337,-0.002729,-0.975870,-0.196458,0.006407,0.048715,-27.053619,-5.880676,12.947632,,,,,,,1
1522314629.196306,-0.220613,0.001984,-2.921442,-0.017801,0.016635,0.025745,-0.218827,-0.001984,-0.975762,-0.185912,0.010788,0.063729,-27.804642,-5.802597,12.646912,,,,,,,1
1522314629.226275,-0.222208,0.001765,-2.920900,-0.011461,-0.013079,0.015138,-0.220384,-0.001765,-0.975412,-0.184829,0.010264,0.056237,-27.202408,-5.580307,12.646362,,,,,,,1
1522314629.256243,-0.224213,0.001036,-2.920296,-0.000729,0.009165,0.022576,-0.222339,-0.001036,-0.974969,-0.172726,0.001906,0.075890,-27.881134,-5.952255,12.647461,,,,,,,1
1522314629.286211,-0.224582,0.002112,-2.919363,0.069883,0.049328,0.028979,-0.222698,-0.002112,-0.974885,-0.167118,-0.003793,0.033845,-28.179474,-5.875763,12.797058,,,,,,,1
1522314629.316179,-0.224290,0.003797,-2.917892,0.069864,0.050379,0.032166,-0.222412,-0.003797,-0.974945,-0.165451,-0.010958,0.020279,-27.802689,-5.877167,13.097229,,,,,,,1
1522314629.346148,-0.223302,0.006230,-2.916294,0.133172,0.122445,0.035346,-0.221447,-0.006230,-0.975152,-0.158131,-0.046947,-0.105917,-28.029892,-6.550385,13.849792,,,,,,,1
1522314629.376116,-0.215483,0.015445,-2.912699,0.518536,0.384763,0.070533,-0.213794,-0.015444,-0.976757,-0.136350,-0.083738,-0.373844,-27.656097,-6.851761,14.151184,,,,,,,1
1522314629.406084,-0.200353,0.035315,-2.905778,0.677353,0.584017,0.088562,-0.198891,-0.035308,-0.979385,-0.082924,-0.083573,-0.510727,-27.574936,-7.000854,15.426880,,,,,,,1
1522314629.436053,-0.188413,0.036334,-2.906267,-0.569476,0.129699,-0.142071,-0.187177,-0.036326,-0.981654,-0.129092,-0.103429,-0.337071,-28.175827,-6.998291,15.276550,,,,,,,1
1522314629.466021,-0.194936,0.001187,-2.918154,-1.576775,-0.444858,-0.134772,-0.193704,-0.001187,-0.981059,0.052499,-0.061450,0.027034,-27.666153,-7.003143,12.726807,,,,,,,1
1522314629.495989,-0.212305,-0.047452,-2.931288,-1.600173,-0.612981,-0.093067,-0.210476,0.047434,-0.976448,0.084118,0.012411,0.239921,-27.377762,-6.856613,10.551392,,,,,,,1
1522314629.525957,-0.232510,-0.083427,-2.941535,-0.956828,-0.640547,-0.027560,-0.229619,0.083331,-0.969707,0.033147,0.040037,0.415111,-28.224045,-7.230728,7.627441,,,,,,,1
1522314629.555926,-0.244355,-0.098512,-2.943304,-0.184489,-0.125051,0.134456,-0.240758,0.098353,-0.965589,-0.026927,0.054662,0.547086,-28.750076,-6.929031,6.950928,,,,,,,1
1522314629.585894,-0.242570,-0.094124,-2.936639,0.433232,0.069625,0.186931,-0.239135,0.093985,-0.966427,-0.127198,0.052530,0.537106,-29.868118,-6.773102,7.849792,,,,,,,1
1522314629.615862,-0.241236,-0.075512,-2.927256,0.821987,-0.001957,0.103122,-0.238223,0.075441,-0.968276,-0.105405,0.092757,0.511214,-30.691727,-6.993805,8.450256,,,,,,,1
1522314629.645830,-0.241742,-0.051475,-2.921581,0.778736,-0.076132,-0.061996,-0.239077,0.051452,-0.969636,-0.219358,0.091294,0.438463,-32.182327,-7.584534,11.001892,,,,,,,1
1522314629.675799,-0.242662,-0.023841,-2.918359,1.091534,0.073415,-0.132242,-0.240219,0.023839,-0.970426,-0.343949,0.032512,0.290586,-31.798035,-7.285217,12.050903,,,,,,,1
1522314629.705767,-0.235128,0.013546,-2.912871,1.290027,0.354098,-0.074830,-0.232946,-0.013545,-0.972395,-0.458720,-0.128911,-0.085146,-32.916367,-7.653473,13.776794,,,,,,,1
1522314629.735735,-0.229509,0.047847,-2.903976,1.058174,-0.001162,0.058540,-0.227239,-0.047828,-0.972664,-0.504222,-0.156395,-0.286949,-33.427628,-8.397629,17.304504,,,,,,,1
1522314629.765703,-0.225073,0.071825,-2.894695,0.673943,0.427026,0.199544,-0.222602,-0.071763,-0.972265,-0.276467,-0.123381,-0.279139,-33.343048,-8.246674,18.653931,,,,,,,1
1522314629.795672,-0.211746,0.076177,-2.887398,-0.148922,0.439000,0.148834,-0.209558,-0.076103,-0.974830,-0.039603,-0.083839,-0.138421,-33.861832,-8.393051,19.929321,,,,,,,1
1522314629.825640,-0.203594,0.061988,-2.885971,-0.629651,0.142677,0.148767,-0.201802,-0.061948,-0.977465,0.096516,-0.164386,-0.183378,-32.885376,-8.472076,20.305115,,,,,,,1
1522314629.855608,-0.202502,0.037763,-2.887248,-0.846788,-0.008367,0.095484,-0.200977,-0.037754,-0.978868,0.151661,-0.200009,-0.158949,-31.388748,-8.404480,19.630615,,,,,,,1
1522314629.885576,-0.198467,0.018894,-2.889459,-0.378767,0.215298,0.009289,-0.197131,-0.018893,-0.980195,0.141192,-0.228406,-0.188704,-32.287064,-8.325287,19.779785,,,,,,,1
1522314629.915537,-0.197131,0.017627,-2.890270,0.080190,-0.104329,-0.033730,-0.195826,-0.017626,-0.980480,0.012461,-0.139952,-0.197834,-30.854599,-8.255615,20.905212,,,,,,,1
1522314629.945505,-0.209286,0.018813,-2.891048,0.010561,-0.618534,-0.023670,-0.207725,-0.018812,-0.978006,-0.127633,-0.019183,-0.207006,-29.880096,-8.709320,21.582520,,,,,,,1
1522314629.975473,-0.227589,0.020502,-2.889958,0.102511,-0.483389,0.067896,-0.225582,-0.020501,-0.974008,-0.192814,0.016656,-0.170675,-29.731277,-9.234329,22.259766,,,,,,,1
1522314630.005442,-0.230014,0.025927,-2.884095,0.329304,0.233500,0.192009,-0.227914,-0.025924,-0.973336,-0.136435,0.033920,-0.341819,-28.677872,-9.163605,22.709961,,,,,,,1
1522314630.035410,-0.218146,0.033727,-2.876894,0.151047,0.425543,0.144800,-0.216297,-0.033721,-0.975745,-0.113339,0.029418,-0.441552,-27.550201,-9.392853,23.536438,,,,,,,1
,,,,,,,,,,,,,,,,25.319071,51.444841,13.213606,3.570000,274.218750,1522314629.997724,1
1522314630.065378,-0.207640,0.022309,-2.878652,-0.846616,0.293622,-0.085959,-0.206100,-0.022307,-0.978277,-0.136444,-0.001650,-0.316386,-25.987564,-10.000931,22.489624,,,,,,,1
1522314630.095346,-0.201653,-0.020166,-2.892152,-1.806848,0.121216,-0.161094,-0.200248,0.020164,-0.979538,0.026588,0.047722,0.120956,-25.096771,-9.931580,20.839783,,,,,,,1
1522314630.125315,-0.204856,-0.073007,-2.907548,-1.712440,-0.225586,-0.138300,-0.202884,0.072943,-0.976482,0.041431,0.005640,0.364650,-23.321060,-9.344604,15.813354,,,,,,,1
1522314630.155283,-0.212375,-0.110248,-2.917268,-0.947458,-0.147946,0.033748,-0.209503,0.110025,-0.971598,0.016616,-0.043527,0.480494,-22.659760,-9.499603,13.789307,,,,,,,1
1522314630.185251,-0.211404,-0.128813,-2.916589,-0.427887,0.238262,0.236192,-0.208094,0.128457,-0.969637,0.059016,-0.048623,0.504457,-21.247604,-9.208588,11.163818,,,,,,,1
1522314630.215219,-0.196973,-0.140088,-2.908619,-0.260870,0.500402,0.374572,-0.193785,0.139630,-0.971057,0.112913,-0.047635,0.487292,-20.948822,-8.835754,10.337463,,,,,,,1
1522314630.245188,-0.183591,-0.147506,-2.899537,-0.138901,0.223334,0.291833,-0.180579,0.146972,-0.972518,0.100363,-0.075393,0.479460,-21.109787,-8.986603,8.763062,,,,,,,1
1522314630.275156,-0.183920,-0.151940,-2.889740,-0.034459,-0.183500,0.386086,-0.180778,0.151356,-0.971808,0.145591,-0.056461,0.468298,-20.815338,-9.363235,8.464661,,,,,,,1
1522314630.305124,-0.185168,-0.146865,-2.875185,0.670324,0.214521,0.503422,-0.182130,0.146337,-0.972324,0.193376,0.025370,0.196628,-21.492554,-9.585190,8.465210,,,,,,,1
1522314630.335092,-0.165910,-0.103743,-2.855361,1.847849,0.373791,0.254804,-0.164262,0.103557,-0.980966,-0.008422,0.066532,-0.356742,-21.632767,-9.732681,10.340698,,,,,,,1
1522314630.365061,-0.169250,-0.049181,-2.844672,1.791844,-0.394944,-0.112076,-0.168239,0.049161,-0.984520,-0.117802,-0.006025,-0.309578,-20.339340,-9.735428,13.416382,,,,,,,1
1522314630.395029,-0.183033,0.003069,-2.842531,1.702476,-0.536890,-0.295269,-0.182012,-0.003069,-0.983291,-0.269205,-0.111875,-0.225846,-20.331223,-9.958725,15.142334,,,,,,,1
1522314630.424997,-0.206803,0.047243,-2.840860,1.127644,-0.910669,-0.128034,-0.205103,-0.047225,-0.977600,-0.342215,-0.086823,-0.307663,-21.223373,-9.803665,16.191223,,,,,,,1
1522314630.454965,-0.231536,0.059973,-2.839822,-0.124347,-0.757086,-0.069444,-0.229061,-0.059937,-0.971565,-0.183735,0.031739,-0.250084,-19.796814,-9.285690,15.589844,,,,,,,1
1522314630.484934,-0.243741,0.042333,-2.848634,-0.868541,-0.161621,-0.165434,-0.241119,-0.042320,-0.969572,-0.060532,0.055931,-0.148042,-20.702332,-9.207657,14.539124,,,,,,,1
1522314630.514902,-0.242806,0.017468,-2.859214,-0.815028,0.133490,-0.141191,-0.240391,-0.017467,-0.970519,-0.027447,0.007777,-0.015534,-20.417236,-8.986786,11.688354,,,,,,,1
1522314630.544870,-0.234593,0.003562,-2.865578,-0.231473,0.353579,-0.065316,-0.232446,-0.003562,-0.972603,-0.045341,-0.098992,0.112389,-19.520737,-8.841660,10.863220,,,,,,,1
1522314630.574838,-0.223775,0.008744,-2.865947,0.422831,0.323226,-0.058416,-0.221904,-0.008744,-0.975029,-0.043309,-0.053496,0.008812,-20.119354,-8.614120,10.711975,,,,,,,1
1522314630.604807,-0.215683,0.024625,-2.865562,0.508362,0.260827,-0.132865,-0.213950,-0.024622,-0.976534,-0.084802,-0.017232,-0.122114,-20.042557,-8.614151,11.012085,,,,,,,1
1522314630.634775,-0.211602,0.038328,-2.866915,0.397195,0.004968,-0.125236,-0.209872,-0.038319,-0.976978,-0.128125,-0.043682,-0.165311,-20.114105,-8.763016,11.837585,,,,,,,1
1522314630.664743,-0.216374,0.049385,-2.867660,0.310246,-0.282055,-0.078125,-0.214428,-0.049365,-0.975492,-0.196461,-0.065991,-0.144732,-20.788925,-8.834824,11.987549,,,,,,,1
1522314630.694712,-0.229997,0.055741,-2.866909,0.126076,-0.523502,0.020013,-0.227620,-0.055712,-0.972155,-0.224406,-0.092985,-0.020017,-22.364014,-8.752884,11.836426,,,,,,,1
1522314630.724680,-0.242989,0.054060,-2.865106,-0.169064,-0.300135,0.095212,-0.240253,-0.054034,-0.969205,-0.158490,-0.059430,0.106656,-22.812927,-8.600952,11.760681,,,,,,,1
1522314630.754648,-0.245705,0.043459,-2.864966,-0.421635,0.032085,0.087229,-0.243011,-0.043445,-0.969050,-0.084092,-0.010144,0.141078,-24.166031,-8.595383,11.234924,,,,,,,1
1522314630.784616,-0.242420,0.029847,-2.866644,-0.452942,0.110191,0.018949,-0.239945,-0.029843,-0.970328,-0.049514,0.023755,0.134161,-24.919907,-8.442886,10.333923,,,,,,,1
1522314630.814585,-0.242971,0.019635,-2.869429,-0.254825,-0.062022,-0.040405,-0.240541,-0.019634,-0.970440,-0.112136,0.032741,0.158368,-24.918274,-8.143127,10.107727,,,,,,,1
1522314630.844553,-0.246377,0.017196,-2.871211,0.019247,-0.131752,-0.041208,-0.243856,-0.017195,-0.969659,-0.153406,0.050123,0.146844,-26.194992,-8.586929,10.558899,,,,,,,1
1522314630.874521,-0.248171,0.021812,-2.871761,0.214214,-0.008866,-0.058226,-0.245573,-0.021810,-0.969133,-0.193209,0.029073,0.095949,-26.942871,-8.732956,11.159058,,,,,,,1
1522314630.904492,-0.248789,0.030492,-2.870879,0.352685,-0.046611,-0.028251,-0.246116,-0.030487,-0.968761,-0.217354,-0.000457,0.114101,-27.228287,-8.130264,12.581543,,,,,,,1
1522314630.934461,-0.252572,0.041851,-2.868382,0.372248,-0.182828,-0.006786,-0.249676,-0.041839,-0.967425,-0.249790,-0.033814,0.107379,-27.528427,-8.727921,13.558777,,,,,,,1
1522314630.964429,-0.259914,0.050415,-2.866076,0.225944,-0.181437,-0.000509,-0.256670,-0.050394,-0.965184,-0.273038,-0.037573,0.116033,-27.588684,-8.425705,15.507568,,,,,,,1
1522314630.994397,-0.262876,0.052800,-2.864765,-0.012407,0.044162,0.038506,-0.259497,-0.052775,-0.964301,-0.299280,-0.045019,0.061728,-26.836609,-8.578491,16.108521,,,,,,,1
1522314631.024365,-0.264295,0.050637,-2.863215,-0.022285,0.040651,0.087519,-0.260894,-0.050615,-0.964040,-0.323106,-0.054091,0.087620,-26.832260,-8.727539,17.084106,,,,,,,1
1522314631.054334,-0.262727,0.050556,-2.861319,-0.018069,0.199346,0.031964,-0.259383,-0.050534,-0.964451,-0.261491,-0.014316,-0.050197,-26.456970,-8.878922,17.384949,,,,,,,1
,,,,,,,,,,,,,,,,25.319081,51.444800,13.043331,3.790000,275.273438,1522314630.997714,1
1522314631.084302,-0.256851,0.043639,-2.862936,-0.388559,0.144271,-0.014073,-0.253794,-0.043625,-0.966274,-0.277089,-0.006638,-0.107167,-25.398605,-8.358154,17.908386,,,,,,,1
