timestamp(unix),attitude_roll(radians),attitude_pitch(radians),attitude_yaw(radians),rotation_rate_x(radians/s),rotation_rate_y(radians/s),rotation_rate_z(radians/s),gravity_x(G),gravity_y(G),gravity_z(G),user_acc_x(G),user_acc_y(G),user_acc_z(G),magnetic_field_x(microteslas),magnetic_field_y(microteslas),magnetic_field_z(microteslas),latitude(degree),longitude(degree),altitude(meter),speed(m/s),course(degree),timestamp(unix),User Mark
,,,,,,,,,,,,,,,,25.312098,51.446890,9.546505,-1.000000,-1.000000,1522136897.108672,
1522136897.403739,-0.103132,-0.040073,-1.410591,-0.175666,0.056826,-0.090037,-0.102866,0.040062,-0.993888,-0.041726,-0.004509,-0.056451,3.710190,2.427687,-57.943481,,,,,,,
1522136897.433707,-0.106296,-0.043052,-1.413767,-0.057182,-0.217406,-0.118452,-0.105998,0.043039,-0.993434,0.002497,0.024908,0.019298,-0.937485,1.625319,-56.217651,,,,,,,
1522136897.463676,-0.113454,-0.041971,-1.417621,0.042217,-0.194295,-0.117328,-0.113111,0.041959,-0.992696,0.005048,-0.003400,0.062032,-4.610947,0.968199,-54.866882,,,,,,,
1522136897.493644,-0.114579,-0.040559,-1.419192,0.040694,0.070592,-0.006786,-0.114234,0.040548,-0.992626,0.008216,0.006540,0.038646,-8.575974,-0.060579,-51.489746,,,,,,,
1522136897.523612,-0.110920,-0.039362,-1.418773,0.047290,0.135230,0.014476,-0.110607,0.039352,-0.993085,-0.016224,0.024415,-0.016131,-9.463608,-0.354036,-48.938965,,,,,,,
1522136897.553581,-0.107904,-0.038732,-1.417937,0.003063,0.054477,0.030502,-0.107614,0.038723,-0.993438,-0.006903,-0.007488,-0.015290,-11.329941,-0.793459,-46.763123,,,,,,,
1522136897.583549,-0.108518,-0.040036,-1.417555,-0.067737,-0.045073,0.008171,-0.108219,0.040026,-0.993321,-0.004330,-0.034212,-0.011959,-13.262680,-1.680407,-42.410583,,,,,,,
1522136897.613517,-0.109117,-0.042999,-1.418555,-0.118496,0.003222,-0.043055,-0.108800,0.042985,-0.993134,0.003941,-0.010484,-0.003570,-13.781494,-2.276049,-40.383423,,,,,,,
1522136897.643485,-0.109910,-0.045685,-1.420725,-0.085438,-0.032809,-0.067507,-0.109574,0.045670,-0.992929,0.014756,-0.016724,0.007669,-15.705536,-3.011843,-34.831482,,,,,,,
1522136897.673454,-0.110824,-0.047198,-1.422887,-0.043775,-0.028654,-0.068546,-0.110474,0.047180,-0.992759,-0.021469,-0.015518,-0.012933,-16.515182,-3.005648,-32.281921,,,,,,,
1522136897.703422,-0.112266,-0.046899,-1.424249,0.040227,-0.068407,-0.036476,-0.111907,0.046882,-0.992612,-0.001329,0.002602,-0.000521,-18.424545,-2.765673,-25.908875,,,,,,,
1522136897.733390,-0.114629,-0.045369,-1.424921,0.031652,-0.064198,-0.026900,-0.114260,0.045354,-0.992415,-0.011670,-0.000813,0.000578,-19.304047,-2.833193,-22.384033,,,,,,,
1522136897.763358,-0.116156,-0.044803,-1.425909,0.003901,-0.064126,-0.027983,-0.115779,0.044788,-0.992265,0.010631,-0.009037,-0.006835,-19.395966,-1.924608,-14.212708,,,,,,,
1522136897.793327,-0.119000,-0.045514,-1.426249,-0.034993,-0.113236,0.017859,-0.118596,0.045498,-0.991900,-0.010676,-0.019573,0.023546,-17.860001,-0.802401,-10.091431,,,,,,,
1522136897.823295,-0.122469,-0.045943,-1.424537,0.017016,-0.108476,0.079687,-0.122034,0.045927,-0.991463,-0.037435,-0.019804,0.050880,-14.733154,-0.658068,-1.690369,,,,,,,
1522136897.853263,-0.123035,-0.045998,-1.422089,-0.031267,0.056459,0.063504,-0.122595,0.045982,-0.991391,-0.058252,-0.003746,0.001813,-12.164780,-0.441927,1.010010,,,,,,,
1522136897.883231,-0.117997,-0.048669,-1.421449,-0.106203,0.203545,0.024948,-0.117584,0.048650,-0.991871,0.004241,-0.003011,-0.037457,-8.022842,-0.233095,3.486267,,,,,,,
1522136897.913200,-0.114929,-0.050303,-1.421633,-0.013929,0.027188,-0.011043,-0.114531,0.050282,-0.992146,0.007429,-0.027683,-0.060313,-2.676712,-0.553102,7.540222,,,,,,,
1522136897.943168,-0.117094,-0.049410,-1.422915,0.055214,-0.113808,-0.083302,-0.116684,0.049390,-0.991940,0.005981,-0.015424,-0.051044,0.625427,-1.016832,8.668701,,,,,,,
1522136897.973136,-0.123485,-0.046026,-1.425854,0.116643,-0.258268,-0.112946,-0.123041,0.046010,-0.991334,0.030649,-0.010091,0.009202,6.410553,-1.041140,10.396667,,,,,,,
1522136898.003104,-0.131574,-0.042568,-1.428283,0.085471,-0.255299,-0.070352,-0.131076,0.042556,-0.990458,0.012103,-0.017134,0.056666,8.955368,-1.652437,10.550415,,,,,,,
1522136898.033073,-0.136684,-0.040434,-1.428645,0.062219,-0.109170,0.010465,-0.136147,0.040423,-0.989864,-0.048408,-0.002443,0.033946,14.874725,-2.353838,10.781189,,,,,,,
1522136898.063041,-0.138458,-0.038769,-1.426538,0.070615,-0.041790,0.096712,-0.137912,0.038759,-0.989686,-0.067364,0.018659,0.029832,18.625305,-2.295717,10.782776,,,,,,,
1522136898.093009,-0.137489,-0.036334,-1.422553,0.111679,0.098187,0.123239,-0.136966,0.036326,-0.989909,-0.031324,0.006506,0.022807,23.714417,-2.170641,8.759888,,,,,,,
,,,,,,,,,,,,,,,,25.312139,51.446983,9.435329,-1.000000,-1.000000,1522136898.098185,
1522136898.122977,-0.129842,-0.033725,-1.419448,0.077903,0.357943,0.067541,-0.129404,0.033718,-0.991018,0.028101,-0.005963,-0.062616,26.783432,-1.960802,7.410522,,,,,,,
1522136898.152946,-0.119376,-0.033125,-1.418416,-0.009611,0.295878,0.007873,-0.119027,0.033119,-0.992338,0.028069,-0.026741,-0.129228,32.171707,-0.115068,2.380859,,,,,,,
1522136898.182914,-0.117600,-0.033093,-1.419145,0.035686,-0.127882,-0.037494,-0.117265,0.033087,-0.992549,-0.013519,-0.024465,-0.092686,33.739990,1.149641,-0.848450,,,,,,,
1522136898.212882,-0.126784,-0.030181,-1.419520,0.110299,-0.352536,-0.002043,-0.126387,0.030176,-0.991522,0.025587,-0.019205,0.018881,34.402298,2.043058,-4.451660,,,,,,,
1522136898.242851,-0.135096,-0.028310,-1.418645,0.011462,-0.210157,0.033971,-0.134632,0.028306,-0.990491,0.001834,-0.014588,0.044553,34.677841,4.284010,-12.260498,,,,,,,
1522136898.272808,-0.138614,-0.030058,-1.417746,-0.089366,-0.069671,0.039077,-0.138108,0.030054,-0.989961,-0.027724,0.027655,0.029817,33.771103,5.185453,-14.889526,,,,,,,
1522136898.302776,-0.138413,-0.033143,-1.416965,-0.114474,0.055713,0.048522,-0.137896,0.033137,-0.989892,-0.043028,-0.010280,0.004007,31.347702,6.540205,-21.046204,,,,,,,
1522136898.332743,-0.135864,-0.036450,-1.416069,-0.078901,0.109925,0.031453,-0.135357,0.036442,-0.990126,-0.013508,-0.015461,-0.025666,30.594986,7.666273,-23.376099,,,,,,,
1522136898.362713,-0.131765,-0.036628,-1.416316,0.047540,0.130298,-0.038802,-0.131296,0.036620,-0.990667,0.019983,-0.014312,-0.090480,26.523209,7.830687,-27.278687,,,,,,,
1522136898.392680,-0.132762,-0.032617,-1.417523,0.187258,-0.153677,-0.051199,-0.132302,0.032611,-0.990673,0.029122,-0.025607,-0.103398,24.407990,7.163786,-28.702087,,,,,,,
1522136898.422648,-0.142705,-0.024399,-1.417663,0.310870,-0.424013,-0.033784,-0.142179,0.024396,-0.989540,-0.022021,-0.014646,0.002464,19.280197,5.460066,-30.497864,,,,,,,
1522136898.452616,-0.154136,-0.016018,-1.416889,0.229002,-0.308220,0.000134,-0.153506,0.016017,-0.988018,-0.021176,0.025350,0.052974,17.690414,4.341612,-31.094177,,,,,,,
1522136898.482585,-0.158461,-0.011679,-1.415773,0.092479,-0.028488,0.010407,-0.157788,0.011679,-0.987404,-0.029147,0.025568,0.023979,14.965851,1.878889,-31.085693,,,,,,,
1522136898.512553,-0.155311,-0.011002,-1.415635,-0.003814,0.154574,0.002692,-0.154678,0.011002,-0.987904,-0.001435,0.009551,-0.032543,13.373108,0.011213,-30.928955,,,,,,,
1522136898.542521,-0.151438,-0.011379,-1.415404,-0.016874,0.124707,0.024021,-0.150850,0.011379,-0.988491,-0.014967,-0.010219,-0.052204,10.878174,-2.302034,-30.395996,,,,,,,
1522136898.572490,-0.148391,-0.012382,-1.413661,-0.007704,0.096639,0.083725,-0.147835,0.012382,-0.988934,0.014077,-0.012290,-0.035434,10.193207,-3.573488,-29.941284,,,,,,,
1522136898.602458,-0.144295,-0.012896,-1.411240,-0.010513,0.165813,0.068741,-0.143783,0.012896,-0.989525,0.041427,-0.008852,-0.075248,8.242706,-4.613070,-28.288025,,,,,,,
1522136898.632427,-0.141927,-0.012930,-1.410437,0.015629,-0.028248,0.005014,-0.141439,0.012930,-0.989862,-0.013239,-0.032751,-0.079947,6.058884,-6.850985,-26.030273,,,,,,,
1522136898.662395,-0.146960,-0.012506,-1.409863,-0.005598,-0.217480,0.023311,-0.146420,0.012506,-0.989143,0.002774,-0.022821,-0.006706,5.012405,-7.444689,-24.453430,,,,,,,
1522136898.692363,-0.151786,-0.014271,-1.409321,-0.090556,-0.104710,0.033793,-0.151188,0.014270,-0.988402,0.008885,-0.016895,0.063628,5.709930,-7.668703,-20.327209,,,,,,,
1522136898.722332,-0.150521,-0.017937,-1.409010,-0.143812,0.149474,0.022834,-0.149929,0.017936,-0.988534,0.008496,0.003930,0.041741,7.140579,-7.823946,-19.125854,,,,,,,
1522136898.752300,-0.144760,-0.021823,-1.408932,-0.105264,0.167459,0.018591,-0.144220,0.021821,-0.989305,-0.014761,-0.006562,-0.014739,12.025589,-7.769350,-17.548584,,,,,,,
1522136898.782268,-0.141525,-0.022713,-1.408628,0.007595,0.091804,0.011279,-0.141017,0.022711,-0.989747,0.015697,-0.018164,-0.019271,13.823425,-8.077288,-17.396423,,,,,,,
1522136898.812236,-0.138701,-0.022125,-1.408162,0.015038,0.098057,0.024075,-0.138223,0.022123,-0.990154,0.031320,-0.023313,-0.063175,17.109787,-8.543566,-18.892944,,,,,,,
1522136898.842205,-0.135418,-0.023271,-1.408072,-0.084071,0.099624,-0.011170,-0.134967,0.023269,-0.990577,0.032367,0.004624,-0.097726,18.450729,-8.775728,-20.016357,,,,,,,
1522136898.872173,-0.136756,-0.025878,-1.409550,-0.086000,-0.136004,-0.049292,-0.136285,0.025876,-0.990332,0.008645,0.000400,-0.030283,18.207733,-9.451509,-21.888794,,,,,,,
1522136898.902141,-0.141136,-0.028649,-1.411261,-0.119078,-0.122189,-0.039732,-0.140610,0.028645,-0.989650,0.037339,-0.020726,0.030452,18.135880,-9.226030,-21.739746,,,,,,,
1522136898.932110,-0.142498,-0.032626,-1.413051,-0.152749,-0.005245,-0.034553,-0.141941,0.032621,-0.989337,0.018543,-0.027921,0.024845,17.912384,-8.850405,-22.116333,,,,,,,
1522136898.962078,-0.142875,-0.035886,-1.414513,-0.068544,-0.042609,-0.039781,-0.142298,0.035878,-0.989173,-0.020178,0.010081,-0.002099,19.115784,-9.229616,-20.914246,,,,,,,
1522136898.992045,-0.145197,-0.035219,-1.416570,0.048964,-0.086115,-0.089731,-0.144597,0.035211,-0.988864,-0.007106,0.016592,0.005862,20.177597,-8.633425,-19.941101,,,,,,,
1522136899.022013,-0.146610,-0.032680,-1.418964,0.068484,-0.005470,-0.079149,-0.146008,0.032675,-0.988744,0.035641,0.008646,0.001164,24.529953,-8.353075,-20.015015,,,,,,,
1522136899.051982,-0.145529,-0.030438,-1.421124,0.084720,0.030689,-0.089826,-0.144949,0.030433,-0.988971,0.032583,0.020226,-0.039044,25.801758,-8.583956,-20.163452,,,,,,,
1522136899.081950,-0.147672,-0.025824,-1.423209,0.189606,-0.159739,-0.097008,-0.147086,0.025821,-0.988786,0.029746,0.025693,-0.033476,29.900772,-9.430315,-23.083008,,,,,,,
1522136899.111918,-0.156466,-0.018955,-1.425169,0.214448,-0.341470,-0.103195,-0.155801,0.018954,-0.987606,0.019387,-0.004779,0.042202,32.212753,-9.742373,-24.730652,,,,,,,
,,,,,,,,,,,,,,,,25.312188,51.447074,9.318783,-1.000000,-1.000000,1522136899.101318,
1522136899.141886,-0.164370,-0.013209,-1.427095,0.164764,-0.203347,-0.081005,-0.163617,0.013209,-0.986435,-0.000995,0.009268,0.076355,34.203934,-10.655458,-28.850952,,,,,,,
1522136899.171855,-0.166885,-0.008405,-1.427683,0.155886,0.013087,-0.032204,-0.166106,0.008405,-0.986072,0.003706,0.047015,0.026386,35.462784,-10.738665,-31.399963,,,,,,,
1522136899.201823,-0.161403,-0.004756,-1.426714,0.096960,0.282705,0.032463,-0.160702,0.004756,-0.986991,-0.026036,0.017781,-0.072014,37.143723,-11.502306,-37.471069,,,,,,,
1522136899.231791,-0.152226,-0.002799,-1.425418,0.063904,0.281782,0.023917,-0.151638,0.002799,-0.988432,0.030300,0.004022,-0.130648,35.697159,-11.948641,-40.320007,,,,,,,
1522136899.261760,-0.146745,-0.002225,-1.424476,0.003310,0.106591,0.026176,-0.146218,0.002225,-0.989250,0.050821,-0.019452,-0.111504,34.100632,-12.394304,-43.169067,,,,,,,
1522136899.291713,-0.146716,-0.001644,-1.423992,0.047441,-0.080390,0.002966,-0.146190,0.001644,-0.989255,0.044444,-0.037029,-0.064319,28.601074,-12.822924,-46.545105,,,,,,,
1522136899.321681,-0.151138,0.000619,-1.423871,0.081179,-0.189850,-0.008614,-0.150563,-0.000619,-0.988600,-0.012615,-0.012962,-0.014177,25.444916,-13.034410,-47.220825,,,,,,,
1522136899.351649,-0.156967,0.002841,-1.423394,0.072567,-0.171931,0.017986,-0.156322,-0.002841,-0.987702,-0.005497,0.003894,0.033249,21.459900,-14.216173,-46.918091,,,,,,,
1522136899.381617,-0.158396,0.003757,-1.422457,-0.011822,0.067292,0.028339,-0.157733,-0.003757,-0.987474,-0.028592,0.026248,-0.023161,21.234924,-14.215166,-46.918213,,,,,,,
1522136899.411586,-0.152740,0.002034,-1.422545,-0.060218,0.200396,0.005793,-0.152147,-0.002034,-0.988356,-0.002028,0.005116,-0.085085,19.268524,-15.631685,-47.288513,,,,,,,
1522136899.441554,-0.149186,0.000373,-1.422758,-0.059769,0.046407,-0.007900,-0.148633,-0.000373,-0.988892,0.053144,-0.009102,-0.105361,18.733353,-15.930468,-48.487549,,,,,,,
1522136899.471522,-0.152443,-0.000726,-1.423313,-0.006322,-0.186382,-0.016148,-0.151853,0.000726,-0.988403,0.003736,-0.008493,-0.028886,15.045303,-16.515062,-49.687073,,,,,,,
1522136899.501491,-0.157575,-0.000093,-1.424150,0.020674,-0.145921,-0.038539,-0.156923,0.000093,-0.987611,0.036791,0.013884,0.018647,12.113983,-16.877321,-50.137085,,,,,,,
1522136899.531459,-0.161323,0.000238,-1.425790,-0.019697,-0.112798,-0.049262,-0.160624,-0.000238,-0.987015,-0.009435,-0.005149,0.041138,6.945816,-17.002733,-48.789185,,,,,,,
1522136899.561427,-0.162727,-0.000708,-1.426848,-0.038588,-0.008812,-0.021675,-0.162009,0.000708,-0.986789,-0.041909,0.012933,0.035571,4.935471,-16.841509,-46.615784,,,,,,,
1522136899.591395,-0.161204,-0.001183,-1.427348,0.001203,0.082312,0.001702,-0.160507,0.001183,-0.987034,0.006851,0.014427,-0.000729,2.246552,-16.902452,-44.666931,,,,,,,
1522136899.621364,-0.159420,-0.001141,-1.427767,-0.008260,0.059295,-0.046230,-0.158746,0.001141,-0.987319,-0.002601,-0.005306,-0.040773,2.205627,-16.372484,-39.869019,,,,,,,
1522136899.651332,-0.158499,-0.001014,-1.429853,0.009749,-0.007477,-0.077051,-0.157836,0.001014,-0.987465,0.053131,-0.004615,-0.003258,3.875824,-15.478121,-37.996765,,,,,,,
1522136899.681300,-0.160876,0.000553,-1.431539,0.072200,-0.108689,-0.060923,-0.160183,-0.000553,-0.987087,0.002926,-0.012951,0.027462,5.925171,-14.210390,-36.050842,,,,,,,
1522136899.711268,-0.163826,0.004669,-1.431924,0.193822,-0.098554,-0.034203,-0.163092,-0.004669,-0.986600,-0.019632,0.036728,0.037030,7.356995,-13.616686,-35.902527,,,,,,,
1522136899.741237,-0.166208,0.012743,-1.431964,0.282542,-0.083844,-0.041612,-0.165430,-0.012742,-0.986139,-0.001516,0.040727,-0.001059,9.384155,-13.176180,-36.278259,,,,,,,
1522136899.771205,-0.166885,0.019015,-1.432227,0.134656,0.023893,-0.048223,-0.166081,-0.019014,-0.985929,-0.000758,0.007250,-0.032886,9.611984,-13.026995,-36.053772,,,,,,,
1522136899.801173,-0.165080,0.021297,-1.433424,0.059061,0.072930,-0.045126,-0.164294,-0.021295,-0.986181,0.012744,0.026010,-0.044367,11.576126,-11.610826,-36.058472,,,,,,,
1522136899.831141,-0.164115,0.023592,-1.433886,0.094800,-0.011339,-0.010922,-0.163334,-0.023590,-0.986289,0.040577,0.025818,-0.042596,11.363419,-10.784212,-35.386780,,,,,,,
1522136899.861110,-0.165563,0.026145,-1.433625,0.080689,-0.062288,-0.011956,-0.164752,-0.026142,-0.985988,0.030734,0.017017,-0.037998,15.202759,-8.852312,-36.217651,,,,,,,
1522136899.891078,-0.168116,0.028528,-1.434009,0.081660,-0.106776,-0.032157,-0.167257,-0.028525,-0.985500,-0.006739,0.021887,-0.017658,17.232269,-7.587801,-37.571716,,,,,,,
1522136899.921046,-0.170882,0.031119,-1.434124,0.094451,-0.076213,-0.001275,-0.169970,-0.031114,-0.984958,-0.011137,0.034242,0.008884,19.325058,-6.100893,-41.251587,,,,,,,
1522136899.951014,-0.171257,0.033180,-1.433387,0.046878,0.033274,0.006057,-0.170328,-0.033174,-0.984829,-0.025641,0.019837,-0.033863,20.075256,-4.681597,-43.581909,,,,,,,
1522136899.980983,-0.168994,0.033022,-1.433174,-0.023363,0.081302,0.002751,-0.168099,-0.033016,-0.985217,0.012231,0.023220,-0.038282,21.274261,-3.339403,-45.986633,,,,,,,
1522136900.010951,-0.167228,0.031785,-1.433245,-0.039543,0.055789,0.011283,-0.166366,-0.031780,-0.985552,0.001235,0.005947,-0.041106,22.170975,-0.648470,-51.021973,,,,,,,
1522136900.040919,-0.165440,0.031160,-1.433431,0.004339,0.050550,-0.014254,-0.164607,-0.031155,-0.985867,0.021937,0.028439,-0.051227,21.799210,1.300489,-53.729980,,,,,,,
1522136900.070887,-0.165774,0.032611,-1.434077,0.070172,-0.047272,-0.029023,-0.164928,-0.032606,-0.985766,-0.000203,0.012494,-0.036069,20.893539,4.523252,-60.043335,,,,,,,
1522136900.100856,-0.167393,0.034207,-1.434748,0.024258,-0.051399,-0.031180,-0.166515,-0.034200,-0.985445,0.006252,0.022420,-0.031644,18.791046,5.805159,-62.599487,,,,,,,
,,,,,,,,,,,,,,,,25.312219,51.447168,9.196377,-1.000000,-1.000000,1522136900.108171,
1522136900.130824,-0.168412,0.033540,-1.435683,-0.066344,-0.016125,-0.029149,-0.167523,-0.033534,-0.985297,-0.004581,0.034480,-0.017815,11.282532,8.158613,-67.937683,,,,,,,
1522136900.160792,-0.167663,0.029858,-1.437229,-0.165385,0.028820,-0.038859,-0.166804,-0.029854,-0.985538,0.018595,0.026436,-0.008694,6.409027,9.753126,-70.346497,,,,,,,
1522136900.190761,-0.167402,0.025164,-1.439110,-0.151704,-0.009492,-0.034552,-0.166568,-0.025161,-0.985709,-0.005536,0.007751,0.002478,-5.208160,11.079496,-71.257629,,,,,,,
1522136900.220729,-0.167835,0.022426,-1.440367,-0.050328,-0.012988,-0.027012,-0.167006,-0.022424,-0.985701,-0.012315,0.019144,0.021406,-10.894592,11.406813,-69.536804,,,,,,,
1522136900.250697,-0.166510,0.021636,-1.441023,-0.024320,0.085688,-0.015372,-0.165703,-0.021634,-0.985938,0.000969,0.031217,0.000327,-21.059769,11.608015,-64.067627,,,,,,,
1522136900.280654,-0.163743,0.020068,-1.441902,-0.089456,0.074189,-0.021790,-0.162979,-0.020066,-0.986425,0.003860,0.017976,-0.050242,-26.510925,11.336973,-59.644287,,,,,,,
1522136900.310623,-0.163747,0.016612,-1.443133,-0.116825,-0.064980,-0.014223,-0.162994,-0.016612,-0.986487,0.008224,0.014002,-0.011255,-30.383423,11.433821,-55.221619,,,,,,,
1522136900.340591,-0.167564,0.013612,-1.443947,-0.099074,-0.143735,-0.004534,-0.166766,-0.013611,-0.985902,0.013446,0.002472,0.040117,-36.260529,10.869200,-46.297302,,,,,,,
1522136900.370559,-0.169866,0.009323,-1.443468,-0.170307,0.007913,0.066639,-0.169042,-0.009323,-0.985564,0.003195,0.006179,0.086593,-38.781540,10.436094,-40.746765,,,,,,,
1522136900.400527,-0.164329,0.003353,-1.443090,-0.192394,0.272851,0.025860,-0.163590,-0.003353,-0.986523,-0.013962,0.024105,0.003689,-40.978104,9.930723,-30.995850,,,,,,,
1522136900.430496,-0.156911,-0.000640,-1.442830,-0.088240,0.186365,0.045217,-0.156268,0.000640,-0.987714,-0.011655,-0.008223,-0.052508,-41.632614,9.412947,-26.719177,,,,,,,
1522136900.460464,-0.153800,-0.002511,-1.440917,-0.034563,0.057407,0.081611,-0.153194,0.002511,-0.988193,0.012782,-0.018899,-0.050900,-42.181290,7.926451,-15.688477,,,,,,,
1522136900.490432,-0.153512,-0.002733,-1.438820,0.034680,-0.008465,0.055094,-0.152909,0.002733,-0.988236,0.022263,-0.004686,-0.045089,-41.108932,7.326353,-10.960571,,,,,,,
1522136900.520400,-0.154933,-0.001940,-1.437833,0.006885,-0.067568,0.009306,-0.154313,0.001940,-0.988020,0.039659,-0.031176,-0.021364,-37.091370,6.042509,-1.728394,,,,,,,
1522136900.550369,-0.156747,-0.003169,-1.439043,-0.079173,-0.050958,-0.056832,-0.156105,0.003169,-0.987735,0.001152,-0.026088,0.009281,-35.417068,5.589766,3.074280,,,,,,,
1522136900.580337,-0.156664,-0.005260,-1.440963,-0.071354,0.046641,-0.037741,-0.156022,0.005260,-0.987739,-0.019042,0.004993,0.005531,-30.508148,4.525114,10.505981,,,,,,,
1522136900.610305,-0.154800,-0.005874,-1.441320,0.027646,0.038613,0.011355,-0.154180,0.005874,-0.988025,0.008321,0.016007,-0.028378,-26.898483,3.686872,13.511108,,,,,,,
1522136900.640273,-0.154437,-0.002834,-1.440640,0.138515,-0.012588,-0.000231,-0.153823,0.002834,-0.988094,-0.000947,0.013722,-0.057194,-24.335815,2.928724,16.890442,,,,,,,
1522136900.670242,-0.157612,0.002249,-1.440125,0.189149,-0.162460,-0.011763,-0.156960,-0.002249,-0.987602,0.003456,0.019857,-0.037163,-17.944901,0.955900,22.826538,,,,,,,
1522136900.700210,-0.163198,0.006569,-1.438739,0.115063,-0.182896,0.050001,-0.162471,-0.006569,-0.986691,-0.003072,0.002373,0.039746,-13.511795,-0.036043,25.832703,,,,,,,
1522136900.730178,-0.166038,0.007400,-1.436608,-0.002780,-0.024328,0.058275,-0.165272,-0.007400,-0.986220,-0.029659,0.003860,0.057952,-5.637741,-3.291216,31.099670,,,,,,,
1522136900.760147,-0.163368,0.005527,-1.436285,-0.090238,0.155932,-0.008033,-0.162640,-0.005527,-0.986670,-0.037388,0.022434,0.006888,-0.911545,-4.435381,33.206665,,,,,,,
1522136900.790115,-0.159290,0.002474,-1.437161,-0.111745,0.111412,-0.016525,-0.158616,-0.002474,-0.987337,-0.024688,-0.001723,0.004991,10.174759,-7.482470,35.999329,,,,,,,
1522136900.820083,-0.155527,-0.000594,-1.437908,-0.106161,0.180393,-0.004874,-0.154901,0.000594,-0.987930,0.026437,-0.018309,0.010528,16.538132,-9.235125,36.984558,,,,,,,
1522136900.850051,-0.148633,-0.003342,-1.439123,-0.078007,0.228379,-0.038999,-0.148085,0.003342,-0.988969,0.029616,-0.000016,-0.071059,31.651703,-12.079470,35.653503,,,,,,,
1522136900.880020,-0.146456,-0.004447,-1.441012,-0.016172,-0.053237,-0.058907,-0.145931,0.004447,-0.989285,0.012554,-0.006599,-0.048801,39.498489,-13.467165,33.263000,,,,,,,
1522136900.909988,-0.151344,-0.002970,-1.441654,0.074663,-0.204739,-0.002221,-0.150767,0.002970,-0.988565,0.026224,0.009420,0.042260,54.207123,-15.116655,24.951904,,,,,,,
1522136900.939956,-0.154590,-0.001392,-1.441189,0.013521,-0.006041,0.019913,-0.153975,0.001392,-0.988074,0.025908,0.006436,0.080405,60.913437,-15.528429,18.356873,,,,,,,
1522136900.969924,-0.150795,-0.003981,-1.440636,-0.138287,0.189866,0.020659,-0.150223,0.003981,-0.988644,0.000152,0.003984,0.004788,70.478683,-17.012300,2.542664,,,,,,,
1522136900.999893,-0.146879,-0.008059,-1.440334,-0.099420,0.060030,0.032551,-0.146346,0.008059,-0.989200,-0.026353,0.005751,-0.013882,72.288498,-18.229280,-6.301636,,,,,,,
1522136901.029861,-0.145803,-0.009892,-1.439012,-0.052616,0.061772,0.068821,-0.145280,0.009892,-0.989341,0.011278,-0.037037,0.010246,72.899216,-19.440722,-14.996521,,,,,,,
1522136901.059829,-0.139672,-0.012980,-1.437402,-0.122898,0.323484,0.052508,-0.139206,0.012980,-0.990178,0.024140,-0.015299,-0.053660,69.621262,-22.517168,-31.185730,,,,,,,
1522136901.089797,-0.131978,-0.016118,-1.437835,-0.072045,0.129538,-0.038893,-0.131578,0.016117,-0.991175,0.032427,0.003155,-0.136511,65.588120,-23.931353,-38.532166,,,,,,,
1522136901.119766,-0.134818,-0.016026,-1.439773,0.032129,-0.225544,-0.052305,-0.134393,0.016025,-0.990798,0.015512,-0.047871,-0.064301,55.359818,-27.197100,-50.299194,,,,,,,
,,,,,,,,,,,,,,,,25.312299,51.447350,9.079556,-1.000000,-1.000000,1522136901.105981,
1522136901.149734,-0.143944,-0.014266,-1.440023,0.062304,-0.318557,0.018134,-0.143433,0.014266,-0.989557,0.002243,-0.002776,0.034021,49.309235,-29.649218,-54.642456,,,,,,,
1522136901.179702,-0.150479,-0.013230,-1.438552,0.022366,-0.136977,0.052010,-0.149899,0.013230,-0.988613,0.007351,0.025253,0.061855,35.718521,-35.218903,-60.476929,,,,,,,
1522136901.209670,-0.150174,-0.014130,-1.437935,-0.070301,0.099420,0.011225,-0.149595,0.014129,-0.988646,-0.036257,-0.000503,-0.006364,30.052887,-38.569595,-61.666382,,,,,,,
1522136901.239639,-0.146956,-0.016951,-1.437489,-0.091931,0.084309,0.051717,-0.146406,0.016950,-0.989079,-0.036424,-0.009901,-0.036266,21.292191,-44.380600,-62.097534,,,,,,,
1522136901.269629,-0.145021,-0.020244,-1.436059,-0.108033,0.081080,0.064489,-0.144483,0.020242,-0.989300,0.020582,-0.010538,-0.002842,17.368408,-47.212173,-61.338135,,,,,,,
1522136901.299597,-0.139885,-0.024109,-1.435494,-0.146551,0.237752,0.011027,-0.139388,0.024106,-0.989944,0.025268,0.005160,-0.068299,14.259003,-51.022568,-60.724487,,,,,,,
1522136901.329565,-0.134949,-0.028498,-1.437011,-0.127912,0.047873,-0.042045,-0.134485,0.028494,-0.990506,0.038828,-0.020987,-0.080890,12.301163,-51.988464,-60.421570,,,,,,,
1522136901.359534,-0.139771,-0.029242,-1.437502,0.035911,-0.255757,0.013782,-0.139257,0.029238,-0.989824,0.008733,-0.041826,-0.002195,10.347504,-52.354675,-60.421082,,,,,,,
1522136901.389502,-0.145942,-0.027292,-1.436064,0.072530,-0.138215,0.056324,-0.145371,0.027289,-0.989001,-0.010574,-0.014532,0.063158,5.999451,-51.885559,-60.875122,,,,,,,
1522136901.419469,-0.145252,-0.026634,-1.434719,-0.019219,0.090618,0.035780,-0.144691,0.026631,-0.989118,0.004005,0.017146,0.011579,2.411316,-51.193604,-60.054688,,,,,,,
1522136901.449439,-0.142754,-0.028446,-1.434299,-0.070543,0.050542,0.013394,-0.142212,0.028442,-0.989427,-0.009750,-0.015533,-0.006666,-2.731720,-49.068649,-58.265747,,,,,,,
1522136901.479406,-0.141966,-0.029488,-1.434773,-0.012698,0.039009,-0.031294,-0.141428,0.029484,-0.989509,-0.009619,-0.016835,-0.009529,-5.561218,-47.555023,-57.373230,,,,,,,
1522136901.509374,-0.139431,-0.029464,-1.435865,0.000488,0.112357,-0.039883,-0.138919,0.029460,-0.989865,0.040287,-0.000712,-0.035144,-12.043961,-45.347504,-54.010254,,,,,,,
1522136901.539342,-0.139026,-0.027491,-1.437299,0.112961,-0.067370,-0.059859,-0.138526,0.027487,-0.989977,0.007911,-0.004523,-0.021696,-15.399307,-44.954773,-51.388550,,,,,,,
1522136901.569311,-0.142518,-0.021767,-1.438055,0.224667,-0.137880,-0.044791,-0.142002,0.021765,-0.989627,0.014439,0.021982,-0.009931,-22.765762,-43.189819,-44.574280,,,,,,,
1522136901.599279,-0.147035,-0.014925,-1.438707,0.190572,-0.145105,-0.063985,-0.146490,0.014925,-0.989099,0.010503,0.011336,0.004099,-27.302765,-42.264603,-39.780212,,,,,,,
1522136901.629247,-0.150226,-0.011597,-1.439791,0.042371,-0.073679,-0.042863,-0.149651,0.011597,-0.988671,0.022363,0.031204,0.021996,-33.816910,-40.648666,-28.164917,,,,,,,
1522136901.659215,-0.150658,-0.012103,-1.440317,-0.039720,0.017526,0.012388,-0.150078,0.012103,-0.988600,0.009285,0.037122,0.049238,-34.821381,-39.962708,-21.718262,,,,,,,
1522136901.689184,-0.148720,-0.013306,-1.439741,-0.024499,0.090718,0.024053,-0.148159,0.013306,-0.988874,-0.003346,0.030075,0.025693,-37.917023,-39.116135,-14.073181,,,,,,,
1522136901.719152,-0.144191,-0.014099,-1.439414,-0.025207,0.167272,0.019703,-0.143678,0.014098,-0.989524,0.024781,0.003068,-0.039315,-37.526306,-38.728409,0.400452,,,,,,,
1522136901.749120,-0.140768,-0.015395,-1.438110,-0.030127,0.072394,0.063489,-0.140287,0.015395,-0.989991,-0.009127,-0.020110,-0.066085,-35.605713,-38.579712,7.750854,,,,,,,
1522136901.779088,-0.140486,-0.016245,-1.436117,-0.006018,-0.026487,0.063605,-0.140006,0.016244,-0.990017,-0.019678,0.005576,-0.056446,-31.081177,-37.759842,22.974854,,,,,,,
1522136901.809057,-0.141659,-0.017813,-1.434962,-0.097655,-0.032347,0.023051,-0.141164,0.017812,-0.989826,0.028187,-0.001959,-0.017895,-27.135406,-37.096085,29.499146,,,,,,,
1522136901.839025,-0.141231,-0.023315,-1.435984,-0.235909,0.040534,-0.017612,-0.140724,0.023312,-0.989774,-0.000405,-0.023862,0.014585,-14.819504,-34.890030,40.971436,,,,,,,
1522136901.868994,-0.140003,-0.029220,-1.437163,-0.157106,0.025286,0.008032,-0.139486,0.029215,-0.989793,0.001913,-0.007029,0.030702,-8.329239,-33.789352,45.845276,,,,,,,
1522136901.898962,-0.139662,-0.031658,-1.436182,-0.023025,0.006382,0.078483,-0.139139,0.031653,-0.989767,-0.031821,-0.009283,0.030569,5.241425,-30.544054,52.214111,,,,,,,
1522136901.928931,-0.137968,-0.030936,-1.434699,0.058818,0.085260,0.013473,-0.137465,0.030931,-0.990023,-0.005891,0.014342,-0.040403,12.623154,-28.175920,53.558350,,,,,,,
1522136901.958899,-0.136647,-0.028319,-1.434709,0.104427,-0.006073,-0.008783,-0.136168,0.028316,-0.990281,0.007826,-0.020000,-0.051269,24.227173,-23.576815,54.895752,,,,,,,
1522136901.988867,-0.139649,-0.025082,-1.433418,0.112072,-0.134027,0.052083,-0.139152,0.025079,-0.989953,0.014351,-0.027383,-0.001639,29.422150,-21.350573,54.514404,,,,,,,
1522136902.018836,-0.142369,-0.022520,-1.431618,0.075181,-0.048814,0.034926,-0.141853,0.022518,-0.989631,-0.002251,0.010243,0.031151,40.397079,-17.277590,51.878601,,,,,,,
1522136902.048804,-0.142507,-0.022383,-1.431439,-0.056625,0.016739,-0.021717,-0.141990,0.022381,-0.989615,0.000800,0.008030,0.032095,46.627304,-15.357958,49.549011,,,,,,,
1522136902.078771,-0.141169,-0.024939,-1.432628,-0.097062,0.056111,-0.014332,-0.140657,0.024936,-0.989744,-0.022536,-0.017383,0.027403,51.942245,-14.110628,45.796692,,,,,,,
1522136902.108739,-0.139382,-0.026794,-1.432475,-0.032106,0.064145,0.027273,-0.138881,0.026790,-0.989947,0.008754,-0.006099,0.025835,62.488602,-11.841646,37.242981,,,,,,,
,,,,,,,,,,,,,,,,25.312346,51.447453,11.005672,-1.000000,-1.000000,1522136902.098892,
1522136902.138708,-0.135495,-0.027362,-1.432387,-0.011156,0.169545,-0.009045,-0.135030,0.027358,-0.990464,-0.004969,0.005540,-0.026382,65.989990,-10.962801,31.841187,,,,,,,
1522136902.168645,-0.132207,-0.026565,-1.433453,0.055771,0.030579,-0.065333,-0.131775,0.026562,-0.990924,0.040909,0.004474,-0.057493,72.600845,-9.505678,18.713623,,,,,,,
1522136902.198614,-0.133692,-0.023711,-1.434558,0.095791,-0.058986,-0.036441,-0.133257,0.023709,-0.990798,0.029604,-0.027111,-0.035386,76.016647,-8.328691,11.060669,,,,,,,
1522136902.228582,-0.135331,-0.021175,-1.434734,0.075375,-0.064391,-0.016206,-0.134888,0.021174,-0.990634,0.036683,0.027807,-0.010663,75.710770,-6.693529,-5.146057,,,,,,,
1522136902.258550,-0.137608,-0.019297,-1.435444,0.036968,-0.082207,-0.037529,-0.137148,0.019295,-0.990362,0.000658,0.021690,-0.007364,74.470535,-6.170519,-12.723755,,,,,,,
1522136902.288508,-0.138838,-0.019415,-1.436198,-0.041845,-0.014151,-0.016347,-0.138366,0.019414,-0.990191,-0.007859,0.005473,-0.007337,68.609680,-5.709230,-27.803528,,,,,,,
1522136902.318477,-0.138765,-0.021228,-1.436532,-0.064342,0.001638,0.012393,-0.138289,0.021226,-0.990164,0.018553,0.000518,0.008185,63.631302,-5.167452,-33.433167,,,,,,,
1522136902.348445,-0.137933,-0.022910,-1.435911,-0.031139,0.055559,0.039003,-0.137460,0.022908,-0.990242,0.019128,0.004756,0.019982,53.299484,-4.905870,-43.339355,,,,,,,
1522136902.378413,-0.134462,-0.022818,-1.434923,0.037705,0.145869,0.017647,-0.134023,0.022816,-0.990715,0.024434,0.012752,-0.051124,46.533234,-4.728426,-46.343445,,,,,,,
1522136902.408381,-0.131521,-0.020912,-1.434300,0.074603,0.038481,0.014582,-0.131114,0.020911,-0.991147,0.039057,-0.026541,-0.085834,41.120239,-4.856020,-48.295654,,,,,,,
1522136902.438350,-0.133205,-0.018834,-1.433055,0.072694,-0.109464,0.048831,-0.132788,0.018833,-0.990965,0.002402,-0.031635,-0.059373,30.523010,-5.186480,-51.449707,,,,,,,
1522136902.468318,-0.135406,-0.017762,-1.431112,0.013218,-0.037087,0.051915,-0.134971,0.017761,-0.990690,0.015205,0.012878,-0.047136,24.376999,-4.559206,-51.830261,,,,,,,
1522136902.498286,-0.135504,-0.019494,-1.430881,-0.102646,-0.004424,-0.018531,-0.135064,0.019492,-0.990645,0.010873,0.002648,-0.056444,11.568619,-3.974779,-50.038940,,,,,,,
1522136902.528254,-0.137489,-0.022561,-1.432076,-0.088103,-0.103234,-0.025878,-0.137021,0.022559,-0.990311,0.002011,-0.016654,-0.032425,4.840790,-3.192110,-47.645508,,,,,,,
1522136902.558223,-0.140492,-0.023551,-1.432063,0.001355,-0.084733,0.032770,-0.139991,0.023549,-0.989873,-0.004235,-0.015111,0.007786,-6.415909,-1.482912,-39.107971,,,,,,,
1522136902.588191,-0.141386,-0.023075,-1.430925,0.023257,0.012074,0.010308,-0.140878,0.023073,-0.989758,0.012063,0.022871,-0.025058,-9.295456,-0.489046,-33.188293,,,,,,,
1522136902.618159,-0.140449,-0.022936,-1.431814,-0.016962,0.014736,-0.053649,-0.139951,0.022934,-0.989893,-0.009097,0.026673,-0.025626,-10.247391,1.852690,-20.748230,,,,,,,
1522136902.648127,-0.142129,-0.022654,-1.433460,0.023055,-0.097021,-0.042845,-0.141615,0.022652,-0.989662,-0.002092,0.005012,0.046776,-9.224854,3.053999,-14.827515,,,,,,,
1522136902.678096,-0.142634,-0.021503,-1.433761,0.015991,0.038746,-0.004631,-0.142118,0.021502,-0.989616,0.036360,-0.028200,0.063316,-3.159988,4.909437,-7.106873,,,,,,,
1522136902.708064,-0.138233,-0.023158,-1.434029,-0.095446,0.223709,0.025995,-0.137756,0.023156,-0.990195,-0.008957,0.004798,0.015754,1.359787,5.940672,-5.533752,,,,,,,
1522136902.738032,-0.131664,-0.028516,-1.433868,-0.207615,0.192214,0.011027,-0.131230,0.028512,-0.990942,0.001607,0.006339,-0.024653,3.776779,6.606520,-3.810242,,,,,,,
1522136902.768001,-0.127787,-0.033757,-1.434401,-0.142997,0.083616,0.016520,-0.127367,0.033750,-0.991281,0.026659,0.024203,-0.004141,8.353973,6.960691,-4.034363,,,,,,,
1522136902.797969,-0.125784,-0.036460,-1.433942,-0.055487,0.078075,0.018718,-0.125370,0.036452,-0.991440,0.036045,-0.014082,-0.006103,10.521103,6.350645,-4.330811,,,,,,,
1522136902.827937,-0.124451,-0.036525,-1.434434,0.039559,0.006054,-0.048268,-0.124047,0.036517,-0.991604,0.020684,-0.009799,-0.006870,11.563004,4.996855,-3.424927,,,,,,,
1522136902.857905,-0.125006,-0.033370,-1.435110,0.138508,-0.032681,-0.015122,-0.124611,0.033364,-0.991644,0.024666,-0.005516,-0.017526,12.901566,3.940687,-3.569946,,,,,,,
1522136902.887874,-0.125935,-0.028742,-1.433597,0.166893,-0.049183,0.055239,-0.125551,0.028738,-0.991671,0.042222,0.000620,-0.035124,16.325790,2.124022,-4.835999,,,,,,,
1522136902.917842,-0.127146,-0.024186,-1.431910,0.140407,-0.045660,0.017918,-0.126767,0.024184,-0.991638,-0.003070,0.008516,-0.068223,16.387619,1.297926,-5.657715,,,,,,,
1522136902.947810,-0.130947,-0.021704,-1.431519,0.047887,-0.209033,0.011624,-0.130542,0.021702,-0.991205,0.028446,-0.013798,-0.021475,17.168182,-0.584856,-9.924744,,,,,,,
1522136902.977778,-0.137276,-0.022252,-1.429643,-0.044185,-0.167954,0.095692,-0.136812,0.022251,-0.990347,0.009050,-0.015735,0.089834,16.316528,-1.633730,-12.620972,,,,,,,
1522136903.007747,-0.137462,-0.024846,-1.427225,-0.086605,0.110695,0.076198,-0.136987,0.024843,-0.990261,-0.027136,0.030974,0.040386,9.382324,-3.704760,-14.866150,,,,,,,
1522136903.037715,-0.131374,-0.028656,-1.426821,-0.170164,0.214398,0.015299,-0.130942,0.028652,-0.990976,-0.014092,-0.011410,-0.045294,5.027130,-4.135317,-15.016663,,,,,,,
1522136903.067683,-0.127164,-0.034409,-1.428047,-0.179084,0.086131,-0.024010,-0.126746,0.034402,-0.991338,0.017768,-0.044870,-0.036387,1.732681,-4.119600,-14.118347,,,,,,,
1522136903.097651,-0.126805,-0.036910,-1.428777,-0.009839,-0.006882,-0.004605,-0.126379,0.036902,-0.991295,0.024542,-0.035040,-0.016014,-5.658508,-4.155642,-8.421875,,,,,,,
1522136903.127620,-0.128071,-0.035569,-1.428496,0.062632,-0.044183,-0.013045,-0.127640,0.035562,-0.991183,0.056137,-0.007883,-0.015867,-7.272278,-3.318727,-3.776062,,,,,,,
,,,,,,,,,,,,,,,,25.312408,51.447550,11.005795,-1.000000,-1.000000,1522136903.103341,
1522136903.157588,-0.130889,-0.033571,-1.430154,0.048746,-0.123391,-0.079032,-0.130442,0.033565,-0.990887,-0.003988,0.004658,0.006924,-6.466751,-2.489489,4.096008,,,,,,,
1522136903.187556,-0.133130,-0.032077,-1.431414,0.027473,-0.045071,-0.026915,-0.132669,0.032072,-0.990641,-0.002951,0.004137,0.035899,-5.840958,-2.113619,7.769836,,,,,,,
1522136903.217524,-0.133118,-0.032386,-1.430875,-0.028239,0.028755,0.073124,-0.132656,0.032380,-0.990633,-0.032612,-0.019639,0.027101,-1.227417,-1.004808,12.342712,,,,,,,
1522136903.247493,-0.129714,-0.032793,-1.427807,0.046794,0.150438,0.121003,-0.129281,0.032787,-0.991066,0.032860,0.019551,-0.002297,1.934433,-0.268297,13.091370,,,,,,,
1522136903.277451,-0.125102,-0.030394,-1.425147,0.114573,0.145667,0.018771,-0.124718,0.030389,-0.991727,0.017830,-0.020639,-0.082324,5.254990,1.067961,14.287720,,,,,,,
1522136903.307419,-0.125067,-0.026713,-1.427160,0.107792,-0.115713,-0.134402,-0.124697,0.026710,-0.991835,0.033342,-0.040031,-0.120210,6.232925,1.363554,14.286987,,,,,,,
1522136903.337388,-0.132375,-0.023472,-1.430050,0.089607,-0.299867,-0.082018,-0.131952,0.023470,-0.990978,0.004587,-0.028933,-0.023091,8.782806,1.576704,13.912415,,,,,,,
1522136903.367356,-0.139350,-0.019801,-1.431338,0.133984,-0.139657,-0.060846,-0.138872,0.019799,-0.990112,0.017489,0.053138,0.045975,8.932648,1.875502,13.386292,,,,,,,
1522136903.397324,-0.140299,-0.015566,-1.433533,0.094226,-0.018109,-0.108930,-0.139822,0.015566,-0.990054,0.020437,0.041457,-0.026456,10.496933,1.567198,12.113342,,,,,,,
1522136903.427292,-0.142513,-0.013750,-1.437322,0.039281,-0.147460,-0.128032,-0.142017,0.013750,-0.989769,0.006001,0.026274,-0.005990,11.103485,2.089689,12.336487,,,,,,,
1522136903.457261,-0.150347,-0.011231,-1.439626,0.108693,-0.296920,-0.054304,-0.149771,0.011231,-0.988657,0.006308,0.035430,0.084955,10.358322,2.168715,13.010803,,,,,,,
1522136903.487229,-0.154374,-0.009082,-1.439025,0.027329,0.005435,0.044424,-0.153755,0.009082,-0.988067,0.011925,0.025159,0.073821,12.695511,2.759245,14.059692,,,,,,,
1522136903.517197,-0.149354,-0.011308,-1.437808,-0.111436,0.234329,0.031306,-0.148790,0.011308,-0.988804,-0.021956,0.041030,0.017491,14.424042,3.201323,13.908752,,,,,,,
1522136903.547165,-0.143327,-0.014082,-1.438371,-0.054907,0.164397,-0.017594,-0.142822,0.014082,-0.989648,-0.028885,0.017718,-0.009360,14.656540,3.501020,14.657654,,,,,,,
1522136903.577134,-0.138762,-0.013944,-1.437791,0.041767,0.159301,0.069851,-0.138304,0.013944,-0.990292,0.037092,-0.042356,-0.025425,14.507446,3.501844,14.807617,,,,,,,
1522136903.607102,-0.131993,-0.012711,-1.434303,0.073049,0.280034,0.114513,-0.131599,0.012711,-0.991221,0.046302,-0.012512,-0.094197,16.093948,3.346876,16.984009,,,,,,,
1522136903.637070,-0.124680,-0.010146,-1.432727,0.110664,0.176742,-0.020669,-0.124351,0.010146,-0.992186,0.046912,0.012574,-0.180452,17.372070,3.117033,17.885559,,,,,,,
1522136903.667038,-0.126372,-0.007197,-1.432897,0.080881,-0.235658,0.008479,-0.126033,0.007197,-0.992000,0.042384,-0.044398,-0.139928,22.535049,1.369703,18.795105,,,,,,,
1522136903.697007,-0.137360,-0.005440,-1.431696,0.053381,-0.370796,0.045883,-0.136926,0.005440,-0.990566,0.018564,-0.025337,0.006313,24.693634,-0.140230,18.577271,,,,,,,
1522136903.726975,-0.144894,-0.004914,-1.429591,0.008319,-0.162560,0.064829,-0.144386,0.004914,-0.989509,-0.028939,0.011473,0.052986,29.966873,-3.616793,15.743774,,,,,,,
1522136903.756943,-0.146039,-0.006885,-1.429419,-0.134466,0.030770,-0.027107,-0.145517,0.006885,-0.989332,-0.039267,-0.002719,0.009611,33.162354,-5.358187,13.727356,,,,,,,
1522136903.786911,-0.143579,-0.012565,-1.431222,-0.229246,0.089436,-0.024046,-0.143075,0.012565,-0.989632,-0.027762,-0.032432,-0.003608,35.901871,-7.248278,10.961304,,,,,,,
1522136903.816880,-0.140752,-0.019421,-1.432517,-0.217566,0.112564,0.007904,-0.140261,0.019419,-0.989924,0.031100,0.002691,0.024638,40.114883,-9.673525,4.673096,,,,,,,
1522136903.846848,-0.137030,-0.023962,-1.434271,-0.106025,0.137246,-0.066623,-0.136562,0.023960,-0.990342,0.034191,0.023465,-0.009521,41.805908,-10.735033,0.778137,,,,,,,
1522136903.876816,-0.135236,-0.025418,-1.436810,-0.044576,0.009715,-0.085629,-0.134780,0.025415,-0.990549,0.008163,-0.039438,-0.021398,42.568253,-11.872011,-7.766907,,,,,,,
1522136903.906784,-0.136510,-0.026629,-1.437566,-0.057224,-0.063280,0.024183,-0.136038,0.026625,-0.990346,0.036231,-0.045928,0.008595,42.692581,-12.326082,-11.290039,,,,,,,
1522136903.936753,-0.137881,-0.029153,-1.436590,-0.088095,-0.018741,0.046499,-0.137386,0.029149,-0.990088,-0.009450,0.002101,0.034980,42.269547,-13.080935,-18.037231,,,,,,,
1522136903.966721,-0.136155,-0.032127,-1.436580,-0.109725,0.077441,-0.022878,-0.135665,0.032122,-0.990234,0.004149,0.015730,0.025939,40.676910,-13.900347,-19.609741,,,,,,,
1522136903.996689,-0.134034,-0.035293,-1.438516,-0.128936,0.045829,-0.052702,-0.133550,0.035286,-0.990414,0.047490,-0.014335,0.007397,41.175156,-14.056780,-23.808899,,,,,,,
1522136904.026658,-0.136158,-0.037450,-1.440500,-0.021918,-0.135080,-0.052441,-0.135642,0.037442,-0.990050,0.029243,-0.031842,0.057463,41.758911,-14.286730,-26.132690,,,,,,,
1522136904.056626,-0.139397,-0.036263,-1.441647,0.064826,-0.058938,-0.034324,-0.138855,0.036255,-0.989649,0.006165,-0.000321,0.068796,40.906921,-14.736635,-29.881226,,,,,,,
1522136904.086594,-0.138716,-0.032916,-1.442391,0.145455,0.066285,-0.035474,-0.138196,0.032910,-0.989858,0.017209,0.035861,0.036504,39.917847,-14.884295,-31.981140,,,,,,,
1522136904.116562,-0.136757,-0.027338,-1.441850,0.200726,0.053107,0.002953,-0.136280,0.027335,-0.990293,0.036396,0.030298,-0.052615,40.726608,-15.339876,-33.928894,,,,,,,
,,,,,,,,,,,,,,,,25.312440,51.447571,11.005795,0.352153,-1.000000,1522136904.110214,
1522136904.146531,-0.134234,-0.022854,-1.440424,0.117443,0.111417,0.052905,-0.133796,0.022852,-0.990745,0.031623,0.002065,-0.061928,38.066315,-16.981050,-37.073730,,,,,,,
1522136904.176499,-0.131766,-0.022087,-1.437275,-0.012495,0.051579,0.145573,-0.131353,0.022085,-0.991090,0.110570,-0.065420,-0.078964,36.932068,-17.277010,-38.123108,,,,,,,
1522136904.206467,-0.129275,-0.023977,-1.430566,-0.014190,0.057088,0.270231,-0.128878,0.023975,-0.991370,0.092074,-0.025577,-0.100335,35.468155,-19.373400,-41.115417,,,,,,,
1522136904.236435,-0.128510,-0.021929,-1.423003,0.199506,-0.006577,0.183072,-0.128126,0.021927,-0.991515,-0.015673,0.054748,-0.185578,33.279037,-20.563921,-41.486755,,,,,,,
1522136904.266404,-0.134481,-0.013928,-1.419703,0.287684,-0.340117,-0.018965,-0.134063,0.013927,-0.990875,-0.034379,0.042317,-0.121796,30.189316,-21.675615,-42.083862,,,,,,,
1522136904.296357,-0.145494,-0.007608,-1.422429,0.123068,-0.307928,-0.157633,-0.144977,0.007608,-0.989406,0.011340,-0.019616,-0.005330,30.331528,-22.276552,-42.381409,,,,,,,
1522136904.326325,-0.148831,-0.006279,-1.427448,-0.040813,0.041061,-0.164498,-0.148280,0.006279,-0.988925,0.030146,-0.036904,-0.017743,28.615570,-21.368837,-42.385925,,,,,,,
1522136904.356293,-0.147009,-0.007929,-1.432033,-0.080538,0.020801,-0.140002,-0.146476,0.007929,-0.989182,0.037620,0.013540,-0.063018,27.795547,-20.690447,-42.689026,,,,,,,
1522136904.386262,-0.149187,-0.009134,-1.436289,-0.037513,-0.119713,-0.118523,-0.148628,0.009134,-0.988851,0.003730,0.019873,-0.017390,25.859650,-18.508028,-43.973694,,,,,,,
1522136904.416230,-0.153026,-0.008558,-1.438731,0.029381,-0.126730,-0.052396,-0.152424,0.008558,-0.988278,0.024799,0.041521,0.040524,23.468597,-17.747042,-43.752930,,,,,,,
1522136904.446198,-0.154395,-0.008037,-1.438321,-0.003588,0.026697,0.053969,-0.153778,0.008037,-0.988073,0.035720,0.018575,0.053334,20.120834,-15.331469,-43.239258,,,,,,,
1522136904.476166,-0.150560,-0.010780,-1.437257,-0.124618,0.158866,0.037769,-0.149983,0.010780,-0.988630,0.043721,0.015770,0.008222,19.540787,-14.052660,-42.044678,,,,,,,
1522136904.506135,-0.147125,-0.015108,-1.437314,-0.125884,0.076230,0.003750,-0.146578,0.015108,-0.989084,0.023714,-0.010011,0.031213,18.140121,-12.469942,-40.626709,,,,,,,
1522136904.536103,-0.145006,-0.017528,-1.438041,-0.053016,0.105966,-0.020727,-0.144476,0.017527,-0.989353,0.075918,-0.004191,0.044895,17.879654,-9.317430,-39.289429,,,,,,,
1522136904.566071,-0.140971,-0.017697,-1.438773,0.021946,0.135665,-0.038819,-0.140483,0.017696,-0.989925,0.056575,-0.001506,-0.021153,17.515289,-8.116014,-39.519409,,,,,,,
1522136904.596039,-0.138169,-0.015485,-1.439810,0.112396,0.043135,-0.059964,-0.137713,0.015484,-0.990351,0.049120,0.030918,-0.052694,14.302582,-7.425661,-38.623840,,,,,,,
1522136904.626008,-0.139262,-0.010944,-1.440360,0.151977,-0.111441,-0.003305,-0.138804,0.010944,-0.990259,0.077051,0.002408,-0.018072,11.533386,-7.112764,-38.176453,,,,,,,
1522136904.655976,-0.141734,-0.009325,-1.438411,-0.011493,-0.023522,0.094512,-0.141253,0.009325,-0.989929,0.059680,0.009032,0.025742,8.177444,-6.869890,-35.404053,,,,,,,
1522136904.685944,-0.138595,-0.012109,-1.436302,-0.100231,0.148029,0.060169,-0.138141,0.012109,-0.990338,0.025791,0.040580,-0.003360,7.218704,-6.638247,-33.080505,,,,,,,
1522136904.715913,-0.133763,-0.015621,-1.434862,-0.112983,0.158683,0.059091,-0.133348,0.015620,-0.990946,0.053422,-0.005428,-0.015127,8.674438,-6.040682,-28.957153,,,,,,,
1522136904.745881,-0.128011,-0.018959,-1.432915,-0.087367,0.192421,0.088906,-0.127638,0.018958,-0.991639,0.044676,-0.057212,-0.070189,10.107468,-5.821154,-27.982300,,,,,,,
1522136904.775849,-0.123080,-0.019948,-1.430568,0.037220,0.111395,0.082689,-0.122745,0.019946,-0.992238,0.035281,-0.000324,-0.122066,9.662277,-5.294222,-28.059631,,,,,,,
1522136904.805817,-0.122258,-0.018038,-1.428380,0.077291,-0.053093,0.037069,-0.121934,0.018037,-0.992374,0.043031,-0.021745,-0.117550,8.758408,-5.141054,-28.960754,,,,,,,
1522136904.835786,-0.125901,-0.016315,-1.429019,0.013294,-0.155291,-0.064105,-0.125552,0.016314,-0.991953,0.074847,-0.028491,-0.075552,7.637329,-4.611238,-29.188354,,,,,,,
1522136904.865754,-0.130003,-0.018826,-1.431364,-0.157516,-0.124247,-0.038678,-0.129614,0.018825,-0.991386,0.046835,-0.021099,-0.011681,1.507675,-3.382311,-27.846375,,,,,,,
1522136904.895722,-0.134057,-0.023902,-1.432176,-0.153557,-0.129914,0.013526,-0.133617,0.023900,-0.990745,0.009151,0.009929,0.033118,-0.944138,-2.319185,-25.751892,,,,,,,
1522136904.925690,-0.135632,-0.027173,-1.432427,-0.084542,0.000727,-0.003597,-0.135167,0.027170,-0.990450,0.039861,0.014456,0.024737,-3.745087,-1.100435,-19.608215,,,,,,,
1522136904.955659,-0.134041,-0.029173,-1.433076,-0.066908,0.091201,-0.031379,-0.133583,0.029169,-0.990608,0.012306,-0.000208,-0.035057,-2.743851,-0.276949,-16.610962,,,,,,,
1522136904.985627,-0.131252,-0.029594,-1.433585,0.035159,0.028059,-0.003537,-0.130818,0.029589,-0.990964,0.059193,-0.001330,-0.054690,1.039459,0.310606,-12.036438,,,,,,,
1522136905.015595,-0.133144,-0.026902,-1.433684,0.092415,-0.081409,-0.021496,-0.132703,0.026899,-0.990791,0.046506,-0.019102,-0.041009,2.472061,0.305433,-10.760681,,,,,,,
1522136905.045563,-0.134296,-0.026444,-1.433401,-0.038860,-0.026093,0.016708,-0.133846,0.026440,-0.990649,0.033290,-0.005383,-0.024610,7.203796,-0.238832,-8.731140,,,,,,,
1522136905.075532,-0.134112,-0.028096,-1.432572,-0.041157,-0.000946,0.068889,-0.133658,0.028092,-0.990629,0.072210,0.021239,-0.027849,10.798721,-0.705080,-8.802429,,,,,,,
1522136905.105500,-0.133549,-0.029754,-1.430947,-0.071791,0.050241,0.051776,-0.133094,0.029750,-0.990657,0.038886,-0.027995,-0.068883,15.674149,-1.700289,-7.071045,,,,,,,
1522136905.135468,-0.132320,-0.032814,-1.431407,-0.101461,-0.042324,-0.071757,-0.131863,0.032808,-0.990725,0.038449,0.009550,-0.113310,19.340607,-2.242311,-7.592041,,,,,,,
,,,,,,,,,,,,,,,,25.312526,51.447676,11.006100,-1.000000,-1.000000,1522136905.109158,
1522136905.165436,-0.139145,-0.034572,-1.434918,-0.068336,-0.318391,-0.111952,-0.138613,0.034565,-0.989743,0.041751,-0.019001,-0.012302,22.401245,-3.231829,-8.336609,,,,,,,
1522136905.195405,-0.148688,-0.035954,-1.438408,-0.067111,-0.284398,-0.111981,-0.148045,0.035946,-0.988327,0.053150,-0.016522,0.089386,29.120193,-4.315432,-11.703918,,,,,,,
1522136905.225373,-0.153831,-0.038016,-1.441076,-0.090121,-0.097786,-0.044000,-0.153114,0.038006,-0.987477,0.035316,0.000888,0.103474,31.719742,-5.154970,-14.549194,,,,,,,
1522136905.255341,-0.154616,-0.039940,-1.440987,-0.029223,0.000333,0.033735,-0.153877,0.039929,-0.987283,-0.054298,0.029102,0.055169,35.874237,-6.603838,-19.716309,,,,,,,
1522136905.285325,-0.152641,-0.039716,-1.439679,0.035265,0.112690,0.049657,-0.151929,0.039705,-0.987593,0.045880,0.055220,0.046858,36.749603,-7.809862,-21.811096,,,,,,,
1522136905.315293,-0.145350,-0.039672,-1.439644,-0.042380,0.338622,-0.016691,-0.144725,0.039661,-0.988676,0.062846,-0.016086,-0.061220,40.007751,-9.254091,-26.378662,,,,,,,
1522136905.345261,-0.136822,-0.042882,-1.440597,-0.109091,0.183913,-0.052821,-0.136270,0.042869,-0.989743,0.070032,-0.002189,-0.097079,43.130630,-10.171144,-29.373352,,,,,,,
1522136905.375229,-0.139346,-0.042582,-1.442516,0.096131,-0.253242,-0.065016,-0.138769,0.042569,-0.989409,0.053320,-0.006238,0.006545,45.177536,-11.611803,-35.816589,,,,,,,
1522136905.405198,-0.148477,-0.037340,-1.443147,0.192928,-0.305745,-0.039308,-0.147829,0.037331,-0.988308,0.040590,0.009345,0.067226,45.894348,-12.369295,-40.088257,,,,,,,
1522136905.435166,-0.154274,-0.031394,-1.443109,0.189364,-0.135786,-0.028832,-0.153587,0.031388,-0.987636,0.045127,0.035949,0.071315,45.079834,-14.098497,-47.956726,,,,,,,
1522136905.465134,-0.155174,-0.026605,-1.443211,0.143196,0.044948,-0.026910,-0.154498,0.026601,-0.987635,-0.005460,0.040186,0.018992,43.023285,-15.142763,-51.478577,,,,,,,
1522136905.495102,-0.150936,-0.022020,-1.443882,0.168466,0.167303,-0.057915,-0.150327,0.022018,-0.988391,0.028653,0.056778,-0.047605,39.669876,-17.382845,-56.646301,,,,,,,
1522136905.525071,-0.146768,-0.017389,-1.444423,0.115789,0.121549,-0.029144,-0.146220,0.017388,-0.989099,0.092875,0.008277,-0.098883,38.974655,-18.056963,-58.893982,,,,,,,
1522136905.555039,-0.143288,-0.016316,-1.444328,0.010789,0.094921,0.017684,-0.142779,0.016315,-0.989620,0.078249,0.023174,-0.131855,37.154160,-18.800936,-61.066895,,,,,,,
1522136905.585007,-0.144603,-0.014913,-1.443241,0.105653,-0.174203,0.022299,-0.144084,0.014912,-0.989453,0.040843,0.044460,-0.097522,34.789673,-20.593889,-64.660889,,,,,,,
1522136905.614975,-0.153843,-0.011276,-1.441981,0.105922,-0.358002,0.017159,-0.153227,0.011276,-0.988126,0.026305,0.006547,-0.007067,33.418564,-21.040499,-67.434814,,,,,,,
1522136905.644944,-0.161329,-0.011157,-1.441124,-0.077829,-0.131281,0.028509,-0.160620,0.011157,-0.986953,-0.024851,-0.003329,0.044021,26.928650,-22.964739,-70.880371,,,,,,,
1522136905.674912,-0.159447,-0.017713,-1.440535,-0.287018,0.172861,0.070660,-0.158747,0.017712,-0.987160,0.015681,0.025150,0.021385,24.139191,-23.328997,-72.680298,,,,,,,
1522136905.704880,-0.150834,-0.028616,-1.439739,-0.382316,0.358984,0.079995,-0.150201,0.028612,-0.988241,0.033166,0.013472,-0.042017,19.629929,-23.310274,-74.257629,,,,,,,
1522136905.734848,-0.139657,-0.038651,-1.439617,-0.280574,0.357038,0.018272,-0.139099,0.038641,-0.989524,0.056778,-0.023001,-0.135384,16.481262,-23.221041,-74.184570,,,,,,,
1522136905.764817,-0.133269,-0.044677,-1.440941,-0.139478,0.098824,-0.031444,-0.132742,0.044663,-0.990144,0.057104,-0.037186,-0.135619,11.310547,-23.646349,-72.760437,,,,,,,
1522136905.794785,-0.137217,-0.044688,-1.442134,0.101130,-0.285428,-0.025543,-0.136651,0.044673,-0.989611,0.036873,-0.041407,-0.054990,8.758270,-24.234255,-72.159363,,,,,,,
1522136905.824753,-0.148675,-0.039130,-1.441968,0.215731,-0.428166,-0.014667,-0.148015,0.039120,-0.988211,0.026189,-0.006130,0.029486,1.857742,-26.000353,-69.305786,,,,,,,
1522136905.854721,-0.160453,-0.033370,-1.442050,0.135049,-0.352365,-0.037177,-0.159676,0.033364,-0.986605,0.021904,0.012672,0.092486,-1.140289,-27.109682,-67.127808,,,,,,,
1522136905.884690,-0.167790,-0.031342,-1.442042,0.024525,-0.165509,0.025417,-0.166921,0.031337,-0.985472,0.034429,0.020207,0.145872,-3.685791,-27.921129,-65.025818,,,,,,,
1522136905.914658,-0.168938,-0.031652,-1.440036,0.008118,0.058295,0.089112,-0.168051,0.031646,-0.985270,-0.014490,0.013611,0.137385,-7.407639,-29.022844,-58.498291,,,,,,,
1522136905.944626,-0.163767,-0.030921,-1.436748,0.068553,0.213208,0.099658,-0.162958,0.030917,-0.986148,0.012170,-0.003283,0.041812,-7.687469,-29.392611,-54.521912,,,,,,,
1522136905.974595,-0.156416,-0.029259,-1.434799,0.060523,0.236100,0.020777,-0.155713,0.029255,-0.987369,0.015820,-0.014973,-0.051648,-4.581039,-30.299837,-47.766724,,,,,,,
1522136906.004563,-0.152784,-0.027147,-1.435571,0.089058,0.045503,-0.086621,-0.152134,0.027144,-0.987987,0.059330,-0.010695,-0.084859,-1.274063,-31.137163,-45.211731,,,,,,,
1522136906.034531,-0.154610,-0.023402,-1.437740,0.123457,-0.127869,-0.075762,-0.153952,0.023400,-0.987801,0.068167,-0.014748,-0.025230,6.530304,-31.920244,-43.179688,,,,,,,
1522136906.064499,-0.159848,-0.019018,-1.438355,0.145373,-0.167652,-0.014980,-0.159139,0.019017,-0.987073,0.059194,0.034221,0.009701,9.296631,-32.383362,-43.851501,,,,,,,
1522136906.094468,-0.162156,-0.015262,-1.437361,0.120013,-0.059515,0.028583,-0.161427,0.015261,-0.986766,0.072560,0.038907,0.008785,13.091461,-33.378815,-47.220642,,,,,,,
1522136906.124436,-0.163658,-0.011887,-1.435898,0.114776,-0.046688,0.020040,-0.162917,0.011887,-0.986568,0.039793,0.023086,-0.022023,14.276688,-33.461472,-49.544678,,,,,,,
,,,,,,,,,,,,,,,,25.312543,51.447709,11.006100,0.316189,-1.000000,1522136906.106790,
1522136906.154404,-0.164467,-0.009443,-1.435147,0.078526,-0.044423,0.012554,-0.163719,0.009443,-0.986461,0.048195,-0.000837,-0.006687,14.392456,-34.141571,-54.116882,,,,,,,
1522136906.184372,-0.166125,-0.007353,-1.434468,0.080742,-0.042188,-0.002371,-0.165357,0.007353,-0.986206,-0.006976,0.003008,-0.010513,14.379700,-34.293381,-55.991272,,,,,,,
1522136906.214341,-0.165000,-0.005940,-1.433880,0.032036,0.057758,0.006017,-0.164249,0.005940,-0.986401,0.045963,0.002284,-0.025532,13.464737,-34.890762,-57.489380,,,,,,,
1522136906.244309,-0.162822,-0.005822,-1.433144,-0.002239,0.076693,0.044337,-0.162101,0.005822,-0.986757,0.056540,-0.004723,-0.061064,11.639572,-35.335999,-60.938538,,,,,,,
1522136906.274264,-0.159977,-0.005715,-1.432210,0.033290,0.099183,0.007047,-0.159293,0.005715,-0.987215,-0.004495,0.003470,-0.106734,9.911774,-35.029190,-61.915649,,,,,,,
1522136906.304232,-0.159402,-0.003390,-1.431991,0.097785,-0.061300,-0.010862,-0.158727,0.003390,-0.987316,0.039113,0.024671,-0.116749,6.912643,-34.491455,-62.669312,,,,,,,
1522136906.334201,-0.162381,-0.001497,-1.432138,0.019823,-0.081226,-0.022612,-0.161668,0.001497,-0.986844,0.038530,-0.020540,-0.062900,4.071182,-34.402390,-61.396057,,,,,,,
1522136906.364169,-0.163014,-0.002611,-1.433389,-0.089606,0.004267,-0.052615,-0.162293,0.002611,-0.986739,0.045075,-0.011705,-0.057069,1.107895,-32.436218,-58.555359,,,,,,,
1522136906.394137,-0.163262,-0.004669,-1.435514,-0.047231,-0.074428,-0.057837,-0.162536,0.004669,-0.986691,0.030379,0.015518,-0.044330,0.835632,-31.007753,-56.311218,,,,,,,
1522136906.424105,-0.168816,-0.003720,-1.436777,0.053410,-0.205639,-0.020338,-0.168014,0.003720,-0.985777,0.026428,0.020283,0.014616,1.938049,-28.008974,-52.572632,,,,,,,
1522136906.454074,-0.171653,-0.003784,-1.436836,-0.052659,-0.017510,0.009234,-0.170810,0.003784,-0.985296,0.031574,0.034638,0.027319,2.941025,-26.062075,-51.154907,,,,,,,
1522136906.484042,-0.168699,-0.007787,-1.437091,-0.166365,0.130328,0.032431,-0.167895,0.007787,-0.985774,0.046496,0.013744,-0.006398,6.128174,-22.700823,-50.566833,,,,,,,
1522136906.514010,-0.164841,-0.011958,-1.435942,-0.078033,0.113868,0.074076,-0.164084,0.011958,-0.986374,0.037634,-0.002894,-0.033615,6.217087,-21.351152,-50.497131,,,,,,,
1522136906.543979,-0.162653,-0.012130,-1.433655,0.047729,0.047765,0.060387,-0.161925,0.012130,-0.986728,0.038557,-0.009765,-0.033169,6.228012,-20.301134,-50.426331,,,,,,,
1522136906.573947,-0.160787,-0.012438,-1.432344,-0.054528,0.062060,0.027269,-0.160082,0.012438,-0.987025,0.071475,-0.023424,-0.047689,5.586594,-17.746904,-49.086914,,,,,,,
1522136906.603915,-0.160557,-0.015520,-1.432356,-0.124382,-0.057715,0.010284,-0.159849,0.015520,-0.987019,0.031980,-0.045274,-0.035579,4.407486,-16.689882,-47.366699,,,,,,,
1522136906.633883,-0.164049,-0.018593,-1.421733,-0.084158,-0.157555,-0.009833,-0.163286,0.018592,-0.986403,0.060365,-0.004432,0.019713,3.401749,-14.506624,-43.625916,,,,,,,
1522136906.663852,-0.168854,-0.020756,-1.416798,-0.082065,-0.168178,-0.010887,-0.168016,0.020755,-0.985565,0.046465,-0.015109,0.090592,4.021072,-13.607683,-41.904236,,,,,,,
1522136906.693820,-0.170650,-0.024375,-1.405223,-0.177272,0.039188,-0.000507,-0.169772,0.024373,-0.985182,0.045718,-0.008824,0.099851,5.250732,-12.485140,-38.833069,,,,,,,
1522136906.723788,-0.165370,-0.030519,-1.406715,-0.206229,0.231677,-0.013505,-0.164540,0.030515,-0.985898,0.003209,0.005450,0.050748,7.440933,-11.818575,-37.409668,,,,,,,
1522136906.753756,-0.161592,-0.033186,-1.407102,0.000957,0.034427,0.009220,-0.160801,0.033180,-0.986429,0.050175,0.009179,0.034921,14.730316,-10.875551,-36.584778,,,,,,,
1522136906.783725,-0.161505,-0.031482,-1.406381,0.063751,0.023459,0.036975,-0.160725,0.031477,-0.986497,0.077350,-0.029875,0.062699,17.501877,-10.813692,-37.258606,,,,,,,
1522136906.813693,-0.158820,-0.030712,-1.405045,0.017306,0.124613,0.022992,-0.158078,0.030707,-0.986949,0.059552,-0.010352,0.018183,26.715607,-9.284594,-41.685181,,,,,,,
1522136906.843661,-0.156134,-0.028980,-1.404934,0.102524,0.020629,-0.029050,-0.155436,0.028975,-0.987421,0.055231,0.018449,-0.025656,31.275681,-8.483934,-45.511047,,,,,,,
1522136906.873629,-0.158545,-0.024154,-1.405727,0.175635,-0.127119,-0.049089,-0.157836,0.024152,-0.987170,0.047698,0.004687,0.006548,35.870453,-7.615267,-56.162292,,,,,,,
1522136906.903598,-0.160013,-0.019576,-1.405528,0.116376,0.035343,-0.010939,-0.159300,0.019575,-0.987036,0.061873,0.008333,0.002813,36.428955,-7.624666,-63.062012,,,,,,,
1522136906.933566,-0.156198,-0.016543,-1.405034,0.114565,0.126627,0.004946,-0.155542,0.016542,-0.987690,0.072901,0.034895,-0.082225,35.044144,-7.100115,-69.739746,,,,,,,
1522136906.963534,-0.155221,-0.012376,-1.404679,0.153354,-0.047656,-0.007632,-0.154586,0.012376,-0.987902,0.047210,0.020583,-0.107466,24.862167,-6.764360,-79.796204,,,,,,,
1522136906.993502,-0.157443,-0.010334,-1.403927,-0.011445,-0.088938,0.028513,-0.156784,0.010333,-0.987578,0.056504,0.002911,-0.056168,17.872269,-6.361055,-82.951355,,,,,,,
1522136907.023471,-0.160249,-0.010553,-1.402890,0.034295,-0.118847,0.034968,-0.159555,0.010552,-0.987132,0.045266,0.031989,-0.009724,3.327652,-5.770693,-83.036011,,,,,,,
1522136907.053439,-0.160857,-0.008363,-1.401243,0.177538,-0.018631,0.088252,-0.160158,0.008363,-0.987056,-0.009504,-0.020265,-0.033529,-4.378708,-5.433474,-80.491150,,,,,,,
1522136907.083407,-0.159225,-0.008022,-1.398832,-0.152470,0.164074,0.061191,-0.158548,0.008022,-0.987318,0.044321,0.011143,-0.115831,-16.179092,-5.147570,-72.698181,,,,,,,
1522136907.113375,-0.156611,-0.019085,-1.398529,-0.450051,0.023324,0.085613,-0.155943,0.019084,-0.987581,0.029447,0.044652,-0.084730,-19.954697,-3.624895,-67.006165,,,,,,,
,,,,,,,,,,,,,,,,25.312553,51.447765,11.006150,0.719129,-1.000000,1522136907.104056,
