timestamp(unix),attitude_roll(radians),attitude_pitch(radians),attitude_yaw(radians),rotation_rate_x(radians/s),rotation_rate_y(radians/s),rotation_rate_z(radians/s),gravity_x(G),gravity_y(G),gravity_z(G),user_acc_x(G),user_acc_y(G),user_acc_z(G),magnetic_field_x(microteslas),magnetic_field_y(microteslas),magnetic_field_z(microteslas),latitude(degree),longitude(degree),altitude(meter),speed(m/s),course(degree),timestamp(unix),User Mark
1523523428.025744,-0.588798,-0.068563,1.938355,0.114475,0.140588,-0.079440,-0.554057,0.068509,-0.829655,0.098689,0.040988,-0.057949,-17.030945,-28.476433,-0.802795,,,,,,,
,,,,,,,,,,,,,,,,25.313417,51.453783,13.425892,10.120000,255.585938,1523523426.995592,
1523523428.055712,-0.583896,-0.065632,1.937931,0.037562,0.137567,-0.075237,-0.550092,0.065585,-0.832525,0.086271,0.024884,-0.080806,-16.730331,-28.552559,-0.577393,,,,,,,
1523523428.085680,-0.578863,-0.064976,1.936393,-0.017055,0.118461,-0.059272,-0.545918,0.064930,-0.835319,0.094502,0.018993,-0.095467,-16.576614,-28.178246,-0.578796,,,,,,,
1523523428.115648,-0.577214,-0.065017,1.935172,-0.032753,-0.030357,-0.045287,-0.544538,0.064971,-0.836216,0.114225,0.045930,-0.085156,-16.578400,-28.403175,-0.502869,,,,,,,
1523523428.145617,-0.577331,-0.065517,1.933051,-0.052817,-0.021584,-0.078334,-0.544619,0.065470,-0.836124,0.097048,0.085226,-0.093487,-16.429886,-28.553841,-0.502197,,,,,,,
,,,,,,,,,,,,,,,,25.313404,51.453702,12.929217,8.640000,256.640625,1523523427.995579,
1523523428.175585,-0.578052,-0.065459,1.930819,-0.049768,-0.047109,-0.074058,-0.545223,0.065412,-0.835735,0.114605,0.089327,-0.132984,-15.905075,-28.481346,-0.652283,,,,,,,
1523523428.205553,-0.579461,-0.066334,1.928061,-0.075627,-0.088580,-0.062304,-0.546368,0.066285,-0.834918,0.138379,0.063949,-0.130048,-16.879715,-28.626656,-0.352112,,,,,,,
1523523428.235514,-0.582597,-0.066719,1.926438,-0.020065,-0.109797,-0.087810,-0.548970,0.066670,-0.833179,0.116933,0.080486,-0.061124,-16.205368,-28.554924,-0.577087,,,,,,,
1523523428.265483,-0.583858,-0.065340,1.925059,0.013311,-0.040842,-0.082531,-0.550070,0.065293,-0.832562,0.121588,0.079436,-0.063373,-15.755371,-28.556953,-0.576843,,,,,,,
1523523428.295451,-0.583405,-0.065328,1.923124,-0.068763,0.002846,-0.070914,-0.549694,0.065281,-0.832812,0.114223,0.053097,-0.087858,-16.275269,-28.404015,0.022278,,,,,,,
1523523428.325419,-0.583581,-0.066714,1.920289,-0.091334,-0.041648,-0.081546,-0.549790,0.066664,-0.832638,0.090562,0.052522,-0.087116,-16.353104,-28.553886,-0.202148,,,,,,,
1523523428.355387,-0.584601,-0.067684,1.916565,-0.089148,-0.076446,-0.120931,-0.550603,0.067632,-0.832023,0.096501,0.049891,-0.081948,-15.902985,-28.406136,-0.427490,,,,,,,
1523523428.385356,-0.585064,-0.068256,1.911473,-0.124062,-0.057995,-0.164657,-0.550966,0.068203,-0.831736,0.068392,0.066990,-0.074545,-15.979782,-28.406090,-0.727539,,,,,,,
1523523428.415324,-0.585979,-0.068806,1.905497,-0.110038,-0.020867,-0.160422,-0.551707,0.068752,-0.831199,0.074336,0.077336,-0.069756,-15.227722,-28.109627,-0.878357,,,,,,,
1523523428.445292,-0.586193,-0.068226,1.900949,-0.033339,-0.026563,-0.132658,-0.551906,0.068173,-0.831115,0.083538,0.088138,-0.064164,-14.330460,-28.114113,-1.327942,,,,,,,
1523523428.475261,-0.585561,-0.067755,1.897055,-0.064093,0.029761,-0.123145,-0.551399,0.067703,-0.831490,0.082069,0.081650,-0.093636,-15.005417,-28.335701,-0.952393,,,,,,,
1523523428.505229,-0.583831,-0.067282,1.893334,0.007553,0.056154,-0.123123,-0.549977,0.067232,-0.832469,0.114446,0.083937,-0.127507,-15.533554,-28.558479,-1.101685,,,,,,,
1523523428.535197,-0.582186,-0.062386,1.892329,0.204949,0.028043,-0.124015,-0.548781,0.062346,-0.833637,0.120910,0.102525,-0.122494,-14.403793,-28.487877,-0.426453,,,,,,,
1523523428.565165,-0.580062,-0.053535,1.893263,0.302503,0.072705,-0.162351,-0.547291,0.053509,-0.835230,0.094730,0.128253,-0.116506,-14.555557,-28.936745,0.025269,,,,,,,
1523523428.595134,-0.577484,-0.043073,1.893231,0.282519,0.055170,-0.232662,-0.545411,0.043060,-0.837062,0.105149,0.142944,-0.087026,-14.329376,-29.087303,0.475952,,,,,,,
1523523428.625102,-0.576696,-0.034016,1.891043,0.157360,-0.023002,-0.253987,-0.544942,0.034009,-0.837783,0.146627,0.155612,-0.027954,-14.478165,-29.236198,0.926514,,,,,,,
1523523428.655070,-0.574031,-0.029890,1.885228,-0.057703,0.098770,-0.267064,-0.542778,0.029886,-0.839344,0.141060,0.170706,-0.028423,-14.175598,-29.386879,1.602234,,,,,,,
1523523428.685038,-0.570166,-0.028923,1.877450,-0.104560,0.119125,-0.273515,-0.539546,0.028919,-0.841459,0.167399,0.170452,0.007078,-13.126419,-29.017342,0.851257,,,,,,,
1523523428.715037,-0.565700,-0.028338,1.868164,-0.130868,0.143998,-0.325772,-0.535792,0.028334,-0.843874,0.128275,0.169573,0.018328,-12.975220,-28.942955,0.926086,,,,,,,
1523523428.745005,-0.559497,-0.028535,1.857947,-0.180876,0.211951,-0.300305,-0.530544,0.028531,-0.847177,0.133357,0.152255,-0.028662,-12.759979,-29.469673,0.178284,,,,,,,
1523523428.774974,-0.550183,-0.031674,1.848134,-0.307585,0.383813,-0.216389,-0.522581,0.031669,-0.852001,0.072996,0.149423,-0.139973,-12.163605,-29.697578,-0.045471,,,,,,,
1523523428.804942,-0.535344,-0.040085,1.837205,-0.460899,0.502014,-0.197445,-0.509727,0.040074,-0.859402,-0.028832,0.183543,-0.392169,-11.786835,-29.474358,-0.121216,,,,,,,
1523523428.834910,-0.529363,-0.047667,1.826035,-0.323935,-0.100025,-0.160506,-0.504410,0.047649,-0.862148,0.153000,0.185719,-0.397556,-11.794342,-29.550438,-1.245911,,,,,,,
1523523428.864878,-0.546210,-0.050140,1.821232,-0.042202,-0.753659,-0.088260,-0.518800,0.050119,-0.853425,0.170838,0.250937,0.074937,-11.719345,-29.550774,-1.245850,,,,,,,
1523523428.894847,-0.567883,-0.045448,1.821074,0.222194,-0.625636,-0.105228,-0.537293,0.045432,-0.842171,0.196686,0.226113,0.237221,-11.863922,-29.549232,-0.345886,,,,,,,
1523523428.924815,-0.573996,-0.037594,1.822102,0.207441,0.114049,-0.116635,-0.542608,0.037585,-0.839145,0.157674,0.139783,0.123187,-11.859726,-29.398796,0.103455,,,,,,,
1523523428.954783,-0.563120,-0.034990,1.821648,-0.079863,0.435035,-0.025539,-0.533500,0.034983,-0.845076,0.127937,0.049306,-0.051714,-11.410797,-29.326118,-0.196594,,,,,,,
1523523428.984751,-0.552370,-0.041131,1.816699,-0.370387,0.327892,-0.098112,-0.524262,0.041119,-0.850563,0.053269,0.012668,-0.096001,-11.862427,-29.399239,-0.346497,,,,,,,
1523523429.014720,-0.545624,-0.047709,1.806326,-0.322495,0.134262,-0.234262,-0.518361,0.047691,-0.853831,0.117726,0.077172,-0.211675,-11.869034,-29.475182,-1.321228,,,,,,,
1523523429.044688,-0.546834,-0.049435,1.796792,-0.164438,-0.111483,-0.249881,-0.519350,0.049415,-0.853132,0.106233,0.156304,-0.174151,-10.444092,-29.706215,-0.944641,,,,,,,
,,,,,,,,,,,,,,,,25.313402,51.453635,12.444979,6.920000,262.617188,1523523428.995569,
1523523429.074656,-0.551606,-0.049341,1.788395,-0.121029,-0.169114,-0.229546,-0.523418,0.049321,-0.850647,0.153880,0.245463,-0.062408,-11.269211,-29.403023,-1.471191,,,,,,,
1523523429.104625,-0.554983,-0.046461,1.781058,0.027095,-0.057513,-0.284961,-0.526361,0.046445,-0.848992,0.156884,0.218723,0.059410,-11.047058,-29.778877,-1.319641,,,,,,,
1523523429.134593,-0.552535,-0.041035,1.774793,0.018503,0.169864,-0.280923,-0.524405,0.041023,-0.850480,0.131979,0.141502,0.018022,-11.049164,-29.854088,-1.544312,,,,,,,
1523523429.164561,-0.545064,-0.041229,1.767143,-0.231677,0.224944,-0.167153,-0.518033,0.041218,-0.854367,0.118878,0.088452,-0.089450,-10.149338,-30.007927,-1.318237,,,,,,,
1523523429.194529,-0.541140,-0.046967,1.756385,-0.300980,0.086889,-0.305587,-0.514546,0.046950,-0.856177,0.023716,0.097627,-0.061670,-10.226135,-30.007881,-1.618286,,,,,,,
1523523429.224498,-0.537572,-0.048453,1.744349,-0.161650,0.101006,-0.397140,-0.511451,0.048434,-0.857946,0.026084,0.171338,-0.145319,-8.498230,-29.491020,-1.994507,,,,,,,
1523523429.254482,-0.531634,-0.046591,1.730179,-0.202387,0.254397,-0.436746,-0.506393,0.046574,-0.861044,0.033431,0.179179,-0.306360,-8.727570,-29.790215,-2.218384,,,,,,,
1523523429.284450,-0.530146,-0.047884,1.715808,-0.336630,-0.120576,-0.406637,-0.505080,0.047866,-0.861744,0.007811,0.211763,-0.259441,-8.126099,-29.418282,-2.594543,,,,,,,
1523523429.314418,-0.542531,-0.049547,1.701804,-0.210499,-0.493226,-0.346497,-0.515672,0.049526,-0.855354,0.064545,0.222324,0.056449,-6.925568,-29.273857,-2.744568,,,,,,,
1523523429.344387,-0.552964,-0.045715,1.692078,0.044035,-0.132754,-0.321095,-0.524663,0.045699,-0.850083,0.069829,0.141221,0.147949,-7.454575,-29.721382,-2.668030,,,,,,,
1523523429.374355,-0.550461,-0.039333,1.687213,0.085464,0.211545,-0.187150,-0.522676,0.039323,-0.851624,0.024629,0.045241,0.040879,-7.374786,-29.421455,-2.369202,,,,,,,
1523523429.404323,-0.544479,-0.038318,1.682709,-0.167214,0.142577,-0.111617,-0.517592,0.038309,-0.854769,-0.047258,-0.018274,-0.095945,-6.102097,-29.427544,-2.743530,,,,,,,
1523523429.434290,-0.544799,-0.044528,1.674612,-0.396325,-0.088977,-0.193611,-0.517733,0.044513,-0.854384,-0.073103,0.018567,-0.094743,-6.552078,-29.200905,-3.119690,,,,,,,
1523523429.464260,-0.548522,-0.050846,1.660323,-0.422267,-0.092129,-0.340672,-0.520753,0.050824,-0.852193,-0.028808,0.089480,-0.130686,-6.408096,-29.352303,-3.869019,,,,,,,
1523523429.494227,-0.554940,-0.055222,1.645784,-0.366620,-0.288942,-0.328705,-0.526089,0.055194,-0.848636,-0.024402,0.172132,-0.145932,-5.282104,-28.758202,-4.695801,,,,,,,
1523523429.524195,-0.568833,-0.059683,1.632896,-0.327551,-0.514951,-0.236817,-0.537690,0.059648,-0.841030,0.018891,0.247084,0.018261,-5.813095,-29.131172,-5.069580,,,,,,,
1523523429.554163,-0.583120,-0.061863,1.624425,-0.106146,-0.362876,-0.181397,-0.549578,0.061823,-0.833152,0.053027,0.248220,0.203421,-5.591705,-29.132774,-5.669434,,,,,,,
1523523429.584132,-0.586808,-0.058106,1.622555,0.200433,0.034090,-0.073954,-0.552772,0.058074,-0.831307,0.047263,0.147477,0.255059,-4.912231,-28.685829,-5.670898,,,,,,,
1523523429.614100,-0.579112,-0.050633,1.626084,0.269015,0.369405,-0.033737,-0.546579,0.050611,-0.835877,0.028711,0.093432,0.108444,-5.437057,-29.207573,-4.769104,,,,,,,
1523523429.644099,-0.564668,-0.047405,1.624471,-0.155431,0.558435,-0.169567,-0.534534,0.047388,-0.843817,-0.029705,0.087058,-0.113916,-5.139160,-29.284142,-4.993652,,,,,,,
1523523429.674067,-0.552067,-0.055383,1.610421,-0.623034,0.163202,-0.314432,-0.523644,0.055354,-0.850137,0.030495,0.132420,-0.228354,-4.016769,-29.139870,-5.668640,,,,,,,
1523523429.704036,-0.560036,-0.065581,1.590318,-0.594947,-0.373718,-0.432147,-0.530075,0.065534,-0.845415,0.048202,0.249255,-0.041014,-4.092529,-28.540657,-6.796082,,,,,,,
1523523429.734004,-0.570965,-0.068545,1.572072,-0.257686,-0.219065,-0.481073,-0.539175,0.068491,-0.839404,0.034521,0.358267,0.087451,-3.869934,-28.467171,-7.321289,,,,,,,
1523523429.763973,-0.571650,-0.063487,1.559846,-0.004548,0.150470,-0.384288,-0.539931,0.063445,-0.839315,0.004042,0.351778,0.082265,-3.120865,-28.470695,-7.470886,,,,,,,
1523523429.793941,-0.562205,-0.060222,1.551882,-0.124923,0.417291,-0.205636,-0.532087,0.060186,-0.844548,0.047117,0.213526,-0.024318,-3.049911,-28.920952,-7.394104,,,,,,,
1523523429.823909,-0.551584,-0.062172,1.543770,-0.162638,0.303899,-0.236447,-0.523024,0.062132,-0.850050,0.005461,0.155183,-0.058092,-2.678986,-29.147911,-7.692993,,,,,,,
1523523429.853878,-0.548758,-0.060445,1.534192,0.011916,-0.005652,-0.401170,-0.520675,0.060408,-0.851615,0.054214,0.160509,-0.054192,-2.376755,-28.699638,-8.069641,,,,,,,
1523523429.883846,-0.551968,-0.053550,1.522494,0.001399,-0.112054,-0.526815,-0.523612,0.053524,-0.850274,0.015922,0.238101,-0.012046,-2.454758,-28.999290,-8.068481,,,,,,,
1523523429.913814,-0.553197,-0.048320,1.505871,-0.216379,0.054659,-0.587860,-0.524796,0.048301,-0.849856,0.005479,0.259133,-0.056684,-2.304001,-28.924980,-8.068665,,,,,,,
1523523429.943782,-0.551769,-0.048424,1.486950,-0.390802,0.051398,-0.515531,-0.523580,0.048405,-0.850600,-0.008677,0.265209,-0.085527,-1.780106,-28.628014,-8.744568,,,,,,,
1523523429.973751,-0.552249,-0.052250,1.468669,-0.413035,0.001716,-0.391905,-0.523888,0.052226,-0.850185,-0.023872,0.258748,-0.056752,-1.410507,-28.855186,-9.268494,,,,,,,
1523523430.003719,-0.554486,-0.055303,1.455850,-0.238009,-0.086873,-0.247831,-0.525701,0.055274,-0.848871,-0.001032,0.221734,-0.004751,-0.511002,-28.410072,-10.094788,,,,,,,
1523523430.033686,-0.556223,-0.056598,1.448243,-0.132288,0.007955,-0.170065,-0.527137,0.056568,-0.847895,0.011772,0.135525,0.015635,-0.433914,-28.335182,-9.870117,,,,,,,
,,,,,,,,,,,,,,,,25.313412,51.453577,12.487249,5.820000,279.140625,1523523429.995558,
1523523430.063654,-0.554844,-0.055255,1.441837,-0.031342,0.063406,-0.233976,-0.526007,0.055227,-0.848685,0.020865,0.113245,-0.017388,-0.881790,-28.257957,-9.645630,,,,,,,
1523523430.093623,-0.555365,-0.052482,1.435343,-0.007368,-0.070488,-0.240226,-0.526528,0.052458,-0.848538,0.075066,0.088122,-0.011844,-0.959503,-28.482674,-9.719727,,,,,,,
1523523430.123591,-0.558526,-0.052607,1.427306,-0.237810,-0.060191,-0.263844,-0.529204,0.052582,-0.846864,-0.020449,0.133667,0.005662,-1.252274,-28.030907,-9.271729,,,,,,,
1523523430.153559,-0.557671,-0.059639,1.412515,-0.566387,0.124080,-0.361240,-0.528271,0.059604,-0.846981,-0.043033,0.182690,-0.072529,-1.336136,-28.331505,-10.245544,,,,,,,
1523523430.183527,-0.554594,-0.071182,1.390712,-0.740158,0.101635,-0.431677,-0.525264,0.071122,-0.847962,0.011211,0.149505,-0.149612,-1.332260,-27.806755,-10.472656,,,,,,,
1523523430.213496,-0.556463,-0.081470,1.370672,-0.507519,-0.082196,-0.363122,-0.526435,0.081380,-0.846312,-0.002817,0.174388,-0.074464,-0.432007,-27.286629,-11.299255,,,,,,,
1523523430.243456,-0.561494,-0.084360,1.357105,-0.224949,-0.097122,-0.305354,-0.530558,0.084260,-0.843450,-0.026220,0.216338,0.023169,-0.655807,-27.210533,-11.224670,,,,,,,
1523523430.273424,-0.559833,-0.085745,1.346950,-0.222042,0.180611,-0.211859,-0.529094,0.085640,-0.844231,-0.054296,0.117928,-0.006599,0.994873,-26.918343,-11.600037,,,,,,,
1523523430.303393,-0.553896,-0.088275,1.338218,-0.215454,0.216743,-0.215085,-0.523957,0.088160,-0.847170,-0.005432,0.069417,-0.033674,0.399841,-26.690224,-11.151306,,,,,,,
1523523430.333361,-0.552402,-0.088805,1.329325,-0.134024,-0.034794,-0.285106,-0.522665,0.088688,-0.847912,0.028662,0.091518,-0.002582,0.021255,-27.138359,-10.999634,,,,,,,
1523523430.363329,-0.556706,-0.087161,1.318795,-0.117973,-0.122446,-0.368119,-0.526387,0.087051,-0.845777,0.036915,0.170014,0.073072,-0.279785,-27.062309,-11.300110,,,,,,,
1523523430.393297,-0.559267,-0.085406,1.306773,-0.156828,-0.011660,-0.394890,-0.528631,0.085302,-0.844555,0.075659,0.222407,0.112636,0.626038,-26.840782,-10.700562,,,,,,,
1523523430.423266,-0.557839,-0.085742,1.294438,-0.234439,0.135791,-0.331166,-0.527409,0.085637,-0.845284,0.067631,0.248362,0.103921,1.000275,-26.917473,-10.700073,,,,,,,
1523523430.453234,-0.551625,-0.088934,1.280988,-0.340218,0.333840,-0.350628,-0.522001,0.088817,-0.848308,0.025068,0.241475,0.017970,2.425354,-26.549492,-11.300781,,,,,,,
1523523430.483202,-0.543216,-0.095269,1.266182,-0.423916,0.269082,-0.328257,-0.514547,0.095125,-0.852169,0.030630,0.225371,-0.069798,1.975677,-26.472542,-11.376343,,,,,,,
1523523430.513170,-0.540209,-0.102380,1.251320,-0.351017,0.078787,-0.342921,-0.511622,0.102202,-0.853110,0.046626,0.214403,-0.050683,2.649734,-26.475716,-11.526001,,,,,,,
1523523430.543139,-0.541493,-0.105571,1.238070,-0.215825,-0.044615,-0.371462,-0.512546,0.105375,-0.852169,0.020710,0.236483,-0.017475,3.624557,-26.180626,-12.051697,,,,,,,
1523523430.573107,-0.542138,-0.105913,1.225221,-0.192933,0.052082,-0.379004,-0.513077,0.105715,-0.851808,0.018387,0.203748,-0.051696,3.403595,-26.178963,-11.376770,,,,,,,
1523523430.603075,-0.543229,-0.105616,1.212990,-0.216937,-0.029860,-0.352306,-0.514023,0.105420,-0.851274,-0.017304,0.179950,-0.048781,3.403137,-25.954414,-11.827698,,,,,,,
1523523430.633074,-0.545277,-0.107610,1.199756,-0.333324,-0.019040,-0.339613,-0.515655,0.107402,-0.850038,-0.016557,0.161305,-0.036818,4.678680,-25.585686,-12.353516,,,,,,,
1523523430.663042,-0.546117,-0.111569,1.184790,-0.385187,0.051399,-0.365293,-0.516144,0.111337,-0.849235,-0.028778,0.143866,-0.061288,4.453217,-25.360115,-12.804565,,,,,,,
1523523430.693010,-0.546897,-0.115495,1.170047,-0.331183,-0.011632,-0.335360,-0.516575,0.115238,-0.848452,-0.000500,0.136349,-0.067182,5.206787,-25.138283,-12.580078,,,,,,,
1523523430.722979,-0.549500,-0.117716,1.157841,-0.239727,-0.038770,-0.287309,-0.518647,0.117444,-0.846884,0.001130,0.125811,-0.002924,6.030838,-24.917519,-13.105530,,,,,,,
1523523430.752947,-0.549906,-0.119430,1.147939,-0.225711,0.065974,-0.225614,-0.518884,0.119146,-0.846500,-0.011267,0.098093,-0.039623,4.908432,-24.837166,-12.806396,,,,,,,
1523523430.782915,-0.548689,-0.122503,1.137817,-0.287423,0.084349,-0.249114,-0.517660,0.122197,-0.846815,-0.009210,0.074413,-0.074602,5.806732,-24.691734,-13.331543,,,,,,,
1523523430.812883,-0.548308,-0.125864,1.125899,-0.296948,0.034840,-0.307675,-0.517120,0.125532,-0.846657,0.040985,0.081850,-0.098686,6.632904,-24.620384,-13.256409,,,,,,,
1523523430.842852,-0.550769,-0.127083,1.112583,-0.231801,-0.062460,-0.395969,-0.519122,0.126741,-0.845251,0.032702,0.137831,-0.038874,6.634399,-24.470390,-13.257019,,,,,,,
1523523430.872820,-0.553512,-0.125462,1.098491,-0.167329,-0.021923,-0.440718,-0.521546,0.125133,-0.843997,0.050492,0.174717,-0.015759,6.632889,-24.395744,-13.632324,,,,,,,
1523523430.902788,-0.554254,-0.123960,1.084285,-0.249105,0.072834,-0.439799,-0.522271,0.123643,-0.843769,-0.001609,0.183349,-0.010525,8.059174,-23.952690,-14.158386,,,,,,,
1523523430.932757,-0.552242,-0.125983,1.067790,-0.365192,0.135825,-0.441014,-0.520440,0.125650,-0.844603,0.024544,0.157767,-0.055742,8.057968,-24.027763,-14.233032,,,,,,,
1523523430.962725,-0.552795,-0.128623,1.051521,-0.297872,-0.054738,-0.413075,-0.520731,0.128268,-0.844030,0.037271,0.159222,-0.031397,8.358429,-24.029030,-14.157959,,,,,,,
1523523430.992693,-0.557761,-0.128292,1.037699,-0.140962,-0.084759,-0.431038,-0.524938,0.127940,-0.841470,-0.016902,0.190175,0.059442,8.960632,-23.582130,-14.534424,,,,,,,
1523523431.022661,-0.558869,-0.123389,1.024517,-0.024915,0.026826,-0.474746,-0.526197,0.123077,-0.841409,0.023298,0.160264,0.022744,8.811813,-23.506386,-14.459778,,,,,,,
1523523431.052630,-0.560926,-0.118892,1.012580,-0.101304,-0.044516,-0.425722,-0.528215,0.118612,-0.840786,0.025041,0.124461,0.068981,9.411957,-23.359306,-14.685059,,,,,,,
,,,,,,,,,,,,,,,,25.313439,51.453531,12.378845,5.070000,303.046875,1523523430.995548,
1523523431.082598,-0.561378,-0.119273,0.998009,-0.275571,0.104893,-0.455836,-0.528571,0.118991,-0.840508,-0.049722,0.171796,0.037957,9.865662,-22.986351,-14.686340,,,,,,,
1523523431.112566,-0.561477,-0.121168,0.980842,-0.287680,-0.018087,-0.491948,-0.528533,0.120871,-0.840264,-0.028535,0.182672,-0.035316,10.617569,-22.615044,-14.987427,,,,,,,
1523523431.142534,-0.568108,-0.121214,0.965122,-0.187089,-0.179996,-0.471466,-0.534091,0.120917,-0.836735,-0.034879,0.181695,0.083638,10.843765,-22.540977,-14.912659,,,,,,,
1523523431.172503,-0.571808,-0.119580,0.949482,-0.194397,0.055065,-0.502599,-0.537289,0.119295,-0.834918,-0.066059,0.192442,0.010364,11.073090,-22.017159,-15.064575,,,,,,,
1523523431.202471,-0.572469,-0.117703,0.933889,-0.183237,-0.040772,-0.475866,-0.537961,0.117431,-0.834750,-0.059467,0.178071,0.007922,11.447021,-22.168770,-14.988770,,,,,,,
1523523431.232413,-0.577768,-0.115115,0.919330,-0.156920,-0.105759,-0.460867,-0.542541,0.114861,-0.832139,-0.069245,0.155341,0.101259,11.899704,-21.721107,-15.290405,,,,,,,
1523523431.262381,-0.579637,-0.113353,0.904744,-0.193491,0.070725,-0.461071,-0.544205,0.113110,-0.831292,-0.060363,0.140933,0.084466,12.878998,-21.425285,-15.066040,,,,,,,
1523523431.292350,-0.578593,-0.112352,0.889547,-0.240274,0.106980,-0.464328,-0.543399,0.112116,-0.831954,-0.098874,0.146704,0.040984,13.104446,-21.201607,-15.366821,,,,,,,
1523523431.322318,-0.577414,-0.113760,0.872835,-0.364187,0.129390,-0.433544,-0.542330,0.113515,-0.832462,-0.097104,0.149043,-0.000012,13.105621,-20.677284,-16.044006,,,,,,,
1523523431.352286,-0.577190,-0.117905,0.856848,-0.357480,0.052319,-0.354619,-0.541883,0.117632,-0.832182,-0.096972,0.169707,0.009992,14.601959,-20.684624,-16.643188,,,,,,,
1523523431.382254,-0.578108,-0.119078,0.844225,-0.158027,0.036765,-0.328881,-0.542571,0.118797,-0.831567,-0.097199,0.169487,0.015390,13.855423,-20.381187,-16.569763,,,,,,,
1523523431.412223,-0.577943,-0.117056,0.834593,-0.097243,0.055520,-0.297951,-0.542564,0.116789,-0.831856,-0.088646,0.167391,-0.006965,14.536530,-19.859108,-16.421509,,,,,,,
1523523431.442191,-0.577358,-0.115703,0.825050,-0.169938,0.050327,-0.287356,-0.542163,0.115445,-0.832305,-0.072644,0.149982,-0.015671,14.386978,-19.858360,-16.346619,,,,,,,
1523523431.472159,-0.577831,-0.115527,0.814139,-0.186953,0.019805,-0.324623,-0.542567,0.115270,-0.832066,-0.063969,0.154902,0.021748,14.610626,-19.859581,-16.571472,,,,,,,
1523523431.502128,-0.578644,-0.114044,0.802426,-0.168448,0.037135,-0.377904,-0.543337,0.113797,-0.831766,-0.060103,0.167407,0.014597,15.962051,-19.266411,-17.323181,,,,,,,
1523523431.532096,-0.579460,-0.111807,0.789822,-0.165363,-0.006361,-0.390635,-0.544153,0.111574,-0.831534,-0.073141,0.189634,0.023215,15.592468,-19.039238,-16.799316,,,,,,,
1523523431.562064,-0.580475,-0.110326,0.776726,-0.205830,0.026660,-0.385384,-0.545087,0.110102,-0.831119,-0.052982,0.163625,0.018908,16.117432,-18.816963,-17.174927,,,,,,,
1523523431.592032,-0.582026,-0.110627,0.763884,-0.226441,-0.009647,-0.353393,-0.546357,0.110402,-0.830244,-0.058044,0.142849,0.053099,16.649002,-18.294136,-16.951721,,,,,,,
1523523431.622031,-0.583933,-0.111005,0.751983,-0.171088,-0.021635,-0.330960,-0.547916,0.110777,-0.829166,-0.056637,0.138811,0.052600,16.724274,-17.994926,-17.402893,,,,,,,
1523523431.651999,-0.587002,-0.109897,0.741248,-0.123249,-0.063204,-0.328757,-0.550526,0.109676,-0.827582,-0.034740,0.124348,0.077109,15.671936,-18.140343,-17.552856,,,,,,,
1523523431.681968,-0.590553,-0.109159,0.730925,-0.151981,-0.030281,-0.317085,-0.553507,0.108942,-0.825689,-0.036627,0.098104,0.097433,16.050964,-17.916756,-17.253479,,,,,,,
1523523431.711936,-0.592476,-0.110101,0.719657,-0.230744,0.014608,-0.325715,-0.555035,0.109879,-0.824538,-0.045795,0.090255,0.061827,16.803772,-17.545280,-17.404663,,,,,,,
1523523431.741904,-0.594347,-0.112852,0.705967,-0.310797,-0.018954,-0.359841,-0.556406,0.112612,-0.823244,-0.046850,0.108106,0.026964,16.278625,-17.468071,-17.555237,,,,,,,
1523523431.771872,-0.598848,-0.115531,0.691113,-0.308787,-0.078268,-0.387485,-0.559933,0.115274,-0.820479,-0.059253,0.128745,0.048644,17.485001,-16.424187,-18.233765,,,,,,,
1523523431.801841,-0.602992,-0.116421,0.676531,-0.237997,-0.022040,-0.400272,-0.563270,0.116158,-0.818067,-0.079308,0.131874,0.057569,16.884583,-16.421562,-18.309143,,,,,,,
1523523431.831809,-0.603794,-0.116150,0.662924,-0.214118,0.069255,-0.396084,-0.563944,0.115889,-0.817641,-0.090872,0.103609,0.009886,17.260162,-16.273399,-18.459473,,,,,,,
1523523431.861777,-0.604877,-0.116233,0.649621,-0.245588,0.002123,-0.357684,-0.564824,0.115972,-0.817022,-0.100048,0.093059,0.017065,17.868210,-15.376289,-18.612793,,,,,,,
1523523431.891745,-0.606213,-0.118514,0.636549,-0.295855,0.040162,-0.308748,-0.565763,0.118237,-0.816047,-0.110034,0.093891,0.014717,17.793808,-15.226097,-18.763367,,,,,,,
1523523431.921714,-0.607233,-0.120339,0.624949,-0.231052,0.005750,-0.274562,-0.566471,0.120049,-0.815291,-0.113690,0.096077,0.022215,17.643204,-15.150642,-18.988831,,,,,,,
1523523431.951682,-0.608684,-0.120493,0.615308,-0.130881,-0.000027,-0.243583,-0.567642,0.120202,-0.814453,-0.074096,0.085456,0.010788,17.872253,-14.701759,-19.065491,,,,,,,
1523523431.981650,-0.610518,-0.118152,0.607849,-0.018025,-0.047181,-0.225346,-0.569295,0.117877,-0.813639,-0.087885,0.085752,0.034418,18.025238,-14.627068,-18.690735,,,,,,,
1523523432.011618,-0.611250,-0.116151,0.601221,-0.115786,0.073008,-0.208482,-0.570025,0.115890,-0.813413,-0.090025,0.067628,-0.019930,18.399780,-14.628838,-18.765503,,,,,,,
1523523432.041587,-0.610039,-0.118618,0.591453,-0.321898,0.058658,-0.210750,-0.568874,0.118340,-0.813866,-0.091236,0.064933,-0.051445,19.072632,-14.257835,-19.741638,,,,,,,
,,,,,,,,,,,,,,,,25.313467,51.453501,12.348237,4.590000,328.007812,1523523431.995536,
1523523432.071555,-0.611963,-0.122836,0.580059,-0.290424,-0.072065,-0.218058,-0.570147,0.122527,-0.812355,-0.059874,0.051866,-0.000145,17.802765,-13.876900,-19.518799,,,,,,,
1523523432.101523,-0.615558,-0.123497,0.570472,-0.125803,-0.065867,-0.250974,-0.573016,0.123183,-0.810233,-0.082822,0.048036,0.027274,18.025818,-14.027977,-19.593079,,,,,,,
1523523432.131492,-0.618460,-0.121903,0.562393,-0.099324,-0.090507,-0.231751,-0.575479,0.121601,-0.808726,-0.067679,0.043514,-0.013540,18.704819,-13.581108,-19.669556,,,,,,,
1523523432.161460,-0.623455,-0.121156,0.554644,-0.141357,-0.145878,-0.201883,-0.579564,0.120860,-0.805915,-0.085277,0.043446,0.030097,18.479675,-13.505241,-19.820007,,,,,,,
1523523432.191428,-0.627755,-0.121754,0.545977,-0.181432,-0.061674,-0.224373,-0.582981,0.121454,-0.803357,-0.077618,0.023657,0.063794,18.031174,-13.128609,-20.196716,,,,,,,
1523523432.221396,-0.629815,-0.122555,0.537072,-0.179348,-0.041687,-0.196686,-0.584577,0.122248,-0.802075,-0.065600,-0.019541,0.029416,18.933975,-12.757820,-20.347717,,,,,,,
1523523432.251376,-0.634604,-0.124460,0.529580,-0.194059,-0.150466,-0.133731,-0.588272,0.124139,-0.799078,-0.076401,-0.032037,0.051488,18.184753,-12.679451,-20.348389,,,,,,,
1523523432.281344,-0.640578,-0.127386,0.522412,-0.211072,-0.117586,-0.118860,-0.592816,0.127042,-0.795254,-0.106342,-0.035016,0.073544,18.039566,-12.153877,-20.425598,,,,,,,
1523523432.311312,-0.644145,-0.129390,0.515188,-0.178684,-0.045363,-0.125303,-0.595495,0.129030,-0.792929,-0.089319,-0.053834,0.067465,18.793121,-11.707405,-20.577026,,,,,,,
1523523432.341280,-0.647431,-0.130619,0.509419,-0.126455,-0.028721,-0.093311,-0.598001,0.130248,-0.790841,-0.094595,-0.096922,0.094872,18.266937,-11.780113,-20.651917,,,,,,,
1523523432.371249,-0.648968,-0.131691,0.504799,-0.133779,0.015837,-0.081633,-0.599131,0.131310,-0.789810,-0.103963,-0.098641,0.056365,17.966354,-11.703987,-20.877441,,,,,,,
1523523432.401217,-0.650775,-0.133434,0.498315,-0.230775,0.006832,-0.124333,-0.600418,0.133038,-0.788542,-0.108734,-0.085568,0.024855,18.867493,-11.408348,-21.178162,,,,,,,
1523523432.431185,-0.652355,-0.136949,0.489208,-0.319117,0.049632,-0.137216,-0.601376,0.136522,-0.787216,-0.126285,-0.061280,-0.003296,17.968887,-11.404076,-20.953674,,,,,,,
1523523432.461153,-0.653272,-0.140917,0.478990,-0.297618,0.028684,-0.186205,-0.601763,0.140451,-0.786228,-0.116758,-0.033243,-0.028515,18.642654,-11.257561,-21.403870,,,,,,,
1523523432.491122,-0.653378,-0.141986,0.471419,-0.118263,0.074667,-0.141356,-0.601755,0.141510,-0.786044,-0.136084,-0.039184,-0.010068,18.199402,-10.580574,-21.406799,,,,,,,
1523523432.521090,-0.651899,-0.142166,0.468204,-0.049416,0.060021,-0.047521,-0.600576,0.141688,-0.786913,-0.085276,-0.024745,-0.009291,18.349380,-10.356621,-21.782593,,,,,,,
1523523432.551058,-0.650019,-0.142646,0.465849,-0.071686,0.078254,-0.062480,-0.599054,0.142162,-0.787987,-0.079519,-0.013683,0.000572,18.723328,-10.508232,-21.706848,,,,,,,
1523523432.581026,-0.648679,-0.142089,0.462578,-0.010607,0.065711,-0.114629,-0.598046,0.141612,-0.788852,-0.070564,-0.020625,0.068255,19.247849,-10.510658,-21.781555,,,,,,,
1523523432.610995,-0.644779,-0.138718,0.459473,-0.006537,0.186208,-0.176547,-0.595248,0.138274,-0.791555,-0.053571,-0.024352,-0.023081,19.102661,-10.434334,-21.106934,,,,,,,
1523523432.640993,-0.640961,-0.135407,0.453978,-0.023729,0.107960,-0.224434,-0.592492,0.134993,-0.794184,-0.073676,-0.002364,-0.075658,19.035172,-9.908653,-20.734070,,,,,,,
1523523432.670962,-0.642383,-0.133930,0.447010,-0.149888,-0.109915,-0.174228,-0.593740,0.133530,-0.793500,-0.074000,0.009918,-0.078250,19.407593,-9.985634,-21.033569,,,,,,,
