timestamp(unix),attitude_roll(radians),attitude_pitch(radians),attitude_yaw(radians),rotation_rate_x(radians/s),rotation_rate_y(radians/s),rotation_rate_z(radians/s),gravity_x(G),gravity_y(G),gravity_z(G),user_acc_x(G),user_acc_y(G),user_acc_z(G),magnetic_field_x(microteslas),magnetic_field_y(microteslas),magnetic_field_z(microteslas),latitude(degree),longitude(degree),altitude(meter),speed(m/s),course(degree),timestamp(unix),User Mark
1523696500.231903,-0.587119,-0.071614,-1.402426,-0.124191,-0.086093,0.028544,-0.552545,0.071553,-0.830406,0.153100,-0.045735,-0.093834,0.329605,39.817043,8.426270,,,,,,,
,,,,,,,,,,,,,,,,25.318945,51.458305,13.475388,8.260000,90.000000,1523696499.999270,
1523696500.261872,-0.584226,-0.071953,-1.402961,0.045167,0.223124,-0.033429,-0.550127,0.071891,-0.831981,0.091417,-0.042701,-0.211888,0.407028,39.742229,8.951538,,,,,,,
1523696500.291837,-0.579212,-0.070231,-1.403314,0.014616,0.077622,-0.033305,-0.546015,0.070174,-0.834831,0.106302,-0.021605,-0.258308,0.556717,39.891247,8.651062,,,,,,,
1523696500.321805,-0.581170,-0.071639,-1.404883,-0.125207,-0.120882,-0.010844,-0.547594,0.071578,-0.833677,0.182375,0.019807,-0.137957,0.404175,39.816631,8.351257,,,,,,,
1523696500.351772,-0.586647,-0.075909,-1.407248,-0.133219,-0.190253,0.033978,-0.551978,0.075836,-0.830403,0.220267,0.006440,0.000996,0.171097,39.142467,8.128906,,,,,,,
1523696500.381742,-0.586499,-0.075887,-1.406646,0.101060,0.097449,-0.010893,-0.551855,0.075814,-0.830486,0.196631,0.000709,-0.078007,-0.057938,38.693569,8.205505,,,,,,,
1523696500.411709,-0.579615,-0.071260,-1.404443,0.180788,0.238690,-0.026958,-0.546311,0.071200,-0.834550,0.180116,0.006666,-0.141722,-0.056595,38.918407,8.054626,,,,,,,
1523696500.441677,-0.570704,-0.068836,-1.402794,0.029846,0.197343,0.013459,-0.538946,0.068782,-0.839528,0.175863,0.017308,-0.211849,-0.578873,39.145840,8.128479,,,,,,,
1523696500.471645,-0.567231,-0.070219,-1.402462,-0.050078,0.020969,0.038090,-0.535974,0.070161,-0.841314,0.156763,0.037871,-0.173258,0.097595,39.292797,8.128235,,,,,,,
1523696500.501614,-0.565862,-0.071501,-1.401774,0.000971,-0.026941,0.033910,-0.534774,0.071440,-0.841970,0.148665,0.002580,-0.119120,0.703400,39.740292,8.351746,,,,,,,
1523696500.531582,-0.565340,-0.071572,-1.400993,-0.003119,-0.014015,0.010452,-0.534331,0.071511,-0.842245,0.133498,-0.023995,-0.132609,0.179932,39.892651,8.350830,,,,,,,
1523696500.561550,-0.566994,-0.072857,-1.402167,-0.096117,-0.080473,-0.025778,-0.535674,0.072792,-0.841282,0.118010,-0.053856,-0.116879,-0.418701,39.895565,8.575500,,,,,,,
1523696500.591519,-0.569678,-0.074724,-1.404969,-0.094963,-0.099409,-0.055581,-0.537856,0.074655,-0.839725,0.094954,-0.075616,-0.064587,0.408081,39.892147,8.875977,,,,,,,
1523696500.621487,-0.571715,-0.075305,-1.407569,-0.054301,-0.084580,-0.061966,-0.539542,0.075234,-0.838591,0.073508,-0.086114,-0.026384,-0.567337,39.896465,8.800476,,,,,,,
1523696500.651455,-0.572336,-0.074826,-1.409478,-0.036109,-0.056056,-0.044932,-0.540082,0.074757,-0.838286,0.064267,-0.085056,-0.018342,-1.320435,39.450069,9.026855,,,,,,,
1523696500.681423,-0.574081,-0.076110,-1.411777,-0.163747,-0.148395,-0.014039,-0.541491,0.076036,-0.837261,0.055896,-0.041918,-0.000523,-0.199982,39.219662,8.653320,,,,,,,
1523696500.711392,-0.580701,-0.080849,-1.415552,-0.250781,-0.260912,-0.002258,-0.546818,0.080761,-0.833347,0.033085,-0.000850,0.064014,-0.574356,39.146572,8.878479,,,,,,,
1523696500.741360,-0.584717,-0.084901,-1.419107,-0.125868,-0.041127,-0.019447,-0.549976,0.084799,-0.830864,-0.019772,0.015909,0.040810,-0.727798,38.847179,8.804626,,,,,,,
1523696500.771328,-0.582954,-0.083961,-1.420380,0.056578,0.118095,-0.061022,-0.548553,0.083862,-0.831899,-0.081132,-0.016250,-0.015345,0.026520,39.144009,9.028748,,,,,,,
1523696500.801296,-0.576978,-0.081623,-1.420877,0.031493,0.261495,-0.043081,-0.543678,0.081533,-0.835325,-0.100594,-0.070882,-0.124102,-0.796509,39.297787,9.102722,,,,,,,
1523696500.831265,-0.564842,-0.083088,-1.420925,-0.093920,0.526575,0.080176,-0.533436,0.082993,-0.841759,-0.115337,-0.077698,-0.255378,-0.651291,38.772213,9.179932,,,,,,,
1523696500.861233,-0.552868,-0.087803,-1.420024,-0.095368,0.227888,0.096446,-0.523107,0.087690,-0.847744,-0.068400,-0.005537,-0.474339,-0.118530,39.370113,9.477783,,,,,,,
1523696500.891232,-0.547096,-0.087640,-1.418400,0.120900,0.245029,-0.001432,-0.518212,0.087528,-0.850761,0.002648,0.060605,-0.425163,-1.094986,39.224514,9.477905,,,,,,,
1523696500.921201,-0.538464,-0.083770,-1.416926,0.096380,0.219802,-0.031263,-0.511019,0.083673,-0.855487,-0.001874,0.138083,-0.476178,-1.166977,39.300213,9.852539,,,,,,,
1523696500.951169,-0.536832,-0.082602,-1.417972,-0.017707,-0.014555,-0.058818,-0.509673,0.082508,-0.856403,-0.068758,0.163784,-0.364376,-0.495605,39.071957,9.628845,,,,,,,
1523696500.981136,-0.540480,-0.082571,-1.419161,-0.022191,-0.240181,-0.007446,-0.512795,0.082477,-0.854540,-0.067817,0.098355,-0.224714,-1.913208,39.678570,9.850647,,,,,,,
1523696501.011106,-0.555515,-0.083987,-1.418734,-0.054339,-0.658200,0.063276,-0.525522,0.083888,-0.846634,-0.004400,0.014394,0.018311,-1.912613,39.603786,10.075928,,,,,,,
1523696501.041073,-0.576232,-0.087420,-1.417580,-0.084471,-0.659490,0.106938,-0.542788,0.087309,-0.835320,0.073137,-0.041227,0.182808,-2.359756,39.980648,9.924255,,,,,,,
,,,,,,,,,,,,,,,,25.318943,51.458363,13.180554,5.930000,90.351562,1523696500.999260,
1523696501.071041,-0.595107,-0.090948,-1.416629,-0.075676,-0.642219,0.068550,-0.558280,0.090823,-0.824666,0.110450,-0.077349,0.277440,-2.738922,39.607281,9.850525,,,,,,,
1523696501.101010,-0.612798,-0.092573,-1.417068,-0.028715,-0.508967,-0.012509,-0.572696,0.092441,-0.814539,0.121402,-0.118228,0.357508,-2.143005,39.379299,9.551758,,,,,,,
1523696501.130978,-0.623565,-0.091701,-1.418133,0.017537,-0.251580,-0.061752,-0.581480,0.091573,-0.808391,0.145765,-0.154759,0.350353,-1.543777,39.301601,9.552368,,,,,,,
1523696501.160946,-0.629041,-0.089875,-1.419100,0.040315,-0.159273,-0.050106,-0.585995,0.089754,-0.805328,0.185009,-0.165422,0.338226,-2.444794,39.380352,9.251648,,,,,,,
1523696501.190914,-0.633347,-0.088786,-1.418630,0.040976,-0.159809,0.026610,-0.589515,0.088670,-0.802876,0.213858,-0.125825,0.371541,-2.221451,39.304211,9.101990,,,,,,,
1523696501.220883,-0.639217,-0.088757,-1.416346,0.032952,-0.214382,0.084194,-0.594219,0.088640,-0.799404,0.250896,-0.102953,0.420193,-2.293304,39.529675,9.251099,,,,,,,
1523696501.250851,-0.642897,-0.090872,-1.413325,-0.008305,-0.058535,0.147948,-0.597043,0.090747,-0.797060,0.271940,-0.073596,0.435076,-1.614594,39.901623,9.249939,,,,,,,
1523696501.280833,-0.641330,-0.093869,-1.409378,0.016823,0.088991,0.164863,-0.595628,0.093731,-0.797773,0.279298,-0.027462,0.404569,-1.615784,39.601925,9.551147,,,,,,,
1523696501.310801,-0.635454,-0.095145,-1.405399,0.047874,0.277407,0.106092,-0.590858,0.095002,-0.801162,0.237632,0.022583,0.391525,-0.630020,40.273159,10.223938,,,,,,,
1523696501.340770,-0.622585,-0.095834,-1.403029,0.015102,0.530725,0.057865,-0.580461,0.095687,-0.808646,0.119402,0.042237,0.246589,-0.863113,39.823620,9.625610,,,,,,,
1523696501.370738,-0.601435,-0.095932,-1.402456,0.015711,0.793834,-0.035096,-0.563224,0.095785,-0.820733,-0.050728,0.058390,0.103830,0.109467,39.444469,9.852600,,,,,,,
1523696501.400706,-0.576113,-0.091659,-1.405413,0.106988,0.906650,-0.243988,-0.542482,0.091531,-0.835066,-0.159743,0.071082,0.027754,-0.259232,39.896420,10.150635,,,,,,,
1523696501.430674,-0.546299,-0.083040,-1.410839,0.158079,1.034485,-0.308011,-0.517738,0.082944,-0.851509,-0.214974,0.100131,-0.114952,-1.169540,39.224926,9.552856,,,,,,,
1523696501.460643,-0.517545,-0.076655,-1.416585,0.022574,0.920518,-0.220630,-0.493296,0.076580,-0.866484,-0.293280,0.128895,-0.183259,-1.248428,39.149746,9.028076,,,,,,,
1523696501.490611,-0.492076,-0.077518,-1.419048,-0.103137,0.857062,0.083023,-0.471038,0.077440,-0.878707,-0.289399,0.091917,-0.321610,-0.057190,38.768566,8.205200,,,,,,,
1523696501.520579,-0.464738,-0.082542,-1.414919,-0.048478,0.846271,0.238641,-0.446662,0.082448,-0.890896,-0.202798,0.012416,-0.447361,-0.808945,38.771648,7.904846,,,,,,,
1523696501.550547,-0.446202,-0.085055,-1.408992,0.040929,0.467177,0.169833,-0.429982,0.084952,-0.898832,-0.110026,-0.056983,-0.396167,1.361908,38.761211,7.230957,,,,,,,
1523696501.580516,-0.430372,-0.083569,-1.405816,0.125711,0.617950,0.007768,-0.415753,0.083472,-0.905639,-0.170383,-0.104972,-0.502717,1.511002,38.535763,7.456909,,,,,,,
1523696501.610484,-0.406115,-0.080006,-1.405888,0.059248,0.933208,-0.074631,-0.393780,0.079921,-0.915724,-0.327595,-0.155940,-0.860537,0.838745,38.539242,7.906616,,,,,,,
1523696501.640452,-0.380577,-0.081475,-1.407868,-0.184471,0.713386,-0.006405,-0.370224,0.081385,-0.925371,-0.368393,-0.157496,-1.235228,0.535904,38.390377,7.682068,,,,,,,
1523696501.670420,-0.382245,-0.089717,-1.410659,-0.293585,-0.721088,0.024799,-0.371504,0.089597,-0.924098,-0.213945,-0.014630,-0.902501,0.392944,38.916317,7.979858,,,,,,,
1523696501.700389,-0.415360,-0.096885,-1.412353,-0.179595,-1.192437,0.073299,-0.401627,0.096733,-0.910680,-0.038436,0.054466,-0.071772,0.543686,38.990643,7.979675,,,,,,,
1523696501.730357,-0.455428,-0.099818,-1.412147,-0.071496,-1.459975,-0.000928,-0.437657,0.099652,-0.893603,0.161214,0.071475,0.574145,0.393997,39.066235,7.904236,,,,,,,
1523696501.760325,-0.499116,-0.102273,-1.411977,-0.058810,-1.340793,0.123618,-0.476148,0.102095,-0.873418,0.247724,0.081865,0.649603,0.179932,39.892651,8.350830,,,,,,,
1523696501.790294,-0.529137,-0.104810,-1.404849,0.140834,-0.886783,0.315113,-0.502019,0.104619,-0.858506,0.236012,0.102062,0.544709,0.627960,39.965176,7.900757,,,,,,,
1523696501.820262,-0.553079,-0.099647,-1.390937,0.594274,-0.781298,0.264202,-0.522704,0.099483,-0.846690,0.209258,0.050115,0.595790,1.612198,40.935680,7.822388,,,,,,,
1523696501.850230,-0.569430,-0.083181,-1.372891,0.829323,-0.573199,0.206622,-0.537288,0.083085,-0.839296,0.229747,-0.042741,0.583803,0.112106,41.017269,7.671326,,,,,,,
1523696501.880198,-0.582487,-0.064064,-1.359989,0.677198,-0.355853,-0.122966,-0.548974,0.064020,-0.833384,0.212457,-0.098780,0.647578,-0.346436,41.017910,6.246094,,,,,,,
1523696501.910167,-0.585020,-0.051293,-1.357217,0.164097,0.154763,-0.174997,-0.551490,0.051271,-0.832604,0.127006,-0.095658,0.565576,0.176895,40.940411,6.096680,,,,,,,
1523696501.940135,-0.574770,-0.052520,-1.364691,-0.405617,0.476093,-0.184271,-0.542892,0.052496,-0.838160,0.082779,-0.075796,0.412196,-1.253433,40.272076,6.323608,,,,,,,
1523696501.970103,-0.562449,-0.064779,-1.377052,-0.615975,0.360021,-0.074560,-0.532141,0.064733,-0.844178,0.017218,-0.120474,0.277237,-1.170181,40.422817,7.448059,,,,,,,
1523696502.000071,-0.564606,-0.078011,-1.384830,-0.319714,-0.313239,0.062721,-0.533455,0.077932,-0.842230,-0.009315,-0.052602,0.274695,-1.251923,39.748196,7.450684,,,,,,,
1523696502.030040,-0.566595,-0.078882,-1.380979,0.254519,0.237185,0.162755,-0.535093,0.078800,-0.841110,-0.013826,0.089855,0.251083,-1.694702,39.976009,8.274597,,,,,,,
1523696502.060008,-0.551480,-0.072136,-1.371382,0.370358,0.541098,0.119918,-0.522586,0.072074,-0.849535,-0.083386,0.183938,-0.005309,-1.544556,40.125103,8.049072,,,,,,,
,,,,,,,,,,,,,,,,25.318940,51.458413,13.243948,4.860000,90.703125,1523696501.999250,
1523696502.089976,-0.534531,-0.066351,-1.366218,0.168360,0.578669,-0.013465,-0.508316,0.066302,-0.858614,-0.141800,0.154813,-0.245313,-1.017471,40.422588,7.898132,,,,,,,
1523696502.119975,-0.520956,-0.062163,-1.367133,0.063102,0.282345,-0.148564,-0.496749,0.062123,-0.865668,-0.203401,0.046672,-0.327813,-1.767593,40.500805,7.747498,,,,,,,
1523696502.149943,-0.519208,-0.059315,-1.374166,-0.099474,0.014088,-0.325294,-0.495320,0.059280,-0.866686,-0.244304,0.069993,-0.189879,-1.614456,40.500652,8.272522,,,,,,,
1523696502.179911,-0.512394,-0.055471,-1.385351,-0.015711,0.503257,-0.406711,-0.489511,0.055443,-0.870233,-0.358435,0.019783,-0.256690,-1.318359,40.423794,7.747986,,,,,,,
1523696502.209880,-0.490210,-0.047402,-1.394823,0.146771,0.799199,-0.390896,-0.470282,0.047384,-0.881243,-0.484933,-0.083913,-0.428877,-2.742706,40.355419,7.972534,,,,,,,
1523696502.239848,-0.473847,-0.039607,-1.399942,0.101736,0.322638,-0.150703,-0.455954,0.039596,-0.889122,-0.423028,-0.185089,-0.414070,-3.045242,40.281475,7.672729,,,,,,,
1523696502.269816,-0.475404,-0.041798,-1.399715,-0.173811,-0.279253,0.164026,-0.457298,0.041786,-0.888331,-0.273324,-0.151024,-0.206654,-1.928864,40.050411,6.624207,,,,,,,
1523696502.299765,-0.487674,-0.049862,-1.395277,-0.093951,-0.425830,0.280363,-0.467990,0.049841,-0.882327,-0.134137,-0.124335,0.025394,-2.075241,40.051662,7.224121,,,,,,,
1523696502.329734,-0.493185,-0.051467,-1.386946,0.214704,0.026336,0.242844,-0.472807,0.051445,-0.879663,-0.099153,-0.084983,0.015024,-1.781097,39.600124,7.001099,,,,,,,
1523696502.359702,-0.482370,-0.046771,-1.377851,0.246082,0.497561,0.161415,-0.463373,0.046754,-0.884929,-0.103797,-0.032563,-0.214940,-0.507660,39.669018,6.626404,,,,,,,
1523696502.389670,-0.473412,-0.045836,-1.374432,-0.034905,0.061384,0.028466,-0.455446,0.045820,-0.889083,-0.083708,0.050447,-0.282517,-1.631699,39.674221,6.775818,,,,,,,
1523696502.419639,-0.479786,-0.048818,-1.376149,-0.125282,-0.374849,-0.010587,-0.461040,0.048799,-0.886037,0.015574,0.097624,-0.114131,-1.331711,39.672878,6.775940,,,,,,,
1523696502.449607,-0.495181,-0.051690,-1.377044,-0.073082,-0.579327,0.037599,-0.474556,0.051667,-0.878708,0.073723,0.130416,0.048507,-0.507492,39.594158,6.776672,,,,,,,
1523696502.479575,-0.512572,-0.053258,-1.376226,0.012313,-0.573223,0.046179,-0.489725,0.053232,-0.870250,0.067805,0.129446,0.194606,-1.472565,40.274029,7.298523,,,,,,,
1523696502.509543,-0.527295,-0.049781,-1.373084,0.250272,-0.393008,0.022734,-0.502574,0.049760,-0.863101,0.049236,0.070449,0.273837,-0.726959,40.195080,6.699158,,,,,,,
1523696502.539512,-0.534348,-0.041171,-1.368532,0.326494,-0.157782,-0.059494,-0.508848,0.041160,-0.859872,-0.001238,0.023294,0.310967,-0.871704,40.720730,6.697021,,,,,,,
1523696502.569480,-0.531281,-0.027305,-1.364888,0.518799,0.409153,-0.208032,-0.506449,0.027302,-0.861837,0.013422,-0.070408,0.286535,-1.619888,41.173641,6.244873,,,,,,,
1523696502.599448,-0.516982,-0.015198,-1.366495,0.145004,0.353940,-0.233823,-0.494202,0.015197,-0.869214,-0.070282,-0.024886,-0.000720,-2.296371,41.251308,5.869202,,,,,,,
1523696502.629416,-0.516860,-0.017020,-1.371343,-0.284707,-0.224516,-0.023657,-0.494081,0.017019,-0.869249,-0.122786,-0.027853,-0.010038,-1.317673,41.621899,5.868225,,,,,,,
